id,address,subregion,neighborhood,date,id.1,state,nature,nature_description,aerial_means,terrestrial_means,aquatic_means,operational,date.1,Concelho,Distrito,NUTII_DSG,longitude,latitude
25479188,Aveiras de Cima,Lezíria do Tejo,311,2025-06-05T07:59:00Z,25479188,Em conclusão,2301,Incêndio em transporte rodoviário,0,3,0,8,2025-06-05T07:59:00Z,Azambuja,Lisboa,Alentejo,-8.89214,39.13748
25479342,Sarzedas,Beira Baixa,310,2025-06-05T08:29:00Z,25479342,Em curso,3201,Detritos não confinados,0,3,0,11,2025-06-05T08:29:00Z,Castelo Branco,Castelo Branco,Centro,-7.7357,39.872028
25479350,Marrazes e Barosa,Região de Leiria,310,2025-06-05T08:34:00Z,25479350,Em curso,3105,Incêndio rural,0,0,0,0,2025-06-05T08:34:00Z,Leiria,Leiria,Centro,-8.800618,39.76144
25479453,Aveiras de Baixo,Lezíria do Tejo,311,2025-06-05T08:49:00Z,25479453,Em despacho,3109,Gestão de combustível,0,1,0,2,2025-06-05T08:49:00Z,Azambuja,Lisboa,Alentejo,-8.869588,39.111989
25479211,Montijo e Afonsoeiro,Península de Setúbal,311,2025-06-05T08:01:00Z,25479211,Em conclusão,3105,Incêndio rural,0,0,0,0,2025-06-05T08:01:00Z,Montijo,Setúbal,Área Metropolitana De Lisboa,-8.954575,38.716212
25479286,Esgueira,Região de Aveiro,310,2025-06-05T08:15:00Z,25479286,Em conclusão,2301,Incêndio em transporte rodoviário,0,1,0,5,2025-06-05T08:15:00Z,Aveiro,Aveiro,Centro,-8.58244,40.655322
