id,address,subregion,neighborhood,date,id.1,state,nature,nature_description,aerial_means,terrestrial_means,aquatic_means,operational,date.1,Concelho,Distrito,NUTII_DSG,longitude,latitude
25525879,Ermelo e Pardelhas,Ave,309,2025-06-14T18:47:00Z,25525879,Em resolução,3107,Consolidação de rescaldo de incêndio rural,0,2,0,7,2025-06-14T18:47:00Z,Mondim De Basto,Vila Real,Norte,-7.835478,41.355555
25525906,Lagos (São Sebastião e Santa Maria),Algarve,313,2025-06-14T18:58:00Z,25525906,Em conclusão,3103,Incêndio rural,0,1,0,5,2025-06-14T18:58:00Z,Lagos,Faro,Algarve,-8.677873,37.141095
25526079,Oiã,Região de Aveiro,310,2025-06-14T19:45:00Z,25526079,Em conclusão,2101,Incêndio em edifícios habitacionais,0,8,0,24,2025-06-14T19:45:00Z,Oliveira Do Bairro,Aveiro,Centro,-8.52019,40.55014
25526767,Luz,Algarve,313,2025-06-14T22:57:00Z,25526767,Em despacho,3203,Detritos confinados,0,1,0,5,2025-06-14T22:57:00Z,Lagos,Faro,Algarve,-8.730007,37.08602
25526366,Paranhos,Area M. Porto,309,2025-06-14T21:01:00Z,25526366,Em curso,2201,Incêndio em equipamentos ou produtos,0,4,0,13,2025-06-14T21:01:00Z,Porto,Porto,Norte,-8.61247,41.17238
25526548,Colares,Grande Lisboa,311,2025-06-14T21:52:00Z,25526548,Em curso,2201,Incêndio em equipamentos ou produtos,0,2,0,6,2025-06-14T21:52:00Z,Sintra,Lisboa,Área Metropolitana De Lisboa,-9.493446,38.78241
25526774,"Mêda, Outeiro de Gatos e Fonte Longa",Beiras e Serra da Estrela,310,2025-06-14T22:48:00Z,25526774,Em despacho,3203,Detritos confinados,0,1,0,4,2025-06-14T22:48:00Z,Mêda,Guarda,Centro,-7.265947,40.965417
25525049,Beja (Salvador e Santa Maria da Feira),Baixo Alentejo,312,2025-06-14T15:10:00Z,25525049,Em conclusão,3105,Incêndio rural,0,0,0,0,2025-06-14T15:10:00Z,Beja,Beja,Alentejo,-7.860185,38.027045
25526687,Santo Estêvão,Lezíria do Tejo,311,2025-06-14T22:38:00Z,25526687,Em curso,3103,Incêndio rural,0,6,0,20,2025-06-14T22:38:00Z,Benavente,Santarém,Alentejo,-8.752147,38.871665
25525290,Selmes,Baixo Alentejo,312,2025-06-14T16:14:00Z,25525290,Em conclusão,3105,Incêndio rural,0,23,0,60,2025-06-14T16:14:00Z,Vidigueira,Beja,Alentejo,-7.724372,38.135682
