id,address,subregion,neighborhood,date,id.1,state,nature,nature_description,aerial_means,terrestrial_means,aquatic_means,operational,date.1,Concelho,Distrito,NUTII_DSG,longitude,latitude,state_2
25773830,Andrães,Douro,309,2025-08-02T14:23:00Z,25773830,Em Resolução/Conclusão,3103,Incêndio rural,0,0,0,0,2025-08-02T14:23:00Z,Vila Real,Vila Real,Norte,-7.671293,41.267593,Resolução/Conclusão
25774883,Arnóia,Tâmega e Sousa,309,2025-08-02T18:20:00Z,25774883,Em Resolução/Conclusão,3103,Incêndio rural,0,2,0,6,2025-08-02T18:20:00Z,Celorico De Basto,Braga,Norte,-7.998983,41.348727,Resolução/Conclusão
25804968,Alvadia,Alto Tâmega e Barroso,309,2025-08-08T07:21:00Z,25804968,Em Resolução/Conclusão,3103,Incêndio rural,0,2,0,7,2025-08-08T07:21:00Z,Ribeira De Pena,Vila Real,Norte,-7.782872,41.457452,Resolução/Conclusão
25818455,Sobral de São Miguel,Beiras e Serra da Estrela,310,2025-08-10T15:02:00Z,25818455,Em Resolução/Conclusão,3103,Incêndio rural,0,96,0,281,2025-08-10T15:02:00Z,Covilhã,Castelo Branco,Centro,-7.77307,40.200173,Resolução/Conclusão
25830417,Sezures,Viseu Dão Lafões,310,2025-08-12T16:50:00Z,25830417,Em Resolução/Conclusão,3101,Incêndio rural,0,3,0,9,2025-08-12T16:50:00Z,Penalva Do Castelo,Viseu,Centro,-7.601704,40.72072,Resolução/Conclusão
25831856,Rio Torto e Lagarinhos,Beiras e Serra da Estrela,310,2025-08-12T22:04:00Z,25831856,Em Resolução/Conclusão,3103,Incêndio rural,0,5,0,19,2025-08-12T22:04:00Z,Gouveia,Guarda,Centro,-7.650592,40.498292,Resolução/Conclusão
25831922,Penha Garcia,Beira Baixa,310,2025-08-12T22:20:00Z,25831922,Em Resolução/Conclusão,3101,Incêndio rural,0,2,0,10,2025-08-12T22:20:00Z,Idanha-a-Nova,Castelo Branco,Centro,-6.96794,40.004117,Resolução/Conclusão
25775263,Torgueda,Douro,309,2025-08-02T19:49:00Z,25775263,Em Resolução/Conclusão,3101,Incêndio rural,0,5,0,14,2025-08-02T19:49:00Z,Vila Real,Vila Real,Norte,-7.785983,41.274952,Resolução/Conclusão
25807426,Alvite,Douro,309,2025-08-08T14:31:00Z,25807426,Em Resolução/Conclusão,3103,Incêndio rural,0,21,0,84,2025-08-08T14:31:00Z,Moimenta Da Beira,Viseu,Norte,-7.688727,40.96613,Resolução/Conclusão
25823188,Fornos,Tâmega e Sousa,309,2025-08-11T12:07:00Z,25823188,Em Resolução/Conclusão,3105,Incêndio rural,0,1,0,5,2025-08-11T12:07:00Z,Castelo De Paiva,Aveiro,Norte,-8.247402,41.051843,Resolução/Conclusão
25826678,Landal,Oeste,311,2025-08-12T00:07:00Z,25826678,Em Resolução/Conclusão,3101,Incêndio rural,0,1,0,2,2025-08-12T00:07:00Z,Caldas Da Rainha,Leiria,Centro,-9.020722,39.295158,Resolução/Conclusão
25829740,NA,NA,0,2025-08-12T14:44:00Z,25829740,Em Curso,3103,Incêndio rural,0,5,0,11,2025-08-12T14:44:00Z,NA,NA,NA,-7.03798,42.004282,Curso
25830104,Campo,Viseu Dão Lafões,310,2025-08-12T15:50:00Z,25830104,Em Resolução/Conclusão,3103,Incêndio rural,0,0,0,0,2025-08-12T15:50:00Z,Viseu,Viseu,Centro,-7.924696,40.705094,Resolução/Conclusão
25831149,NA,NA,0,2025-08-12T19:25:00Z,25831149,Em Curso,3103,Incêndio rural,0,3,0,11,2025-08-12T19:25:00Z,NA,NA,NA,-7.487895,41.872966,Curso
25831735,Aguda,Região de Leiria,310,2025-08-12T21:34:00Z,25831735,Em Resolução/Conclusão,3101,Incêndio rural,0,9,0,39,2025-08-12T21:34:00Z,Figueiró Dos Vinhos,Leiria,Centro,-8.292532,39.934407,Resolução/Conclusão
25785983,Caçarilhe e Infesta,Tâmega e Sousa,309,2025-08-04T18:22:00Z,25785983,Em Resolução/Conclusão,3103,Incêndio rural,0,2,0,6,2025-08-04T18:22:00Z,Celorico De Basto,Braga,Norte,-8.04611,41.419858,Resolução/Conclusão
25792058,Cibões e Brufe,Cávado,309,2025-08-05T19:10:00Z,25792058,Em Resolução/Conclusão,3103,Incêndio rural,0,1,0,5,2025-08-05T19:10:00Z,Terras De Bouro,Braga,Norte,-8.293932,41.764918,Resolução/Conclusão
25820422,Távora e Pereiro,Douro,309,2025-08-10T22:27:00Z,25820422,Em Curso,3103,Incêndio rural,0,76,0,225,2025-08-10T22:27:00Z,Tabuaço,Viseu,Norte,-7.55556,41.097602,Curso
25822776,Santos Evos,Viseu Dão Lafões,310,2025-08-11T11:05:00Z,25822776,Em Resolução/Conclusão,3103,Incêndio rural,0,1,0,5,2025-08-11T11:05:00Z,Viseu,Viseu,Centro,-7.810218,40.667813,Resolução/Conclusão
25830257,Vila Alva,Baixo Alentejo,312,2025-08-12T16:21:00Z,25830257,Em Curso,3103,Incêndio rural,0,50,0,140,2025-08-12T16:21:00Z,Cuba,Beja,Alentejo,-7.870563,38.233373,Curso
25831032,Mértola,Baixo Alentejo,312,2025-08-12T18:59:00Z,25831032,Em Resolução/Conclusão,3105,Incêndio rural,0,8,0,20,2025-08-12T18:59:00Z,Mértola,Beja,Alentejo,-7.606915,37.703309,Resolução/Conclusão
25832076,Recezinhos (São Martinho),Tâmega e Sousa,309,2025-08-12T23:00:00Z,25832076,Em Resolução/Conclusão,3103,Incêndio rural,0,1,0,5,2025-08-12T23:00:00Z,Penafiel,Porto,Norte,-8.193418,41.221778,Resolução/Conclusão
25831743,Rossas,Ave,309,2025-08-12T21:36:00Z,25831743,Em Resolução/Conclusão,3103,Incêndio rural,0,4,0,14,2025-08-12T21:36:00Z,Cabeceiras De Basto,Braga,Norte,-8.065248,41.568205,Resolução/Conclusão
25831829,Lustosa e Barrosas (Santo Estêvão),Tâmega e Sousa,309,2025-08-12T21:57:00Z,25831829,Em Resolução/Conclusão,3111,Queima,0,1,0,5,2025-08-12T21:57:00Z,Lousada,Porto,Norte,-8.281755,41.334138,Resolução/Conclusão
25831834,Odeleite,Algarve,313,2025-08-12T21:55:00Z,25831834,Em Despacho,3103,Incêndio rural,0,9,0,32,2025-08-12T21:55:00Z,Castro Marim,Faro,Algarve,-7.604195,37.285238,Despacho
25831936,Tortosendo,Beiras e Serra da Estrela,310,2025-08-12T22:24:00Z,25831936,Em Curso,3103,Incêndio rural,0,25,0,95,2025-08-12T22:24:00Z,Covilhã,Castelo Branco,Centro,-7.540796,40.244945,Curso
25831979,Sobreira,Area M. Porto,309,2025-08-12T22:38:00Z,25831979,Em Resolução/Conclusão,3103,Incêndio rural,0,4,0,20,2025-08-12T22:38:00Z,Paredes,Porto,Norte,-8.384655,41.15065,Resolução/Conclusão
25832013,Vila Verde e Santão,Tâmega e Sousa,309,2025-08-12T22:46:00Z,25832013,Em Despacho,3103,Incêndio rural,0,1,0,5,2025-08-12T22:46:00Z,Felgueiras,Porto,Norte,-8.177278,41.31264,Despacho
25832036,Croca,Tâmega e Sousa,309,2025-08-12T22:50:00Z,25832036,Em Resolução/Conclusão,3103,Incêndio rural,0,1,0,2,2025-08-12T22:50:00Z,Penafiel,Porto,Norte,-8.255768,41.219225,Resolução/Conclusão
25776263,"Pena, Quintã e Vila Cova",Douro,309,2025-08-02T23:45:00Z,25776263,Em Curso,3103,Incêndio rural,0,164,0,498,2025-08-02T23:45:00Z,Vila Real,Vila Real,Norte,-7.811902,41.317355,Curso
25813482,Freches e Torres,Beiras e Serra da Estrela,310,2025-08-09T16:21:00Z,25813482,Em Curso,3103,Incêndio rural,0,191,0,550,2025-08-09T16:21:00Z,Trancoso,Guarda,Centro,-7.363745,40.709022,Curso
25824945,Povolide,Viseu Dão Lafões,310,2025-08-11T17:17:00Z,25824945,Em Resolução/Conclusão,3103,Incêndio rural,0,0,0,0,2025-08-11T17:17:00Z,Viseu,Viseu,Centro,-7.79583,40.660003,Resolução/Conclusão
25830279,"Pena, Quintã e Vila Cova",Douro,309,2025-08-12T16:21:00Z,25830279,Em Resolução/Conclusão,3103,Incêndio rural,0,3,0,10,2025-08-12T16:21:00Z,Vila Real,Vila Real,Norte,-7.86331,41.318053,Resolução/Conclusão
25830378,Ermidas-Sado,Alentejo Litoral,312,2025-08-12T16:42:00Z,25830378,Em Curso,3101,Incêndio rural,0,127,0,364,2025-08-12T16:42:00Z,Santiago Do Cacém,Setúbal,Alentejo,-8.404102,38.056457,Curso
25830513,Pelariga,Região de Leiria,310,2025-08-12T17:10:00Z,25830513,Em Resolução/Conclusão,3101,Incêndio rural,0,1,0,1,2025-08-12T17:10:00Z,Pombal,Leiria,Centro,-8.622348,39.986015,Resolução/Conclusão
25830630,Safara e Santo Aleixo da Restauração,Baixo Alentejo,312,2025-08-12T17:24:00Z,25830630,Em Resolução/Conclusão,3103,Incêndio rural,0,11,0,26,2025-08-12T17:24:00Z,Moura,Beja,Alentejo,-7.089277,38.059982,Resolução/Conclusão
25830830,Podence e Santa Combinha,Terras de Trás-os-Montes,309,2025-08-12T18:14:00Z,25830830,Em Resolução/Conclusão,3103,Incêndio rural,0,11,0,33,2025-08-12T18:14:00Z,Macedo De Cavaleiros,Bragança,Norte,-6.926542,41.595166999999996,Resolução/Conclusão
25831562,Monfortinho e Salvaterra do Extremo,Beira Baixa,310,2025-08-12T20:58:00Z,25831562,Em Curso,3103,Incêndio rural,0,6,0,17,2025-08-12T20:58:00Z,Idanha-a-Nova,Castelo Branco,Centro,-6.928086,40.003347,Curso
25831615,Idanha-a-Nova e Alcafozes,Beira Baixa,310,2025-08-12T21:08:00Z,25831615,Em Curso,3105,Incêndio rural,0,13,0,48,2025-08-12T21:08:00Z,Idanha-a-Nova,Castelo Branco,Centro,-7.242208,39.883312,Curso
25831649,Penha Garcia,Beira Baixa,310,2025-08-12T21:16:00Z,25831649,Em Resolução/Conclusão,3103,Incêndio rural,0,1,0,5,2025-08-12T21:16:00Z,Idanha-a-Nova,Castelo Branco,Centro,-6.957398,40.01665,Resolução/Conclusão
25831679,Idanha-a-Nova e Alcafozes,Beira Baixa,310,2025-08-12T21:21:00Z,25831679,Em Resolução/Conclusão,3103,Incêndio rural,0,4,0,13,2025-08-12T21:21:00Z,Idanha-a-Nova,Castelo Branco,Centro,-7.167897,39.846775,Resolução/Conclusão
25831698,Cendufe,Alto Minho,309,2025-08-12T21:25:00Z,25831698,Em Curso,3103,Incêndio rural,0,8,0,30,2025-08-12T21:25:00Z,Arcos De Valdevez,Viana Do Castelo,Norte,-8.504462,41.817677,Curso
25831815,Póvoa de Rio de Moinhos e Cafede,Beira Baixa,310,2025-08-12T21:50:00Z,25831815,Em Resolução/Conclusão,3103,Incêndio rural,0,5,0,15,2025-08-12T21:50:00Z,Castelo Branco,Castelo Branco,Centro,-7.523551,39.938656,Resolução/Conclusão
25832064,Campo e Sobrado,Area M. Porto,309,2025-08-12T23:03:00Z,25832064,Em Despacho,3103,Incêndio rural,0,1,0,5,2025-08-12T23:03:00Z,Valongo,Porto,Norte,-8.47107,41.18234,Despacho
25832098,Felgar e Souto da Velha,Douro,309,2025-08-12T23:13:00Z,25832098,Em Despacho,3105,Incêndio rural,0,0,0,0,2025-08-12T23:13:00Z,Torre De Moncorvo,Bragança,Norte,-6.962427,41.20965,Despacho
