id,address,subregion,neighborhood,date,id.1,state,nature,nature_description,aerial_means,terrestrial_means,aquatic_means,operational,date.1,Concelho,Distrito,NUTII_DSG,longitude,latitude,state_2
26003298,Barreiros e Cepões,Viseu Dão Lafões,310,2025-09-17T12:05:00Z,26003298,Em Resolução/Conclusão,3101,Incêndio rural,0,1,0,2,2025-09-17T12:05:00Z,Viseu,Viseu,Centro,-7.825281,40.745844,Resolução/Conclusão
26013065,Mezio e Moura Morta,Viseu Dão Lafões,310,2025-09-19T11:05:00Z,26013065,Em Resolução/Conclusão,3103,Incêndio rural,0,8,0,68,2025-09-19T11:05:00Z,Castro Daire,Viseu,Centro,-7.878187,40.98632,Resolução/Conclusão
26013919,Ervedal e Vila Franca da Beira,Região de Coimbra,310,2025-09-19T13:25:00Z,26013919,Em Resolução/Conclusão,3103,Incêndio rural,0,21,0,72,2025-09-19T13:25:00Z,Oliveira Do Hospital,Coimbra,Centro,-7.90472,40.43917,Resolução/Conclusão
26024381,Faro (Sé e São Pedro),Algarve,313,2025-09-21T17:50:00Z,26024381,Em Resolução/Conclusão,3103,Incêndio rural,0,20,0,57,2025-09-21T17:50:00Z,Faro,Faro,Algarve,-7.942032,37.01865,Resolução/Conclusão
26024774,Pedralva,Cávado,309,2025-09-21T19:35:00Z,26024774,Em Resolução/Conclusão,3103,Incêndio rural,0,5,0,18,2025-09-21T19:35:00Z,Braga,Braga,Norte,-8.330265,41.563853,Resolução/Conclusão
25832672,Piódão,Região de Coimbra,310,2025-08-13T05:08:00Z,25832672,Em Resolução/Conclusão,3103,Incêndio rural,0,0,0,0,2025-08-13T05:08:00Z,Arganil,Coimbra,Centro,-7.81972,40.23083,Resolução/Conclusão
26013902,Penacova,Região de Coimbra,310,2025-09-19T13:28:00Z,26013902,Em Resolução/Conclusão,3103,Incêndio rural,0,1,0,4,2025-09-19T13:28:00Z,Penacova,Coimbra,Centro,-8.32583,40.32722,Resolução/Conclusão
26016785,Gralhas,Alto Tâmega e Barroso,309,2025-09-20T01:20:00Z,26016785,Em Resolução/Conclusão,3103,Incêndio rural,0,15,0,44,2025-09-20T01:20:00Z,Montalegre,Vila Real,Norte,-7.720897,41.880163,Resolução/Conclusão
26019877,Guardão,Viseu Dão Lafões,310,2025-09-20T17:50:00Z,26019877,Em Resolução/Conclusão,3103,Incêndio rural,0,1,0,4,2025-09-20T17:50:00Z,Tondela,Viseu,Centro,-8.148484,40.610274,Resolução/Conclusão
26024505,"Alto do Seixalinho, Santo André e Verderena",Península de Setúbal,311,2025-09-21T18:22:00Z,26024505,Em Resolução/Conclusão,3103,Incêndio rural,0,0,0,0,2025-09-21T18:22:00Z,Barreiro,Setúbal,Área Metropolitana De Lisboa,-9.06798,38.65674,Resolução/Conclusão
26025073,Fátima,Médio Tejo,311,2025-09-21T21:01:00Z,26025073,Em Curso,3103,Incêndio rural,0,19,0,70,2025-09-21T21:01:00Z,Torres Novas,Santarém,Centro,-8.649707,39.513365,Curso
25951176,Sandomil,Beiras e Serra da Estrela,310,2025-09-06T10:29:00Z,25951176,Em Resolução/Conclusão,3103,Incêndio rural,0,2,0,10,2025-09-06T10:29:00Z,Seia,Guarda,Centro,-7.76001,40.351547,Resolução/Conclusão
26020631,"Tavares (Chãs, Várzea e Travanca)",Viseu Dão Lafões,310,2025-09-20T21:15:00Z,26020631,Em Resolução/Conclusão,3103,Incêndio rural,0,1,0,5,2025-09-20T21:15:00Z,Mangualde,Viseu,Centro,-7.639468,40.609133,Resolução/Conclusão
26023772,Rossas,Ave,309,2025-09-21T15:12:00Z,26023772,Em Curso,3103,Incêndio rural,0,15,0,48,2025-09-21T15:12:00Z,Vieira Do Minho,Braga,Norte,-8.091527,41.58864,Curso
26023993,Castro Marim,Algarve,313,2025-09-21T16:04:00Z,26023993,Em Resolução/Conclusão,3103,Incêndio rural,0,0,0,0,2025-09-21T16:04:00Z,Vila Real De Santo António,Faro,Algarve,-7.535302,37.24853,Resolução/Conclusão
26024173,Vidigueira,Baixo Alentejo,312,2025-09-21T16:58:00Z,26024173,Em Resolução/Conclusão,3105,Incêndio rural,0,11,0,27,2025-09-21T16:58:00Z,Vidigueira,Beja,Alentejo,-7.793979,38.208512,Resolução/Conclusão
26024276,Monte Redondo e Carreira,Região de Leiria,310,2025-09-21T17:24:00Z,26024276,Em Resolução/Conclusão,3105,Incêndio rural,0,1,0,2,2025-09-21T17:24:00Z,Leiria,Leiria,Centro,-8.786287,39.874758,Resolução/Conclusão
26024592,Monte Redondo e Carreira,Região de Leiria,310,2025-09-21T18:44:00Z,26024592,Em Resolução/Conclusão,3105,Incêndio rural,0,1,0,2,2025-09-21T18:44:00Z,Leiria,Leiria,Centro,-8.85119,39.877718,Resolução/Conclusão
26024809,Redondelo,Alto Tâmega e Barroso,309,2025-09-21T19:42:00Z,26024809,Em Resolução/Conclusão,3103,Incêndio rural,0,7,0,32,2025-09-21T19:42:00Z,Chaves,Vila Real,Norte,-7.56044,41.700735,Resolução/Conclusão
26025178,Parada e Faílde,Terras de Trás-os-Montes,309,2025-09-21T21:34:00Z,26025178,Em Despacho,3103,Incêndio rural,0,4,0,17,2025-09-21T21:34:00Z,Bragança,Bragança,Norte,-6.697,41.67631,Despacho
26025193,NA,NA,0,2025-09-21T21:35:00Z,26025193,Em Resolução/Conclusão,3105,Incêndio rural,0,1,0,5,2025-09-21T21:35:00Z,NA,NA,NA,-7.002112,38.95754,Resolução/Conclusão
26013405,Barreiros e Cepões,Viseu Dão Lafões,310,2025-09-19T11:56:00Z,26013405,Em Resolução/Conclusão,3103,Incêndio rural,0,6,0,20,2025-09-19T11:56:00Z,Viseu,Viseu,Centro,-7.786007,40.76602,Resolução/Conclusão
26022995,Bordeira,Algarve,313,2025-09-21T12:21:00Z,26022995,Em Curso,3103,Incêndio rural,0,171,0,489,2025-09-21T12:21:00Z,Aljezur,Faro,Algarve,-8.825374,37.23495,Curso
26024451,Rossas,Ave,309,2025-09-21T18:09:00Z,26024451,Em Resolução/Conclusão,3101,Incêndio rural,0,7,0,26,2025-09-21T18:09:00Z,Vieira Do Minho,Braga,Norte,-8.059448,41.578123,Resolução/Conclusão
26024818,Baixa da Banheira e Vale da Amoreira,Península de Setúbal,311,2025-09-21T19:46:00Z,26024818,Em Resolução/Conclusão,3103,Incêndio rural,0,20,0,69,2025-09-21T19:46:00Z,Moita,Setúbal,Área Metropolitana De Lisboa,-9.035163,38.640947,Resolução/Conclusão
26024902,Nogueira e Silva Escura,Area M. Porto,309,2025-09-21T20:11:00Z,26024902,Em Resolução/Conclusão,3105,Incêndio rural,0,2,0,6,2025-09-21T20:11:00Z,Maia,Porto,Norte,-8.59033,41.249582,Resolução/Conclusão
26024986,Luzim e Vila Cova,Tâmega e Sousa,309,2025-09-21T20:30:00Z,26024986,Em Resolução/Conclusão,3101,Incêndio rural,0,0,0,0,2025-09-21T20:30:00Z,Penafiel,Porto,Norte,-8.23747,41.166045,Resolução/Conclusão
