id,address,subregion,neighborhood,date,id.1,state,nature,nature_description,aerial_means,terrestrial_means,aquatic_means,operational,date.1,Concelho,Distrito,NUTII_DSG,longitude,latitude
24877003,Malagueira e Horta Das Figueiras,Alentejo Central,312,2025-01-27T11:41:00Z,24877003,Em conclusão,3315,Inundação de estruturas por precipitação intensa,0,0,0,0,2025-01-27T11:41:00Z,Évora,Évora,Alentejo,-7.924277,38.57285
24926224,Infias,Ave,309,2025-02-07T08:37:00Z,24926224,Em despacho,3301,Queda de árvore,0,2,0,3,2025-02-07T08:37:00Z,Vizela,Braga,Norte,-8.31057,41.395982
24926427,"Sé Nova, Santa Cruz, Almedina e São Bartolomeu",Região de Coimbra,310,2025-02-07T09:19:00Z,24926427,Em despacho,3329,Queda de estruturas temporárias ou móveis,0,1,0,4,2025-02-07T09:19:00Z,Coimbra,Coimbra,Centro,-8.425582,40.205556
24926510,"Cedofeita, Ildefonso, Sé, Miragaia, Nicolau e Vitória",Area M. Porto,309,2025-02-07T09:28:00Z,24926510,Em despacho,3311,Queda de elementos de estruturas edificados,0,1,0,5,2025-02-07T09:28:00Z,Porto,Porto,Norte,-8.615939,41.15359
24926465,Praia do Ribatejo,Médio Tejo,311,2025-02-07T09:27:00Z,24926465,Em curso,3313,Deslizamento de terras,0,1,0,3,2025-02-07T09:27:00Z,Vila Nova Da Barquinha,Santarém,Centro,-8.358701,39.466491
24926517,Arcozelo,Area M. Porto,309,2025-02-07T09:35:00Z,24926517,Em despacho,3301,Queda de árvore,0,1,0,4,2025-02-07T09:35:00Z,Vila Nova De Gaia,Porto,Norte,-8.640388,41.056331
24926534,São Martinho do Bispo e Ribeira de Frades,Região de Coimbra,310,2025-02-07T09:41:00Z,24926534,Em despacho,3301,Queda de árvore,0,1,0,2,2025-02-07T09:41:00Z,Coimbra,Coimbra,Centro,-8.487837,40.206282
