id,address,subregion,neighborhood,date,id.1,state,nature,nature_description,aerial_means,terrestrial_means,aquatic_means,operational,date.1,Concelho,Distrito,NUTII_DSG,longitude,latitude
25063232,Santa Maria do Castelo e Santiago e Santa Susana,Alentejo Litoral,312,2025-03-09T19:02:00Z,25063232,Em curso,1101,Cheia,0,0,0,0,2025-03-09T19:02:00Z,Alcácer Do Sal,Setúbal,Alentejo,-8.48167,38.29806
25112704,Fernão Ferro,Península de Setúbal,311,2025-03-20T00:32:00Z,25112704,Em curso,3321,Dano na rede de fornecimento de eletricidade ,0,0,0,0,2025-03-20T00:32:00Z,Seixal,Setúbal,Área Metropolitana De Lisboa,-9.08671,38.56536
25112718,Alhos Vedros,Península de Setúbal,311,2025-03-20T00:33:00Z,25112718,Em curso,3329,Queda de estruturas temporárias ou móveis,0,0,0,0,2025-03-20T00:33:00Z,Moita,Setúbal,Área Metropolitana De Lisboa,-9.023435,38.65349
25112821,Queluz e Belas,Grande Lisboa,311,2025-03-20T00:05:00Z,25112821,Em curso,3301,Queda de árvore,0,1,0,2,2025-03-20T00:05:00Z,Sintra,Lisboa,Área Metropolitana De Lisboa,-9.270072,38.779997
25112835,"Almada, Cova da Piedade, Pragal e Cacilhas",Península de Setúbal,311,2025-03-20T00:47:00Z,25112835,Em curso,3301,Queda de árvore,0,0,0,0,2025-03-20T00:47:00Z,Almada,Setúbal,Área Metropolitana De Lisboa,-9.15992,38.67447
25112887,Sesimbra (Castelo),Península de Setúbal,311,2025-03-20T00:53:00Z,25112887,Em curso,3301,Queda de árvore,0,0,0,0,2025-03-20T00:53:00Z,Sesimbra,Setúbal,Área Metropolitana De Lisboa,-9.093273,38.47523
25112936,Pinhal Novo,Península de Setúbal,311,2025-03-20T00:59:00Z,25112936,Em curso,3329,Queda de estruturas temporárias ou móveis,0,0,0,0,2025-03-20T00:59:00Z,Palmela,Setúbal,Área Metropolitana De Lisboa,-8.93024,38.60548
25112987,Quinta do Anjo,Península de Setúbal,311,2025-03-20T01:06:00Z,25112987,Em curso,3301,Queda de árvore,0,0,0,0,2025-03-20T01:06:00Z,Palmela,Setúbal,Área Metropolitana De Lisboa,-8.94361,38.60282
25113018,Alcochete,Península de Setúbal,311,2025-03-20T01:10:00Z,25113018,Em curso,3321,Dano na rede de fornecimento de eletricidade ,0,0,0,0,2025-03-20T01:10:00Z,Alcochete,Setúbal,Área Metropolitana De Lisboa,-8.93938,38.73429
25113052,São Domingos de Rana,Grande Lisboa,311,2025-03-20T01:13:00Z,25113052,Em despacho,3311,Queda de elementos de estruturas edificados,0,0,0,0,2025-03-20T01:13:00Z,Cascais,Lisboa,Área Metropolitana De Lisboa,-9.32533,38.72599
25113069,Amora,Península de Setúbal,311,2025-03-20T01:15:00Z,25113069,Em curso,3311,Queda de elementos de estruturas edificados,0,0,0,0,2025-03-20T01:15:00Z,Seixal,Setúbal,Área Metropolitana De Lisboa,-9.11034,38.62046
25113085,Santo António Dos Cavaleiros e Frielas,Grande Lisboa,311,2025-03-20T01:14:00Z,25113085,Em despacho,3311,Queda de elementos de estruturas edificados,0,0,0,0,2025-03-20T01:14:00Z,Loures,Lisboa,Área Metropolitana De Lisboa,-9.171619,38.815144
25113086,Quinta do Conde,Península de Setúbal,311,2025-03-20T01:16:00Z,25113086,Em curso,3321,Dano na rede de fornecimento de eletricidade ,0,0,0,0,2025-03-20T01:16:00Z,Sesimbra,Setúbal,Área Metropolitana De Lisboa,-9.04645,38.56296
25113088,Venteira,Grande Lisboa,311,2025-03-20T01:16:00Z,25113088,Em despacho,3311,Queda de elementos de estruturas edificados,0,0,0,0,2025-03-20T01:16:00Z,Amadora,Lisboa,Área Metropolitana De Lisboa,-9.23452,38.75815
25113102,Charneca de Caparica e Sobreda,Península de Setúbal,311,2025-03-20T01:18:00Z,25113102,Em curso,3301,Queda de árvore,0,0,0,0,2025-03-20T01:18:00Z,Almada,Setúbal,Área Metropolitana De Lisboa,-9.17228,38.58738
25113135,Rio de Mouro,Grande Lisboa,311,2025-03-20T01:20:00Z,25113135,Em despacho,3321,Dano na rede de fornecimento de eletricidade ,0,0,0,0,2025-03-20T01:20:00Z,Sintra,Lisboa,Área Metropolitana De Lisboa,-9.317364,38.786733
25113170,Corroios,Península de Setúbal,311,2025-03-20T01:24:00Z,25113170,Em curso,3301,Queda de árvore,0,0,0,0,2025-03-20T01:24:00Z,Seixal,Setúbal,Área Metropolitana De Lisboa,-9.15464,38.58128
25113171,São João Das Lampas e Terrugem,Grande Lisboa,311,2025-03-20T01:24:00Z,25113171,Em despacho,3301,Queda de árvore,0,0,0,0,2025-03-20T01:24:00Z,Sintra,Lisboa,Área Metropolitana De Lisboa,-9.38058,38.91877
25113236,"Almada, Cova da Piedade, Pragal e Cacilhas",Península de Setúbal,311,2025-03-20T01:32:00Z,25113236,Em curso,3311,Queda de elementos de estruturas edificados,0,0,0,0,2025-03-20T01:32:00Z,Almada,Setúbal,Área Metropolitana De Lisboa,-9.15908,38.67736
25113237,Costa da Caparica,Península de Setúbal,311,2025-03-20T01:32:00Z,25113237,Em curso,3311,Queda de elementos de estruturas edificados,0,0,0,0,2025-03-20T01:32:00Z,Almada,Setúbal,Área Metropolitana De Lisboa,-9.23149,38.63755
25113252,Venteira,Grande Lisboa,311,2025-03-20T01:33:00Z,25113252,Em despacho,3311,Queda de elementos de estruturas edificados,0,0,0,0,2025-03-20T01:33:00Z,Amadora,Lisboa,Área Metropolitana De Lisboa,-9.23969,38.75664
25113270,Charneca de Caparica e Sobreda,Península de Setúbal,311,2025-03-20T01:34:00Z,25113270,Em curso,3301,Queda de árvore,0,0,0,0,2025-03-20T01:34:00Z,Almada,Setúbal,Área Metropolitana De Lisboa,-9.17811,38.58586
25113304,São Domingos de Rana,Grande Lisboa,311,2025-03-20T01:38:00Z,25113304,Em despacho,3321,Dano na rede de fornecimento de eletricidade ,0,0,0,0,2025-03-20T01:38:00Z,Cascais,Lisboa,Área Metropolitana De Lisboa,-9.32923,38.71493
25113354,Mina de Água,Grande Lisboa,311,2025-03-20T01:43:00Z,25113354,Em despacho,3311,Queda de elementos de estruturas edificados,0,0,0,0,2025-03-20T01:43:00Z,Amadora,Lisboa,Área Metropolitana De Lisboa,-9.243611,38.76194
25113421,Igreja Nova e Cheleiros,Grande Lisboa,311,2025-03-20T01:49:00Z,25113421,Em despacho,3301,Queda de árvore,0,0,0,0,2025-03-20T01:49:00Z,Mafra,Lisboa,Área Metropolitana De Lisboa,-9.310799,38.93288
25113436,Fernão Ferro,Península de Setúbal,311,2025-03-20T01:51:00Z,25113436,Em curso,3301,Queda de árvore,0,0,0,0,2025-03-20T01:51:00Z,Seixal,Setúbal,Área Metropolitana De Lisboa,-9.09578,38.55292
25113455,Charneca de Caparica e Sobreda,Península de Setúbal,311,2025-03-20T01:53:00Z,25113455,Em curso,3301,Queda de árvore,0,0,0,0,2025-03-20T01:53:00Z,Almada,Setúbal,Área Metropolitana De Lisboa,-9.17021,38.57797
25113470,Cascais e Estoril,Grande Lisboa,311,2025-03-20T01:54:00Z,25113470,Em despacho,3301,Queda de árvore,0,0,0,0,2025-03-20T01:54:00Z,Cascais,Lisboa,Área Metropolitana De Lisboa,-9.434008,38.71018
25113572,Cascais e Estoril,Grande Lisboa,311,2025-03-20T02:05:00Z,25113572,Em despacho,3301,Queda de árvore,0,0,0,0,2025-03-20T02:05:00Z,Cascais,Lisboa,Área Metropolitana De Lisboa,-9.43971,38.72218
25113653,"Oeiras e S. Julião da Barra, Paço de Arcos e Caxias",Grande Lisboa,311,2025-03-20T02:12:00Z,25113653,Em despacho,3301,Queda de árvore,0,0,0,0,2025-03-20T02:12:00Z,Oeiras,Lisboa,Área Metropolitana De Lisboa,-9.275682,38.698873
25113722,Carcavelos e Parede,Grande Lisboa,311,2025-03-20T02:21:00Z,25113722,Em despacho,3311,Queda de elementos de estruturas edificados,0,0,0,0,2025-03-20T02:21:00Z,Cascais,Lisboa,Área Metropolitana De Lisboa,-9.367864,38.69675
25113737,Charneca de Caparica e Sobreda,Península de Setúbal,311,2025-03-20T02:22:00Z,25113737,Em curso,3301,Queda de árvore,0,0,0,0,2025-03-20T02:22:00Z,Almada,Setúbal,Área Metropolitana De Lisboa,-9.17331,38.58715
25113740,"Oeiras e S. Julião da Barra, Paço de Arcos e Caxias",Grande Lisboa,311,2025-03-20T02:22:00Z,25113740,Em despacho,3301,Queda de árvore,0,0,0,0,2025-03-20T02:22:00Z,Oeiras,Lisboa,Área Metropolitana De Lisboa,-9.275682,38.698873
25113874,Ramada e Caneças,Grande Lisboa,311,2025-03-20T02:35:00Z,25113874,Em despacho,3321,Dano na rede de fornecimento de eletricidade ,0,0,0,0,2025-03-20T02:35:00Z,Odivelas,Lisboa,Área Metropolitana De Lisboa,-9.21026,38.82131
25113888,Odivelas,Grande Lisboa,311,2025-03-20T02:36:00Z,25113888,Em despacho,3311,Queda de elementos de estruturas edificados,0,0,0,0,2025-03-20T02:36:00Z,Odivelas,Lisboa,Área Metropolitana De Lisboa,-9.19047,38.79637
25114056,Azeitão (São Lourenço e São Simão),Península de Setúbal,311,2025-03-20T02:51:00Z,25114056,Em curso,3321,Dano na rede de fornecimento de eletricidade ,0,0,0,0,2025-03-20T02:51:00Z,Setúbal,Setúbal,Área Metropolitana De Lisboa,-9.024796,38.53981
25114074,Charneca de Caparica e Sobreda,Península de Setúbal,311,2025-03-20T02:52:00Z,25114074,Em curso,3301,Queda de árvore,0,0,0,0,2025-03-20T02:52:00Z,Almada,Setúbal,Área Metropolitana De Lisboa,-9.18666,38.59386
25114222,"S.maria, S.miguel, S.martinho, S.pedro Penaferrim",Grande Lisboa,311,2025-03-20T03:05:00Z,25114222,Em despacho,3301,Queda de árvore,0,0,0,0,2025-03-20T03:05:00Z,Sintra,Lisboa,Área Metropolitana De Lisboa,-9.395193,38.762498
25114389,Palhais e Coina,Península de Setúbal,311,2025-03-20T01:50:00Z,25114389,Em curso,3301,Queda de árvore,0,0,0,0,2025-03-20T01:50:00Z,Barreiro,Setúbal,Área Metropolitana De Lisboa,-9.043332,38.595522
25114525,Malveira e São Miguel de Alcainça,Grande Lisboa,311,2025-03-20T03:36:00Z,25114525,Em despacho,3321,Dano na rede de fornecimento de eletricidade ,0,0,0,0,2025-03-20T03:36:00Z,Mafra,Lisboa,Área Metropolitana De Lisboa,-9.279616,38.92011
25114573,Quinta do Conde,Península de Setúbal,311,2025-03-20T03:41:00Z,25114573,Em curso,3301,Queda de árvore,0,0,0,0,2025-03-20T03:41:00Z,Sesimbra,Setúbal,Área Metropolitana De Lisboa,-9.041492,38.55076
25114656,Guarda,Beiras e Serra da Estrela,310,2025-03-20T03:39:00Z,25114656,Em despacho,3301,Queda de árvore,0,2,0,3,2025-03-20T03:39:00Z,Guarda,Guarda,Centro,-7.260869,40.536751
25087162,Pedrógão,Baixo Alentejo,312,2025-03-14T17:00:00Z,25087162,Em curso,1101,Cheia,0,0,0,0,2025-03-14T17:00:00Z,Vidigueira,Beja,Alentejo,-7.630327,38.110775
25112462,Costa da Caparica,Península de Setúbal,311,2025-03-19T23:45:00Z,25112462,Em curso,3301,Queda de árvore,0,0,0,0,2025-03-19T23:45:00Z,Almada,Setúbal,Área Metropolitana De Lisboa,-9.227696,38.642583
25112675,Alhos Vedros,Península de Setúbal,311,2025-03-20T00:28:00Z,25112675,Em curso,3301,Queda de árvore,0,0,0,0,2025-03-20T00:28:00Z,Moita,Setúbal,Área Metropolitana De Lisboa,-9.010387,38.63902
25112773,Poceirão e Marateca,Península de Setúbal,311,2025-03-20T00:40:00Z,25112773,Em curso,3301,Queda de árvore,0,0,0,0,2025-03-20T00:40:00Z,Palmela,Setúbal,Área Metropolitana De Lisboa,-8.76661,38.69349
25112875,Palmela,Península de Setúbal,311,2025-03-20T00:52:00Z,25112875,Em curso,3321,Dano na rede de fornecimento de eletricidade ,0,0,0,0,2025-03-20T00:52:00Z,Palmela,Setúbal,Área Metropolitana De Lisboa,-8.87707,38.60478
25112984,"Oeiras e S. Julião da Barra, Paço de Arcos e Caxias",Grande Lisboa,311,2025-03-20T01:06:00Z,25112984,Em despacho,3311,Queda de elementos de estruturas edificados,0,0,0,0,2025-03-20T01:06:00Z,Oeiras,Lisboa,Área Metropolitana De Lisboa,-9.303858,38.70432
25112998,Charneca de Caparica e Sobreda,Península de Setúbal,311,2025-03-20T01:07:00Z,25112998,Em curso,3309,Desabamento de estruturas edificadas,0,0,0,0,2025-03-20T01:07:00Z,Almada,Setúbal,Área Metropolitana De Lisboa,-9.19436,38.64644
25059714,Torrão,Alentejo Litoral,312,2025-03-08T22:10:00Z,25059714,Em curso,1101,Cheia,0,1,0,2,2025-03-08T22:10:00Z,Alcácer Do Sal,Setúbal,Alentejo,-8.359133,38.252053
25070044,Praia do Ribatejo,Médio Tejo,311,2025-03-10T19:30:00Z,25070044,Em curso,1101,Cheia,0,0,0,0,2025-03-10T19:30:00Z,Vila Nova Da Barquinha,Santarém,Centro,-8.357309,39.485638
25071496,São Manços e São Vicente do Pigeiro,Alentejo Central,312,2025-03-11T13:18:00Z,25071496,Em curso,1101,Cheia,0,2,0,4,2025-03-11T13:18:00Z,Évora,Évora,Alentejo,-7.713313,38.513673
25112662,Setúbal (São Sebastião),Península de Setúbal,311,2025-03-20T00:27:00Z,25112662,Em curso,3329,Queda de estruturas temporárias ou móveis,0,0,0,0,2025-03-20T00:27:00Z,Setúbal,Setúbal,Área Metropolitana De Lisboa,-8.86899,38.52164
25112796,"S.julião, N.s. da Anunciada e S. Maria da Graça",Península de Setúbal,311,2025-03-20T00:42:00Z,25112796,Em curso,3311,Queda de elementos de estruturas edificados,0,0,0,0,2025-03-20T00:42:00Z,Setúbal,Setúbal,Área Metropolitana De Lisboa,-8.890614,38.52599
25112876,Corroios,Península de Setúbal,311,2025-03-20T00:52:00Z,25112876,Em curso,3301,Queda de árvore,0,0,0,0,2025-03-20T00:52:00Z,Seixal,Setúbal,Área Metropolitana De Lisboa,-9.157211,38.5818
25112944,Longueira/Almograve,Alentejo Litoral,312,2025-03-20T00:20:00Z,25112944,Em conclusão,3301,Queda de árvore,0,2,0,4,2025-03-20T00:20:00Z,Odemira,Beja,Alentejo,-8.752532,37.635323
25113011,Cascais e Estoril,Grande Lisboa,311,2025-03-20T01:09:00Z,25113011,Em despacho,3301,Queda de árvore,0,0,0,0,2025-03-20T01:09:00Z,Cascais,Lisboa,Área Metropolitana De Lisboa,-9.398759,38.70391
25113012,Cacém e São Marcos,Grande Lisboa,311,2025-03-20T01:09:00Z,25113012,Em despacho,3311,Queda de elementos de estruturas edificados,0,0,0,0,2025-03-20T01:09:00Z,Sintra,Lisboa,Área Metropolitana De Lisboa,-9.3115,38.76819
25068300,Almeirim,Lezíria do Tejo,311,2025-03-10T20:52:00Z,25068300,Em curso,1101,Cheia,0,0,0,0,2025-03-10T20:52:00Z,Almeirim,Santarém,Alentejo,-8.635002,39.187436
25112472,Caparica e Trafaria,Península de Setúbal,311,2025-03-19T23:57:00Z,25112472,Em curso,3301,Queda de árvore,0,0,0,0,2025-03-19T23:57:00Z,Almada,Setúbal,Área Metropolitana De Lisboa,-9.242559,38.66221
25112524,Pereira,Região de Coimbra,310,2025-03-19T23:55:00Z,25112524,Em despacho,3301,Queda de árvore,0,1,0,2,2025-03-19T23:55:00Z,Montemor-o-Velho,Coimbra,Centro,-8.585186,40.185229
25112658,Quinta do Anjo,Península de Setúbal,311,2025-03-20T00:26:00Z,25112658,Em curso,3301,Queda de árvore,0,0,0,0,2025-03-20T00:26:00Z,Palmela,Setúbal,Área Metropolitana De Lisboa,-9.02329,38.58032
25112672,Alhos Vedros,Península de Setúbal,311,2025-03-20T00:28:00Z,25112672,Em curso,3311,Queda de elementos de estruturas edificados,0,0,0,0,2025-03-20T00:28:00Z,Moita,Setúbal,Área Metropolitana De Lisboa,-9.02548,38.65708
25112781,Moita,Península de Setúbal,311,2025-03-20T00:35:00Z,25112781,Em curso,3301,Queda de árvore,0,0,0,0,2025-03-20T00:35:00Z,Moita,Setúbal,Área Metropolitana De Lisboa,-8.985364,38.643702
25112838,"Almada, Cova da Piedade, Pragal e Cacilhas",Península de Setúbal,311,2025-03-20T00:47:00Z,25112838,Em curso,3301,Queda de árvore,0,0,0,0,2025-03-20T00:47:00Z,Almada,Setúbal,Área Metropolitana De Lisboa,-9.15927,38.6747
25114673,Vilarinho Dos Freires,Douro,309,2025-03-20T03:44:00Z,25114673,Em despacho,3301,Queda de árvore,0,3,0,6,2025-03-20T03:44:00Z,Peso Da Régua,Vila Real,Norte,-7.748211,41.175132
25114691,Mafra,Grande Lisboa,311,2025-03-20T03:53:00Z,25114691,Em despacho,3321,Dano na rede de fornecimento de eletricidade ,0,0,0,0,2025-03-20T03:53:00Z,Mafra,Lisboa,Área Metropolitana De Lisboa,-9.34026,38.9585
25114708,Cascais e Estoril,Grande Lisboa,311,2025-03-20T03:55:00Z,25114708,Em despacho,3301,Queda de árvore,0,0,0,0,2025-03-20T03:55:00Z,Cascais,Lisboa,Área Metropolitana De Lisboa,-9.43077,38.70064
25114759,São João Das Lampas e Terrugem,Grande Lisboa,311,2025-03-20T02:33:00Z,25114759,Em despacho,3301,Queda de árvore,0,0,0,0,2025-03-20T02:33:00Z,Sintra,Lisboa,Área Metropolitana De Lisboa,-9.394403,38.872548
25114924,Roliça,Oeste,311,2025-03-20T04:16:00Z,25114924,Em despacho,3301,Queda de árvore,0,0,0,0,2025-03-20T04:16:00Z,Bombarral,Leiria,Centro,-9.18013,39.28817
25114960,Castelo Novo,Beiras e Serra da Estrela,310,2025-03-20T04:01:00Z,25114960,Em curso,3301,Queda de árvore,0,1,0,2,2025-03-20T04:01:00Z,Fundão,Castelo Branco,Centro,-7.475218,40.126525
25114990,Alcanede,Lezíria do Tejo,311,2025-03-20T04:24:00Z,25114990,Em conclusão,3301,Queda de árvore,0,0,0,0,2025-03-20T04:24:00Z,Santarém,Santarém,Alentejo,-8.769388,39.400825
25115060,São Paio,Beiras e Serra da Estrela,310,2025-03-20T04:03:00Z,25115060,Em curso,3301,Queda de árvore,0,1,0,2,2025-03-20T04:03:00Z,Gouveia,Guarda,Centro,-7.578576,40.511694
25115076,Biscainho,Lezíria do Tejo,311,2025-03-20T04:36:00Z,25115076,Em resolução,3301,Queda de árvore,0,0,0,0,2025-03-20T04:36:00Z,Coruche,Santarém,Alentejo,-8.535927,38.953887
25115260,Casével e Vaqueiros,Lezíria do Tejo,311,2025-03-20T05:01:00Z,25115260,Em conclusão,3301,Queda de árvore,0,0,0,0,2025-03-20T05:01:00Z,Santarém,Santarém,Alentejo,-8.613992,39.370617
25115394,Branca,Lezíria do Tejo,311,2025-03-20T05:19:00Z,25115394,Em curso,3301,Queda de árvore,0,0,0,0,2025-03-20T05:19:00Z,Coruche,Santarém,Alentejo,-8.586492,38.879952
25113160,Corroios,Península de Setúbal,311,2025-03-20T01:24:00Z,25113160,Em curso,3311,Queda de elementos de estruturas edificados,0,0,0,0,2025-03-20T01:24:00Z,Seixal,Setúbal,Área Metropolitana De Lisboa,-9.14678,38.62745
25113162,São Domingos de Rana,Grande Lisboa,311,2025-03-20T01:24:00Z,25113162,Em despacho,3301,Queda de árvore,0,0,0,0,2025-03-20T01:24:00Z,Cascais,Lisboa,Área Metropolitana De Lisboa,-9.3553,38.70397
25113163,São Domingos de Rana,Grande Lisboa,311,2025-03-20T01:18:00Z,25113163,Em despacho,3311,Queda de elementos de estruturas edificados,0,0,0,0,2025-03-20T01:18:00Z,Cascais,Lisboa,Área Metropolitana De Lisboa,-9.341509,38.701875
25113194,Alverca do Ribatejo e Sobralinho,Grande Lisboa,311,2025-03-20T01:27:00Z,25113194,Em despacho,3311,Queda de elementos de estruturas edificados,0,0,0,0,2025-03-20T01:27:00Z,Vila Franca De Xira,Lisboa,Área Metropolitana De Lisboa,-9.0484000000000009,38.90376
25113227,Charneca de Caparica e Sobreda,Península de Setúbal,311,2025-03-20T01:31:00Z,25113227,Em curso,3301,Queda de árvore,0,0,0,0,2025-03-20T01:31:00Z,Almada,Setúbal,Área Metropolitana De Lisboa,-9.176084,38.58879
25113229,Charneca de Caparica e Sobreda,Península de Setúbal,311,2025-03-20T01:31:00Z,25113229,Em curso,3301,Queda de árvore,0,0,0,0,2025-03-20T01:31:00Z,Almada,Setúbal,Área Metropolitana De Lisboa,-9.182356,38.58913
25113294,Algueirão-Mem Martins,Grande Lisboa,311,2025-03-20T01:37:00Z,25113294,Em despacho,3311,Queda de elementos de estruturas edificados,0,0,0,0,2025-03-20T01:37:00Z,Sintra,Lisboa,Área Metropolitana De Lisboa,-9.324166,38.79472
25113313,Alverca do Ribatejo e Sobralinho,Grande Lisboa,311,2025-03-20T01:39:00Z,25113313,Em despacho,3311,Queda de elementos de estruturas edificados,0,0,0,0,2025-03-20T01:39:00Z,Vila Franca De Xira,Lisboa,Área Metropolitana De Lisboa,-9.05384,38.90527
25115628,Beja (Santiago Maior e São João Baptista),Baixo Alentejo,312,2025-03-20T04:30:00Z,25115628,Em curso,3301,Queda de árvore,0,0,0,0,2025-03-20T04:30:00Z,Beja,Beja,Alentejo,-7.87003,38.014111
25115675,Baraçal,Beiras e Serra da Estrela,310,2025-03-20T05:55:00Z,25115675,Em despacho,3301,Queda de árvore,0,0,0,0,2025-03-20T05:55:00Z,Sabugal,Guarda,Centro,-7.064427,40.39398
25115727,Sesimbra (Castelo),Península de Setúbal,311,2025-03-20T06:03:00Z,25115727,Em curso,3301,Queda de árvore,0,0,0,0,2025-03-20T06:03:00Z,Sesimbra,Setúbal,Área Metropolitana De Lisboa,-9.08172,38.47355
25115827,Quinta do Anjo,Península de Setúbal,311,2025-03-20T06:15:00Z,25115827,Em curso,3301,Queda de árvore,0,0,0,0,2025-03-20T06:15:00Z,Palmela,Setúbal,Área Metropolitana De Lisboa,-8.99287,38.58382
25115829,Mata de Lobos,Beiras e Serra da Estrela,310,2025-03-20T06:14:00Z,25115829,Em despacho,3321,Dano na rede de fornecimento de eletricidade ,0,1,0,2,2025-03-20T06:14:00Z,Figueira De Castelo Rodrigo,Guarda,Centro,-6.913027,40.9073
25115843,Rio de Mouro,Grande Lisboa,311,2025-03-20T06:17:00Z,25115843,Em despacho,3301,Queda de árvore,0,0,0,0,2025-03-20T06:17:00Z,Sintra,Lisboa,Área Metropolitana De Lisboa,-9.35274,38.75745
25115877,Ericeira,Grande Lisboa,311,2025-03-20T06:21:00Z,25115877,Em despacho,3301,Queda de árvore,0,0,0,0,2025-03-20T06:21:00Z,Mafra,Lisboa,Área Metropolitana De Lisboa,-9.37994,38.97266
25115928,Carlão e Amieiro,Douro,309,2025-03-20T05:55:00Z,25115928,Em despacho,3301,Queda de árvore,0,3,0,6,2025-03-20T05:55:00Z,Alijó,Vila Real,Norte,-7.446135,41.359763
25116044,"Oeiras e S. Julião da Barra, Paço de Arcos e Caxias",Grande Lisboa,311,2025-03-20T06:40:00Z,25116044,Em despacho,3301,Queda de árvore,0,0,0,0,2025-03-20T06:40:00Z,Oeiras,Lisboa,Área Metropolitana De Lisboa,-9.275682,38.698873
25116113,Silgueiros,Viseu Dão Lafões,310,2025-03-20T06:50:00Z,25116113,Em despacho,3301,Queda de árvore,0,2,0,3,2025-03-20T06:50:00Z,Viseu,Viseu,Centro,-7.984364,40.553448
25116160,"Seixal, Arrentela e Aldeia de Paio Pires",Península de Setúbal,311,2025-03-20T06:55:00Z,25116160,Em curso,3301,Queda de árvore,0,0,0,0,2025-03-20T06:55:00Z,Seixal,Setúbal,Área Metropolitana De Lisboa,-9.103477,38.60829
25113329,Falagueira-Venda Nova,Grande Lisboa,311,2025-03-20T01:40:00Z,25113329,Em despacho,3301,Queda de árvore,0,0,0,0,2025-03-20T01:40:00Z,Amadora,Lisboa,Área Metropolitana De Lisboa,-9.223747,38.760622
25113330,Cascais e Estoril,Grande Lisboa,311,2025-03-20T01:40:00Z,25113330,Em despacho,3301,Queda de árvore,0,0,0,0,2025-03-20T01:40:00Z,Cascais,Lisboa,Área Metropolitana De Lisboa,-9.398759,38.70391
25113430,Charneca de Caparica e Sobreda,Península de Setúbal,311,2025-03-20T01:50:00Z,25113430,Em curso,3301,Queda de árvore,0,1,0,4,2025-03-20T01:50:00Z,Almada,Setúbal,Área Metropolitana De Lisboa,-9.1789,38.60783
25113463,"Almada, Cova da Piedade, Pragal e Cacilhas",Península de Setúbal,311,2025-03-20T01:54:00Z,25113463,Em conclusão,3311,Queda de elementos de estruturas edificados,0,0,0,0,2025-03-20T01:54:00Z,Almada,Setúbal,Área Metropolitana De Lisboa,-9.1648,38.67804
25113480,São Domingos de Rana,Grande Lisboa,311,2025-03-20T01:55:00Z,25113480,Em despacho,3301,Queda de árvore,0,0,0,0,2025-03-20T01:55:00Z,Cascais,Lisboa,Área Metropolitana De Lisboa,-9.34564,38.69702
25113498,Charneca de Caparica e Sobreda,Península de Setúbal,311,2025-03-20T01:58:00Z,25113498,Em curso,3301,Queda de árvore,0,0,0,0,2025-03-20T01:58:00Z,Almada,Setúbal,Área Metropolitana De Lisboa,-9.18074,38.58747
25113512,Cascais e Estoril,Grande Lisboa,311,2025-03-20T01:59:00Z,25113512,Em despacho,3301,Queda de árvore,0,0,0,0,2025-03-20T01:59:00Z,Cascais,Lisboa,Área Metropolitana De Lisboa,-9.40005,38.71162
25113513,Cascais e Estoril,Grande Lisboa,311,2025-03-20T01:59:00Z,25113513,Em despacho,3329,Queda de estruturas temporárias ou móveis,0,0,0,0,2025-03-20T01:59:00Z,Cascais,Lisboa,Área Metropolitana De Lisboa,-9.38034,38.70228
25113545,Loures,Grande Lisboa,311,2025-03-20T02:02:00Z,25113545,Em despacho,3311,Queda de elementos de estruturas edificados,0,0,0,0,2025-03-20T02:02:00Z,Loures,Lisboa,Área Metropolitana De Lisboa,-9.19531,38.81873
25113022,São Domingos de Rana,Grande Lisboa,311,2025-03-20T01:10:00Z,25113022,Em despacho,3311,Queda de elementos de estruturas edificados,0,0,0,0,2025-03-20T01:10:00Z,Cascais,Lisboa,Área Metropolitana De Lisboa,-9.3408,38.73652
25113076,Cascais e Estoril,Grande Lisboa,311,2025-03-20T01:15:00Z,25113076,Em despacho,3311,Queda de elementos de estruturas edificados,0,0,0,0,2025-03-20T01:15:00Z,Cascais,Lisboa,Área Metropolitana De Lisboa,-9.40634,38.72382
25113090,"Alhandra, São João Dos Montes e Calhandriz",Grande Lisboa,311,2025-03-20T01:16:00Z,25113090,Em despacho,3301,Queda de árvore,0,0,0,0,2025-03-20T01:16:00Z,Vila Franca De Xira,Lisboa,Área Metropolitana De Lisboa,-9.02855,38.9405
25113101,Charneca de Caparica e Sobreda,Península de Setúbal,311,2025-03-20T01:18:00Z,25113101,Em curso,3301,Queda de árvore,0,0,0,0,2025-03-20T01:18:00Z,Almada,Setúbal,Área Metropolitana De Lisboa,-9.17264,38.5926
25113117,Charneca de Caparica e Sobreda,Península de Setúbal,311,2025-03-20T01:19:00Z,25113117,Em curso,3301,Queda de árvore,0,0,0,0,2025-03-20T01:19:00Z,Almada,Setúbal,Área Metropolitana De Lisboa,-9.18066,38.59207
25113124,Carnaxide e Queijas,Grande Lisboa,311,2025-03-20T01:20:00Z,25113124,Em despacho,3311,Queda de elementos de estruturas edificados,0,0,0,0,2025-03-20T01:20:00Z,Oeiras,Lisboa,Área Metropolitana De Lisboa,-9.24609,38.72263
25113126,Águas Livres,Grande Lisboa,311,2025-03-20T01:20:00Z,25113126,Em despacho,3311,Queda de elementos de estruturas edificados,0,0,0,0,2025-03-20T01:20:00Z,Amadora,Lisboa,Área Metropolitana De Lisboa,-9.20581,38.74231
25113140,"Almada, Cova da Piedade, Pragal e Cacilhas",Península de Setúbal,311,2025-03-20T01:21:00Z,25113140,Em curso,3311,Queda de elementos de estruturas edificados,0,0,0,0,2025-03-20T01:21:00Z,Almada,Setúbal,Área Metropolitana De Lisboa,-9.16207,38.6795
25116211,Salvaterra de Magos e Foros de Salvaterra,Lezíria do Tejo,311,2025-03-20T07:00:00Z,25116211,Em conclusão,3301,Queda de árvore,0,0,0,0,2025-03-20T07:00:00Z,Salvaterra De Magos,Santarém,Alentejo,-8.783177,39.013823
25116212,Cascais e Estoril,Grande Lisboa,311,2025-03-20T07:01:00Z,25116212,Em despacho,3301,Queda de árvore,0,0,0,0,2025-03-20T07:01:00Z,Cascais,Lisboa,Área Metropolitana De Lisboa,-9.406153,38.70785
25116229,"Algés, Linda-a-Velha e Cruz Quebrada-Dafundo",Grande Lisboa,311,2025-03-20T07:00:00Z,25116229,Em curso,3301,Queda de árvore,0,1,0,3,2025-03-20T07:00:00Z,Oeiras,Lisboa,Área Metropolitana De Lisboa,-9.242274,38.708161
25116264,Cascais e Estoril,Grande Lisboa,311,2025-03-20T07:06:00Z,25116264,Em despacho,3301,Queda de árvore,0,0,0,0,2025-03-20T07:06:00Z,Cascais,Lisboa,Área Metropolitana De Lisboa,-9.42337,38.69626
25116345,Alverca do Ribatejo e Sobralinho,Grande Lisboa,311,2025-03-20T07:15:00Z,25116345,Em despacho,3301,Queda de árvore,0,0,0,0,2025-03-20T07:15:00Z,Vila Franca De Xira,Lisboa,Área Metropolitana De Lisboa,-9.03753,38.90843
25116379,Sesimbra (Castelo),Península de Setúbal,311,2025-03-20T07:19:00Z,25116379,Em curso,3301,Queda de árvore,0,1,0,4,2025-03-20T07:19:00Z,Sesimbra,Setúbal,Área Metropolitana De Lisboa,-9.10208,38.47786
25116413,Rio de Mouro,Grande Lisboa,311,2025-03-20T07:22:00Z,25116413,Em despacho,3301,Queda de árvore,0,0,0,0,2025-03-20T07:22:00Z,Sintra,Lisboa,Área Metropolitana De Lisboa,-9.321325,38.79318
25116462,Massamá e Monte Abraão,Grande Lisboa,311,2025-03-20T07:27:00Z,25116462,Em despacho,3321,Dano na rede de fornecimento de eletricidade ,0,0,0,0,2025-03-20T07:27:00Z,Sintra,Lisboa,Área Metropolitana De Lisboa,-9.27231,38.75997
25116480,Corroios,Península de Setúbal,311,2025-03-20T07:30:00Z,25116480,Em curso,3301,Queda de árvore,0,0,0,0,2025-03-20T07:30:00Z,Seixal,Setúbal,Área Metropolitana De Lisboa,-9.15411,38.58673
25113548,Charneca de Caparica e Sobreda,Península de Setúbal,311,2025-03-20T02:03:00Z,25113548,Em curso,3301,Queda de árvore,0,0,0,0,2025-03-20T02:03:00Z,Almada,Setúbal,Área Metropolitana De Lisboa,-9.16587,38.58978
25113579,Alfragide,Grande Lisboa,311,2025-03-20T02:05:00Z,25113579,Em despacho,3329,Queda de estruturas temporárias ou móveis,0,0,0,0,2025-03-20T02:05:00Z,Amadora,Lisboa,Área Metropolitana De Lisboa,-9.225704,38.738085
25113645,Rio de Mouro,Grande Lisboa,311,2025-03-20T02:13:00Z,25113645,Em despacho,3311,Queda de elementos de estruturas edificados,0,0,0,0,2025-03-20T02:13:00Z,Sintra,Lisboa,Área Metropolitana De Lisboa,-9.31947,38.78611
25113679,Cascais e Estoril,Grande Lisboa,311,2025-03-20T02:16:00Z,25113679,Em despacho,3301,Queda de árvore,0,0,0,0,2025-03-20T02:16:00Z,Cascais,Lisboa,Área Metropolitana De Lisboa,-9.39155,38.70828
25113746,Falagueira-Venda Nova,Grande Lisboa,311,2025-03-20T02:23:00Z,25113746,Em despacho,3301,Queda de árvore,0,0,0,0,2025-03-20T02:23:00Z,Amadora,Lisboa,Área Metropolitana De Lisboa,-9.22883,38.76062
25113762,Miragaia e Marteleira,Oeste,311,2025-03-20T02:00:00Z,25113762,Em conclusão,3311,Queda de elementos de estruturas edificados,0,0,0,0,2025-03-20T02:00:00Z,Lourinhã,Lisboa,Centro,-9.262811,39.23688
25113765,Queluz e Belas,Grande Lisboa,311,2025-03-20T02:25:00Z,25113765,Em despacho,3301,Queda de árvore,0,0,0,0,2025-03-20T02:25:00Z,Sintra,Lisboa,Área Metropolitana De Lisboa,-9.27879,38.77766
25113781,Ramada e Caneças,Grande Lisboa,311,2025-03-20T02:26:00Z,25113781,Em despacho,3301,Queda de árvore,0,0,0,0,2025-03-20T02:26:00Z,Odivelas,Lisboa,Área Metropolitana De Lisboa,-9.194441,38.801427
25113963,Charneca de Caparica e Sobreda,Península de Setúbal,311,2025-03-20T02:42:00Z,25113963,Em curso,3301,Queda de árvore,0,0,0,0,2025-03-20T02:42:00Z,Almada,Setúbal,Área Metropolitana De Lisboa,-9.19674,38.63034
25116481,Charneca de Caparica e Sobreda,Península de Setúbal,311,2025-03-20T07:30:00Z,25116481,Em curso,3301,Queda de árvore,0,0,0,0,2025-03-20T07:30:00Z,Almada,Setúbal,Área Metropolitana De Lisboa,-9.184039,38.58966
25116579,Mora,Alentejo Central,312,2025-03-20T07:33:00Z,25116579,Em resolução,3301,Queda de árvore,0,3,0,7,2025-03-20T07:33:00Z,Mora,Évora,Alentejo,-8.176078,38.942038
25116580,"Almargem do Bispo, Pêro Pinheiro e Montelavar",Grande Lisboa,311,2025-03-20T07:36:00Z,25116580,Em despacho,3311,Queda de elementos de estruturas edificados,0,1,0,5,2025-03-20T07:36:00Z,Sintra,Lisboa,Área Metropolitana De Lisboa,-9.335912,38.863107
25116597,Fernão Ferro,Península de Setúbal,311,2025-03-20T07:42:00Z,25116597,Em curso,3321,Dano na rede de fornecimento de eletricidade ,0,0,0,0,2025-03-20T07:42:00Z,Seixal,Setúbal,Área Metropolitana De Lisboa,-9.09024,38.56398
25116629,Quiaios,Região de Coimbra,310,2025-03-20T07:45:00Z,25116629,Em despacho,3301,Queda de árvore,0,0,0,0,2025-03-20T07:45:00Z,Figueira Da Foz,Coimbra,Centro,-8.82529,40.21308
25116680,Quinta do Anjo,Península de Setúbal,311,2025-03-20T07:50:00Z,25116680,Em curso,3301,Queda de árvore,0,0,0,0,2025-03-20T07:50:00Z,Palmela,Setúbal,Área Metropolitana De Lisboa,-8.940527,38.60376
25116730,Sesimbra (Castelo),Península de Setúbal,311,2025-03-20T07:55:00Z,25116730,Em curso,3301,Queda de árvore,0,0,0,0,2025-03-20T07:55:00Z,Sesimbra,Setúbal,Área Metropolitana De Lisboa,-9.16871,38.50703
25116798,Cesar,Area M. Porto,309,2025-03-20T07:43:00Z,25116798,Em despacho,3301,Queda de árvore,0,1,0,2,2025-03-20T07:43:00Z,Oliveira De Azeméis,Aveiro,Norte,-8.432284,40.920554
25116846,"Oeiras e S. Julião da Barra, Paço de Arcos e Caxias",Grande Lisboa,311,2025-03-20T08:05:00Z,25116846,Em despacho,3301,Queda de árvore,0,0,0,0,2025-03-20T08:05:00Z,Oeiras,Lisboa,Área Metropolitana De Lisboa,-9.27907,38.69925
25116864,Labruja,Alto Minho,309,2025-03-20T07:50:00Z,25116864,Em conclusão,3301,Queda de árvore,0,1,0,3,2025-03-20T07:50:00Z,Ponte De Lima,Viana Do Castelo,Norte,-8.607475,41.841642
25114013,"Camarate, Unhos e Apelação",Grande Lisboa,311,2025-03-20T02:46:00Z,25114013,Em curso,3321,Dano na rede de fornecimento de eletricidade ,0,1,0,1,2025-03-20T02:46:00Z,Loures,Lisboa,Área Metropolitana De Lisboa,-9.128836,38.809705
25114015,"S.pedro e Santiago, S.maria e S.miguel e Matacães",Oeste,311,2025-03-20T02:47:00Z,25114015,Em despacho,3329,Queda de estruturas temporárias ou móveis,0,0,0,0,2025-03-20T02:47:00Z,Torres Vedras,Lisboa,Centro,-9.25368,39.0773
25114199,Mafra,Grande Lisboa,311,2025-03-20T03:04:00Z,25114199,Em despacho,3311,Queda de elementos de estruturas edificados,0,0,0,0,2025-03-20T03:04:00Z,Mafra,Lisboa,Área Metropolitana De Lisboa,-9.351689,38.95828
25114548,Queluz e Belas,Grande Lisboa,311,2025-03-20T03:20:00Z,25114548,Em despacho,3301,Queda de árvore,0,1,0,2,2025-03-20T03:20:00Z,Sintra,Lisboa,Área Metropolitana De Lisboa,-9.271667,38.786881
25114565,Vila Franca Das Naves e Feital,Beiras e Serra da Estrela,310,2025-03-20T03:33:00Z,25114565,Em despacho,3301,Queda de árvore,0,2,0,6,2025-03-20T03:33:00Z,Trancoso,Guarda,Centro,-7.258443,40.723136
25114617,Lousa,Grande Lisboa,311,2025-03-20T03:45:00Z,25114617,Em despacho,3301,Queda de árvore,0,0,0,0,2025-03-20T03:45:00Z,Loures,Lisboa,Área Metropolitana De Lisboa,-9.209783,38.88899
25114701,Fornos de Algodres,Beiras e Serra da Estrela,310,2025-03-20T03:53:00Z,25114701,Em despacho,3301,Queda de árvore,0,3,0,7,2025-03-20T03:53:00Z,Fornos De Algodres,Guarda,Centro,-7.525771,40.610486
25114835,Cacém e São Marcos,Grande Lisboa,311,2025-03-20T04:07:00Z,25114835,Em despacho,3301,Queda de árvore,0,0,0,0,2025-03-20T04:07:00Z,Sintra,Lisboa,Área Metropolitana De Lisboa,-9.30124,38.75068
25114867,Casal de Cambra,Grande Lisboa,311,2025-03-20T04:00:00Z,25114867,Em curso,3311,Queda de elementos de estruturas edificados,0,1,0,2,2025-03-20T04:00:00Z,Sintra,Lisboa,Área Metropolitana De Lisboa,-9.232552,38.801888
25114985,Moita,Península de Setúbal,311,2025-03-20T04:05:00Z,25114985,Em curso,3311,Queda de elementos de estruturas edificados,0,1,0,3,2025-03-20T04:05:00Z,Moita,Setúbal,Área Metropolitana De Lisboa,-8.985364,38.643702
25115150,Torrão,Alentejo Litoral,312,2025-03-20T04:45:00Z,25115150,Em resolução,3301,Queda de árvore,0,0,0,0,2025-03-20T04:45:00Z,Alcácer Do Sal,Setúbal,Alentejo,-8.367086,38.190745
25115302,"Almargem do Bispo, Pêro Pinheiro e Montelavar",Grande Lisboa,311,2025-03-20T05:07:00Z,25115302,Em despacho,3301,Queda de árvore,0,0,0,0,2025-03-20T05:07:00Z,Sintra,Lisboa,Área Metropolitana De Lisboa,-9.30988,38.83504
25115450,Fontes,Douro,309,2025-03-20T05:24:00Z,25115450,Em curso,3301,Queda de árvore,0,1,0,2,2025-03-20T05:24:00Z,Santa Marta De Penaguião,Vila Real,Norte,-7.823046,41.226681
25115484,Santo Isidoro,Grande Lisboa,311,2025-03-20T05:31:00Z,25115484,Em despacho,3301,Queda de árvore,0,0,0,0,2025-03-20T05:31:00Z,Mafra,Lisboa,Área Metropolitana De Lisboa,-9.35978,38.99009
25115519,Palhais e Coina,Península de Setúbal,311,2025-03-20T05:35:00Z,25115519,Em curso,3301,Queda de árvore,0,0,0,0,2025-03-20T05:35:00Z,Barreiro,Setúbal,Área Metropolitana De Lisboa,-9.04503,38.59544
25115553,Cascais e Estoril,Grande Lisboa,311,2025-03-20T05:40:00Z,25115553,Em despacho,3301,Queda de árvore,0,0,0,0,2025-03-20T05:40:00Z,Cascais,Lisboa,Área Metropolitana De Lisboa,-9.387946,38.71141
25115567,Carvalhal Benfeito,Oeste,311,2025-03-20T05:40:00Z,25115567,Em despacho,3301,Queda de árvore,0,0,0,0,2025-03-20T05:40:00Z,Caldas Da Rainha,Leiria,Centro,-9.038958,39.42604
25115637,Espinho,Região de Coimbra,310,2025-03-20T05:50:00Z,25115637,Em despacho,3311,Queda de elementos de estruturas edificados,0,0,0,0,2025-03-20T05:50:00Z,Mortágua,Viseu,Centro,-8.309869,40.422828
25115685,Fanhões,Grande Lisboa,311,2025-03-20T05:55:00Z,25115685,Em despacho,3301,Queda de árvore,0,0,0,0,2025-03-20T05:55:00Z,Loures,Lisboa,Área Metropolitana De Lisboa,-9.189041,38.903262
25115702,Cascais e Estoril,Grande Lisboa,311,2025-03-20T05:59:00Z,25115702,Em despacho,3301,Queda de árvore,0,0,0,0,2025-03-20T05:59:00Z,Cascais,Lisboa,Área Metropolitana De Lisboa,-9.40372,38.7131
25116895,"Santa Maria, São Pedro e Sobral da Lagoa",Oeste,311,2025-03-20T08:05:00Z,25116895,Em despacho,3311,Queda de elementos de estruturas edificados,0,0,0,0,2025-03-20T08:05:00Z,Óbidos,Leiria,Centro,-9.167126,39.368463
25116898,Cabeção,Alentejo Central,312,2025-03-20T08:07:00Z,25116898,Em resolução,3301,Queda de árvore,0,1,0,2,2025-03-20T08:07:00Z,Mora,Évora,Alentejo,-8.081543,38.943737
25116930,Fernão Ferro,Península de Setúbal,311,2025-03-20T08:12:00Z,25116930,Em curso,3301,Queda de árvore,0,0,0,0,2025-03-20T08:12:00Z,Seixal,Setúbal,Área Metropolitana De Lisboa,-9.09956,38.57704
25116948,Casteleiro,Beiras e Serra da Estrela,310,2025-03-20T07:50:00Z,25116948,Em despacho,3301,Queda de árvore,0,1,0,4,2025-03-20T07:50:00Z,Sabugal,Guarda,Centro,-7.233341,40.299701
25116964,Pegões,Península de Setúbal,311,2025-03-20T07:50:00Z,25116964,Em despacho,3301,Queda de árvore,0,1,0,3,2025-03-20T07:50:00Z,Montijo,Setúbal,Área Metropolitana De Lisboa,-8.659163,38.685652
25116997,Caparica e Trafaria,Península de Setúbal,311,2025-03-20T08:17:00Z,25116997,Em curso,3311,Queda de elementos de estruturas edificados,0,0,0,0,2025-03-20T08:17:00Z,Almada,Setúbal,Área Metropolitana De Lisboa,-9.24621,38.66759
25116998,Santo António da Charneca,Península de Setúbal,311,2025-03-20T07:39:00Z,25116998,Em despacho,3301,Queda de árvore,0,1,0,5,2025-03-20T07:39:00Z,Barreiro,Setúbal,Área Metropolitana De Lisboa,-9.023297,38.618024
25117031,Foz do Arelho,Oeste,311,2025-03-20T08:17:00Z,25117031,Em curso,3301,Queda de árvore,0,0,0,0,2025-03-20T08:17:00Z,Caldas Da Rainha,Leiria,Centro,-9.207478,39.434512
25117048,São Miguel do Mato,Viseu Dão Lafões,310,2025-03-20T08:15:00Z,25117048,Em despacho,3301,Queda de árvore,0,1,0,2,2025-03-20T08:15:00Z,Vouzela,Viseu,Centro,-8.025425,40.717386
25117115,São Martinho Das Amoreiras,Alentejo Litoral,312,2025-03-20T08:17:00Z,25117115,Em curso,3301,Queda de árvore,0,0,0,0,2025-03-20T08:17:00Z,Odemira,Beja,Alentejo,-8.373367,37.669994
25113023,Póvoa de Santa Iria e Forte da Casa,Grande Lisboa,311,2025-03-20T01:10:00Z,25113023,Em despacho,3329,Queda de estruturas temporárias ou móveis,0,0,0,0,2025-03-20T01:10:00Z,Vila Franca De Xira,Lisboa,Área Metropolitana De Lisboa,-9.055658,38.87217
25113041,Alcabideche,Grande Lisboa,311,2025-03-20T01:12:00Z,25113041,Em despacho,3311,Queda de elementos de estruturas edificados,0,0,0,0,2025-03-20T01:12:00Z,Cascais,Lisboa,Área Metropolitana De Lisboa,-9.422703,38.72363
25113064,"Alhandra, São João Dos Montes e Calhandriz",Grande Lisboa,311,2025-03-20T01:14:00Z,25113064,Em despacho,3301,Queda de árvore,0,0,0,0,2025-03-20T01:14:00Z,Vila Franca De Xira,Lisboa,Área Metropolitana De Lisboa,-9.03587,38.95457
25113073,Corroios,Península de Setúbal,311,2025-03-20T01:15:00Z,25113073,Em curso,3329,Queda de estruturas temporárias ou móveis,0,0,0,0,2025-03-20T01:15:00Z,Seixal,Setúbal,Área Metropolitana De Lisboa,-9.15315,38.64089
25113089,"Almargem do Bispo, Pêro Pinheiro e Montelavar",Grande Lisboa,311,2025-03-20T01:16:00Z,25113089,Em despacho,3311,Queda de elementos de estruturas edificados,0,0,0,0,2025-03-20T01:16:00Z,Sintra,Lisboa,Área Metropolitana De Lisboa,-9.24059,38.80967
25113100,Sesimbra (Castelo),Península de Setúbal,311,2025-03-20T01:17:00Z,25113100,Em curso,3311,Queda de elementos de estruturas edificados,0,0,0,0,2025-03-20T01:17:00Z,Sesimbra,Setúbal,Área Metropolitana De Lisboa,-9.17306,38.47686
25113107,Charneca de Caparica e Sobreda,Península de Setúbal,311,2025-03-20T01:18:00Z,25113107,Em curso,3301,Queda de árvore,0,0,0,0,2025-03-20T01:18:00Z,Almada,Setúbal,Área Metropolitana De Lisboa,-9.177058,38.60883
25113125,Alverca do Ribatejo e Sobralinho,Grande Lisboa,311,2025-03-20T01:20:00Z,25113125,Em despacho,3311,Queda de elementos de estruturas edificados,0,0,0,0,2025-03-20T01:20:00Z,Vila Franca De Xira,Lisboa,Área Metropolitana De Lisboa,-9.03425,38.91567
25117116,Ericeira,Grande Lisboa,311,2025-03-20T08:26:00Z,25117116,Em despacho,3301,Queda de árvore,0,0,0,0,2025-03-20T08:26:00Z,Mafra,Lisboa,Área Metropolitana De Lisboa,-9.38799,38.97383
25117197,Lamelas e Guimarei,Area M. Porto,309,2025-03-20T08:22:00Z,25117197,Em despacho,3301,Queda de árvore,0,2,0,3,2025-03-20T08:22:00Z,Santo Tirso,Porto,Norte,-8.478203,41.301309
25117199,Rossas,Area M. Porto,309,2025-03-20T08:15:00Z,25117199,Em despacho,3311,Queda de elementos de estruturas edificados,0,1,0,2,2025-03-20T08:15:00Z,Arouca,Aveiro,Norte,-8.31542,40.903464
25117232,Campanhó e Paradança,Ave,309,2025-03-20T08:31:00Z,25117232,Em despacho,3301,Queda de árvore,0,3,0,15,2025-03-20T08:31:00Z,Mondim De Basto,Vila Real,Norte,-7.934488,41.349928
25117266,Bucelas,Grande Lisboa,311,2025-03-20T08:37:00Z,25117266,Em despacho,3301,Queda de árvore,0,0,0,0,2025-03-20T08:37:00Z,Loures,Lisboa,Área Metropolitana De Lisboa,-9.121485,38.90268
25117348,Ceira,Região de Coimbra,310,2025-03-20T08:35:00Z,25117348,Em despacho,3311,Queda de elementos de estruturas edificados,0,1,0,4,2025-03-20T08:35:00Z,Miranda Do Corvo,Coimbra,Centro,-8.362499,40.181047
25117350,Beijós,Viseu Dão Lafões,310,2025-03-20T08:36:00Z,25117350,Em curso,3309,Desabamento de estruturas edificadas,0,2,0,4,2025-03-20T08:36:00Z,Carregal Do Sal,Viseu,Centro,-7.957266,40.531798
25117480,"S.julião, N.s. da Anunciada e S. Maria da Graça",Península de Setúbal,311,2025-03-20T08:54:00Z,25117480,Em curso,3301,Queda de árvore,0,0,0,0,2025-03-20T08:54:00Z,Setúbal,Setúbal,Área Metropolitana De Lisboa,-8.9124,38.54168
25117530,São Domingos de Rana,Grande Lisboa,311,2025-03-20T08:58:00Z,25117530,Em despacho,3329,Queda de estruturas temporárias ou móveis,0,0,0,0,2025-03-20T08:58:00Z,Cascais,Lisboa,Área Metropolitana De Lisboa,-9.356872,38.73965
25117534,"Oeiras e S. Julião da Barra, Paço de Arcos e Caxias",Grande Lisboa,311,2025-03-20T08:58:00Z,25117534,Em despacho,3301,Queda de árvore,0,0,0,0,2025-03-20T08:58:00Z,Oeiras,Lisboa,Área Metropolitana De Lisboa,-9.30923,38.68961
25117549,Charneca de Caparica e Sobreda,Península de Setúbal,311,2025-03-20T08:59:00Z,25117549,Em curso,3301,Queda de árvore,0,0,0,0,2025-03-20T08:59:00Z,Almada,Setúbal,Área Metropolitana De Lisboa,-9.18454,38.58157
25117600,Sabugueiro,Beiras e Serra da Estrela,310,2025-03-20T08:49:00Z,25117600,Em curso,3301,Queda de árvore,0,1,0,1,2025-03-20T08:49:00Z,Seia,Guarda,Centro,-7.6419,40.403015
25117601,"S.julião, N.s. da Anunciada e S. Maria da Graça",Península de Setúbal,311,2025-03-20T09:04:00Z,25117601,Em curso,3301,Queda de árvore,0,1,0,2,2025-03-20T09:04:00Z,Setúbal,Setúbal,Área Metropolitana De Lisboa,-8.906996,38.52076
25117633,Corroios,Península de Setúbal,311,2025-03-20T09:06:00Z,25117633,Em curso,3301,Queda de árvore,0,0,0,0,2025-03-20T09:06:00Z,Seixal,Setúbal,Área Metropolitana De Lisboa,-9.1623,38.60871
25117649,Grândola e Santa Margarida da Serra,Alentejo Litoral,312,2025-03-20T09:02:00Z,25117649,Em curso,3309,Desabamento de estruturas edificadas,0,1,0,1,2025-03-20T09:02:00Z,Grândola,Setúbal,Alentejo,-8.5587510000000009,38.173088
25117650,São João de Loure e Frossos,Região de Aveiro,310,2025-03-20T09:05:00Z,25117650,Em conclusão,3301,Queda de árvore,0,1,0,1,2025-03-20T09:05:00Z,Albergaria-a-Velha,Aveiro,Centro,-8.539732,40.632068
25117731,Nazaré,Oeste,311,2025-03-20T09:13:00Z,25117731,Em despacho,3321,Dano na rede de fornecimento de eletricidade ,0,0,0,0,2025-03-20T09:13:00Z,Nazaré,Leiria,Centro,-9.06946,39.60783
25117767,Moscavide e Portela,Grande Lisboa,311,2025-03-20T09:16:00Z,25117767,Em despacho,3311,Queda de elementos de estruturas edificados,0,0,0,0,2025-03-20T09:16:00Z,Loures,Lisboa,Área Metropolitana De Lisboa,-9.10777,38.78172
25117833,Corroios,Península de Setúbal,311,2025-03-20T09:21:00Z,25117833,Em curso,3301,Queda de árvore,0,0,0,0,2025-03-20T09:21:00Z,Seixal,Setúbal,Área Metropolitana De Lisboa,-9.15918,38.58196
25113173,Charneca de Caparica e Sobreda,Península de Setúbal,311,2025-03-20T01:25:00Z,25113173,Em curso,3301,Queda de árvore,0,0,0,0,2025-03-20T01:25:00Z,Almada,Setúbal,Área Metropolitana De Lisboa,-9.18059,38.59585
25113198,Charneca de Caparica e Sobreda,Península de Setúbal,311,2025-03-20T01:27:00Z,25113198,Em curso,3301,Queda de árvore,0,0,0,0,2025-03-20T01:27:00Z,Almada,Setúbal,Área Metropolitana De Lisboa,-9.18368,38.58977
25113218,Sapataria,Oeste,311,2025-03-20T01:23:00Z,25113218,Em curso,3301,Queda de árvore,0,2,0,4,2025-03-20T01:23:00Z,Sobral De Monte Agraço,Lisboa,Centro,-9.198053,38.966232
25113241,Odivelas,Grande Lisboa,311,2025-03-20T01:32:00Z,25113241,Em despacho,3311,Queda de elementos de estruturas edificados,0,0,0,0,2025-03-20T01:32:00Z,Odivelas,Lisboa,Área Metropolitana De Lisboa,-9.17906,38.78882
25113243,Odivelas,Grande Lisboa,311,2025-03-20T01:32:00Z,25113243,Em despacho,3311,Queda de elementos de estruturas edificados,0,0,0,0,2025-03-20T01:32:00Z,Odivelas,Lisboa,Área Metropolitana De Lisboa,-9.17332,38.79666
25113332,Charneca de Caparica e Sobreda,Península de Setúbal,311,2025-03-20T01:41:00Z,25113332,Em curso,3301,Queda de árvore,0,0,0,0,2025-03-20T01:41:00Z,Almada,Setúbal,Área Metropolitana De Lisboa,-9.18218,38.59689
25113382,Santo Antão e São Julião do Tojal,Grande Lisboa,311,2025-03-20T01:46:00Z,25113382,Em despacho,3321,Dano na rede de fornecimento de eletricidade ,0,0,0,0,2025-03-20T01:46:00Z,Loures,Lisboa,Área Metropolitana De Lisboa,-9.12403,38.86915
25113393,Alfragide,Grande Lisboa,311,2025-03-20T01:46:00Z,25113393,Em despacho,3311,Queda de elementos de estruturas edificados,0,0,0,0,2025-03-20T01:46:00Z,Amadora,Lisboa,Área Metropolitana De Lisboa,-9.225704,38.738085
25113416,Vila Franca de Xira,Grande Lisboa,311,2025-03-20T01:49:00Z,25113416,Em despacho,3321,Dano na rede de fornecimento de eletricidade ,0,0,0,0,2025-03-20T01:49:00Z,Vila Franca De Xira,Lisboa,Área Metropolitana De Lisboa,-8.99117,38.95186
25113425,Carcavelos e Parede,Grande Lisboa,311,2025-03-20T01:49:00Z,25113425,Em despacho,3301,Queda de árvore,0,0,0,0,2025-03-20T01:49:00Z,Cascais,Lisboa,Área Metropolitana De Lisboa,-9.337574,38.688343
25113434,"Seixal, Arrentela e Aldeia de Paio Pires",Península de Setúbal,311,2025-03-20T01:50:00Z,25113434,Em curso,3311,Queda de elementos de estruturas edificados,0,0,0,0,2025-03-20T01:50:00Z,Seixal,Setúbal,Área Metropolitana De Lisboa,-9.08101,38.61963
25113441,Casal de Cambra,Grande Lisboa,311,2025-03-20T01:51:00Z,25113441,Em despacho,3311,Queda de elementos de estruturas edificados,0,0,0,0,2025-03-20T01:51:00Z,Sintra,Lisboa,Área Metropolitana De Lisboa,-9.22849,38.801
25113466,Azeitão (São Lourenço e São Simão),Península de Setúbal,311,2025-03-20T01:54:00Z,25113466,Em curso,3301,Queda de árvore,0,0,0,0,2025-03-20T01:54:00Z,Setúbal,Setúbal,Área Metropolitana De Lisboa,-9.01947,38.5205
25113482,São João Das Lampas e Terrugem,Grande Lisboa,311,2025-03-20T01:54:00Z,25113482,Em despacho,3301,Queda de árvore,0,0,0,0,2025-03-20T01:54:00Z,Sintra,Lisboa,Área Metropolitana De Lisboa,-9.436253,38.869236
25113527,Fernão Ferro,Península de Setúbal,311,2025-03-20T02:01:00Z,25113527,Em curso,3301,Queda de árvore,0,0,0,0,2025-03-20T02:01:00Z,Seixal,Setúbal,Área Metropolitana De Lisboa,-9.09935,38.56798
25113616,"Enxara do Bispo, Gradil e Vila Franca do Rosário",Grande Lisboa,311,2025-03-20T01:30:00Z,25113616,Em curso,3321,Dano na rede de fornecimento de eletricidade ,0,0,0,0,2025-03-20T01:30:00Z,Mafra,Lisboa,Área Metropolitana De Lisboa,-9.260847,38.962848
25113650,Carcavelos e Parede,Grande Lisboa,311,2025-03-20T02:12:00Z,25113650,Em despacho,3301,Queda de árvore,0,0,0,0,2025-03-20T02:12:00Z,Cascais,Lisboa,Área Metropolitana De Lisboa,-9.325114,38.69928
25113686,Alpiarça,Lezíria do Tejo,311,2025-03-20T02:17:00Z,25113686,Em despacho,3321,Dano na rede de fornecimento de eletricidade ,0,1,0,1,2025-03-20T02:17:00Z,Alpiarça,Santarém,Alentejo,-8.57695,39.25462
25117867,Santo António da Charneca,Península de Setúbal,311,2025-03-20T09:24:00Z,25117867,Em curso,3301,Queda de árvore,0,0,0,0,2025-03-20T09:24:00Z,Barreiro,Setúbal,Área Metropolitana De Lisboa,-9.035332,38.63309
25117881,Sesimbra (Castelo),Península de Setúbal,311,2025-03-20T09:25:00Z,25117881,Em curso,3301,Queda de árvore,0,0,0,0,2025-03-20T09:25:00Z,Sesimbra,Setúbal,Área Metropolitana De Lisboa,-9.062474,38.48753
25117898,Lordelo do Ouro e Massarelos,Area M. Porto,309,2025-03-20T09:26:00Z,25117898,Em despacho,3301,Queda de árvore,0,1,0,3,2025-03-20T09:26:00Z,Porto,Porto,Norte,-8.6594,41.14936
25117901,Campelo,Região de Leiria,310,2025-03-20T09:27:00Z,25117901,Em despacho,3301,Queda de árvore,0,1,0,2,2025-03-20T09:27:00Z,Figueiró Dos Vinhos,Leiria,Centro,-8.26543,39.99919
25117932,"Cristelos, Boim e Ordem",Tâmega e Sousa,309,2025-03-20T09:21:00Z,25117932,Em despacho,3301,Queda de árvore,0,1,0,2,2025-03-20T09:21:00Z,Lousada,Porto,Norte,-8.296661,41.280102
25117950,Sebal e Belide,Região de Coimbra,310,2025-03-20T09:22:00Z,25117950,Em despacho,3301,Queda de árvore,0,1,0,3,2025-03-20T09:22:00Z,Condeixa-a-Nova,Coimbra,Centro,-8.540168,40.118753
25117999,Torrão,Alentejo Litoral,312,2025-03-20T09:34:00Z,25117999,Em despacho,3311,Queda de elementos de estruturas edificados,0,2,0,6,2025-03-20T09:34:00Z,Alcácer Do Sal,Setúbal,Alentejo,-8.22631,38.29288
25118051,Bensafrim e Barão de São João,Algarve,313,2025-03-20T09:38:00Z,25118051,Em despacho,3321,Dano na rede de fornecimento de eletricidade ,0,0,0,0,2025-03-20T09:38:00Z,Lagos,Faro,Algarve,-8.72122,37.12654
25118084,Constância,Médio Tejo,311,2025-03-20T09:39:00Z,25118084,Em despacho,3301,Queda de árvore,0,1,0,5,2025-03-20T09:39:00Z,Constância,Santarém,Centro,-8.325852,39.483358
25115735,Palmela,Península de Setúbal,311,2025-03-20T06:03:00Z,25115735,Em curso,3301,Queda de árvore,0,0,0,0,2025-03-20T06:03:00Z,Palmela,Setúbal,Área Metropolitana De Lisboa,-8.92673,38.57614
25115752,Forno Telheiro,Beiras e Serra da Estrela,310,2025-03-20T06:06:00Z,25115752,Em curso,3301,Queda de árvore,0,1,0,2,2025-03-20T06:06:00Z,Celorico Da Beira,Guarda,Centro,-7.389122,40.677411
25115754,Muxagata,Beiras e Serra da Estrela,310,2025-03-20T06:07:00Z,25115754,Em despacho,3301,Queda de árvore,0,1,0,2,2025-03-20T06:07:00Z,Fornos De Algodres,Guarda,Centro,-7.471552,40.647
25115771,Mafra,Grande Lisboa,311,2025-03-20T06:09:00Z,25115771,Em despacho,3301,Queda de árvore,0,0,0,0,2025-03-20T06:09:00Z,Mafra,Lisboa,Área Metropolitana De Lisboa,-9.33189,38.9307
25115784,São Cosmado,Douro,309,2025-03-20T06:10:00Z,25115784,Em conclusão,3301,Queda de árvore,0,0,0,0,2025-03-20T06:10:00Z,Armamar,Viseu,Norte,-7.62187,41.05919
25115818,Santiago Dos Velhos,Oeste,311,2025-03-20T06:13:00Z,25115818,Em despacho,3301,Queda de árvore,0,0,0,0,2025-03-20T06:13:00Z,Arruda Dos Vinhos,Lisboa,Centro,-9.118066,38.939012
25116020,São José da Lamarosa,Lezíria do Tejo,311,2025-03-20T06:38:00Z,25116020,Em curso,3301,Queda de árvore,0,0,0,0,2025-03-20T06:38:00Z,Coruche,Santarém,Alentejo,-8.528322,38.96189
25116038,"Algodres, Vale de Afonsinho e Vilar de Amargo",Beiras e Serra da Estrela,310,2025-03-20T06:40:00Z,25116038,Em curso,3301,Queda de árvore,0,1,0,2,2025-03-20T06:40:00Z,Figueira De Castelo Rodrigo,Guarda,Centro,-7.013253,40.946134
25116069,São João Das Lampas e Terrugem,Grande Lisboa,311,2025-03-20T06:44:00Z,25116069,Em despacho,3301,Queda de árvore,0,0,0,0,2025-03-20T06:44:00Z,Sintra,Lisboa,Área Metropolitana De Lisboa,-9.412176,38.875807
25116071,Cascais e Estoril,Grande Lisboa,311,2025-03-20T01:02:00Z,25116071,Em curso,3301,Queda de árvore,0,0,0,0,2025-03-20T01:02:00Z,Cascais,Lisboa,Área Metropolitana De Lisboa,-9.431354,38.711316
25116088,Sines,Alentejo Litoral,312,2025-03-20T06:48:00Z,25116088,Em conclusão,3301,Queda de árvore,0,4,0,11,2025-03-20T06:48:00Z,Sines,Setúbal,Alentejo,-8.862668,37.95764
25118169,Relíquias,Alentejo Litoral,312,2025-03-20T09:29:00Z,25118169,Em despacho,3301,Queda de árvore,0,1,0,1,2025-03-20T09:29:00Z,Odemira,Beja,Alentejo,-8.483451,37.699449
25118185,São Domingos de Rana,Grande Lisboa,311,2025-03-20T09:48:00Z,25118185,Em despacho,3321,Dano na rede de fornecimento de eletricidade ,0,0,0,0,2025-03-20T09:48:00Z,Cascais,Lisboa,Área Metropolitana De Lisboa,-9.3354,38.72563
25118232,Palmela,Península de Setúbal,311,2025-03-20T09:49:00Z,25118232,Em curso,3311,Queda de elementos de estruturas edificados,0,0,0,0,2025-03-20T09:49:00Z,Palmela,Setúbal,Área Metropolitana De Lisboa,-8.921407,38.572086
25118319,Cacia,Região de Aveiro,310,2025-03-20T09:59:00Z,25118319,Em curso,3321,Dano na rede de fornecimento de eletricidade ,0,1,0,3,2025-03-20T09:59:00Z,Aveiro,Aveiro,Centro,-8.60831,40.65669
25118333,Quinta do Anjo,Península de Setúbal,311,2025-03-20T09:57:00Z,25118333,Em curso,3311,Queda de elementos de estruturas edificados,0,0,0,0,2025-03-20T09:57:00Z,Palmela,Setúbal,Área Metropolitana De Lisboa,-8.968323,38.56095
25118368,Poceirão e Marateca,Península de Setúbal,311,2025-03-20T10:00:00Z,25118368,Em curso,3301,Queda de árvore,0,3,0,6,2025-03-20T10:00:00Z,Palmela,Setúbal,Área Metropolitana De Lisboa,-8.771449,38.612637
25118384,Sande Vila Nova e Sande São Clemente,Ave,309,2025-03-20T10:00:00Z,25118384,Em despacho,3301,Queda de árvore,0,1,0,3,2025-03-20T10:00:00Z,Guimarães,Braga,Norte,-8.367682,41.47926
25118403,Vila Fernando,Beiras e Serra da Estrela,310,2025-03-20T09:45:00Z,25118403,Em despacho,3301,Queda de árvore,0,1,0,2,2025-03-20T09:45:00Z,Guarda,Guarda,Centro,-7.152898,40.494463
25118416,Samora Correia,Lezíria do Tejo,311,2025-03-20T10:04:00Z,25118416,Em despacho,3301,Queda de árvore,0,1,0,7,2025-03-20T10:04:00Z,Benavente,Santarém,Alentejo,-8.874712,38.939013
25118419,Monchique,Algarve,313,2025-03-20T09:00:00Z,25118419,Em despacho,3301,Queda de árvore,0,1,0,2,2025-03-20T09:00:00Z,Monchique,Faro,Algarve,-8.532382,37.308262
25116118,Ramada e Caneças,Grande Lisboa,311,2025-03-20T06:51:00Z,25116118,Em despacho,3301,Queda de árvore,0,0,0,0,2025-03-20T06:51:00Z,Odivelas,Lisboa,Área Metropolitana De Lisboa,-9.18996,38.80133
25116185,Sesimbra (Castelo),Península de Setúbal,311,2025-03-20T06:58:00Z,25116185,Em curso,3301,Queda de árvore,0,0,0,0,2025-03-20T06:58:00Z,Sesimbra,Setúbal,Área Metropolitana De Lisboa,-9.107945,38.48849
25116205,Charneca de Caparica e Sobreda,Península de Setúbal,311,2025-03-20T07:00:00Z,25116205,Em curso,3301,Queda de árvore,0,0,0,0,2025-03-20T07:00:00Z,Almada,Setúbal,Área Metropolitana De Lisboa,-9.17532,38.61999
25116219,"Oeiras e S. Julião da Barra, Paço de Arcos e Caxias",Grande Lisboa,311,2025-03-20T07:01:00Z,25116219,Em despacho,3301,Queda de árvore,0,0,0,0,2025-03-20T07:01:00Z,Oeiras,Lisboa,Área Metropolitana De Lisboa,-9.290593,38.696925
25116236,Laranjeiro e Feijó,Península de Setúbal,311,2025-03-20T07:04:00Z,25116236,Em curso,3311,Queda de elementos de estruturas edificados,0,0,0,0,2025-03-20T07:04:00Z,Almada,Setúbal,Área Metropolitana De Lisboa,-9.15521,38.65175
25116337,"Manique do Intendente, V. N. de São Pedro e Maçussa",Lezíria do Tejo,311,2025-03-20T07:14:00Z,25116337,Em despacho,3301,Queda de árvore,0,0,0,0,2025-03-20T07:14:00Z,Azambuja,Lisboa,Alentejo,-8.866807,39.19454
25116355,Charneca de Caparica e Sobreda,Península de Setúbal,311,2025-03-20T07:16:00Z,25116355,Em curso,3301,Queda de árvore,0,0,0,0,2025-03-20T07:16:00Z,Almada,Setúbal,Área Metropolitana De Lisboa,-9.16489,38.57347
25116419,Azeitão (São Lourenço e São Simão),Península de Setúbal,311,2025-03-20T07:23:00Z,25116419,Em curso,3301,Queda de árvore,0,0,0,0,2025-03-20T07:23:00Z,Setúbal,Setúbal,Área Metropolitana De Lisboa,-9.021252,38.55099
25113156,Baixa da Banheira e Vale da Amoreira,Península de Setúbal,311,2025-03-20T01:23:00Z,25113156,Em curso,3311,Queda de elementos de estruturas edificados,0,0,0,0,2025-03-20T01:23:00Z,Moita,Setúbal,Área Metropolitana De Lisboa,-9.04162,38.65316
25113158,Santo Antão e São Julião do Tojal,Grande Lisboa,311,2025-03-20T01:23:00Z,25113158,Em despacho,3329,Queda de estruturas temporárias ou móveis,0,0,0,0,2025-03-20T01:23:00Z,Loures,Lisboa,Área Metropolitana De Lisboa,-9.122308,38.86943
25113215,Charneca de Caparica e Sobreda,Península de Setúbal,311,2025-03-20T01:29:00Z,25113215,Em curso,3301,Queda de árvore,0,0,0,0,2025-03-20T01:29:00Z,Almada,Setúbal,Área Metropolitana De Lisboa,-9.16891,38.57109
25113256,"Almada, Cova da Piedade, Pragal e Cacilhas",Península de Setúbal,311,2025-03-20T01:33:00Z,25113256,Em curso,3321,Dano na rede de fornecimento de eletricidade ,0,0,0,0,2025-03-20T01:33:00Z,Almada,Setúbal,Área Metropolitana De Lisboa,-9.16659,38.67428
25113281,"Almargem do Bispo, Pêro Pinheiro e Montelavar",Grande Lisboa,311,2025-03-20T01:36:00Z,25113281,Em despacho,3311,Queda de elementos de estruturas edificados,0,0,0,0,2025-03-20T01:36:00Z,Sintra,Lisboa,Área Metropolitana De Lisboa,-9.286858,38.81957
25113308,"Seixal, Arrentela e Aldeia de Paio Pires",Península de Setúbal,311,2025-03-20T01:38:00Z,25113308,Em curso,3311,Queda de elementos de estruturas edificados,0,0,0,0,2025-03-20T01:38:00Z,Seixal,Setúbal,Área Metropolitana De Lisboa,-9.0728,38.58636
25113333,Mina de Água,Grande Lisboa,311,2025-03-20T01:41:00Z,25113333,Em despacho,3311,Queda de elementos de estruturas edificados,0,0,0,0,2025-03-20T01:41:00Z,Amadora,Lisboa,Área Metropolitana De Lisboa,-9.24209,38.77874
25113367,Charneca de Caparica e Sobreda,Península de Setúbal,311,2025-03-20T01:45:00Z,25113367,Em curso,3301,Queda de árvore,0,0,0,0,2025-03-20T01:45:00Z,Almada,Setúbal,Área Metropolitana De Lisboa,-9.17951,38.59582
25113376,"Santa Iria de Azoia, São João da Talha e Bobadela",Grande Lisboa,311,2025-03-20T01:45:00Z,25113376,Em despacho,3311,Queda de elementos de estruturas edificados,0,0,0,0,2025-03-20T01:45:00Z,Loures,Lisboa,Área Metropolitana De Lisboa,-9.098026,38.83377
25113399,"Oeiras e S. Julião da Barra, Paço de Arcos e Caxias",Grande Lisboa,311,2025-03-20T01:47:00Z,25113399,Em despacho,3301,Queda de árvore,0,0,0,0,2025-03-20T01:47:00Z,Oeiras,Lisboa,Área Metropolitana De Lisboa,-9.275682,38.698873
25113426,Queluz e Belas,Grande Lisboa,311,2025-03-20T01:49:00Z,25113426,Em despacho,3311,Queda de elementos de estruturas edificados,0,0,0,0,2025-03-20T01:49:00Z,Sintra,Lisboa,Área Metropolitana De Lisboa,-9.27789,38.76549
25113510,Fernão Ferro,Península de Setúbal,311,2025-03-20T01:59:00Z,25113510,Em curso,3301,Queda de árvore,0,0,0,0,2025-03-20T01:59:00Z,Seixal,Setúbal,Área Metropolitana De Lisboa,-9.10545,38.57734
25113515,Rio de Mouro,Grande Lisboa,311,2025-03-20T01:59:00Z,25113515,Em despacho,3311,Queda de elementos de estruturas edificados,0,0,0,0,2025-03-20T01:59:00Z,Sintra,Lisboa,Área Metropolitana De Lisboa,-9.314418,38.78093
25113769,Quinta do Anjo,Península de Setúbal,311,2025-03-20T02:26:00Z,25113769,Em curso,3301,Queda de árvore,0,0,0,0,2025-03-20T02:26:00Z,Palmela,Setúbal,Área Metropolitana De Lisboa,-8.9956,38.59028
25113776,Algueirão-Mem Martins,Grande Lisboa,311,2025-03-20T02:26:00Z,25113776,Em despacho,3311,Queda de elementos de estruturas edificados,0,0,0,0,2025-03-20T02:26:00Z,Sintra,Lisboa,Área Metropolitana De Lisboa,-9.342778,38.79861
25113794,Ramada e Caneças,Grande Lisboa,311,2025-03-20T02:28:00Z,25113794,Em despacho,3311,Queda de elementos de estruturas edificados,0,0,0,0,2025-03-20T02:28:00Z,Odivelas,Lisboa,Área Metropolitana De Lisboa,-9.209321,38.80893
25113700,São João Das Lampas e Terrugem,Grande Lisboa,311,2025-03-20T02:19:00Z,25113700,Em despacho,3321,Dano na rede de fornecimento de eletricidade ,0,0,0,0,2025-03-20T02:19:00Z,Sintra,Lisboa,Área Metropolitana De Lisboa,-9.39833,38.92588
25113768,São João Das Lampas e Terrugem,Grande Lisboa,311,2025-03-20T02:26:00Z,25113768,Em despacho,3301,Queda de árvore,0,0,0,0,2025-03-20T02:26:00Z,Sintra,Lisboa,Área Metropolitana De Lisboa,-9.41128,38.85702
25113875,Charneca de Caparica e Sobreda,Península de Setúbal,311,2025-03-20T02:35:00Z,25113875,Em curso,3321,Dano na rede de fornecimento de eletricidade ,0,0,0,0,2025-03-20T02:35:00Z,Almada,Setúbal,Área Metropolitana De Lisboa,-9.17345,38.58643
25113911,Sapataria,Oeste,311,2025-03-20T02:15:00Z,25113911,Em despacho,3301,Queda de árvore,0,1,0,3,2025-03-20T02:15:00Z,Sobral De Monte Agraço,Lisboa,Centro,-9.198053,38.966232
25113927,"Almada, Cova da Piedade, Pragal e Cacilhas",Península de Setúbal,311,2025-03-20T02:38:00Z,25113927,Em curso,3301,Queda de árvore,0,0,0,0,2025-03-20T02:38:00Z,Almada,Setúbal,Área Metropolitana De Lisboa,-9.16689,38.67327
25113968,Beja (Santiago Maior e São João Baptista),Baixo Alentejo,312,2025-03-20T01:55:00Z,25113968,Em conclusão,3301,Queda de árvore,0,0,0,0,2025-03-20T01:55:00Z,Beja,Beja,Alentejo,-7.87003,38.014111
25113970,Pontinha e Famões,Grande Lisboa,311,2025-03-20T02:43:00Z,25113970,Em curso,3315,Inundação de estruturas por precipitação intensa,0,0,0,0,2025-03-20T02:43:00Z,Odivelas,Lisboa,Área Metropolitana De Lisboa,-9.19871,38.76359
25113993,Corroios,Península de Setúbal,311,2025-03-20T02:45:00Z,25113993,Em curso,3301,Queda de árvore,0,0,0,0,2025-03-20T02:45:00Z,Seixal,Setúbal,Área Metropolitana De Lisboa,-9.1512,38.58007
25113995,"Oeiras e S. Julião da Barra, Paço de Arcos e Caxias",Grande Lisboa,311,2025-03-20T02:45:00Z,25113995,Em despacho,3301,Queda de árvore,0,0,0,0,2025-03-20T02:45:00Z,Oeiras,Lisboa,Área Metropolitana De Lisboa,-9.272,38.70125
25114136,Azambuja,Lezíria do Tejo,311,2025-03-20T02:57:00Z,25114136,Em despacho,3301,Queda de árvore,0,0,0,0,2025-03-20T02:57:00Z,Azambuja,Lisboa,Alentejo,-8.864506,39.067885
25114159,"Oeiras e S. Julião da Barra, Paço de Arcos e Caxias",Grande Lisboa,311,2025-03-20T03:00:00Z,25114159,Em despacho,3301,Queda de árvore,0,0,0,0,2025-03-20T03:00:00Z,Oeiras,Lisboa,Área Metropolitana De Lisboa,-9.29439,38.70243
25114184,Ramada e Caneças,Grande Lisboa,311,2025-03-20T03:03:00Z,25114184,Em despacho,3311,Queda de elementos de estruturas edificados,0,0,0,0,2025-03-20T03:03:00Z,Odivelas,Lisboa,Área Metropolitana De Lisboa,-9.18865,38.81316
25114234,Carvalhal,Oeste,311,2025-03-20T03:08:00Z,25114234,Em despacho,3311,Queda de elementos de estruturas edificados,0,0,0,0,2025-03-20T03:08:00Z,Bombarral,Leiria,Centro,-9.12731,39.28677
25114284,Serpa (Salvador e Santa Maria),Baixo Alentejo,312,2025-03-20T03:05:00Z,25114284,Em despacho,3301,Queda de árvore,0,0,0,0,2025-03-20T03:05:00Z,Serpa,Beja,Alentejo,-7.497192,37.804577
25114293,Lousa,Grande Lisboa,311,2025-03-20T03:13:00Z,25114293,Em despacho,3311,Queda de elementos de estruturas edificados,0,0,0,0,2025-03-20T03:13:00Z,Loures,Lisboa,Área Metropolitana De Lisboa,-9.20461,38.88559
25114345,Charneca de Caparica e Sobreda,Península de Setúbal,311,2025-03-20T03:17:00Z,25114345,Em curso,3301,Queda de árvore,0,0,0,0,2025-03-20T03:17:00Z,Almada,Setúbal,Área Metropolitana De Lisboa,-9.17936,38.61397
25114370,Charneca de Caparica e Sobreda,Península de Setúbal,311,2025-03-20T03:20:00Z,25114370,Em curso,3301,Queda de árvore,0,0,0,0,2025-03-20T03:20:00Z,Almada,Setúbal,Área Metropolitana De Lisboa,-9.17923,38.60275
25116489,Cascais e Estoril,Grande Lisboa,311,2025-03-20T07:31:00Z,25116489,Em despacho,3321,Dano na rede de fornecimento de eletricidade ,0,0,0,0,2025-03-20T07:31:00Z,Cascais,Lisboa,Área Metropolitana De Lisboa,-9.423598,38.69581
25116520,Charneca de Caparica e Sobreda,Península de Setúbal,311,2025-03-20T07:31:00Z,25116520,Em curso,3301,Queda de árvore,0,0,0,0,2025-03-20T07:31:00Z,Almada,Setúbal,Área Metropolitana De Lisboa,-9.190193,38.591584
25116521,Rebordosa,Area M. Porto,309,2025-03-20T07:25:00Z,25116521,Em despacho,3311,Queda de elementos de estruturas edificados,0,1,0,2,2025-03-20T07:25:00Z,Paredes,Porto,Norte,-8.413867,41.217556
25116522,Charneca de Caparica e Sobreda,Península de Setúbal,311,2025-03-20T07:34:00Z,25116522,Em curso,3301,Queda de árvore,0,0,0,0,2025-03-20T07:34:00Z,Almada,Setúbal,Área Metropolitana De Lisboa,-9.18201,38.59065
25116555,Corroios,Península de Setúbal,311,2025-03-20T07:37:00Z,25116555,Em curso,3301,Queda de árvore,0,0,0,0,2025-03-20T07:37:00Z,Seixal,Setúbal,Área Metropolitana De Lisboa,-9.14265,38.65118
25116621,Azeitão (São Lourenço e São Simão),Península de Setúbal,311,2025-03-20T07:44:00Z,25116621,Em curso,3301,Queda de árvore,0,0,0,0,2025-03-20T07:44:00Z,Setúbal,Setúbal,Área Metropolitana De Lisboa,-8.97827,38.53688
25116705,Barcarena,Grande Lisboa,311,2025-03-20T07:52:00Z,25116705,Em despacho,3321,Dano na rede de fornecimento de eletricidade ,0,0,0,0,2025-03-20T07:52:00Z,Oeiras,Lisboa,Área Metropolitana De Lisboa,-9.26642,38.74477
25116740,Cascais e Estoril,Grande Lisboa,311,2025-03-20T07:56:00Z,25116740,Em despacho,3301,Queda de árvore,0,0,0,0,2025-03-20T07:56:00Z,Cascais,Lisboa,Área Metropolitana De Lisboa,-9.4369980000000009,38.71302
25116753,Seixo de Gatões,Região de Coimbra,310,2025-03-20T07:57:00Z,25116753,Em despacho,3301,Queda de árvore,0,0,0,0,2025-03-20T07:57:00Z,Montemor-o-Velho,Coimbra,Centro,-8.69356,40.24128
25118435,Carregado e Cadafais,Oeste,311,2025-03-20T10:06:00Z,25118435,Em despacho,3301,Queda de árvore,0,0,0,0,2025-03-20T10:06:00Z,Alenquer,Lisboa,Centro,-8.9748,39.02184
25118518,Cascais e Estoril,Grande Lisboa,311,2025-03-20T10:14:00Z,25118518,Em despacho,3301,Queda de árvore,0,0,0,0,2025-03-20T10:14:00Z,Cascais,Lisboa,Área Metropolitana De Lisboa,-9.38753,38.71667
25118533,Sernancelhe e Sarzeda,Douro,309,2025-03-20T10:10:00Z,25118533,Em curso,3301,Queda de árvore,0,1,0,2,2025-03-20T10:10:00Z,Sernancelhe,Viseu,Norte,-7.443176,40.9432
25118587,Santo António da Charneca,Península de Setúbal,311,2025-03-20T10:19:00Z,25118587,Em curso,3329,Queda de estruturas temporárias ou móveis,0,0,0,0,2025-03-20T10:19:00Z,Barreiro,Setúbal,Área Metropolitana De Lisboa,-9.022,38.62731
25118603,Alguber,Oeste,311,2025-03-20T09:47:00Z,25118603,Em despacho,3301,Queda de árvore,0,1,0,3,2025-03-20T09:47:00Z,Cadaval,Lisboa,Centro,-8.997652,39.278642
25118618,Mascarenhas,Terras de Trás-os-Montes,309,2025-03-20T10:15:00Z,25118618,Em despacho,3301,Queda de árvore,0,2,0,4,2025-03-20T10:15:00Z,Mirandela,Bragança,Norte,-7.164331,41.575078
25118634,Quinta do Conde,Península de Setúbal,311,2025-03-20T10:18:00Z,25118634,Em curso,3301,Queda de árvore,0,1,0,4,2025-03-20T10:18:00Z,Sesimbra,Setúbal,Área Metropolitana De Lisboa,-9.03613,38.570355
25118636,Beja (Salvador e Santa Maria da Feira),Baixo Alentejo,312,2025-03-20T09:52:00Z,25118636,Em curso,3301,Queda de árvore,0,1,0,2,2025-03-20T09:52:00Z,Beja,Beja,Alentejo,-7.857487,38.018587
25118653,Lamas e Cercal,Oeste,311,2025-03-20T09:54:00Z,25118653,Em despacho,3301,Queda de árvore,0,1,0,3,2025-03-20T09:54:00Z,Cadaval,Lisboa,Centro,-9.083633,39.209517
25118684,Prova e Casteição,Beiras e Serra da Estrela,310,2025-03-20T10:25:00Z,25118684,Em despacho,3301,Queda de árvore,0,1,0,2,2025-03-20T10:25:00Z,Mêda,Guarda,Centro,-7.343765,40.91465
25118687,Colares,Grande Lisboa,311,2025-03-20T10:26:00Z,25118687,Em despacho,3301,Queda de árvore,0,0,0,0,2025-03-20T10:26:00Z,Sintra,Lisboa,Área Metropolitana De Lisboa,-9.445808,38.824992
25118718,Bombarral e Vale Covo,Oeste,311,2025-03-20T10:25:00Z,25118718,Em despacho,3301,Queda de árvore,0,1,0,2,2025-03-20T10:25:00Z,Bombarral,Leiria,Centro,-9.188369,39.245543
25118719,Feitosa,Alto Minho,309,2025-03-20T09:40:00Z,25118719,Em conclusão,3313,Deslizamento de terras,0,1,0,5,2025-03-20T09:40:00Z,Ponte De Lima,Viana Do Castelo,Norte,-8.574012,41.748117
25118768,"Tamengos, Aguim e Óis do Bairro",Região de Aveiro,310,2025-03-20T10:31:00Z,25118768,Em despacho,3301,Queda de árvore,0,1,0,2,2025-03-20T10:31:00Z,Anadia,Aveiro,Centro,-8.50194,40.423273
25118785,Bougado (São Martinho e Santiago),Area M. Porto,309,2025-03-20T10:33:00Z,25118785,Em despacho,3311,Queda de elementos de estruturas edificados,0,2,0,3,2025-03-20T10:33:00Z,Trofa,Porto,Norte,-8.577499,41.32978
25118819,"Britelo, Gémeos e Ourilhe",Tâmega e Sousa,309,2025-03-20T10:38:00Z,25118819,Em despacho,3301,Queda de árvore,0,0,0,0,2025-03-20T10:38:00Z,Celorico De Basto,Braga,Norte,-8.00007,41.38742
25118904,Peniche,Oeste,311,2025-03-20T10:32:00Z,25118904,Em despacho,3301,Queda de árvore,0,2,0,9,2025-03-20T10:32:00Z,Peniche,Leiria,Centro,-9.376833,39.357166
25118936,Reguengo Grande,Oeste,311,2025-03-20T10:35:00Z,25118936,Em despacho,3301,Queda de árvore,0,4,0,8,2025-03-20T10:35:00Z,Lourinhã,Lisboa,Centro,-9.223631,39.278543
25118969,Igrejinha,Alentejo Central,312,2025-03-20T10:31:00Z,25118969,Em despacho,3315,Inundação de estruturas por precipitação intensa,0,1,0,2,2025-03-20T10:31:00Z,Arraiolos,Évora,Alentejo,-7.889471,38.693718
25119021,Arranhó,Oeste,311,2025-03-20T10:50:00Z,25119021,Em despacho,3301,Queda de árvore,0,3,0,9,2025-03-20T10:50:00Z,Arruda Dos Vinhos,Lisboa,Centro,-9.132157,38.956907
25119035,Aljubarrota,Oeste,311,2025-03-20T10:50:00Z,25119035,Em despacho,3301,Queda de árvore,0,2,0,4,2025-03-20T10:50:00Z,Alcobaça,Leiria,Centro,-8.941861,39.565461
25119038,"Almada, Cova da Piedade, Pragal e Cacilhas",Península de Setúbal,311,2025-03-20T10:52:00Z,25119038,Em curso,3311,Queda de elementos de estruturas edificados,0,0,0,0,2025-03-20T10:52:00Z,Almada,Setúbal,Área Metropolitana De Lisboa,-9.168395,38.671949
25119053,Vendas Novas,Alentejo Central,312,2025-03-20T10:00:00Z,25119053,Em despacho,3311,Queda de elementos de estruturas edificados,0,1,0,2,2025-03-20T10:00:00Z,Vendas Novas,Évora,Alentejo,-8.467471,38.671556
25119085,Ourentã,Região de Coimbra,310,2025-03-20T00:00:00Z,25119085,Em despacho,3321,Dano na rede de fornecimento de eletricidade ,0,1,0,1,2025-03-20T00:00:00Z,Cantanhede,Coimbra,Centro,-8.552372,40.385278
25119101,Canelas,Area M. Porto,309,2025-03-20T10:45:00Z,25119101,Em conclusão,3301,Queda de árvore,0,1,0,4,2025-03-20T10:45:00Z,Vila Nova De Gaia,Porto,Norte,-8.599603,41.079376
25119102,Parada e Sendim da Ribeira,Terras de Trás-os-Montes,309,2025-03-20T10:58:00Z,25119102,Em despacho,3301,Queda de árvore,0,1,0,2,2025-03-20T10:58:00Z,Alfândega Da Fé,Bragança,Norte,-6.880611,41.303132
25119105,Manteigas (Santa Maria),Beiras e Serra da Estrela,310,2025-03-20T10:50:00Z,25119105,Em despacho,3301,Queda de árvore,0,1,0,2,2025-03-20T10:50:00Z,Manteigas,Guarda,Centro,-7.537826,40.403513
25119118,Avintes,Area M. Porto,309,2025-03-20T10:26:00Z,25119118,Em resolução,3301,Queda de árvore,0,2,0,3,2025-03-20T10:26:00Z,Vila Nova De Gaia,Porto,Norte,-8.551032,41.11378
25119119,Telões,Tâmega e Sousa,309,2025-03-20T11:00:00Z,25119119,Em despacho,3301,Queda de árvore,0,2,0,4,2025-03-20T11:00:00Z,Amarante,Porto,Norte,-8.108058,41.310832
25119120,Areosa,Alto Minho,309,2025-03-20T10:54:00Z,25119120,Em despacho,3301,Queda de árvore,0,2,0,4,2025-03-20T10:54:00Z,Viana Do Castelo,Viana Do Castelo,Norte,-8.841057,41.722906
25119185,a Dos Negros,Oeste,311,2025-03-20T11:05:00Z,25119185,Em despacho,3301,Queda de árvore,0,1,0,4,2025-03-20T11:05:00Z,Óbidos,Leiria,Centro,-9.097575,39.342525
25119205,São Manços e São Vicente do Pigeiro,Alentejo Central,312,2025-03-20T11:00:00Z,25119205,Em despacho,3301,Queda de árvore,0,2,0,4,2025-03-20T11:00:00Z,Évora,Évora,Alentejo,-7.749269,38.460617
25119221,Charneca de Caparica e Sobreda,Península de Setúbal,311,2025-03-20T11:06:00Z,25119221,Em curso,3311,Queda de elementos de estruturas edificados,0,0,0,0,2025-03-20T11:06:00Z,Almada,Setúbal,Área Metropolitana De Lisboa,-9.190193,38.591584
25114377,Santa Marinha e São Pedro da Afurada,Area M. Porto,309,2025-03-20T03:21:00Z,25114377,Em resolução,3311,Queda de elementos de estruturas edificados,0,1,0,2,2025-03-20T03:21:00Z,Vila Nova De Gaia,Porto,Norte,-8.62524,41.13787
25114395,Corroios,Península de Setúbal,311,2025-03-20T03:23:00Z,25114395,Em curso,3301,Queda de árvore,0,0,0,0,2025-03-20T03:23:00Z,Seixal,Setúbal,Área Metropolitana De Lisboa,-9.156315,38.57963
25114443,Ericeira,Grande Lisboa,311,2025-03-20T03:27:00Z,25114443,Em despacho,3311,Queda de elementos de estruturas edificados,0,0,0,0,2025-03-20T03:27:00Z,Mafra,Lisboa,Área Metropolitana De Lisboa,-9.41106,38.95243
25114688,Casal de Cinza,Beiras e Serra da Estrela,310,2025-03-20T03:39:00Z,25114688,Em curso,3301,Queda de árvore,0,1,0,2,2025-03-20T03:39:00Z,Guarda,Guarda,Centro,-7.216219,40.521998
25114736,Águas Livres,Grande Lisboa,311,2025-03-20T03:58:00Z,25114736,Em despacho,3301,Queda de árvore,0,0,0,0,2025-03-20T03:58:00Z,Amadora,Lisboa,Área Metropolitana De Lisboa,-9.23008,38.74993
25114863,Arazede,Região de Coimbra,310,2025-03-20T04:09:00Z,25114863,Em curso,3301,Queda de árvore,0,0,0,0,2025-03-20T04:09:00Z,Montemor-o-Velho,Coimbra,Centro,-8.631626,40.273294
25114895,Fazendas de Almeirim,Lezíria do Tejo,311,2025-03-20T03:35:00Z,25114895,Em conclusão,3329,Queda de estruturas temporárias ou móveis,0,0,0,0,2025-03-20T03:35:00Z,Alpiarça,Santarém,Alentejo,-8.564325,39.191508
25115011,Cascais e Estoril,Grande Lisboa,311,2025-03-20T04:27:00Z,25115011,Em despacho,3301,Queda de árvore,0,0,0,0,2025-03-20T04:27:00Z,Cascais,Lisboa,Área Metropolitana De Lisboa,-9.4475,38.73306
25115111,Louredo e Fornelos,Douro,309,2025-03-20T04:40:00Z,25115111,Em despacho,3301,Queda de árvore,0,1,0,2,2025-03-20T04:40:00Z,Santa Marta De Penaguião,Vila Real,Norte,-7.827533,41.228123
25115156,Charneca de Caparica e Sobreda,Península de Setúbal,311,2025-03-20T04:46:00Z,25115156,Em curso,3301,Queda de árvore,0,0,0,0,2025-03-20T04:46:00Z,Almada,Setúbal,Área Metropolitana De Lisboa,-9.199091,38.62959
25116770,Alcabideche,Grande Lisboa,311,2025-03-20T07:54:00Z,25116770,Em despacho,3301,Queda de árvore,0,1,0,4,2025-03-20T07:54:00Z,Cascais,Lisboa,Área Metropolitana De Lisboa,-9.438785,38.755713
25116871,Alcabideche,Grande Lisboa,311,2025-03-20T07:59:00Z,25116871,Em despacho,3301,Queda de árvore,0,1,0,4,2025-03-20T07:59:00Z,Cascais,Lisboa,Área Metropolitana De Lisboa,-9.417389,38.717218
25116907,Azeitão (São Lourenço e São Simão),Península de Setúbal,311,2025-03-20T08:10:00Z,25116907,Em curso,3301,Queda de árvore,0,0,0,0,2025-03-20T08:10:00Z,Setúbal,Setúbal,Área Metropolitana De Lisboa,-9.03793,38.49461
25116920,Beja (Santiago Maior e São João Baptista),Baixo Alentejo,312,2025-03-20T06:57:00Z,25116920,Em curso,3301,Queda de árvore,0,0,0,0,2025-03-20T06:57:00Z,Beja,Beja,Alentejo,-7.87003,38.014111
25116921,Quinta do Anjo,Península de Setúbal,311,2025-03-20T08:11:00Z,25116921,Em curso,3301,Queda de árvore,0,0,0,0,2025-03-20T08:11:00Z,Palmela,Setúbal,Área Metropolitana De Lisboa,-8.957607,38.61941
25116957,Azeitão (São Lourenço e São Simão),Península de Setúbal,311,2025-03-20T08:14:00Z,25116957,Em curso,3301,Queda de árvore,0,0,0,0,2025-03-20T08:14:00Z,Setúbal,Setúbal,Área Metropolitana De Lisboa,-8.98916,38.53221
25117024,Rio de Mouro,Grande Lisboa,311,2025-03-20T08:16:00Z,25117024,Em despacho,3329,Queda de estruturas temporárias ou móveis,0,0,0,0,2025-03-20T08:16:00Z,Sintra,Lisboa,Área Metropolitana De Lisboa,-9.321906,38.783084
25117104,Caparica e Trafaria,Península de Setúbal,311,2025-03-20T08:25:00Z,25117104,Em curso,3301,Queda de árvore,0,0,0,0,2025-03-20T08:25:00Z,Almada,Setúbal,Área Metropolitana De Lisboa,-9.242237,38.66785
25117121,Setúbal (São Sebastião),Península de Setúbal,311,2025-03-20T08:27:00Z,25117121,Em curso,3301,Queda de árvore,0,0,0,0,2025-03-20T08:27:00Z,Setúbal,Setúbal,Área Metropolitana De Lisboa,-8.87882,38.52108
25117224,Beja (Santiago Maior e São João Baptista),Baixo Alentejo,312,2025-03-20T07:58:00Z,25117224,Em curso,3301,Queda de árvore,0,0,0,0,2025-03-20T07:58:00Z,Beja,Beja,Alentejo,-7.87003,38.014111
25119235,Cercal,Alentejo Litoral,312,2025-03-20T10:46:00Z,25119235,Em curso,3301,Queda de árvore,0,2,0,5,2025-03-20T10:46:00Z,Santiago Do Cacém,Setúbal,Alentejo,-8.697453,37.789037
25119237,Montargil,Alto Alentejo,312,2025-03-20T11:07:00Z,25119237,Em resolução,3301,Queda de árvore,0,1,0,3,2025-03-20T11:07:00Z,Ponte De Sor,Portalegre,Alentejo,-8.188117,39.098403
25119255,Pinhal Novo,Península de Setúbal,311,2025-03-20T10:30:00Z,25119255,Em curso,3301,Queda de árvore,0,1,0,3,2025-03-20T10:30:00Z,Palmela,Setúbal,Área Metropolitana De Lisboa,-8.91294,38.637902
25119270,Pinhal Novo,Península de Setúbal,311,2025-03-20T10:50:00Z,25119270,Em curso,3301,Queda de árvore,0,1,0,2,2025-03-20T10:50:00Z,Palmela,Setúbal,Área Metropolitana De Lisboa,-8.91294,38.637902
25119271,Oliveira do Conde,Viseu Dão Lafões,310,2025-03-20T11:08:00Z,25119271,Em despacho,3301,Queda de árvore,0,1,0,2,2025-03-20T11:08:00Z,Carregal Do Sal,Viseu,Centro,-7.968109,40.440859
25119272,Santa Marinha e São Pedro da Afurada,Area M. Porto,309,2025-03-20T10:52:00Z,25119272,Em despacho,3329,Queda de estruturas temporárias ou móveis,0,2,0,4,2025-03-20T10:52:00Z,Vila Nova De Gaia,Porto,Norte,-8.624714,41.132843
25119288,"Algés, Linda-a-Velha e Cruz Quebrada-Dafundo",Grande Lisboa,311,2025-03-20T11:02:00Z,25119288,Em despacho,3311,Queda de elementos de estruturas edificados,0,1,0,4,2025-03-20T11:02:00Z,Oeiras,Lisboa,Área Metropolitana De Lisboa,-9.22967,38.696612
25119338,Ramalde,Area M. Porto,309,2025-03-20T10:40:00Z,25119338,Em curso,3311,Queda de elementos de estruturas edificados,0,0,0,0,2025-03-20T10:40:00Z,Porto,Porto,Norte,-8.642922,41.17139
25119352,Peniche,Oeste,311,2025-03-20T11:15:00Z,25119352,Em curso,3311,Queda de elementos de estruturas edificados,0,1,0,3,2025-03-20T11:15:00Z,Peniche,Leiria,Centro,-9.39504,39.36911
25119371,Mira,Região de Coimbra,310,2025-03-20T11:15:00Z,25119371,Em despacho,3301,Queda de árvore,0,2,0,3,2025-03-20T11:15:00Z,Mira,Coimbra,Centro,-8.709003,40.385503
25119402,Cumeeira,Região de Coimbra,310,2025-03-20T11:16:00Z,25119402,Em despacho,3301,Queda de árvore,0,1,0,2,2025-03-20T11:16:00Z,Penela,Coimbra,Centro,-8.358926,39.94093
25119453,Tavarede,Região de Coimbra,310,2025-03-20T11:19:00Z,25119453,Em despacho,3301,Queda de árvore,0,1,0,2,2025-03-20T11:19:00Z,Figueira Da Foz,Coimbra,Centro,-8.853871,40.165854
25119454,Charneca de Caparica e Sobreda,Península de Setúbal,311,2025-03-20T09:11:00Z,25119454,Em curso,3301,Queda de árvore,0,1,0,3,2025-03-20T09:11:00Z,Almada,Setúbal,Área Metropolitana De Lisboa,-9.190193,38.591584
25119456,"Camarate, Unhos e Apelação",Grande Lisboa,311,2025-03-20T11:13:00Z,25119456,Em despacho,3301,Queda de árvore,0,1,0,3,2025-03-20T11:13:00Z,Loures,Lisboa,Área Metropolitana De Lisboa,-9.123232,38.812862
25119469,Parceiros e Azoia,Região de Leiria,310,2025-03-20T11:23:00Z,25119469,Em despacho,3311,Queda de elementos de estruturas edificados,0,0,0,0,2025-03-20T11:23:00Z,Leiria,Leiria,Centro,-8.843341,39.708972
25119486,Usseira,Oeste,311,2025-03-20T11:16:00Z,25119486,Em despacho,3301,Queda de árvore,0,1,0,4,2025-03-20T11:16:00Z,Óbidos,Leiria,Centro,-9.162999,39.332237
25119488,Nespereira,Beiras e Serra da Estrela,310,2025-03-20T11:26:00Z,25119488,Em despacho,3301,Queda de árvore,0,1,0,4,2025-03-20T11:26:00Z,Gouveia,Guarda,Centro,-7.609189,40.519941
25119489,Alvor,Algarve,313,2025-03-20T11:20:00Z,25119489,Em despacho,3301,Queda de árvore,0,2,0,3,2025-03-20T11:20:00Z,Portimão,Faro,Algarve,-8.5944680000000009,37.131433
25119503,Santiago Dos Velhos,Oeste,311,2025-03-20T11:22:00Z,25119503,Em despacho,3301,Queda de árvore,0,1,0,3,2025-03-20T11:22:00Z,Arruda Dos Vinhos,Lisboa,Centro,-9.105899,38.976945
25119504,"Santa Iria de Azoia, São João da Talha e Bobadela",Grande Lisboa,311,2025-03-20T11:28:00Z,25119504,Em despacho,3311,Queda de elementos de estruturas edificados,0,0,0,0,2025-03-20T11:28:00Z,Loures,Lisboa,Área Metropolitana De Lisboa,-9.08447,38.84343
25119536,"Seia, São Romão e Lapa Dos Dinheiros",Beiras e Serra da Estrela,310,2025-03-20T11:15:00Z,25119536,Em despacho,3301,Queda de árvore,0,1,0,2,2025-03-20T11:15:00Z,Seia,Guarda,Centro,-7.69261,40.394213
25119538,Vila Boa do Bispo,Tâmega e Sousa,309,2025-03-20T11:29:00Z,25119538,Em despacho,3301,Queda de árvore,0,1,0,2,2025-03-20T11:29:00Z,Marco De Canaveses,Porto,Norte,-8.220067,41.129816
25119553,Salvaterra de Magos e Foros de Salvaterra,Lezíria do Tejo,311,2025-03-20T11:31:00Z,25119553,Em despacho,3309,Desabamento de estruturas edificadas,0,1,0,5,2025-03-20T11:31:00Z,Salvaterra De Magos,Santarém,Alentejo,-8.790194,39.028695
25119556,"Cedofeita, Ildefonso, Sé, Miragaia, Nicolau e Vitória",Area M. Porto,309,2025-03-20T11:25:00Z,25119556,Em despacho,3311,Queda de elementos de estruturas edificados,0,1,0,4,2025-03-20T11:25:00Z,Porto,Porto,Norte,-8.615939,41.15359
25119570,"S.pedro e Santiago, S.maria e S.miguel e Matacães",Oeste,311,2025-03-20T10:50:00Z,25119570,Em despacho,3301,Queda de árvore,0,1,0,2,2025-03-20T10:50:00Z,Torres Vedras,Lisboa,Centro,-9.219623,39.093936
25119587,Maxial e Monte Redondo,Oeste,311,2025-03-20T11:00:00Z,25119587,Em despacho,3301,Queda de árvore,0,1,0,4,2025-03-20T11:00:00Z,Torres Vedras,Lisboa,Centro,-9.167305,39.152059
25119589,Santo António Dos Olivais,Região de Coimbra,310,2025-03-20T11:22:00Z,25119589,Em despacho,3301,Queda de árvore,0,1,0,2,2025-03-20T11:22:00Z,Coimbra,Coimbra,Centro,-8.400274,40.210754
25119622,Viseu,Viseu Dão Lafões,310,2025-03-20T11:21:00Z,25119622,Em despacho,3329,Queda de estruturas temporárias ou móveis,0,1,0,2,2025-03-20T11:21:00Z,Viseu,Viseu,Centro,-7.908374,40.661514
25119636,Quarteira,Algarve,313,2025-03-20T11:07:00Z,25119636,Em despacho,3301,Queda de árvore,0,2,0,7,2025-03-20T11:07:00Z,Loulé,Faro,Algarve,-8.089209,37.071056
25119638,Almeirim,Lezíria do Tejo,311,2025-03-20T11:39:00Z,25119638,Em despacho,3301,Queda de árvore,0,1,0,2,2025-03-20T11:39:00Z,Almeirim,Santarém,Alentejo,-8.588832,39.142251
25115288,Algueirão-Mem Martins,Grande Lisboa,311,2025-03-20T05:05:00Z,25115288,Em despacho,3301,Queda de árvore,0,0,0,0,2025-03-20T05:05:00Z,Sintra,Lisboa,Área Metropolitana De Lisboa,-9.340934,38.801232
25115365,São Cosmado,Douro,309,2025-03-20T05:15:00Z,25115365,Em despacho,3301,Queda de árvore,0,2,0,6,2025-03-20T05:15:00Z,Armamar,Viseu,Norte,-7.642505,41.025197
25115372,Sobral de Monte Agraço,Oeste,311,2025-03-20T05:10:00Z,25115372,Em curso,3301,Queda de árvore,0,3,0,4,2025-03-20T05:10:00Z,Sobral De Monte Agraço,Lisboa,Centro,-9.191789,39.010425
25115506,Corroios,Península de Setúbal,311,2025-03-20T05:33:00Z,25115506,Em curso,3301,Queda de árvore,0,0,0,0,2025-03-20T05:33:00Z,Seixal,Setúbal,Área Metropolitana De Lisboa,-9.159299,38.58192
25115538,Alfeizerão,Oeste,311,2025-03-20T05:35:00Z,25115538,Em curso,3301,Queda de árvore,0,2,0,4,2025-03-20T05:35:00Z,Alcobaça,Leiria,Centro,-9.076635,39.505098
25115574,Azeitão (São Lourenço e São Simão),Península de Setúbal,311,2025-03-20T05:42:00Z,25115574,Em curso,3301,Queda de árvore,0,0,0,0,2025-03-20T05:42:00Z,Setúbal,Setúbal,Área Metropolitana De Lisboa,-9.049025,38.49842
25115613,Cascais e Estoril,Grande Lisboa,311,2025-03-20T05:47:00Z,25115613,Em despacho,3301,Queda de árvore,0,0,0,0,2025-03-20T05:47:00Z,Cascais,Lisboa,Área Metropolitana De Lisboa,-9.390639,38.70786
25115683,Campeã,Douro,309,2025-03-20T05:45:00Z,25115683,Em curso,3301,Queda de árvore,0,1,0,2,2025-03-20T05:45:00Z,Vila Real,Vila Real,Norte,-7.886237,41.295876
25115731,Sado,Península de Setúbal,311,2025-03-20T06:03:00Z,25115731,Em curso,3321,Dano na rede de fornecimento de eletricidade ,0,0,0,0,2025-03-20T06:03:00Z,Setúbal,Setúbal,Área Metropolitana De Lisboa,-8.837657,38.51656
25115740,Alfragide,Grande Lisboa,311,2025-03-20T06:05:00Z,25115740,Em despacho,3329,Queda de estruturas temporárias ou móveis,0,0,0,0,2025-03-20T06:05:00Z,Amadora,Lisboa,Área Metropolitana De Lisboa,-9.2185,38.73116
25113844,Venda do Pinheiro e Santo Estêvão Das Galés,Grande Lisboa,311,2025-03-20T02:32:00Z,25113844,Em despacho,3301,Queda de árvore,0,0,0,0,2025-03-20T02:32:00Z,Mafra,Lisboa,Área Metropolitana De Lisboa,-9.220361,38.92791
25113851,Mina de Água,Grande Lisboa,311,2025-03-20T02:31:00Z,25113851,Em despacho,3311,Queda de elementos de estruturas edificados,0,0,0,0,2025-03-20T02:31:00Z,Amadora,Lisboa,Área Metropolitana De Lisboa,-9.236908,38.777438
25113908,"Seixal, Arrentela e Aldeia de Paio Pires",Península de Setúbal,311,2025-03-20T02:37:00Z,25113908,Em curso,3321,Dano na rede de fornecimento de eletricidade ,0,0,0,0,2025-03-20T02:37:00Z,Seixal,Setúbal,Área Metropolitana De Lisboa,-9.0987,38.62593
25113910,Pó,Oeste,311,2025-03-20T02:27:00Z,25113910,Em curso,3301,Queda de árvore,0,2,0,3,2025-03-20T02:27:00Z,Bombarral,Leiria,Centro,-9.214362,39.309208
25114069,Alcabideche,Grande Lisboa,311,2025-03-20T02:52:00Z,25114069,Em despacho,3315,Inundação de estruturas por precipitação intensa,0,0,0,0,2025-03-20T02:52:00Z,Cascais,Lisboa,Área Metropolitana De Lisboa,-9.45321,38.75341
25114126,"Oeiras e S. Julião da Barra, Paço de Arcos e Caxias",Grande Lisboa,311,2025-03-20T02:57:00Z,25114126,Em despacho,3301,Queda de árvore,0,0,0,0,2025-03-20T02:57:00Z,Oeiras,Lisboa,Área Metropolitana De Lisboa,-9.27078,38.71533
25114219,Corroios,Península de Setúbal,311,2025-03-20T03:06:00Z,25114219,Em curso,3301,Queda de árvore,0,0,0,0,2025-03-20T03:06:00Z,Seixal,Setúbal,Área Metropolitana De Lisboa,-9.15172,38.57536
25114401,Mértola,Baixo Alentejo,312,2025-03-20T03:17:00Z,25114401,Em curso,3301,Queda de árvore,0,0,0,0,2025-03-20T03:17:00Z,Mértola,Beja,Alentejo,-7.720218,37.719977
25114412,Rio de Mouro,Grande Lisboa,311,2025-03-20T03:24:00Z,25114412,Em despacho,3311,Queda de elementos de estruturas edificados,0,0,0,0,2025-03-20T03:24:00Z,Sintra,Lisboa,Área Metropolitana De Lisboa,-9.3418,38.78651
25119639,Caparica e Trafaria,Península de Setúbal,311,2025-03-20T11:07:00Z,25119639,Em despacho,3301,Queda de árvore,0,1,0,3,2025-03-20T11:07:00Z,Almada,Setúbal,Área Metropolitana De Lisboa,-9.218537,38.64447
25119653,Branca,Lezíria do Tejo,311,2025-03-20T11:40:00Z,25119653,Em despacho,3301,Queda de árvore,0,1,0,4,2025-03-20T11:40:00Z,Coruche,Santarém,Alentejo,-8.599754,38.869277
25119673,Caparica e Trafaria,Península de Setúbal,311,2025-03-20T11:34:00Z,25119673,Em despacho,3301,Queda de árvore,0,1,0,3,2025-03-20T11:34:00Z,Almada,Setúbal,Área Metropolitana De Lisboa,-9.228067,38.666901
25119686,Santana,Alto Alentejo,312,2025-03-20T11:40:00Z,25119686,Em resolução,3301,Queda de árvore,0,1,0,3,2025-03-20T11:40:00Z,Nisa,Portalegre,Alentejo,-7.705523,39.615974
25119703,Santiago,Beiras e Serra da Estrela,310,2025-03-20T11:41:00Z,25119703,Em despacho,3301,Queda de árvore,0,1,0,3,2025-03-20T11:41:00Z,Seia,Guarda,Centro,-7.727825,40.414154
25117240,Braga (São Vítor),Cávado,309,2025-03-20T07:40:00Z,25117240,Em curso,3311,Queda de elementos de estruturas edificados,0,2,0,3,2025-03-20T07:40:00Z,Braga,Braga,Norte,-8.406451,41.557726
25117241,Barreiro e Lavradio,Península de Setúbal,311,2025-03-20T08:34:00Z,25117241,Em curso,3301,Queda de árvore,0,0,0,0,2025-03-20T08:34:00Z,Barreiro,Setúbal,Área Metropolitana De Lisboa,-9.051674,38.66369
25117322,Freiria,Oeste,311,2025-03-20T08:41:00Z,25117322,Em despacho,3301,Queda de árvore,0,0,0,0,2025-03-20T08:41:00Z,Torres Vedras,Lisboa,Centro,-9.325071,39.03896
25117340,"Oeiras e S. Julião da Barra, Paço de Arcos e Caxias",Grande Lisboa,311,2025-03-20T08:43:00Z,25117340,Em despacho,3301,Queda de árvore,0,0,0,0,2025-03-20T08:43:00Z,Oeiras,Lisboa,Área Metropolitana De Lisboa,-9.27065,38.70019
25117375,Paião,Região de Coimbra,310,2025-03-20T08:45:00Z,25117375,Em despacho,3321,Dano na rede de fornecimento de eletricidade ,0,2,0,3,2025-03-20T08:45:00Z,Figueira Da Foz,Coimbra,Centro,-8.78683,40.07951
25117475,Carcavelos e Parede,Grande Lisboa,311,2025-03-20T08:54:00Z,25117475,Em despacho,3301,Queda de árvore,0,0,0,0,2025-03-20T08:54:00Z,Cascais,Lisboa,Área Metropolitana De Lisboa,-9.329576,38.69987
25117509,"Algés, Linda-a-Velha e Cruz Quebrada-Dafundo",Grande Lisboa,311,2025-03-20T08:56:00Z,25117509,Em despacho,3301,Queda de árvore,0,0,0,0,2025-03-20T08:56:00Z,Oeiras,Lisboa,Área Metropolitana De Lisboa,-9.2306,38.704
25117609,"S.maria, S.miguel, S.martinho, S.pedro Penaferrim",Grande Lisboa,311,2025-03-20T08:58:00Z,25117609,Em despacho,3321,Dano na rede de fornecimento de eletricidade ,0,0,0,0,2025-03-20T08:58:00Z,Sintra,Lisboa,Área Metropolitana De Lisboa,-9.413155,38.801935
25115799,"S.julião, N.s. da Anunciada e S. Maria da Graça",Península de Setúbal,311,2025-03-20T06:12:00Z,25115799,Em curso,3301,Queda de árvore,0,0,0,0,2025-03-20T06:12:00Z,Setúbal,Setúbal,Área Metropolitana De Lisboa,-8.88988,38.53046
25115822,Castelejo,Beiras e Serra da Estrela,310,2025-03-20T06:15:00Z,25115822,Em despacho,3301,Queda de árvore,0,1,0,2,2025-03-20T06:15:00Z,Fundão,Castelo Branco,Centro,-7.61121,40.11168
25115849,Pontinha e Famões,Grande Lisboa,311,2025-03-20T06:18:00Z,25115849,Em despacho,3301,Queda de árvore,0,0,0,0,2025-03-20T06:18:00Z,Odivelas,Lisboa,Área Metropolitana De Lisboa,-9.20379,38.801
25115858,Cacém e São Marcos,Grande Lisboa,311,2025-03-20T06:19:00Z,25115858,Em despacho,3301,Queda de árvore,0,0,0,0,2025-03-20T06:19:00Z,Sintra,Lisboa,Área Metropolitana De Lisboa,-9.29443,38.74753
25115890,Setúbal (São Sebastião),Península de Setúbal,311,2025-03-20T06:23:00Z,25115890,Em curso,3301,Queda de árvore,0,0,0,0,2025-03-20T06:23:00Z,Setúbal,Setúbal,Área Metropolitana De Lisboa,-8.87776,38.5403
25115981,Sesimbra (Castelo),Península de Setúbal,311,2025-03-20T06:34:00Z,25115981,Em curso,3301,Queda de árvore,0,0,0,0,2025-03-20T06:34:00Z,Sesimbra,Setúbal,Área Metropolitana De Lisboa,-9.08571,38.46993
25115992,Arrifana,Beiras e Serra da Estrela,310,2025-03-20T06:35:00Z,25115992,Em despacho,3301,Queda de árvore,0,1,0,2,2025-03-20T06:35:00Z,Guarda,Guarda,Centro,-7.20714,40.57137
25115997,Beja (Santiago Maior e São João Baptista),Baixo Alentejo,312,2025-03-20T06:34:00Z,25115997,Em curso,3301,Queda de árvore,0,2,0,3,2025-03-20T06:34:00Z,Beja,Beja,Alentejo,-7.87003,38.014111
25116065,a Dos Cunhados e Maceira,Oeste,311,2025-03-20T06:44:00Z,25116065,Em despacho,3321,Dano na rede de fornecimento de eletricidade ,0,0,0,0,2025-03-20T06:44:00Z,Torres Vedras,Lisboa,Centro,-9.376405,39.13558
25116072,Cela,Oeste,311,2025-03-20T06:43:00Z,25116072,Em despacho,3301,Queda de árvore,0,0,0,0,2025-03-20T06:43:00Z,Alcobaça,Leiria,Centro,-9.062135,39.50962
25116124,Alcabideche,Grande Lisboa,311,2025-03-20T06:51:00Z,25116124,Em despacho,3311,Queda de elementos de estruturas edificados,0,0,0,0,2025-03-20T06:51:00Z,Cascais,Lisboa,Área Metropolitana De Lisboa,-9.381779,38.72408
25116151,Cabeça Gorda,Baixo Alentejo,312,2025-03-20T06:55:00Z,25116151,Em conclusão,3301,Queda de árvore,0,2,0,5,2025-03-20T06:55:00Z,Beja,Beja,Alentejo,-7.79225,37.930603
25116192,Charneca de Caparica e Sobreda,Península de Setúbal,311,2025-03-20T06:59:00Z,25116192,Em curso,3301,Queda de árvore,0,0,0,0,2025-03-20T06:59:00Z,Almada,Setúbal,Área Metropolitana De Lisboa,-9.179431,38.58817
25116217,Massamá e Monte Abraão,Grande Lisboa,311,2025-03-20T07:02:00Z,25116217,Em despacho,3301,Queda de árvore,0,0,0,0,2025-03-20T07:02:00Z,Sintra,Lisboa,Área Metropolitana De Lisboa,-9.280493,38.75529
25116301,Charneca de Caparica e Sobreda,Península de Setúbal,311,2025-03-20T07:10:00Z,25116301,Em curso,3301,Queda de árvore,0,0,0,0,2025-03-20T07:10:00Z,Almada,Setúbal,Área Metropolitana De Lisboa,-9.17948,38.60341
25116317,"Almada, Cova da Piedade, Pragal e Cacilhas",Península de Setúbal,311,2025-03-20T07:12:00Z,25116317,Em curso,3301,Queda de árvore,0,0,0,0,2025-03-20T07:12:00Z,Almada,Setúbal,Área Metropolitana De Lisboa,-9.1502,38.68656
25116324,Fernão Ferro,Península de Setúbal,311,2025-03-20T07:13:00Z,25116324,Em curso,3301,Queda de árvore,0,1,0,3,2025-03-20T07:13:00Z,Seixal,Setúbal,Área Metropolitana De Lisboa,-9.100874,38.55805
25116358,"Ardegão, Freixo e Mato",Alto Minho,309,2025-03-20T06:41:00Z,25116358,Em conclusão,3301,Queda de árvore,0,1,0,2,2025-03-20T06:41:00Z,Ponte De Lima,Viana Do Castelo,Norte,-8.588227,41.656012
25116365,Azeitão (São Lourenço e São Simão),Península de Setúbal,311,2025-03-20T07:17:00Z,25116365,Em curso,3301,Queda de árvore,0,0,0,0,2025-03-20T07:17:00Z,Setúbal,Setúbal,Área Metropolitana De Lisboa,-9.01478,38.51465
25116367,São João Das Lampas e Terrugem,Grande Lisboa,311,2025-03-20T07:17:00Z,25116367,Em despacho,3301,Queda de árvore,0,2,0,4,2025-03-20T07:17:00Z,Sintra,Lisboa,Área Metropolitana De Lisboa,-9.437078,38.84199
25116383,"Oeiras e S. Julião da Barra, Paço de Arcos e Caxias",Grande Lisboa,311,2025-03-20T07:19:00Z,25116383,Em despacho,3301,Queda de árvore,0,0,0,0,2025-03-20T07:19:00Z,Oeiras,Lisboa,Área Metropolitana De Lisboa,-9.27596,38.70608
25116408,Branca,Região de Aveiro,310,2025-03-20T07:19:00Z,25116408,Em conclusão,3301,Queda de árvore,0,1,0,2,2025-03-20T07:19:00Z,Albergaria-a-Velha,Aveiro,Centro,-8.481324,40.764633
25116465,Figueira Dos Cavaleiros,Baixo Alentejo,312,2025-03-20T07:21:00Z,25116465,Em curso,3301,Queda de árvore,0,0,0,0,2025-03-20T07:21:00Z,Ferreira Do Alentejo,Beja,Alentejo,-8.355429,38.111489
25116474,Mafra,Grande Lisboa,311,2025-03-20T07:28:00Z,25116474,Em despacho,3301,Queda de árvore,0,0,0,0,2025-03-20T07:28:00Z,Mafra,Lisboa,Área Metropolitana De Lisboa,-9.36732,38.97158
25116524,Laranjeiro e Feijó,Península de Setúbal,311,2025-03-20T07:34:00Z,25116524,Em curso,3301,Queda de árvore,0,0,0,0,2025-03-20T07:34:00Z,Almada,Setúbal,Área Metropolitana De Lisboa,-9.161165,38.66527
25116535,Cascais e Estoril,Grande Lisboa,311,2025-03-20T07:35:00Z,25116535,Em despacho,3301,Queda de árvore,0,0,0,0,2025-03-20T07:35:00Z,Cascais,Lisboa,Área Metropolitana De Lisboa,-9.4292840000000009,38.70724
25116565,Cascais e Estoril,Grande Lisboa,311,2025-03-20T07:39:00Z,25116565,Em despacho,3301,Queda de árvore,0,0,0,0,2025-03-20T07:39:00Z,Cascais,Lisboa,Área Metropolitana De Lisboa,-9.4369,38.70672
25116576,Alverca do Ribatejo e Sobralinho,Grande Lisboa,311,2025-03-20T07:40:00Z,25116576,Em conclusão,3301,Queda de árvore,0,0,0,0,2025-03-20T07:40:00Z,Vila Franca De Xira,Lisboa,Área Metropolitana De Lisboa,-9.035948,38.88979
25116601,Beja (Santiago Maior e São João Baptista),Baixo Alentejo,312,2025-03-20T07:37:00Z,25116601,Em curso,3301,Queda de árvore,0,0,0,0,2025-03-20T07:37:00Z,Beja,Beja,Alentejo,-7.87003,38.014111
25116615,Algueirão-Mem Martins,Grande Lisboa,311,2025-03-20T07:44:00Z,25116615,Em despacho,3301,Queda de árvore,0,0,0,0,2025-03-20T07:44:00Z,Sintra,Lisboa,Área Metropolitana De Lisboa,-9.34434,38.79134
25116617,Pousade e Albardo,Beiras e Serra da Estrela,310,2025-03-20T07:43:00Z,25116617,Em curso,3301,Queda de árvore,0,0,0,0,2025-03-20T07:43:00Z,Guarda,Guarda,Centro,-7.126396,40.542412
25116669,Cascais e Estoril,Grande Lisboa,311,2025-03-20T07:49:00Z,25116669,Em despacho,3301,Queda de árvore,0,0,0,0,2025-03-20T07:49:00Z,Cascais,Lisboa,Área Metropolitana De Lisboa,-9.42144,38.7025
25116674,Cascais e Estoril,Grande Lisboa,311,2025-03-20T07:48:00Z,25116674,Em despacho,3301,Queda de árvore,0,0,0,0,2025-03-20T07:48:00Z,Cascais,Lisboa,Área Metropolitana De Lisboa,-9.398759,38.70391
25116783,"Seixal, Arrentela e Aldeia de Paio Pires",Península de Setúbal,311,2025-03-20T07:50:00Z,25116783,Em curso,3311,Queda de elementos de estruturas edificados,0,0,0,0,2025-03-20T07:50:00Z,Seixal,Setúbal,Área Metropolitana De Lisboa,-9.104804,38.642769
25116799,Cascais e Estoril,Grande Lisboa,311,2025-03-20T07:59:00Z,25116799,Em despacho,3301,Queda de árvore,0,0,0,0,2025-03-20T07:59:00Z,Cascais,Lisboa,Área Metropolitana De Lisboa,-9.374686,38.707771
25116833,Quinta do Conde,Península de Setúbal,311,2025-03-20T07:52:00Z,25116833,Em curso,3301,Queda de árvore,0,0,0,0,2025-03-20T07:52:00Z,Sesimbra,Setúbal,Área Metropolitana De Lisboa,-9.074949,38.555636
25116835,Beja (Santiago Maior e São João Baptista),Baixo Alentejo,312,2025-03-20T06:56:00Z,25116835,Em curso,3301,Queda de árvore,0,0,0,0,2025-03-20T06:56:00Z,Beja,Beja,Alentejo,-7.87003,38.014111
25116878,Silgueiros,Viseu Dão Lafões,310,2025-03-20T08:07:00Z,25116878,Em despacho,3301,Queda de árvore,0,1,0,5,2025-03-20T08:07:00Z,Viseu,Viseu,Centro,-7.96913,40.56068
25116892,Cascais e Estoril,Grande Lisboa,311,2025-03-20T08:08:00Z,25116892,Em despacho,3301,Queda de árvore,0,0,0,0,2025-03-20T08:08:00Z,Cascais,Lisboa,Área Metropolitana De Lisboa,-9.46375,38.71169
25116953,Maceira,Região de Leiria,310,2025-03-20T07:49:00Z,25116953,Em despacho,3301,Queda de árvore,0,1,0,2,2025-03-20T07:49:00Z,Leiria,Leiria,Centro,-8.889652,39.686501
25116976,Salir de Matos,Oeste,311,2025-03-20T08:11:00Z,25116976,Em curso,3301,Queda de árvore,0,1,0,4,2025-03-20T08:11:00Z,Caldas Da Rainha,Leiria,Centro,-9.104059,39.430919
25117053,Santo António Dos Cavaleiros e Frielas,Grande Lisboa,311,2025-03-20T08:21:00Z,25117053,Em despacho,3301,Queda de árvore,0,0,0,0,2025-03-20T08:21:00Z,Loures,Lisboa,Área Metropolitana De Lisboa,-9.17892,38.81094
25117112,Massamá e Monte Abraão,Grande Lisboa,311,2025-03-20T08:16:00Z,25117112,Em despacho,3301,Queda de árvore,0,1,0,2,2025-03-20T08:16:00Z,Sintra,Lisboa,Área Metropolitana De Lisboa,-9.280008,38.753778
25117301,Campelos e Outeiro da Cabeça,Oeste,311,2025-03-20T08:40:00Z,25117301,Em despacho,3301,Queda de árvore,0,0,0,0,2025-03-20T08:40:00Z,Torres Vedras,Lisboa,Centro,-9.263895,39.188089
25117310,Santo António Dos Olivais,Região de Coimbra,310,2025-03-20T08:34:00Z,25117310,Em despacho,3301,Queda de árvore,0,0,0,0,2025-03-20T08:34:00Z,Coimbra,Coimbra,Centro,-8.390328,40.201138
25117342,Rio de Loba,Viseu Dão Lafões,310,2025-03-20T08:41:00Z,25117342,Em despacho,3301,Queda de árvore,0,1,0,3,2025-03-20T08:41:00Z,Viseu,Viseu,Centro,-7.854105,40.647762
25117344,Cartaxo e Vale da Pinta,Lezíria do Tejo,311,2025-03-20T08:42:00Z,25117344,Em conclusão,3301,Queda de árvore,0,0,0,0,2025-03-20T08:42:00Z,Cartaxo,Santarém,Alentejo,-8.794948,39.166481
25117371,São Teotónio,Alentejo Litoral,312,2025-03-20T08:45:00Z,25117371,Em despacho,3301,Queda de árvore,0,1,0,1,2025-03-20T08:45:00Z,Odemira,Beja,Alentejo,-8.77809,37.5079
25117435,Válega,Região de Aveiro,310,2025-03-20T08:51:00Z,25117435,Em despacho,3301,Queda de árvore,0,0,0,0,2025-03-20T08:51:00Z,Ovar,Aveiro,Centro,-8.568896,40.84467
25117446,"Almada, Cova da Piedade, Pragal e Cacilhas",Península de Setúbal,311,2025-03-20T08:52:00Z,25117446,Em curso,3301,Queda de árvore,0,2,0,6,2025-03-20T08:52:00Z,Almada,Setúbal,Área Metropolitana De Lisboa,-9.167809,38.67228
25117510,Cernache,Região de Coimbra,310,2025-03-20T08:53:00Z,25117510,Em despacho,3301,Queda de árvore,0,0,0,0,2025-03-20T08:53:00Z,Coimbra,Coimbra,Centro,-8.458162,40.141528
25117585,Cerdeira e Moura da Serra,Região de Coimbra,310,2025-03-20T09:03:00Z,25117585,Em despacho,3321,Dano na rede de fornecimento de eletricidade ,0,1,0,2,2025-03-20T09:03:00Z,Arganil,Coimbra,Centro,-7.941517,40.257105
25117596,Cascais e Estoril,Grande Lisboa,311,2025-03-20T09:03:00Z,25117596,Em despacho,3301,Queda de árvore,0,0,0,0,2025-03-20T09:03:00Z,Cascais,Lisboa,Área Metropolitana De Lisboa,-9.3888,38.7082
25117603,Carvalhal,Oeste,311,2025-03-20T09:04:00Z,25117603,Em despacho,3301,Queda de árvore,0,0,0,0,2025-03-20T09:04:00Z,Bombarral,Leiria,Centro,-9.13236,39.31455
25117621,Tábua,Região de Coimbra,310,2025-03-20T08:06:00Z,25117621,Em despacho,3301,Queda de árvore,0,1,0,2,2025-03-20T08:06:00Z,Tábua,Coimbra,Centro,-8.022455,40.361675
25117646,Santo António Dos Cavaleiros e Frielas,Grande Lisboa,311,2025-03-20T09:07:00Z,25117646,Em despacho,3301,Queda de árvore,0,0,0,0,2025-03-20T09:07:00Z,Loures,Lisboa,Área Metropolitana De Lisboa,-9.17867,38.81149
25117660,Mafra,Grande Lisboa,311,2025-03-20T09:08:00Z,25117660,Em despacho,3321,Dano na rede de fornecimento de eletricidade ,0,0,0,0,2025-03-20T09:08:00Z,Mafra,Lisboa,Área Metropolitana De Lisboa,-9.38067,38.94738
25117696,Carvoeira e Carmões,Oeste,311,2025-03-20T09:10:00Z,25117696,Em despacho,3301,Queda de árvore,0,1,0,4,2025-03-20T09:10:00Z,Torres Vedras,Lisboa,Centro,-9.18195,39.07135
25117737,Louriçal,Região de Leiria,310,2025-03-20T09:00:00Z,25117737,Em despacho,3301,Queda de árvore,0,1,0,5,2025-03-20T09:00:00Z,Pombal,Leiria,Centro,-8.726682,39.983757
25117819,Rio de Mouro,Grande Lisboa,311,2025-03-20T09:20:00Z,25117819,Em despacho,3301,Queda de árvore,0,0,0,0,2025-03-20T09:20:00Z,Sintra,Lisboa,Área Metropolitana De Lisboa,-9.32193,38.79305
25117921,Charneca de Caparica e Sobreda,Península de Setúbal,311,2025-03-20T09:28:00Z,25117921,Em curso,3301,Queda de árvore,0,0,0,0,2025-03-20T09:28:00Z,Almada,Setúbal,Área Metropolitana De Lisboa,-9.204146,38.62766
25117946,Serpa (Salvador e Santa Maria),Baixo Alentejo,312,2025-03-20T09:20:00Z,25117946,Em conclusão,3301,Queda de árvore,0,1,0,3,2025-03-20T09:20:00Z,Serpa,Beja,Alentejo,-7.592695,37.943796
25117978,Sabóia,Alentejo Litoral,312,2025-03-20T09:33:00Z,25117978,Em despacho,3301,Queda de árvore,0,1,0,2,2025-03-20T09:33:00Z,Odemira,Beja,Alentejo,-8.484506,37.48996
25117996,Mira de Aire,Região de Leiria,310,2025-03-20T09:32:00Z,25117996,Em despacho,3321,Dano na rede de fornecimento de eletricidade ,0,1,0,1,2025-03-20T09:32:00Z,Porto De Mós,Leiria,Centro,-8.710094,39.541626
25118014,Setúbal (São Sebastião),Península de Setúbal,311,2025-03-20T09:31:00Z,25118014,Em despacho,3311,Queda de elementos de estruturas edificados,0,0,0,0,2025-03-20T09:31:00Z,Setúbal,Setúbal,Área Metropolitana De Lisboa,-8.853099,38.511271
25118069,"Britelo, Gémeos e Ourilhe",Tâmega e Sousa,309,2025-03-20T09:25:00Z,25118069,Em despacho,3301,Queda de árvore,0,1,0,3,2025-03-20T09:25:00Z,Celorico De Basto,Braga,Norte,-7.992773,41.391579
25118078,Sesimbra (Castelo),Península de Setúbal,311,2025-03-20T09:39:00Z,25118078,Em curso,3301,Queda de árvore,0,0,0,0,2025-03-20T09:39:00Z,Sesimbra,Setúbal,Área Metropolitana De Lisboa,-9.10647,38.48261
25118114,São Domingos de Rana,Grande Lisboa,311,2025-03-20T09:43:00Z,25118114,Em despacho,3301,Queda de árvore,0,0,0,0,2025-03-20T09:43:00Z,Cascais,Lisboa,Área Metropolitana De Lisboa,-9.34547,38.69507
25114444,Charneca de Caparica e Sobreda,Península de Setúbal,311,2025-03-20T03:27:00Z,25114444,Em curso,3301,Queda de árvore,0,0,0,0,2025-03-20T03:27:00Z,Almada,Setúbal,Área Metropolitana De Lisboa,-9.183841,38.59734
25114771,Queluz e Belas,Grande Lisboa,311,2025-03-20T04:01:00Z,25114771,Em despacho,3301,Queda de árvore,0,0,0,0,2025-03-20T04:01:00Z,Sintra,Lisboa,Área Metropolitana De Lisboa,-9.277519,38.80015
25114780,Lousa,Grande Lisboa,311,2025-03-20T04:02:00Z,25114780,Em despacho,3301,Queda de árvore,0,0,0,0,2025-03-20T04:02:00Z,Loures,Lisboa,Área Metropolitana De Lisboa,-9.20789,38.88816
25114889,Espírito Santo,Baixo Alentejo,312,2025-03-20T04:11:00Z,25114889,Em conclusão,3301,Queda de árvore,0,0,0,0,2025-03-20T04:11:00Z,Mértola,Beja,Alentejo,-7.636103,37.551114
25115030,Azueira e Sobral da Abelheira,Grande Lisboa,311,2025-03-20T04:31:00Z,25115030,Em despacho,3301,Queda de árvore,0,0,0,0,2025-03-20T04:31:00Z,Mafra,Lisboa,Área Metropolitana De Lisboa,-9.291996,39.00547
