id,address,subregion,neighborhood,date,id.1,state,nature,nature_description,aerial_means,terrestrial_means,aquatic_means,operational,date.1,Concelho,Distrito,NUTII_DSG,longitude,latitude
25507402,Pedrouços,Area M. Porto,309,2025-06-10T22:08:00Z,25507402,Em conclusão,2301,Incêndio em transporte rodoviário,0,3,0,8,2025-06-10T22:08:00Z,Maia,Porto,Norte,-8.587972,41.180862
25507452,Santa Maria de Marvão,Alto Alentejo,312,2025-06-10T22:24:00Z,25507452,Em conclusão,3201,Detritos não confinados,0,3,0,8,2025-06-10T22:24:00Z,Marvão,Portalegre,Alentejo,-7.39952,39.399253
25507528,Costa da Caparica,Península de Setúbal,311,2025-06-10T22:40:00Z,25507528,Em conclusão,3203,Detritos confinados,0,3,0,9,2025-06-10T22:40:00Z,Almada,Setúbal,Área Metropolitana De Lisboa,-9.227696,38.642583
25507209,Castelões,Ave,309,2025-06-10T21:13:00Z,25507209,Em conclusão,3103,Incêndio rural,0,1,0,5,2025-06-10T21:13:00Z,Vila Nova De Famalicão,Braga,Norte,-8.428535,41.40315
25507326,Águas Santas,Area M. Porto,309,2025-06-10T21:47:00Z,25507326,Em resolução,2101,Incêndio em edifícios habitacionais,0,9,0,28,2025-06-10T21:47:00Z,Maia,Porto,Norte,-8.558595,41.203898
25507392,"S.maria, S.miguel, S.martinho, S.pedro Penaferrim",Grande Lisboa,311,2025-06-10T22:05:00Z,25507392,Em conclusão,3103,Incêndio rural,0,6,0,17,2025-06-10T22:05:00Z,Sintra,Lisboa,Área Metropolitana De Lisboa,-9.361422,38.748188
