id,address,subregion,neighborhood,date,id.1,state,nature,nature_description,aerial_means,terrestrial_means,aquatic_means,operational,date.1,Concelho,Distrito,NUTII_DSG,longitude,latitude
25290333,Albufeira e Olhos de Água,Algarve,313,2025-04-26T13:33:00Z,25290333,Em conclusão,3311,Queda de elementos de estruturas edificados,0,1,0,2,2025-04-26T13:33:00Z,Albufeira,Faro,Algarve,-8.191059,37.09146
25071496,São Manços e São Vicente do Pigeiro,Alentejo Central,312,2025-03-11T13:18:00Z,25071496,Em conclusão,1101,Cheia,0,0,0,0,2025-03-11T13:18:00Z,Évora,Évora,Alentejo,-7.713313,38.513673
25290683,Carnaxide e Queijas,Grande Lisboa,311,2025-04-26T14:51:00Z,25290683,Em curso,3301,Queda de árvore,0,1,0,4,2025-04-26T14:51:00Z,Oeiras,Lisboa,Área Metropolitana De Lisboa,-9.25881,38.722457
25290475,Arcozelo,Area M. Porto,309,2025-04-26T14:09:00Z,25290475,Em despacho,3321,Dano na rede de fornecimento de eletricidade ,0,1,0,2,2025-04-26T14:09:00Z,Vila Nova De Gaia,Porto,Norte,-8.642211,41.049481
25290595,Santo António Dos Cavaleiros e Frielas,Grande Lisboa,311,2025-04-26T14:40:00Z,25290595,Em curso,3301,Queda de árvore,0,4,0,12,2025-04-26T14:40:00Z,Loures,Lisboa,Área Metropolitana De Lisboa,-9.165333,38.81366
