id,address,subregion,neighborhood,date,id.1,state,nature,nature_description,aerial_means,terrestrial_means,aquatic_means,operational,date.1,Concelho,Distrito,NUTII_DSG,longitude,latitude,state_2
25749937,Tarouquela,Tâmega e Sousa,309,2025-07-29T04:11:00Z,25749937,Em Curso,3103,Incêndio rural,0,11,0,37,2025-07-29T04:11:00Z,Cinfães,Viseu,Norte,-8.173308,41.072792,Curso
25751046,Castelejo,Beiras e Serra da Estrela,310,2025-07-29T10:13:00Z,25751046,Em Resolução/Conclusão,3103,Incêndio rural,0,7,0,18,2025-07-29T10:13:00Z,Fundão,Castelo Branco,Centro,-7.604291,40.108879,Resolução/Conclusão
25751241,Molelos,Viseu Dão Lafões,310,2025-07-29T10:43:00Z,25751241,Em Resolução/Conclusão,3103,Incêndio rural,0,1,0,1,2025-07-29T10:43:00Z,Tondela,Viseu,Centro,-8.09574,40.551495,Resolução/Conclusão
25751355,"Crato e Mártires, Flor da Rosa e Vale do Peso",Alto Alentejo,312,2025-07-29T10:59:00Z,25751355,Em Resolução/Conclusão,3103,Incêndio rural,0,1,0,4,2025-07-29T10:59:00Z,Crato,Portalegre,Alentejo,-7.641857,39.351982,Resolução/Conclusão
25751893,"Espírito Santo, Nossa Senhora da Graça e São Simão",Alto Alentejo,312,2025-07-29T12:32:00Z,25751893,Em Curso,3101,Incêndio rural,0,102,0,304,2025-07-29T12:32:00Z,Nisa,Portalegre,Alentejo,-7.634827,39.571162,Curso
25753170,"Leiria, Pousos, Barreira e Cortes",Região de Leiria,310,2025-07-29T16:36:00Z,25753170,Em Resolução/Conclusão,3101,Incêndio rural,0,4,0,9,2025-07-29T16:36:00Z,Leiria,Leiria,Centro,-8.795755,39.709552,Resolução/Conclusão
25755083,Avelar,Região de Leiria,310,2025-07-30T00:57:00Z,25755083,Em Resolução/Conclusão,3103,Incêndio rural,0,3,0,8,2025-07-30T00:57:00Z,Ansião,Leiria,Centro,-8.341278,39.93576,Resolução/Conclusão
25755201,Basto (São Clemente),Tâmega e Sousa,309,2025-07-30T02:08:00Z,25755201,Em Resolução/Conclusão,3103,Incêndio rural,0,3,0,12,2025-07-30T02:08:00Z,Celorico De Basto,Braga,Norte,-8.038862,41.462312,Resolução/Conclusão
25755226,Rio Tinto,Area M. Porto,309,2025-07-30T02:30:00Z,25755226,Em Curso,3103,Incêndio rural,0,2,0,7,2025-07-30T02:30:00Z,Gondomar,Porto,Norte,-8.566772,41.17757,Curso
25755251,Moura Morta e Vinhós,Douro,309,2025-07-30T02:44:00Z,25755251,Em Resolução/Conclusão,3103,Incêndio rural,0,4,0,17,2025-07-30T02:44:00Z,Peso Da Régua,Vila Real,Norte,-7.847393,41.194448,Resolução/Conclusão
25755276,Vilarinho Das Cambas,Ave,309,2025-07-30T03:16:00Z,25755276,Em Despacho,3103,Incêndio rural,0,3,0,15,2025-07-30T03:16:00Z,Vila Nova De Famalicão,Braga,Norte,-8.56058,41.37627,Despacho
25749681,Fornos de Maceira Dão,Viseu Dão Lafões,310,2025-07-29T01:19:00Z,25749681,Em Resolução/Conclusão,3103,Incêndio rural,0,2,0,10,2025-07-29T01:19:00Z,Mangualde,Viseu,Centro,-7.806963,40.617022,Resolução/Conclusão
25750701,Capela,Tâmega e Sousa,309,2025-07-29T09:26:00Z,25750701,Em Curso,3103,Incêndio rural,0,41,0,156,2025-07-29T09:26:00Z,Penafiel,Porto,Norte,-8.345202,41.09353,Curso
25755096,Caíde de Rei,Tâmega e Sousa,309,2025-07-30T01:09:00Z,25755096,Em Resolução/Conclusão,3103,Incêndio rural,0,1,0,5,2025-07-30T01:09:00Z,Lousada,Porto,Norte,-8.23156,41.24775,Resolução/Conclusão
25755197,Pinheiro,Tâmega e Sousa,309,2025-07-30T02:10:00Z,25755197,Em Resolução/Conclusão,3103,Incêndio rural,0,2,0,10,2025-07-30T02:10:00Z,Felgueiras,Porto,Norte,-8.151378,41.366072,Resolução/Conclusão
25755245,Laranjeiro e Feijó,Península de Setúbal,311,2025-07-30T02:34:00Z,25755245,Em Resolução/Conclusão,3103,Incêndio rural,0,4,0,14,2025-07-30T02:34:00Z,Almada,Setúbal,Área Metropolitana De Lisboa,-9.169025,38.65826,Resolução/Conclusão
25755262,"Almada, Cova da Piedade, Pragal e Cacilhas",Península de Setúbal,311,2025-07-30T02:56:00Z,25755262,Em Resolução/Conclusão,3103,Incêndio rural,0,4,0,17,2025-07-30T02:56:00Z,Almada,Setúbal,Área Metropolitana De Lisboa,-9.167275,38.658007,Resolução/Conclusão
25755280,São Jorge e Ermelo,Alto Minho,309,2025-07-30T03:16:00Z,25755280,Em Resolução/Conclusão,3103,Incêndio rural,0,2,0,7,2025-07-30T03:16:00Z,Arcos De Valdevez,Viana Do Castelo,Norte,-8.37114,41.817868,Resolução/Conclusão
25755329,Ansião,Região de Leiria,310,2025-07-30T03:57:00Z,25755329,Em Despacho,3101,Incêndio rural,0,0,0,0,2025-07-30T03:57:00Z,Ansião,Leiria,Centro,-8.41525,39.93018,Despacho
25748118,Canelas e Espiunca,Area M. Porto,309,2025-07-28T17:16:00Z,25748118,Em Curso,3101,Incêndio rural,0,257,0,762,2025-07-28T17:16:00Z,Arouca,Aveiro,Norte,-8.212231,40.969918,Curso
25749320,Rebordões (Santa Maria),Alto Minho,309,2025-07-28T22:47:00Z,25749320,Em Curso,3103,Incêndio rural,0,37,0,123,2025-07-28T22:47:00Z,Ponte De Lima,Viana Do Castelo,Norte,-8.588365,41.729993,Curso
25749641,Silva Escura e Dornelas,Região de Aveiro,310,2025-07-29T01:02:00Z,25749641,Em Resolução/Conclusão,3101,Incêndio rural,0,24,0,66,2025-07-29T01:02:00Z,Sever Do Vouga,Aveiro,Centro,-8.399623,40.769354,Resolução/Conclusão
25753666,São Cristóvão de Nogueira,Tâmega e Sousa,309,2025-07-29T18:21:00Z,25753666,Em Curso,3103,Incêndio rural,0,5,0,16,2025-07-29T18:21:00Z,Cinfães,Viseu,Norte,-8.134771,41.05519,Curso
25755154,Paderne,Alto Minho,309,2025-07-30T01:41:00Z,25755154,Em Resolução/Conclusão,3101,Incêndio rural,0,3,0,12,2025-07-30T01:41:00Z,Melgaço,Viana Do Castelo,Norte,-8.280775,42.100135,Resolução/Conclusão
25755156,"Nogueira, Fraião e Lamaçães",Cávado,309,2025-07-30T01:44:00Z,25755156,Em Resolução/Conclusão,3103,Incêndio rural,0,2,0,6,2025-07-30T01:44:00Z,Braga,Braga,Norte,-8.41069,41.53395,Resolução/Conclusão
25755186,Rossas,Ave,309,2025-07-30T02:00:00Z,25755186,Em Despacho,3103,Incêndio rural,0,9,0,40,2025-07-30T02:00:00Z,Vieira Do Minho,Braga,Norte,-8.120742,41.594970000000004,Despacho
25755236,Torres do Mondego,Região de Coimbra,310,2025-07-30T02:33:00Z,25755236,Em Resolução/Conclusão,3101,Incêndio rural,0,5,0,19,2025-07-30T02:33:00Z,Coimbra,Coimbra,Centro,-8.36446,40.19313,Resolução/Conclusão
25755272,"Gondomar (São Cosme), Valbom e Jovim",Area M. Porto,309,2025-07-30T03:00:00Z,25755272,Em Resolução/Conclusão,3103,Incêndio rural,0,2,0,9,2025-07-30T03:00:00Z,Gondomar,Porto,Norte,-8.535295,41.129255,Resolução/Conclusão
25755320,Aguda,Região de Leiria,310,2025-07-30T03:51:00Z,25755320,Em Despacho,3101,Incêndio rural,0,4,0,17,2025-07-30T03:51:00Z,Figueiró Dos Vinhos,Leiria,Centro,-8.304988,39.92683,Despacho
25738747,Lindoso,Alto Minho,309,2025-07-26T21:47:00Z,25738747,Em Curso,3103,Incêndio rural,0,131,0,381,2025-07-26T21:47:00Z,Ponte Da Barca,Viana Do Castelo,Norte,-8.220528,41.865272,Curso
25747773,Aranhas,Beira Baixa,310,2025-07-28T16:36:00Z,25747773,Em Resolução/Conclusão,3103,Incêndio rural,0,132,0,388,2025-07-28T16:36:00Z,Penamacor,Castelo Branco,Centro,-7.14438,40.117542,Resolução/Conclusão
25749611,Sameice e Santa Eulália,Beiras e Serra da Estrela,310,2025-07-29T00:44:00Z,25749611,Em Resolução/Conclusão,3103,Incêndio rural,0,2,0,10,2025-07-29T00:44:00Z,Seia,Guarda,Centro,-7.77621,40.42021,Resolução/Conclusão
25750845,Fornos,Tâmega e Sousa,309,2025-07-29T09:46:00Z,25750845,Em Curso,3103,Incêndio rural,0,15,0,56,2025-07-29T09:46:00Z,Castelo De Paiva,Aveiro,Norte,-8.247077,41.050502,Curso
25751999,Pombal,Região de Leiria,310,2025-07-29T12:53:00Z,25751999,Em Resolução/Conclusão,3101,Incêndio rural,0,5,0,14,2025-07-29T12:53:00Z,Pombal,Leiria,Centro,-8.6801,39.93227,Resolução/Conclusão
25752083,Alcanede,Lezíria do Tejo,311,2025-07-29T13:12:00Z,25752083,Em Curso,3103,Incêndio rural,0,122,0,390,2025-07-29T13:12:00Z,Santarém,Santarém,Alentejo,-8.802682,39.405543,Curso
25754273,Valdreu,Cávado,309,2025-07-29T20:41:00Z,25754273,Em Resolução/Conclusão,3103,Incêndio rural,0,7,0,24,2025-07-29T20:41:00Z,Vila Verde,Braga,Norte,-8.335448,41.721792,Resolução/Conclusão
25755311,"Bagunte, Ferreiró, Outeiro Maior e Parada",Area M. Porto,309,2025-07-30T03:35:00Z,25755311,Em Despacho,3103,Incêndio rural,0,1,0,5,2025-07-30T03:35:00Z,Vila Do Conde,Porto,Norte,-8.66026,41.371749,Despacho
