id,address,subregion,neighborhood,date,id.1,state,nature,nature_description,aerial_means,terrestrial_means,aquatic_means,operational,date.1,Concelho,Distrito,NUTII_DSG,longitude,latitude,state_2
25672473,Alter do Chão,Alto Alentejo,312,2025-07-13T16:35:00Z,25672473,Em Resolução/Conclusão,3105,Incêndio rural,0,11,0,35,2025-07-13T16:35:00Z,Alter Do Chão,Portalegre,Alentejo,-7.645302,39.193763,Resolução/Conclusão
25673909,Freches e Torres,Beiras e Serra da Estrela,310,2025-07-13T23:20:00Z,25673909,Em Resolução/Conclusão,3101,Incêndio rural,0,3,0,9,2025-07-13T23:20:00Z,Trancoso,Guarda,Centro,-7.34317,40.743387,Resolução/Conclusão
25662814,Soajo,Alto Minho,309,2025-07-11T15:16:00Z,25662814,Em Resolução/Conclusão,3103,Incêndio rural,0,2,0,6,2025-07-11T15:16:00Z,Arcos De Valdevez,Viana Do Castelo,Norte,-8.22891,41.87654,Resolução/Conclusão
25674085,Caldas de São Jorge e Pigeiros,Area M. Porto,309,2025-07-14T00:34:00Z,25674085,Em Resolução/Conclusão,3103,Incêndio rural,0,1,0,5,2025-07-14T00:34:00Z,Santa Maria Da Feira,Aveiro,Norte,-8.496356,40.954077,Resolução/Conclusão
25672444,Quintela de Lampaças,Terras de Trás-os-Montes,309,2025-07-13T16:29:00Z,25672444,Em Resolução/Conclusão,3103,Incêndio rural,0,8,0,23,2025-07-13T16:29:00Z,Bragança,Bragança,Norte,-6.899165,41.58745,Resolução/Conclusão
25674033,"S. Mig. Pinheiro, S. Pedro Solis e S. Sebastião Carros",Baixo Alentejo,312,2025-07-14T00:24:00Z,25674033,Em Resolução/Conclusão,3105,Incêndio rural,0,6,0,20,2025-07-14T00:24:00Z,Mértola,Beja,Alentejo,-7.80779,37.485158,Resolução/Conclusão
25674166,Viariz,Tâmega e Sousa,309,2025-07-14T01:36:00Z,25674166,Em Despacho,3103,Incêndio rural,0,2,0,10,2025-07-14T01:36:00Z,Baião,Porto,Norte,-7.960341,41.172942,Despacho
25665133,Lindoso,Alto Minho,309,2025-07-12T02:50:00Z,25665133,Em Resolução/Conclusão,3103,Incêndio rural,0,2,0,9,2025-07-12T02:50:00Z,Ponte Da Barca,Viana Do Castelo,Norte,-8.224007,41.852543,Resolução/Conclusão
25673758,Cidade da Maia,Area M. Porto,309,2025-07-13T22:26:00Z,25673758,Em Resolução/Conclusão,3103,Incêndio rural,0,1,0,2,2025-07-13T22:26:00Z,Maia,Porto,Norte,-8.5997,41.23365,Resolução/Conclusão
