id,address,subregion,neighborhood,date,id.1,state,nature,nature_description,aerial_means,terrestrial_means,aquatic_means,operational,date.1,Concelho,Distrito,NUTII_DSG,longitude,latitude,state_2
25687827,Rochoso e Monte Margarida,Beiras e Serra da Estrela,310,2025-07-16T16:35:00Z,25687827,Em Resolução/Conclusão,3103,Incêndio rural,0,13,0,48,2025-07-16T16:35:00Z,Guarda,Guarda,Centro,-7.106608,40.527017,Resolução/Conclusão
25688580,São Martinho,Alentejo Litoral,312,2025-07-16T19:33:00Z,25688580,Em Resolução/Conclusão,3103,Incêndio rural,0,0,0,0,2025-07-16T19:33:00Z,Alcácer Do Sal,Setúbal,Alentejo,-8.521302,38.426643,Resolução/Conclusão
25689484,Andrães,Douro,309,2025-07-16T23:49:00Z,25689484,Em Resolução/Conclusão,3103,Incêndio rural,0,8,0,26,2025-07-16T23:49:00Z,Vila Real,Vila Real,Norte,-7.668872,41.241568,Resolução/Conclusão
25692005,Sopo,Alto Minho,309,2025-07-17T13:50:00Z,25692005,Em Resolução/Conclusão,3103,Incêndio rural,0,1,0,5,2025-07-17T13:50:00Z,Vila Nova De Cerveira,Viana Do Castelo,Norte,-8.7251,41.911627,Resolução/Conclusão
25692675,Cabanelas,Cávado,309,2025-07-17T15:52:00Z,25692675,Em Resolução/Conclusão,3103,Incêndio rural,0,4,0,15,2025-07-17T15:52:00Z,Vila Verde,Braga,Norte,-8.505095,41.583301,Resolução/Conclusão
25692759,Póvoa de Rio de Moinhos e Cafede,Beira Baixa,310,2025-07-17T16:10:00Z,25692759,Em Resolução/Conclusão,3103,Incêndio rural,1,14,0,50,2025-07-17T16:10:00Z,Castelo Branco,Castelo Branco,Centro,-7.523551,39.938656,Resolução/Conclusão
25692303,Abrantes (São Vicente e São João) e Alferrarede,Médio Tejo,311,2025-07-17T14:41:00Z,25692303,Em Resolução/Conclusão,3103,Incêndio rural,0,18,0,61,2025-07-17T14:41:00Z,Abrantes,Santarém,Centro,-8.195112,39.499466,Resolução/Conclusão
25692562,Atouguia,Médio Tejo,311,2025-07-17T15:31:00Z,25692562,Em Resolução/Conclusão,3103,Incêndio rural,6,35,0,153,2025-07-17T15:31:00Z,Ourém,Santarém,Centro,-8.62029,39.654072,Resolução/Conclusão
25692637,Alvarenga,Area M. Porto,309,2025-07-17T15:37:00Z,25692637,Em Resolução/Conclusão,3103,Incêndio rural,0,5,0,20,2025-07-17T15:37:00Z,Arouca,Aveiro,Norte,-8.168908,40.977443,Resolução/Conclusão
25692814,"Espírito Santo, Nossa Senhora da Graça e São Simão",Alto Alentejo,312,2025-07-17T16:23:00Z,25692814,Em Curso,3103,Incêndio rural,7,20,0,91,2025-07-17T16:23:00Z,Nisa,Portalegre,Alentejo,-7.635642,39.486993,Curso
25692825,Mina de Água,Grande Lisboa,311,2025-07-17T16:24:00Z,25692825,Em Resolução/Conclusão,3103,Incêndio rural,0,2,0,10,2025-07-17T16:24:00Z,Amadora,Lisboa,Área Metropolitana De Lisboa,-9.236908,38.777438,Resolução/Conclusão
25692873,Bombarral e Vale Covo,Oeste,311,2025-07-17T16:34:00Z,25692873,Em Despacho,3103,Incêndio rural,0,5,0,22,2025-07-17T16:34:00Z,Bombarral,Leiria,Centro,-9.153454,39.234145,Despacho
25692937,Mourão,Alentejo Central,312,2025-07-17T16:44:00Z,25692937,Em Despacho,3105,Incêndio rural,0,4,0,10,2025-07-17T16:44:00Z,Mourão,Évora,Alentejo,-7.350227,38.385667,Despacho
25692946,Santa Vitória e Mombeja,Baixo Alentejo,312,2025-07-17T16:49:00Z,25692946,Em Despacho,3105,Incêndio rural,0,0,0,0,2025-07-17T16:49:00Z,Beja,Beja,Alentejo,-7.96888,37.96402,Despacho
25688392,Cabril,Região de Coimbra,310,2025-07-16T18:47:00Z,25688392,Em Resolução/Conclusão,3101,Incêndio rural,0,3,0,11,2025-07-16T18:47:00Z,Pampilhosa Da Serra,Coimbra,Centro,-7.86944,40.06556,Resolução/Conclusão
25692138,"Canedo, Vale e Vila Maior",Area M. Porto,309,2025-07-17T14:14:00Z,25692138,Em Resolução/Conclusão,3103,Incêndio rural,0,2,0,6,2025-07-17T14:14:00Z,Santa Maria Da Feira,Aveiro,Norte,-8.464653,41.044543,Resolução/Conclusão
25692211,Figueiró,Tâmega e Sousa,309,2025-07-17T14:19:00Z,25692211,Em Resolução/Conclusão,3105,Incêndio rural,0,3,0,9,2025-07-17T14:19:00Z,Paços De Ferreira,Porto,Norte,-8.334348,41.304818,Resolução/Conclusão
25682254,Panque,Cávado,309,2025-07-15T15:31:00Z,25682254,Em Resolução/Conclusão,3101,Incêndio rural,0,1,0,5,2025-07-15T15:31:00Z,Barcelos,Braga,Norte,-8.607035,41.626113,Resolução/Conclusão
25682641,São Bento,Região de Leiria,310,2025-07-15T16:44:00Z,25682641,Em Resolução/Conclusão,3101,Incêndio rural,0,0,0,0,2025-07-15T16:44:00Z,Porto De Mós,Leiria,Centro,-8.746525,39.524688,Resolução/Conclusão
25683057,Messejana,Baixo Alentejo,312,2025-07-15T18:10:00Z,25683057,Em Resolução/Conclusão,3101,Incêndio rural,0,0,0,0,2025-07-15T18:10:00Z,Aljustrel,Beja,Alentejo,-8.253787,37.845618,Resolução/Conclusão
25686799,Souto Maior,Douro,309,2025-07-16T13:19:00Z,25686799,Em Resolução/Conclusão,3101,Incêndio rural,6,90,0,287,2025-07-16T13:19:00Z,Sabrosa,Vila Real,Norte,-7.57839,41.287518,Resolução/Conclusão
25691716,Peva e Segões,Douro,309,2025-07-17T12:55:00Z,25691716,Em Resolução/Conclusão,3103,Incêndio rural,0,4,0,17,2025-07-17T12:55:00Z,Moimenta Da Beira,Viseu,Norte,-7.690854,40.87186,Resolução/Conclusão
25691996,Cepelos,Area M. Porto,309,2025-07-17T13:43:00Z,25691996,Em Resolução/Conclusão,3103,Incêndio rural,0,2,0,6,2025-07-17T13:43:00Z,Vale De Cambra,Aveiro,Norte,-8.352935,40.827617,Resolução/Conclusão
25692617,Mairos,Alto Tâmega e Barroso,309,2025-07-17T15:38:00Z,25692617,Em Resolução/Conclusão,3101,Incêndio rural,0,5,0,24,2025-07-17T15:38:00Z,Chaves,Vila Real,Norte,-7.316337,41.821573,Resolução/Conclusão
25692683,Milheirós,Area M. Porto,309,2025-07-17T15:53:00Z,25692683,Em Resolução/Conclusão,3103,Incêndio rural,0,2,0,8,2025-07-17T15:53:00Z,Maia,Porto,Norte,-8.590843,41.224343,Resolução/Conclusão
25692684,Frazão Arreigada,Tâmega e Sousa,309,2025-07-17T15:53:00Z,25692684,Em Resolução/Conclusão,3103,Incêndio rural,0,2,0,6,2025-07-17T15:53:00Z,Paços De Ferreira,Porto,Norte,-8.386045,41.26623,Resolução/Conclusão
25692816,Miranda do Corvo,Região de Coimbra,310,2025-07-17T16:23:00Z,25692816,Em Resolução/Conclusão,3101,Incêndio rural,0,8,0,30,2025-07-17T16:23:00Z,Miranda Do Corvo,Coimbra,Centro,-8.339058,40.09146,Resolução/Conclusão
25692834,São Pedro da Cadeira,Oeste,311,2025-07-17T16:25:00Z,25692834,Em Curso,3105,Incêndio rural,0,5,0,15,2025-07-17T16:25:00Z,Torres Vedras,Lisboa,Centro,-9.390381,39.076906,Curso
25692882,Cristelo,Area M. Porto,309,2025-07-17T16:33:00Z,25692882,Em Despacho,3103,Incêndio rural,0,2,0,10,2025-07-17T16:33:00Z,Paredes,Porto,Norte,-8.358551,41.228673,Despacho
