id,address,subregion,neighborhood,date,id.1,state,nature,nature_description,aerial_means,terrestrial_means,aquatic_means,operational,date.1,Concelho,Distrito,NUTII_DSG,longitude,latitude,state_2
26196681,Vimieiro,Alentejo Central,312,2025-10-27T12:12:00Z,26196681,Em Resolução/Conclusão,3105,Incêndio rural,0,0,0,0,2025-10-27T12:12:00Z,Arraiolos,Évora,Alentejo,-7.915325,38.84122,Resolução/Conclusão
26197357,Abrigada e Cabanas de Torres,Oeste,311,2025-10-27T14:17:00Z,26197357,Em Resolução/Conclusão,3103,Incêndio rural,0,3,0,8,2025-10-27T14:17:00Z,Alenquer,Lisboa,Centro,-9.06647,39.1563,Resolução/Conclusão
26197625,Branca,Lezíria do Tejo,311,2025-10-27T15:03:00Z,26197625,Em Resolução/Conclusão,3111,Queima,0,5,0,18,2025-10-27T15:03:00Z,Coruche,Santarém,Alentejo,-8.598107,38.872985,Resolução/Conclusão
26197202,Lagoa,Terras de Trás-os-Montes,309,2025-10-27T13:42:00Z,26197202,Em Despacho,3111,Queima,0,1,0,2,2025-10-27T13:42:00Z,Macedo De Cavaleiros,Bragança,Norte,-6.766646,41.443194,Despacho
26197352,Nossa Senhora da Expectação,Alto Alentejo,312,2025-10-27T14:07:00Z,26197352,Em Resolução/Conclusão,3103,Incêndio rural,0,5,0,14,2025-10-27T14:07:00Z,Campo Maior,Portalegre,Alentejo,-7.061605,38.958228,Resolução/Conclusão
