id,address,subregion,neighborhood,date,id.1,state,nature,nature_description,aerial_means,terrestrial_means,aquatic_means,operational,date.1,Concelho,Distrito,NUTII_DSG,longitude,latitude
24926465,Praia do Ribatejo,Médio Tejo,311,2025-02-07T09:27:00Z,24926465,Em resolução,3313,Deslizamento de terras,0,1,0,4,2025-02-07T09:27:00Z,Vila Nova Da Barquinha,Santarém,Centro,-8.340015,39.472785
24926534,São Martinho do Bispo e Ribeira de Frades,Região de Coimbra,310,2025-02-07T09:41:00Z,24926534,Em conclusão,3301,Queda de árvore,0,3,0,7,2025-02-07T09:41:00Z,Coimbra,Coimbra,Centro,-8.487837,40.206282
24927217,"S.julião, N.s. da Anunciada e S. Maria da Graça",Península de Setúbal,311,2025-02-07T11:37:00Z,24927217,Em despacho,3301,Queda de árvore,0,2,0,7,2025-02-07T11:37:00Z,Setúbal,Setúbal,Área Metropolitana De Lisboa,-8.889983,38.529955
24877003,Malagueira e Horta Das Figueiras,Alentejo Central,312,2025-01-27T11:41:00Z,24877003,Em conclusão,3315,Inundação de estruturas por precipitação intensa,0,0,0,0,2025-01-27T11:41:00Z,Évora,Évora,Alentejo,-7.924277,38.57285
24926907,Lousã e Vilarinho,Região de Coimbra,310,2025-02-07T10:43:00Z,24926907,Em despacho,3313,Deslizamento de terras,0,1,0,1,2025-02-07T10:43:00Z,Lousã,Coimbra,Centro,-8.259864,40.150022
24926510,"Cedofeita, Ildefonso, Sé, Miragaia, Nicolau e Vitória",Area M. Porto,309,2025-02-07T09:28:00Z,24926510,Em despacho,3311,Queda de elementos de estruturas edificados,0,1,0,5,2025-02-07T09:28:00Z,Porto,Porto,Norte,-8.615939,41.15359
24927363,Peniche,Oeste,311,2025-02-07T12:00:00Z,24927363,Em despacho,3321,Dano na rede de fornecimento de eletricidade ,0,2,0,4,2025-02-07T12:00:00Z,Peniche,Leiria,Centro,-9.376833,39.357166
