id,address,subregion,neighborhood,date,id.1,state,nature,nature_description,aerial_means,terrestrial_means,aquatic_means,operational,date.1,Concelho,Distrito,NUTII_DSG,longitude,latitude,state_2
26047987,"Cambeses do Rio, Donões e Mourilhe",Alto Tâmega e Barroso,309,2025-09-26T13:14:00Z,26047987,Em Resolução/Conclusão,3103,Incêndio rural,3,35,0,106,2025-09-26T13:14:00Z,Montalegre,Vila Real,Norte,-7.849698,41.843018,Resolução/Conclusão
26050704,Tortosendo,Beiras e Serra da Estrela,310,2025-09-26T23:04:00Z,26050704,Em Resolução/Conclusão,3103,Incêndio rural,0,23,0,86,2025-09-26T23:04:00Z,Covilhã,Castelo Branco,Centro,-7.521592,40.251592,Resolução/Conclusão
26052881,Arnóia,Tâmega e Sousa,309,2025-09-27T12:30:00Z,26052881,Em Resolução/Conclusão,3103,Incêndio rural,0,2,0,7,2025-09-27T12:30:00Z,Celorico De Basto,Braga,Norte,-8.041837,41.35126,Resolução/Conclusão
26052992,Águeda e Borralha,Região de Aveiro,310,2025-09-27T13:12:00Z,26052992,Em Resolução/Conclusão,3103,Incêndio rural,0,3,0,10,2025-09-27T13:12:00Z,Águeda,Aveiro,Centro,-8.433646,40.557689,Resolução/Conclusão
25951176,Sandomil,Beiras e Serra da Estrela,310,2025-09-06T10:29:00Z,25951176,Em Resolução/Conclusão,3103,Incêndio rural,0,2,0,10,2025-09-06T10:29:00Z,Seia,Guarda,Centro,-7.76001,40.351547,Resolução/Conclusão
26052652,Mosteiro,Beira Baixa,310,2025-09-27T11:49:00Z,26052652,Em Resolução/Conclusão,3103,Incêndio rural,2,43,0,166,2025-09-27T11:49:00Z,Oleiros,Castelo Branco,Centro,-7.976706,39.882915,Resolução/Conclusão
26013065,Mezio e Moura Morta,Viseu Dão Lafões,310,2025-09-19T11:05:00Z,26013065,Em Resolução/Conclusão,3103,Incêndio rural,0,0,0,0,2025-09-19T11:05:00Z,Castro Daire,Viseu,Centro,-7.878187,40.98632,Resolução/Conclusão
26031908,Arcozelo Das Maias,Viseu Dão Lafões,310,2025-09-23T10:21:00Z,26031908,Em Resolução/Conclusão,3103,Incêndio rural,0,0,0,0,2025-09-23T10:21:00Z,Oliveira De Frades,Viseu,Centro,-8.27871,40.723646,Resolução/Conclusão
26052925,Maceira,Região de Leiria,310,2025-09-27T12:54:00Z,26052925,Em Resolução/Conclusão,3105,Incêndio rural,3,7,0,34,2025-09-27T12:54:00Z,Leiria,Leiria,Centro,-8.902034,39.646791,Resolução/Conclusão
26022995,Bordeira,Algarve,313,2025-09-21T12:21:00Z,26022995,Em Resolução/Conclusão,3103,Incêndio rural,0,10,0,29,2025-09-21T12:21:00Z,Aljezur,Faro,Algarve,-8.825374,37.23495,Resolução/Conclusão
26052847,Alvão,Alto Tâmega e Barroso,309,2025-09-27T12:35:00Z,26052847,Em Resolução/Conclusão,3103,Incêndio rural,0,3,0,13,2025-09-27T12:35:00Z,Vila Pouca De Aguiar,Vila Real,Norte,-7.697172,41.503597,Resolução/Conclusão
26053062,Vilarinho,Area M. Porto,309,2025-09-27T13:28:00Z,26053062,Em Despacho,3103,Incêndio rural,0,1,0,5,2025-09-27T13:28:00Z,Santo Tirso,Porto,Norte,-8.346349,41.37003,Despacho
