id,address,subregion,neighborhood,date,id.1,state,nature,nature_description,aerial_means,terrestrial_means,aquatic_means,operational,date.1,Concelho,Distrito,NUTII_DSG,longitude,latitude
25466369,Melides,Alentejo Litoral,312,2025-06-02T13:27:00Z,25466369,Em conclusão,3103,Incêndio rural,0,4,0,6,2025-06-02T13:27:00Z,Grândola,Setúbal,Alentejo,-8.754243,38.19534
25467128,Monte Redondo e Carreira,Região de Leiria,310,2025-06-02T15:48:00Z,25467128,Em conclusão,3103,Incêndio rural,0,1,0,2,2025-06-02T15:48:00Z,Leiria,Leiria,Centro,-8.860783,39.89848
25469173,Termas de São Vicente,Tâmega e Sousa,309,2025-06-03T04:12:00Z,25469173,Em conclusão,3203,Detritos confinados,0,1,0,5,2025-06-03T04:12:00Z,Penafiel,Porto,Norte,-8.292508,41.116077
25469149,Montemor-o-Velho e Gatões,Região de Coimbra,310,2025-06-03T03:35:00Z,25469149,Em resolução,3103,Incêndio rural,0,4,0,14,2025-06-03T03:35:00Z,Montemor-o-Velho,Coimbra,Centro,-8.702858,40.215328
25469190,Ramalde,Area M. Porto,309,2025-06-03T04:50:00Z,25469190,Em despacho,2101,Incêndio em edifícios habitacionais,0,1,0,5,2025-06-03T04:50:00Z,Porto,Porto,Norte,-8.63372,41.16745
25469195,Agualva e Mira-Sintra,Grande Lisboa,311,2025-06-03T04:49:00Z,25469195,Em curso,3201,Detritos não confinados,0,1,0,5,2025-06-03T04:49:00Z,Sintra,Lisboa,Área Metropolitana De Lisboa,-9.294104,38.769933
