id,address,subregion,neighborhood,date,id.1,state,nature,nature_description,aerial_means,terrestrial_means,aquatic_means,operational,date.1,Concelho,Distrito,NUTII_DSG,longitude,latitude
25488966,Vilar de Andorinho,Area M. Porto,309,2025-06-07T01:59:00Z,25488966,Em despacho,3103,Incêndio rural,0,2,0,11,2025-06-07T01:59:00Z,Vila Nova De Gaia,Porto,Norte,-8.586687,41.10464
25488863,Vila Chã,Cávado,309,2025-06-07T00:57:00Z,25488863,Em conclusão,2301,Incêndio em transporte rodoviário,0,2,0,7,2025-06-07T00:57:00Z,Esposende,Braga,Norte,-8.767827,41.569373
25487371,São João Dos Caldeireiros,Baixo Alentejo,312,2025-06-06T18:02:00Z,25487371,Em conclusão,3105,Incêndio rural,0,0,0,0,2025-06-06T18:02:00Z,Mértola,Beja,Alentejo,-7.804608,37.600808
25488941,Amiais de Baixo,Lezíria do Tejo,311,2025-06-07T01:50:00Z,25488941,Em conclusão,2101,Incêndio em edifícios habitacionais,0,4,0,12,2025-06-07T01:50:00Z,Santarém,Santarém,Alentejo,-8.73153,39.442252
25488905,Samouco,Península de Setúbal,311,2025-06-07T01:25:00Z,25488905,Em conclusão,3103,Incêndio rural,0,2,0,8,2025-06-07T01:25:00Z,Alcochete,Setúbal,Área Metropolitana De Lisboa,-9.006712,38.728287
