id,address,subregion,neighborhood,date,id.1,state,nature,nature_description,aerial_means,terrestrial_means,aquatic_means,operational,date.1,Concelho,Distrito,NUTII_DSG,longitude,latitude,state_2
25936984,Guarda,Beiras e Serra da Estrela,310,2025-09-03T10:17:00Z,25936984,Em Resolução/Conclusão,3105,Incêndio rural,0,3,0,9,2025-09-03T10:17:00Z,Guarda,Guarda,Centro,-7.226602,40.518597,Resolução/Conclusão
25937164,Peral,Oeste,311,2025-09-03T10:50:00Z,25937164,Em Despacho,3111,Queima,0,4,0,11,2025-09-03T10:50:00Z,Cadaval,Lisboa,Centro,-9.051808,39.254808,Despacho
25937577,Mértola,Baixo Alentejo,312,2025-09-03T12:15:00Z,25937577,Em Resolução/Conclusão,3105,Incêndio rural,1,10,0,36,2025-09-03T12:15:00Z,Mértola,Beja,Alentejo,-7.687435,37.629365,Resolução/Conclusão
25832672,Piódão,Região de Coimbra,310,2025-08-13T05:08:00Z,25832672,Em Resolução/Conclusão,3103,Incêndio rural,0,16,0,42,2025-08-13T05:08:00Z,Arganil,Coimbra,Centro,-7.81972,40.23083,Resolução/Conclusão
25840417,Lousã e Vilarinho,Região de Coimbra,310,2025-08-14T13:46:00Z,25840417,Em Resolução/Conclusão,3101,Incêndio rural,0,1,0,1,2025-08-14T13:46:00Z,Lousã,Coimbra,Centro,-8.201561,40.080016,Resolução/Conclusão
25935529,Vermoil,Região de Leiria,310,2025-09-02T22:56:00Z,25935529,Em Resolução/Conclusão,3101,Incêndio rural,0,1,0,2,2025-09-02T22:56:00Z,Pombal,Leiria,Centro,-8.673463,39.83745,Resolução/Conclusão
25937726,"Canedo, Vale e Vila Maior",Area M. Porto,309,2025-09-03T12:44:00Z,25937726,Em Despacho,3103,Incêndio rural,0,1,0,5,2025-09-03T12:44:00Z,Santa Maria Da Feira,Aveiro,Norte,-8.456587,41.034846,Despacho
