id,address,subregion,neighborhood,date,id.1,state,nature,nature_description,aerial_means,terrestrial_means,aquatic_means,operational,date.1,Concelho,Distrito,NUTII_DSG,longitude,latitude,state_2
25938658,Faro (Sé e São Pedro),Algarve,313,2025-09-03T15:42:00Z,25938658,Em Resolução/Conclusão,3103,Incêndio rural,0,1,0,5,2025-09-03T15:42:00Z,Faro,Faro,Algarve,-7.966667,37.05889,Resolução/Conclusão
25938856,"Lebução, Fiães e Nozelos",Alto Tâmega e Barroso,309,2025-09-03T16:26:00Z,25938856,Em Despacho,3103,Incêndio rural,1,4,0,26,2025-09-03T16:26:00Z,Valpaços,Vila Real,Norte,-7.261367,41.759522,Despacho
25938738,Vilarelho da Raia,Alto Tâmega e Barroso,309,2025-09-03T16:02:00Z,25938738,Em Despacho,3103,Incêndio rural,0,2,0,9,2025-09-03T16:02:00Z,Chaves,Vila Real,Norte,-7.45596,41.84474,Despacho
25938822,Alcabideche,Grande Lisboa,311,2025-09-03T16:20:00Z,25938822,Em Curso,3103,Incêndio rural,1,9,0,41,2025-09-03T16:20:00Z,Cascais,Lisboa,Área Metropolitana De Lisboa,-9.402781,38.736294,Curso
25938897,Sardoal,Médio Tejo,311,2025-09-03T16:23:00Z,25938897,Em Resolução/Conclusão,3103,Incêndio rural,0,3,0,9,2025-09-03T16:23:00Z,Sardoal,Santarém,Centro,-8.15551,39.542479,Resolução/Conclusão
25832672,Piódão,Região de Coimbra,310,2025-08-13T05:08:00Z,25832672,Em Resolução/Conclusão,3103,Incêndio rural,0,18,0,52,2025-08-13T05:08:00Z,Arganil,Coimbra,Centro,-7.81972,40.23083,Resolução/Conclusão
25840417,Lousã e Vilarinho,Região de Coimbra,310,2025-08-14T13:46:00Z,25840417,Em Resolução/Conclusão,3101,Incêndio rural,0,1,0,1,2025-08-14T13:46:00Z,Lousã,Coimbra,Centro,-8.201561,40.080016,Resolução/Conclusão
25935529,Vermoil,Região de Leiria,310,2025-09-02T22:56:00Z,25935529,Em Resolução/Conclusão,3101,Incêndio rural,0,3,0,7,2025-09-02T22:56:00Z,Pombal,Leiria,Centro,-8.673463,39.83745,Resolução/Conclusão
25938058,Agrochão,Terras de Trás-os-Montes,309,2025-09-03T13:54:00Z,25938058,Em Resolução/Conclusão,3103,Incêndio rural,0,21,0,66,2025-09-03T13:54:00Z,Vinhais,Bragança,Norte,-7.004555,41.71601,Resolução/Conclusão
25938067,Campanhó e Paradança,Ave,309,2025-09-03T13:56:00Z,25938067,Em Resolução/Conclusão,3101,Incêndio rural,0,6,0,23,2025-09-03T13:56:00Z,Mondim De Basto,Vila Real,Norte,-7.90443,41.355172,Resolução/Conclusão
25938185,Dornelas,Viseu Dão Lafões,310,2025-09-03T14:19:00Z,25938185,Em Resolução/Conclusão,3103,Incêndio rural,0,3,0,9,2025-09-03T14:19:00Z,Aguiar Da Beira,Guarda,Centro,-7.533562,40.751448,Resolução/Conclusão
25938812,Santo Antão e São Julião do Tojal,Grande Lisboa,311,2025-09-03T16:14:00Z,25938812,Em Resolução/Conclusão,3103,Incêndio rural,0,1,0,5,2025-09-03T16:14:00Z,Loures,Lisboa,Área Metropolitana De Lisboa,-9.137133,38.85709,Resolução/Conclusão
25938415,Lagares,Região de Coimbra,310,2025-09-03T14:57:00Z,25938415,Em Resolução/Conclusão,3101,Incêndio rural,0,21,0,88,2025-09-03T14:57:00Z,Oliveira Do Hospital,Coimbra,Centro,-7.84333,40.39694,Resolução/Conclusão
25938450,Moinhos da Gândara,Região de Coimbra,310,2025-09-03T15:06:00Z,25938450,Em Resolução/Conclusão,3105,Incêndio rural,0,3,0,9,2025-09-03T15:06:00Z,Figueira Da Foz,Coimbra,Centro,-8.77028,40.23306,Resolução/Conclusão
25938614,Santo Quintino,Oeste,311,2025-09-03T15:29:00Z,25938614,Em Curso,3101,Incêndio rural,1,17,0,70,2025-09-03T15:29:00Z,Sobral De Monte Agraço,Lisboa,Centro,-9.148989,39.004501,Curso
25938647,Praia do Ribatejo,Médio Tejo,311,2025-09-03T15:40:00Z,25938647,Em Resolução/Conclusão,3103,Incêndio rural,0,5,0,15,2025-09-03T15:40:00Z,Vila Nova Da Barquinha,Santarém,Centro,-8.37732,39.46875,Resolução/Conclusão
25938831,Sardoal,Médio Tejo,311,2025-09-03T16:22:00Z,25938831,Em Curso,3103,Incêndio rural,0,4,0,16,2025-09-03T16:22:00Z,Sardoal,Santarém,Centro,-8.154183,39.5258,Curso
25938881,Alverca do Ribatejo e Sobralinho,Grande Lisboa,311,2025-09-03T16:22:00Z,25938881,Em Despacho,3103,Incêndio rural,0,2,0,7,2025-09-03T16:22:00Z,Vila Franca De Xira,Lisboa,Área Metropolitana De Lisboa,-9.046012,38.896362,Despacho
