id,address,subregion,neighborhood,date,id.1,state,nature,nature_description,aerial_means,terrestrial_means,aquatic_means,operational,date.1,Concelho,Distrito,NUTII_DSG,longitude,latitude
25488555,Anha,Alto Minho,309,2025-06-06T22:48:00Z,25488555,Em conclusão,3105,Incêndio rural,0,2,0,7,2025-06-06T22:48:00Z,Viana Do Castelo,Viana Do Castelo,Norte,-8.799595,41.657233
25488665,Vila Fria e Vizela (São Jorge),Tâmega e Sousa,309,2025-06-06T23:25:00Z,25488665,Em conclusão,3103,Incêndio rural,0,1,0,5,2025-06-06T23:25:00Z,Felgueiras,Porto,Norte,-8.24979,41.38182
25488493,Nogueira e Silva Escura,Area M. Porto,309,2025-06-06T22:15:00Z,25488493,Em conclusão,3105,Incêndio rural,0,3,0,8,2025-06-06T22:15:00Z,Maia,Porto,Norte,-8.59054,41.244857
25487371,São João Dos Caldeireiros,Baixo Alentejo,312,2025-06-06T18:02:00Z,25487371,Em conclusão,3105,Incêndio rural,0,16,0,40,2025-06-06T18:02:00Z,Mértola,Beja,Alentejo,-7.804608,37.600808
25488542,Beja (Salvador e Santa Maria da Feira),Baixo Alentejo,312,2025-06-06T22:46:00Z,25488542,Em conclusão,3105,Incêndio rural,0,2,0,7,2025-06-06T22:46:00Z,Beja,Beja,Alentejo,-7.865172,38.02791
