id,address,subregion,neighborhood,date,id.1,state,nature,nature_description,aerial_means,terrestrial_means,aquatic_means,operational,date.1,Concelho,Distrito,NUTII_DSG,longitude,latitude
25231379,Odivelas,Grande Lisboa,311,2025-04-12T14:21:00Z,25231379,Em despacho,3315,Inundação de estruturas por precipitação intensa,0,0,0,0,2025-04-12T14:21:00Z,Odivelas,Lisboa,Área Metropolitana De Lisboa,-9.18984,38.79405
25070044,Praia do Ribatejo,Médio Tejo,311,2025-03-10T19:30:00Z,25070044,Em curso,1101,Cheia,0,0,0,0,2025-03-10T19:30:00Z,Vila Nova Da Barquinha,Santarém,Centro,-8.357309,39.485638
25071496,São Manços e São Vicente do Pigeiro,Alentejo Central,312,2025-03-11T13:18:00Z,25071496,Em conclusão,1101,Cheia,0,0,0,0,2025-03-11T13:18:00Z,Évora,Évora,Alentejo,-7.713313,38.513673
25202441,Serpa (Salvador e Santa Maria),Baixo Alentejo,312,2025-04-06T10:25:00Z,25202441,Em conclusão,1101,Cheia,0,0,0,0,2025-04-06T10:25:00Z,Serpa,Beja,Alentejo,-7.555783,37.88592
25231102,São João de Loure e Frossos,Região de Aveiro,310,2025-04-12T13:10:00Z,25231102,Em despacho,3313,Deslizamento de terras,0,1,0,2,2025-04-12T13:10:00Z,Albergaria-a-Velha,Aveiro,Centro,-8.542278,40.661776
25231451,Pinhal Novo,Península de Setúbal,311,2025-04-12T14:15:00Z,25231451,Em despacho,3315,Inundação de estruturas por precipitação intensa,0,1,0,3,2025-04-12T14:15:00Z,Palmela,Setúbal,Área Metropolitana De Lisboa,-8.898349,38.639295
25231787,"Pedreira, Rande e Sernande",Tâmega e Sousa,309,2025-04-12T15:53:00Z,25231787,Em despacho,3315,Inundação de estruturas por precipitação intensa,0,1,0,2,2025-04-12T15:53:00Z,Felgueiras,Porto,Norte,-8.2314,41.32795
25232097,Odivelas,Grande Lisboa,311,2025-04-12T17:13:00Z,25232097,Em despacho,3315,Inundação de estruturas por precipitação intensa,0,0,0,0,2025-04-12T17:13:00Z,Odivelas,Lisboa,Área Metropolitana De Lisboa,-9.187167,38.78304
25232112,Odivelas,Grande Lisboa,311,2025-04-12T17:15:00Z,25232112,Em despacho,3315,Inundação de estruturas por precipitação intensa,0,0,0,0,2025-04-12T17:15:00Z,Odivelas,Lisboa,Área Metropolitana De Lisboa,-9.17335,38.79081
25232114,Beja (Santiago Maior e São João Baptista),Baixo Alentejo,312,2025-04-12T17:16:00Z,25232114,Em despacho,3315,Inundação de estruturas por precipitação intensa,0,0,0,0,2025-04-12T17:16:00Z,Beja,Beja,Alentejo,-7.86627,38.00404
25232053,Serpa (Salvador e Santa Maria),Baixo Alentejo,312,2025-04-12T17:06:00Z,25232053,Em despacho,3315,Inundação de estruturas por precipitação intensa,0,1,0,5,2025-04-12T17:06:00Z,Serpa,Beja,Alentejo,-7.555783,37.88592
25232103,Odivelas,Grande Lisboa,311,2025-04-12T17:14:00Z,25232103,Em despacho,3315,Inundação de estruturas por precipitação intensa,0,0,0,0,2025-04-12T17:14:00Z,Odivelas,Lisboa,Área Metropolitana De Lisboa,-9.17809,38.7917
25232105,Odivelas,Grande Lisboa,311,2025-04-12T17:14:00Z,25232105,Em despacho,3315,Inundação de estruturas por precipitação intensa,0,0,0,0,2025-04-12T17:14:00Z,Odivelas,Lisboa,Área Metropolitana De Lisboa,-9.17509,38.79105
25231090,Angeja,Região de Aveiro,310,2025-04-12T13:00:00Z,25231090,Em despacho,3313,Deslizamento de terras,0,1,0,2,2025-04-12T13:00:00Z,Albergaria-a-Velha,Aveiro,Centro,-8.56369,40.681509
25231238,Albergaria-a-Velha e Valmaior,Região de Aveiro,310,2025-04-12T13:48:00Z,25231238,Em curso,3315,Inundação de estruturas por precipitação intensa,0,1,0,1,2025-04-12T13:48:00Z,Albergaria-a-Velha,Aveiro,Centro,-8.438386,40.699019
25231831,Ramada e Caneças,Grande Lisboa,311,2025-04-12T15:58:00Z,25231831,Em despacho,3315,Inundação de estruturas por precipitação intensa,0,0,0,0,2025-04-12T15:58:00Z,Odivelas,Lisboa,Área Metropolitana De Lisboa,-9.194441,38.801427
25232051,Cano,Alto Alentejo,312,2025-04-12T16:53:00Z,25232051,Em despacho,3315,Inundação de estruturas por precipitação intensa,0,1,0,5,2025-04-12T16:53:00Z,Sousel,Portalegre,Alentejo,-7.768506,38.962429
25232085,Monte do Trigo,Alentejo Central,312,2025-04-12T17:10:00Z,25232085,Em despacho,3315,Inundação de estruturas por precipitação intensa,0,0,0,0,2025-04-12T17:10:00Z,Portel,Évora,Alentejo,-7.712736,38.3938
25232090,Odivelas,Grande Lisboa,311,2025-04-12T17:11:00Z,25232090,Em despacho,3315,Inundação de estruturas por precipitação intensa,0,0,0,0,2025-04-12T17:11:00Z,Odivelas,Lisboa,Área Metropolitana De Lisboa,-9.185535,38.78464
25232099,Beja (Salvador e Santa Maria da Feira),Baixo Alentejo,312,2025-04-12T17:13:00Z,25232099,Em despacho,3315,Inundação de estruturas por precipitação intensa,0,0,0,0,2025-04-12T17:13:00Z,Beja,Beja,Alentejo,-7.86047,38.02143
25068300,Almeirim,Lezíria do Tejo,311,2025-03-10T20:52:00Z,25068300,Em curso,1101,Cheia,0,0,0,0,2025-03-10T20:52:00Z,Almeirim,Santarém,Alentejo,-8.635002,39.187436
25231032,Eiras e São Paulo de Frades,Região de Coimbra,310,2025-04-12T12:59:00Z,25231032,Em despacho,3315,Inundação de estruturas por precipitação intensa,0,1,0,3,2025-04-12T12:59:00Z,Coimbra,Coimbra,Centro,-8.423418,40.248789
25231405,Mões,Viseu Dão Lafões,310,2025-04-12T14:22:00Z,25231405,Em despacho,3301,Queda de árvore,0,1,0,2,2025-04-12T14:22:00Z,Castro Daire,Viseu,Centro,-7.866252,40.863909
25231439,Reguengo do Fetal,Região de Leiria,310,2025-04-12T14:34:00Z,25231439,Em despacho,3313,Deslizamento de terras,0,1,0,1,2025-04-12T14:34:00Z,Batalha,Leiria,Centro,-8.781389,39.64833
25231966,Torre de Dona Chama,Terras de Trás-os-Montes,309,2025-04-12T16:36:00Z,25231966,Em despacho,3315,Inundação de estruturas por precipitação intensa,0,1,0,2,2025-04-12T16:36:00Z,Mirandela,Bragança,Norte,-7.145155,41.653245
25232000,Fafe,Ave,309,2025-04-12T16:40:00Z,25232000,Em despacho,3315,Inundação de estruturas por precipitação intensa,0,1,0,2,2025-04-12T16:40:00Z,Fafe,Braga,Norte,-8.175239,41.449617
25232059,Odivelas,Grande Lisboa,311,2025-04-12T17:03:00Z,25232059,Em despacho,3315,Inundação de estruturas por precipitação intensa,0,0,0,0,2025-04-12T17:03:00Z,Odivelas,Lisboa,Área Metropolitana De Lisboa,-9.178571,38.78828
25232116,Odivelas,Grande Lisboa,311,2025-04-12T17:16:00Z,25232116,Em despacho,3315,Inundação de estruturas por precipitação intensa,0,0,0,0,2025-04-12T17:16:00Z,Odivelas,Lisboa,Área Metropolitana De Lisboa,-9.181924,38.7917
