id,address,subregion,neighborhood,date,id.1,state,nature,nature_description,aerial_means,terrestrial_means,aquatic_means,operational,date.1,Concelho,Distrito,NUTII_DSG,longitude,latitude,state_2
26106068,Santa Marinha do Zêzere,Tâmega e Sousa,309,2025-10-08T12:07:00Z,26106068,Em Resolução/Conclusão,3103,Incêndio rural,0,1,0,5,2025-10-08T12:07:00Z,Baião,Porto,Norte,-7.945993,41.155528,Resolução/Conclusão
26093991,Santa Comba,Beiras e Serra da Estrela,310,2025-10-06T01:09:00Z,26093991,Em Resolução/Conclusão,3101,Incêndio rural,0,2,0,7,2025-10-06T01:09:00Z,Seia,Guarda,Centro,-7.745905,40.442718,Resolução/Conclusão
26093602,Castro Daire,Viseu Dão Lafões,310,2025-10-05T22:05:00Z,26093602,Em Resolução/Conclusão,3103,Incêndio rural,0,0,0,0,2025-10-05T22:05:00Z,Castro Daire,Viseu,Centro,-7.9408,40.925289,Resolução/Conclusão
26105654,Dornelas,Alto Tâmega e Barroso,309,2025-10-08T11:00:00Z,26105654,Em Resolução/Conclusão,3103,Incêndio rural,0,3,0,12,2025-10-08T11:00:00Z,Boticas,Vila Real,Norte,-7.838985,41.664535,Resolução/Conclusão
26105918,Serzedo e Perosinho,Area M. Porto,309,2025-10-08T11:49:00Z,26105918,Em Resolução/Conclusão,3103,Incêndio rural,0,1,0,5,2025-10-08T11:49:00Z,Vila Nova De Gaia,Porto,Norte,-8.616682,41.05533,Resolução/Conclusão
