id,address,subregion,neighborhood,date,id.1,state,nature,nature_description,aerial_means,terrestrial_means,aquatic_means,operational,date.1,Concelho,Distrito,NUTII_DSG,longitude,latitude,state_2
25665133,Lindoso,Alto Minho,309,2025-07-12T02:50:00Z,25665133,Em Resolução/Conclusão,3103,Incêndio rural,0,6,0,24,2025-07-12T02:50:00Z,Ponte Da Barca,Viana Do Castelo,Norte,-8.224007,41.852543,Resolução/Conclusão
25677014,Alcórrego e Maranhão,Alto Alentejo,312,2025-07-14T15:07:00Z,25677014,Em Resolução/Conclusão,3101,Incêndio rural,0,34,0,110,2025-07-14T15:07:00Z,Avis,Portalegre,Alentejo,-7.895798,38.982193,Resolução/Conclusão
25678084,Mujães,Alto Minho,309,2025-07-14T18:38:00Z,25678084,Em Resolução/Conclusão,3105,Incêndio rural,0,0,0,0,2025-07-14T18:38:00Z,Viana Do Castelo,Viana Do Castelo,Norte,-8.705737,41.656288,Resolução/Conclusão
25678167,Pontinha e Famões,Grande Lisboa,311,2025-07-14T19:10:00Z,25678167,Em Resolução/Conclusão,3105,Incêndio rural,0,3,0,15,2025-07-14T19:10:00Z,Odivelas,Lisboa,Área Metropolitana De Lisboa,-9.19519,38.77045,Resolução/Conclusão
25677162,Panque,Cávado,309,2025-07-14T15:34:00Z,25677162,Em Resolução/Conclusão,3103,Incêndio rural,0,2,0,7,2025-07-14T15:34:00Z,Barcelos,Braga,Norte,-8.579192,41.642327,Resolução/Conclusão
25677503,Malhadas,Terras de Trás-os-Montes,309,2025-07-14T16:34:00Z,25677503,Em Resolução/Conclusão,3103,Incêndio rural,0,6,0,18,2025-07-14T16:34:00Z,Miranda Do Douro,Bragança,Norte,-6.314462,41.521652,Resolução/Conclusão
25677905,"Marvila, Ribeira Santarém, S.salvador, S.nicolau",Lezíria do Tejo,311,2025-07-14T18:06:00Z,25677905,Em Resolução/Conclusão,3103,Incêndio rural,0,1,0,5,2025-07-14T18:06:00Z,Santarém,Santarém,Alentejo,-8.679972,39.244208,Resolução/Conclusão
25678096,"Almargem do Bispo, Pêro Pinheiro e Montelavar",Grande Lisboa,311,2025-07-14T18:41:00Z,25678096,Em Resolução/Conclusão,3103,Incêndio rural,0,7,0,22,2025-07-14T18:41:00Z,Sintra,Lisboa,Área Metropolitana De Lisboa,-9.311336,38.839939,Resolução/Conclusão
25678246,Lousado,Ave,309,2025-07-14T19:32:00Z,25678246,Em Despacho,3105,Incêndio rural,0,2,0,7,2025-07-14T19:32:00Z,Vila Nova De Famalicão,Braga,Norte,-8.53721,41.35125,Despacho
25678248,Assumar,Alto Alentejo,312,2025-07-14T19:30:00Z,25678248,Em Curso,3105,Incêndio rural,0,7,0,26,2025-07-14T19:30:00Z,Monforte,Portalegre,Alentejo,-7.438018,39.142391,Curso
25678307,Alfena,Area M. Porto,309,2025-07-14T19:37:00Z,25678307,Em Resolução/Conclusão,3103,Incêndio rural,0,2,0,8,2025-07-14T19:37:00Z,Valongo,Porto,Norte,-8.523192,41.237236,Resolução/Conclusão
25662814,Soajo,Alto Minho,309,2025-07-11T15:16:00Z,25662814,Em Resolução/Conclusão,3103,Incêndio rural,0,4,0,13,2025-07-11T15:16:00Z,Arcos De Valdevez,Viana Do Castelo,Norte,-8.22891,41.87654,Resolução/Conclusão
25677104,Recarei,Area M. Porto,309,2025-07-14T15:22:00Z,25677104,Em Resolução/Conclusão,3103,Incêndio rural,0,5,0,14,2025-07-14T15:22:00Z,Paredes,Porto,Norte,-8.427043,41.154083,Resolução/Conclusão
25678172,Moncarapacho e Fuseta,Algarve,313,2025-07-14T19:10:00Z,25678172,Em Resolução/Conclusão,3103,Incêndio rural,0,2,0,7,2025-07-14T19:10:00Z,Olhão,Faro,Algarve,-7.784585,37.081934,Resolução/Conclusão
25676606,Moncarapacho e Fuseta,Algarve,313,2025-07-14T13:57:00Z,25676606,Em Resolução/Conclusão,3103,Incêndio rural,1,13,0,42,2025-07-14T13:57:00Z,Olhão,Faro,Algarve,-7.82583,37.101482,Resolução/Conclusão
