id,address,subregion,neighborhood,date,id.1,state,nature,nature_description,aerial_means,terrestrial_means,aquatic_means,operational,date.1,Concelho,Distrito,NUTII_DSG,longitude,latitude,state_2
26131945,Milheirós,Area M. Porto,309,2025-10-13T17:55:00Z,26131945,Em Resolução/Conclusão,3103,Incêndio rural,0,4,0,19,2025-10-13T17:55:00Z,Maia,Porto,Norte,-8.577187,41.220988,Resolução/Conclusão
26132381,Borbela e Lamas de Olo,Douro,309,2025-10-13T19:27:00Z,26132381,Em Resolução/Conclusão,3103,Incêndio rural,0,2,0,7,2025-10-13T19:27:00Z,Vila Real,Vila Real,Norte,-7.73123,41.32201,Resolução/Conclusão
26126383,Mouriscas,Médio Tejo,311,2025-10-12T15:59:00Z,26126383,Em Resolução/Conclusão,3103,Incêndio rural,0,0,0,0,2025-10-12T15:59:00Z,Abrantes,Santarém,Centro,-8.11638,39.518325,Resolução/Conclusão
26130536,Santa Marinha,Alto Tâmega e Barroso,309,2025-10-13T13:23:00Z,26130536,Em Resolução/Conclusão,3101,Incêndio rural,0,2,0,6,2025-10-13T13:23:00Z,Ribeira De Pena,Vila Real,Norte,-7.754897,41.525988,Resolução/Conclusão
26131349,Gralhas,Alto Tâmega e Barroso,309,2025-10-13T15:42:00Z,26131349,Em Resolução/Conclusão,3103,Incêndio rural,0,2,0,9,2025-10-13T15:42:00Z,Montalegre,Vila Real,Norte,-7.720882,41.853077,Resolução/Conclusão
26132176,Almoster,Lezíria do Tejo,311,2025-10-13T18:41:00Z,26132176,Em Resolução/Conclusão,3103,Incêndio rural,0,1,0,5,2025-10-13T18:41:00Z,Santarém,Santarém,Alentejo,-8.74672,39.24165,Resolução/Conclusão
26132335,"Alpendorada, Várzea e Torrão",Tâmega e Sousa,309,2025-10-13T19:15:00Z,26132335,Em Resolução/Conclusão,3103,Incêndio rural,0,3,0,15,2025-10-13T19:15:00Z,Marco De Canaveses,Porto,Norte,-8.276295,41.085331,Resolução/Conclusão
26130044,Santo Aleixo,Alto Alentejo,312,2025-10-13T11:46:00Z,26130044,Em Resolução/Conclusão,3105,Incêndio rural,0,7,0,20,2025-10-13T11:46:00Z,Monforte,Portalegre,Alentejo,-7.396498,38.966055,Resolução/Conclusão
26130196,Sardoal,Médio Tejo,311,2025-10-13T11:45:00Z,26130196,Em Resolução/Conclusão,3101,Incêndio rural,0,6,0,24,2025-10-13T11:45:00Z,Sardoal,Santarém,Centro,-8.119095,39.515667,Resolução/Conclusão
26132477,Apúlia e Fão,Cávado,309,2025-10-13T19:54:00Z,26132477,Em Despacho,3111,Queima,0,0,0,0,2025-10-13T19:54:00Z,Esposende,Braga,Norte,-8.770523,41.47876,Despacho
26131133,"Crasto, Ruivos e Grovelas",Alto Minho,309,2025-10-13T15:01:00Z,26131133,Em Resolução/Conclusão,3103,Incêndio rural,0,0,0,0,2025-10-13T15:01:00Z,Ponte Da Barca,Viana Do Castelo,Norte,-8.473601,41.743561,Resolução/Conclusão
26131537,"Tamengos, Aguim e Óis do Bairro",Região de Aveiro,310,2025-10-13T16:24:00Z,26131537,Em Resolução/Conclusão,3105,Incêndio rural,0,9,0,22,2025-10-13T16:24:00Z,Anadia,Aveiro,Centro,-8.466082,40.41392,Resolução/Conclusão
26131971,Bemposta,Médio Tejo,311,2025-10-13T18:03:00Z,26131971,Em Resolução/Conclusão,3105,Incêndio rural,0,6,0,19,2025-10-13T18:03:00Z,Abrantes,Santarém,Centro,-8.214668,39.262862,Resolução/Conclusão
26132189,Alvora e Loureda,Alto Minho,309,2025-10-13T18:45:00Z,26132189,Em Curso,3103,Incêndio rural,0,2,0,8,2025-10-13T18:45:00Z,Arcos De Valdevez,Viana Do Castelo,Norte,-8.432729,41.954412,Curso
26132236,Alpiarça,Lezíria do Tejo,311,2025-10-13T18:54:00Z,26132236,Em Resolução/Conclusão,3105,Incêndio rural,0,8,0,24,2025-10-13T18:54:00Z,Alpiarça,Santarém,Alentejo,-8.606263,39.263307,Resolução/Conclusão
26132286,Refontoura,Tâmega e Sousa,309,2025-10-13T19:07:00Z,26132286,Em Resolução/Conclusão,3111,Queima,0,2,0,7,2025-10-13T19:07:00Z,Felgueiras,Porto,Norte,-8.189777,41.336437,Resolução/Conclusão
26132372,Cabeceiras de Basto,Ave,309,2025-10-13T19:24:00Z,26132372,Em Resolução/Conclusão,3103,Incêndio rural,0,5,0,20,2025-10-13T19:24:00Z,Cabeceiras De Basto,Braga,Norte,-8.020499,41.559144,Resolução/Conclusão
26132437,Alverca do Ribatejo e Sobralinho,Grande Lisboa,311,2025-10-13T19:31:00Z,26132437,Em Despacho,3103,Incêndio rural,0,3,0,15,2025-10-13T19:31:00Z,Vila Franca De Xira,Lisboa,Área Metropolitana De Lisboa,-9.054255,38.909809,Despacho
