id,address,subregion,neighborhood,date,id.1,state,nature,nature_description,aerial_means,terrestrial_means,aquatic_means,operational,date.1,Concelho,Distrito,NUTII_DSG,longitude,latitude
24944560,Glória e Vera Cruz,Região de Aveiro,310,2025-02-11T10:09:00Z,24944560,Em curso,3317,Inundação de estruturas por água canalizada,0,1,0,1,2025-02-11T10:09:00Z,Aveiro,Aveiro,Centro,-8.647359,40.640643
24945445,São Domingos de Rana,Grande Lisboa,311,2025-02-11T12:39:00Z,24945445,Em despacho,3315,Inundação de estruturas por precipitação intensa,0,1,0,2,2025-02-11T12:39:00Z,Cascais,Lisboa,Área Metropolitana De Lisboa,-9.347651,38.740483
24946072,Alvorninha,Oeste,311,2025-02-11T14:50:00Z,24946072,Em conclusão,3301,Queda de árvore,0,3,0,7,2025-02-11T14:50:00Z,Caldas Da Rainha,Leiria,Centro,-9.016553,39.399192
24946623,Barreiro e Lavradio,Península de Setúbal,311,2025-02-11T16:50:00Z,24946623,Em despacho,3311,Queda de elementos de estruturas edificados,0,1,0,5,2025-02-11T16:50:00Z,Barreiro,Setúbal,Área Metropolitana De Lisboa,-9.075181,38.661028
24877003,Malagueira e Horta Das Figueiras,Alentejo Central,312,2025-01-27T11:41:00Z,24877003,Em conclusão,3315,Inundação de estruturas por precipitação intensa,0,0,0,0,2025-01-27T11:41:00Z,Évora,Évora,Alentejo,-7.924277,38.57285
24946391,Cascais e Estoril,Grande Lisboa,311,2025-02-11T16:00:00Z,24946391,Em curso,3315,Inundação de estruturas por precipitação intensa,0,1,0,5,2025-02-11T16:00:00Z,Cascais,Lisboa,Área Metropolitana De Lisboa,-9.398759,38.70391
