id,address,subregion,neighborhood,date,id.1,state,nature,nature_description,aerial_means,terrestrial_means,aquatic_means,operational,date.1,Concelho,Distrito,NUTII_DSG,longitude,latitude
25596757,Marinha Grande,Região de Leiria,310,2025-06-29T07:26:00Z,25596757,Em conclusão,2127,"Incêndio em edifícios e recintos industriais, oficinas e armazéns",0,2,0,7,2025-06-29T07:26:00Z,Marinha Grande,Leiria,Centro,-8.921812,39.746629
25596788,Palmela,Península de Setúbal,311,2025-06-29T07:47:00Z,25596788,Em curso,3103,Incêndio rural,0,1,0,5,2025-06-29T07:47:00Z,Palmela,Setúbal,Área Metropolitana De Lisboa,-8.93032,38.59737
25597086,Labruja,Alto Minho,309,2025-06-29T08:51:00Z,25597086,Em despacho,3107,Consolidação de rescaldo de incêndio rural,0,0,0,0,2025-06-29T08:51:00Z,Ponte De Lima,Viana Do Castelo,Norte,-8.591233,41.835535
25596565,Silves,Algarve,313,2025-06-29T05:32:00Z,25596565,Em conclusão,3103,Incêndio rural,0,0,0,0,2025-06-29T05:32:00Z,Silves,Faro,Algarve,-8.518088,37.209803
25596885,"Freixianda, Ribeira do Fárrio e Formigais",Médio Tejo,311,2025-06-29T08:14:00Z,25596885,Em conclusão,3101,Incêndio rural,0,2,0,11,2025-06-29T08:14:00Z,Ourém,Santarém,Centro,-8.468031,39.761439
25593470,Duas Igrejas,Tâmega e Sousa,309,2025-06-28T14:16:00Z,25593470,Em conclusão,3103,Incêndio rural,0,1,0,5,2025-06-28T14:16:00Z,Penafiel,Porto,Norte,-8.278005,41.170128
25596995,São João Baptista e Santa Maria Dos Olivais,Médio Tejo,311,2025-06-29T08:34:00Z,25596995,Em conclusão,3103,Incêndio rural,0,5,0,15,2025-06-29T08:34:00Z,Tomar,Santarém,Centro,-8.408835,39.585238
25597045,Cabreiro,Alto Minho,309,2025-06-29T08:42:00Z,25597045,Em despacho,3107,Consolidação de rescaldo de incêndio rural,0,0,0,0,2025-06-29T08:42:00Z,Arcos De Valdevez,Viana Do Castelo,Norte,-8.387308,41.945052
