id,address,subregion,neighborhood,date,id.1,state,nature,nature_description,aerial_means,terrestrial_means,aquatic_means,operational,date.1,Concelho,Distrito,NUTII_DSG,longitude,latitude
25330646,Beco,Médio Tejo,311,2025-05-05T10:18:00Z,25330646,Em curso,3301,Queda de árvore,0,2,0,6,2025-05-05T10:18:00Z,Ferreira Do Zêzere,Santarém,Centro,-8.300011,39.771711
25330801,"Cedofeita, Ildefonso, Sé, Miragaia, Nicolau e Vitória",Area M. Porto,309,2025-05-05T10:32:00Z,25330801,Em despacho,3311,Queda de elementos de estruturas edificados,0,1,0,5,2025-05-05T10:32:00Z,Porto,Porto,Norte,-8.615939,41.15359
25071496,São Manços e São Vicente do Pigeiro,Alentejo Central,312,2025-03-11T13:18:00Z,25071496,Em conclusão,1101,Cheia,0,0,0,0,2025-03-11T13:18:00Z,Évora,Évora,Alentejo,-7.713313,38.513673
25318424,Nossa Senhora da Graça Dos Degolados,Alto Alentejo,312,2025-05-02T13:10:00Z,25318424,Em conclusão,1103,Vento forte,0,0,0,0,2025-05-02T13:10:00Z,Campo Maior,Portalegre,Alentejo,-7.12147,39.062622
25330145,Montijo e Afonsoeiro,Península de Setúbal,311,2025-05-05T08:19:00Z,25330145,Em despacho,3329,Queda de estruturas temporárias ou móveis,0,2,0,6,2025-05-05T08:19:00Z,Montijo,Setúbal,Área Metropolitana De Lisboa,-8.975715,38.702323
25330629,Nossa Senhora do Pranto,Médio Tejo,311,2025-05-05T10:14:00Z,25330629,Em despacho,3313,Deslizamento de terras,0,2,0,3,2025-05-05T10:14:00Z,Ferreira Do Zêzere,Santarém,Centro,-8.273289,39.751159
25330906,Podentes,Região de Coimbra,310,2025-05-05T10:55:00Z,25330906,Em despacho,3301,Queda de árvore,0,1,0,2,2025-05-05T10:55:00Z,Penela,Coimbra,Centro,-8.367515,40.057092
