id,address,subregion,neighborhood,date,id.1,state,nature,nature_description,aerial_means,terrestrial_means,aquatic_means,operational,date.1,Concelho,Distrito,NUTII_DSG,longitude,latitude,state_2
25665133,Lindoso,Alto Minho,309,2025-07-12T02:50:00Z,25665133,Em Resolução/Conclusão,3103,Incêndio rural,0,9,0,31,2025-07-12T02:50:00Z,Ponte Da Barca,Viana Do Castelo,Norte,-8.224007,41.852543,Resolução/Conclusão
25671499,Girabolhos,Beiras e Serra da Estrela,310,2025-07-13T12:38:00Z,25671499,Em Resolução/Conclusão,3103,Incêndio rural,0,1,0,5,2025-07-13T12:38:00Z,Seia,Guarda,Centro,-7.740278,40.497927,Resolução/Conclusão
25672304,Lordelo,Area M. Porto,309,2025-07-13T15:48:00Z,25672304,Em Resolução/Conclusão,3103,Incêndio rural,0,3,0,9,2025-07-13T15:48:00Z,Paredes,Porto,Norte,-8.429727,41.225515,Resolução/Conclusão
25672704,Vila de Punhe,Alto Minho,309,2025-07-13T17:37:00Z,25672704,Em Resolução/Conclusão,3105,Incêndio rural,0,2,0,5,2025-07-13T17:37:00Z,Viana Do Castelo,Viana Do Castelo,Norte,-8.742008,41.661632,Resolução/Conclusão
25667313,Santa Eufémia e Boa Vista,Região de Leiria,310,2025-07-12T14:36:00Z,25667313,Em Resolução/Conclusão,3103,Incêndio rural,0,1,0,2,2025-07-12T14:36:00Z,Leiria,Leiria,Centro,-8.761077,39.76109,Resolução/Conclusão
25671460,Lomar e Arcos,Cávado,309,2025-07-13T12:25:00Z,25671460,Em Resolução/Conclusão,3101,Incêndio rural,0,2,0,7,2025-07-13T12:25:00Z,Braga,Braga,Norte,-8.439812,41.513755,Resolução/Conclusão
25672444,Quintela de Lampaças,Terras de Trás-os-Montes,309,2025-07-13T16:29:00Z,25672444,Em Resolução/Conclusão,3103,Incêndio rural,0,10,0,27,2025-07-13T16:29:00Z,Bragança,Bragança,Norte,-6.899165,41.58745,Resolução/Conclusão
25673012,Vila Boa de Quires e Maureles,Tâmega e Sousa,309,2025-07-13T18:58:00Z,25673012,Em Resolução/Conclusão,3103,Incêndio rural,0,4,0,15,2025-07-13T18:58:00Z,Marco De Canaveses,Porto,Norte,-8.201313,41.199657,Resolução/Conclusão
25673079,Ulme,Lezíria do Tejo,311,2025-07-13T19:15:00Z,25673079,Em Resolução/Conclusão,3103,Incêndio rural,0,5,0,14,2025-07-13T19:15:00Z,Chamusca,Santarém,Alentejo,-8.41126,39.312882,Resolução/Conclusão
25672473,Alter do Chão,Alto Alentejo,312,2025-07-13T16:35:00Z,25672473,Em Resolução/Conclusão,3105,Incêndio rural,0,21,0,67,2025-07-13T16:35:00Z,Alter Do Chão,Portalegre,Alentejo,-7.645302,39.193763,Resolução/Conclusão
25672975,Vale de Santiago,Alentejo Litoral,312,2025-07-13T18:48:00Z,25672975,Em Resolução/Conclusão,3105,Incêndio rural,0,8,0,23,2025-07-13T18:48:00Z,Odemira,Beja,Alentejo,-8.416145,37.848045,Resolução/Conclusão
25673309,"Gondifelos, Cavalões e Outiz",Ave,309,2025-07-13T20:14:00Z,25673309,Em Curso,3103,Incêndio rural,0,3,0,14,2025-07-13T20:14:00Z,Vila Nova De Famalicão,Braga,Norte,-8.622326,41.41062,Curso
25673325,São Martinho Das Amoreiras,Alentejo Litoral,312,2025-07-13T20:18:00Z,25673325,Em Despacho,3105,Incêndio rural,0,3,0,15,2025-07-13T20:18:00Z,Odemira,Beja,Alentejo,-8.41338,37.68795,Despacho
25662814,Soajo,Alto Minho,309,2025-07-11T15:16:00Z,25662814,Em Resolução/Conclusão,3103,Incêndio rural,0,2,0,6,2025-07-11T15:16:00Z,Arcos De Valdevez,Viana Do Castelo,Norte,-8.22891,41.87654,Resolução/Conclusão
25672442,Santo Agostinho e São João Baptista e Santo Amador,Baixo Alentejo,312,2025-07-13T16:30:00Z,25672442,Em Resolução/Conclusão,3105,Incêndio rural,0,11,0,34,2025-07-13T16:30:00Z,Moura,Beja,Alentejo,-7.467942,38.129553,Resolução/Conclusão
25672758,Salvaterra de Magos e Foros de Salvaterra,Lezíria do Tejo,311,2025-07-13T17:50:00Z,25672758,Em Resolução/Conclusão,3103,Incêndio rural,0,0,0,0,2025-07-13T17:50:00Z,Salvaterra De Magos,Santarém,Alentejo,-8.736955,38.993595,Resolução/Conclusão
25672774,Beja (Salvador e Santa Maria da Feira),Baixo Alentejo,312,2025-07-13T17:55:00Z,25672774,Em Resolução/Conclusão,3105,Incêndio rural,0,1,0,2,2025-07-13T17:55:00Z,Beja,Beja,Alentejo,-7.865663,38.029717,Resolução/Conclusão
25673083,Casteleiro,Beiras e Serra da Estrela,310,2025-07-13T19:16:00Z,25673083,Em Resolução/Conclusão,3103,Incêndio rural,0,3,0,12,2025-07-13T19:16:00Z,Sabugal,Guarda,Centro,-7.247567,40.271748,Resolução/Conclusão
25673094,Guilhabreu,Area M. Porto,309,2025-07-13T19:12:00Z,25673094,Em Resolução/Conclusão,3103,Incêndio rural,0,1,0,5,2025-07-13T19:12:00Z,Vila Do Conde,Porto,Norte,-8.632162,41.292639,Resolução/Conclusão
25673183,"St.tirso, Couto (S.cristina e S.miguel) e Burgães",Area M. Porto,309,2025-07-13T19:36:00Z,25673183,Em Resolução/Conclusão,3103,Incêndio rural,0,6,0,23,2025-07-13T19:36:00Z,Santo Tirso,Porto,Norte,-8.500142,41.350623,Resolução/Conclusão
25673301,Benfica do Ribatejo,Lezíria do Tejo,311,2025-07-13T20:08:00Z,25673301,Em Resolução/Conclusão,3103,Incêndio rural,0,7,0,24,2025-07-13T20:08:00Z,Almeirim,Santarém,Alentejo,-8.623655,39.140195,Resolução/Conclusão
