id,address,subregion,neighborhood,date,id.1,state,nature,nature_description,aerial_means,terrestrial_means,aquatic_means,operational,date.1,Concelho,Distrito,NUTII_DSG,longitude,latitude
25520556,Cadaval e Pêro Moniz,Oeste,311,2025-06-13T15:31:00Z,25520556,Em conclusão,3101,Incêndio rural,0,0,0,0,2025-06-13T15:31:00Z,Cadaval,Lisboa,Centro,-9.127341,39.221936
25520631,"Cristelos, Boim e Ordem",Tâmega e Sousa,309,2025-06-13T15:41:00Z,25520631,Em despacho,3107,Consolidação de rescaldo de incêndio rural,0,1,0,4,2025-06-13T15:41:00Z,Lousada,Porto,Norte,-8.287668,41.259327999999996
25520840,Rio de Mouro,Grande Lisboa,311,2025-06-13T16:26:00Z,25520840,Em curso,3103,Incêndio rural,0,1,0,2,2025-06-13T16:26:00Z,Sintra,Lisboa,Área Metropolitana De Lisboa,-9.321906,38.783084
25520865,"Póvoa de Varzim, Beiriz e Argivai",Area M. Porto,309,2025-06-13T16:34:00Z,25520865,Em curso,3203,Detritos confinados,0,1,0,3,2025-06-13T16:34:00Z,Póvoa De Varzim,Porto,Norte,-8.75359,41.382087
25519809,Santo Agostinho e São João Baptista e Santo Amador,Baixo Alentejo,312,2025-06-13T13:01:00Z,25519809,Em conclusão,3105,Incêndio rural,0,15,0,46,2025-06-13T13:01:00Z,Moura,Beja,Alentejo,-7.406282,38.20087
25519767,Rebordelo,Terras de Trás-os-Montes,309,2025-06-13T12:51:00Z,25519767,Em conclusão,3103,Incêndio rural,0,2,0,7,2025-06-13T12:51:00Z,Vinhais,Bragança,Norte,-7.159745,41.738248
25520050,Poceirão e Marateca,Península de Setúbal,311,2025-06-13T13:50:00Z,25520050,Em conclusão,3103,Incêndio rural,0,0,0,0,2025-06-13T13:50:00Z,Palmela,Setúbal,Área Metropolitana De Lisboa,-8.770753,38.615055
25520286,Penafiel,Tâmega e Sousa,309,2025-06-13T14:28:00Z,25520286,Em despacho,3107,Consolidação de rescaldo de incêndio rural,0,1,0,5,2025-06-13T14:28:00Z,Penafiel,Porto,Norte,-8.268435,41.185293
25520485,Barrô,Tâmega e Sousa,309,2025-06-13T15:17:00Z,25520485,Em conclusão,2129,Incêndio em edifícios degradados ou devolutos,0,4,0,11,2025-06-13T15:17:00Z,Resende,Viseu,Norte,-7.887363,41.128273
25519053,Pedroso e Seixezelo,Area M. Porto,309,2025-06-13T10:34:00Z,25519053,Em conclusão,3103,Incêndio rural,0,3,0,9,2025-06-13T10:34:00Z,Vila Nova De Gaia,Porto,Norte,-8.55785,41.06333
25520659,Lamas e Cercal,Oeste,311,2025-06-13T15:32:00Z,25520659,Em conclusão,3103,Incêndio rural,0,7,0,25,2025-06-13T15:32:00Z,Azambuja,Lisboa,Alentejo,-9.003072,39.183973
25520784,Atouguia da Baleia,Oeste,311,2025-06-13T16:21:00Z,25520784,Em despacho,3101,Incêndio rural,0,4,0,17,2025-06-13T16:21:00Z,Peniche,Leiria,Centro,-9.30692,39.338979
25520832,"S.maria, S.miguel, S.martinho, S.pedro Penaferrim",Grande Lisboa,311,2025-06-13T16:30:00Z,25520832,Em despacho,3103,Incêndio rural,0,4,0,14,2025-06-13T16:30:00Z,Sintra,Lisboa,Área Metropolitana De Lisboa,-9.376751,38.76863
25520866,Arões,Area M. Porto,309,2025-06-13T16:33:00Z,25520866,Em despacho,2101,Incêndio em edifícios habitacionais,0,1,0,4,2025-06-13T16:33:00Z,Vale De Cambra,Aveiro,Norte,-8.300208,40.800158
