id,address,subregion,neighborhood,date,id.1,state,nature,nature_description,aerial_means,terrestrial_means,aquatic_means,operational,date.1,Concelho,Distrito,NUTII_DSG,longitude,latitude,state_2
25738747,Lindoso,Alto Minho,309,2025-07-26T21:47:00Z,25738747,Em Curso,3103,Incêndio rural,0,218,0,635,2025-07-26T21:47:00Z,Ponte Da Barca,Viana Do Castelo,Norte,-8.220528,41.865272,Curso
25741169,Cota,Viseu Dão Lafões,310,2025-07-27T11:54:00Z,25741169,Em Resolução/Conclusão,3101,Incêndio rural,0,1,0,4,2025-07-27T11:54:00Z,Viseu,Viseu,Centro,-7.815572,40.816505,Resolução/Conclusão
25747773,Aranhas,Beira Baixa,310,2025-07-28T16:36:00Z,25747773,Em Resolução/Conclusão,3103,Incêndio rural,0,8,0,24,2025-07-28T16:36:00Z,Penamacor,Castelo Branco,Centro,-7.14438,40.117542,Resolução/Conclusão
25751999,Pombal,Região de Leiria,310,2025-07-29T12:53:00Z,25751999,Em Resolução/Conclusão,3101,Incêndio rural,0,1,0,2,2025-07-29T12:53:00Z,Pombal,Leiria,Centro,-8.6801,39.93227,Resolução/Conclusão
25752083,Alcanede,Lezíria do Tejo,311,2025-07-29T13:12:00Z,25752083,Em Resolução/Conclusão,3103,Incêndio rural,0,16,0,51,2025-07-29T13:12:00Z,Santarém,Santarém,Alentejo,-8.802682,39.405543,Resolução/Conclusão
25756620,Recarei,Area M. Porto,309,2025-07-30T10:47:00Z,25756620,Em Resolução/Conclusão,3103,Incêndio rural,0,38,0,108,2025-07-30T10:47:00Z,Paredes,Porto,Norte,-8.416721,41.151,Resolução/Conclusão
25763822,Lordelo,Area M. Porto,309,2025-07-31T16:33:00Z,25763822,Em Resolução/Conclusão,3103,Incêndio rural,0,1,0,5,2025-07-31T16:33:00Z,Paredes,Porto,Norte,-8.409851,41.232163,Resolução/Conclusão
25764258,Valongo de Milhais,Douro,309,2025-07-31T18:03:00Z,25764258,Em Resolução/Conclusão,3103,Incêndio rural,0,1,0,5,2025-07-31T18:03:00Z,Murça,Vila Real,Norte,-7.42714,41.46461,Resolução/Conclusão
25765578,Barqueiros,Cávado,309,2025-07-31T23:30:00Z,25765578,Em Resolução/Conclusão,3103,Incêndio rural,0,2,0,10,2025-07-31T23:30:00Z,Barcelos,Braga,Norte,-8.737975,41.467913,Resolução/Conclusão
25765719,Sernancelhe e Sarzeda,Douro,309,2025-08-01T00:24:00Z,25765719,Em Resolução/Conclusão,3103,Incêndio rural,0,6,0,22,2025-08-01T00:24:00Z,Sernancelhe,Viseu,Norte,-7.438775,40.896443,Resolução/Conclusão
25765739,Cervães,Cávado,309,2025-08-01T00:31:00Z,25765739,Em Resolução/Conclusão,3103,Incêndio rural,0,4,0,17,2025-08-01T00:31:00Z,Vila Verde,Braga,Norte,-8.534112,41.591857,Resolução/Conclusão
25765803,"Várzea, Aliviada e Folhada",Tâmega e Sousa,309,2025-08-01T01:01:00Z,25765803,Em Resolução/Conclusão,3103,Incêndio rural,0,2,0,10,2025-08-01T01:01:00Z,Marco De Canaveses,Porto,Norte,-8.071028,41.208788,Resolução/Conclusão
25749937,Tarouquela,Tâmega e Sousa,309,2025-07-29T04:11:00Z,25749937,Em Resolução/Conclusão,3103,Incêndio rural,0,26,0,82,2025-07-29T04:11:00Z,Cinfães,Viseu,Norte,-8.173308,41.072792,Resolução/Conclusão
25751241,Molelos,Viseu Dão Lafões,310,2025-07-29T10:43:00Z,25751241,Em Resolução/Conclusão,3103,Incêndio rural,0,0,0,0,2025-07-29T10:43:00Z,Tondela,Viseu,Centro,-8.09574,40.551495,Resolução/Conclusão
25751893,"Espírito Santo, Nossa Senhora da Graça e São Simão",Alto Alentejo,312,2025-07-29T12:32:00Z,25751893,Em Resolução/Conclusão,3101,Incêndio rural,0,3,0,8,2025-07-29T12:32:00Z,Nisa,Portalegre,Alentejo,-7.634827,39.571162,Resolução/Conclusão
25757766,Calde,Viseu Dão Lafões,310,2025-07-30T14:19:00Z,25757766,Em Resolução/Conclusão,3101,Incêndio rural,0,1,0,2,2025-07-30T14:19:00Z,Viseu,Viseu,Centro,-7.898995,40.758803,Resolução/Conclusão
25759068,Valadares,Viseu Dão Lafões,310,2025-07-30T18:37:00Z,25759068,Em Resolução/Conclusão,3105,Incêndio rural,0,0,0,0,2025-07-30T18:37:00Z,São Pedro Do Sul,Viseu,Centro,-8.203518,40.75472,Resolução/Conclusão
25761996,Ninho do Açor e Sobral do Campo,Beira Baixa,310,2025-07-31T10:54:00Z,25761996,Em Resolução/Conclusão,3101,Incêndio rural,0,4,0,20,2025-07-31T10:54:00Z,Castelo Branco,Castelo Branco,Centro,-7.588895,39.990642,Resolução/Conclusão
25762528,Sobrado e Bairros,Tâmega e Sousa,309,2025-07-31T12:30:00Z,25762528,Em Resolução/Conclusão,3103,Incêndio rural,0,2,0,10,2025-07-31T12:30:00Z,Castelo De Paiva,Aveiro,Norte,-8.236423,41.032515,Resolução/Conclusão
25763532,Ninho do Açor e Sobral do Campo,Beira Baixa,310,2025-07-31T15:31:00Z,25763532,Em Resolução/Conclusão,3101,Incêndio rural,0,1,0,2,2025-07-31T15:31:00Z,Castelo Branco,Castelo Branco,Centro,-7.57756,39.994833,Resolução/Conclusão
25763650,Milagres,Região de Leiria,310,2025-07-31T15:58:00Z,25763650,Em Resolução/Conclusão,3101,Incêndio rural,0,4,0,11,2025-07-31T15:58:00Z,Leiria,Leiria,Centro,-8.792217,39.793427,Resolução/Conclusão
25764075,"Ardegão, Arnozela e Seidões",Ave,309,2025-07-31T17:22:00Z,25764075,Em Resolução/Conclusão,3101,Incêndio rural,0,0,0,0,2025-07-31T17:22:00Z,Fafe,Braga,Norte,-8.110025,41.40508,Resolução/Conclusão
25765004,Bravães,Alto Minho,309,2025-07-31T20:48:00Z,25765004,Em Resolução/Conclusão,3103,Incêndio rural,0,2,0,4,2025-07-31T20:48:00Z,Ponte Da Barca,Viana Do Castelo,Norte,-8.440397,41.788573,Resolução/Conclusão
25765948,Rans,Tâmega e Sousa,309,2025-08-01T02:40:00Z,25765948,Em Despacho,3103,Incêndio rural,0,0,0,0,2025-08-01T02:40:00Z,Penafiel,Porto,Norte,-8.295428,41.16965,Despacho
25749681,Fornos de Maceira Dão,Viseu Dão Lafões,310,2025-07-29T01:19:00Z,25749681,Em Resolução/Conclusão,3103,Incêndio rural,0,0,0,0,2025-07-29T01:19:00Z,Mangualde,Viseu,Centro,-7.806963,40.617022,Resolução/Conclusão
25750701,Capela,Tâmega e Sousa,309,2025-07-29T09:26:00Z,25750701,Em Curso,3103,Incêndio rural,0,71,0,247,2025-07-29T09:26:00Z,Penafiel,Porto,Norte,-8.345202,41.09353,Curso
25762916,Cota,Viseu Dão Lafões,310,2025-07-31T13:40:00Z,25762916,Em Resolução/Conclusão,3101,Incêndio rural,0,0,0,0,2025-07-31T13:40:00Z,Viseu,Viseu,Centro,-7.801223,40.780375,Resolução/Conclusão
25765473,Sameice e Santa Eulália,Beiras e Serra da Estrela,310,2025-07-31T23:02:00Z,25765473,Em Resolução/Conclusão,3103,Incêndio rural,0,1,0,5,2025-07-31T23:02:00Z,Seia,Guarda,Centro,-7.775783,40.420218,Resolução/Conclusão
25765886,"Veade, Gagos e Molares",Tâmega e Sousa,309,2025-08-01T01:58:00Z,25765886,Em Resolução/Conclusão,3103,Incêndio rural,0,3,0,12,2025-08-01T01:58:00Z,Celorico De Basto,Braga,Norte,-7.999847,41.425708,Resolução/Conclusão
25765895,"Lobão, Gião, Louredo e Guisande",Area M. Porto,309,2025-08-01T02:03:00Z,25765895,Em Resolução/Conclusão,3103,Incêndio rural,0,1,0,5,2025-08-01T02:03:00Z,Santa Maria Da Feira,Aveiro,Norte,-8.481504,40.98536,Resolução/Conclusão
25748118,Canelas e Espiunca,Area M. Porto,309,2025-07-28T17:16:00Z,25748118,Em Curso,3101,Incêndio rural,0,166,0,441,2025-07-28T17:16:00Z,Arouca,Aveiro,Norte,-8.212231,40.969918,Curso
25749320,Rebordões (Santa Maria),Alto Minho,309,2025-07-28T22:47:00Z,25749320,Em Resolução/Conclusão,3103,Incêndio rural,0,4,0,14,2025-07-28T22:47:00Z,Ponte De Lima,Viana Do Castelo,Norte,-8.588365,41.729993,Resolução/Conclusão
25749641,Silva Escura e Dornelas,Região de Aveiro,310,2025-07-29T01:02:00Z,25749641,Em Resolução/Conclusão,3101,Incêndio rural,0,9,0,27,2025-07-29T01:02:00Z,Sever Do Vouga,Aveiro,Centro,-8.399623,40.769354,Resolução/Conclusão
25753666,São Cristóvão de Nogueira,Tâmega e Sousa,309,2025-07-29T18:21:00Z,25753666,Em Resolução/Conclusão,3103,Incêndio rural,0,1,0,5,2025-07-29T18:21:00Z,Cinfães,Viseu,Norte,-8.134771,41.05519,Resolução/Conclusão
25756006,Pinhanços,Beiras e Serra da Estrela,310,2025-07-30T09:07:00Z,25756006,Em Resolução/Conclusão,3103,Incêndio rural,0,10,0,25,2025-07-30T09:07:00Z,Seia,Guarda,Centro,-7.708132,40.473517,Resolução/Conclusão
25756459,Nespereira,Tâmega e Sousa,309,2025-07-30T10:20:00Z,25756459,Em Resolução/Conclusão,3103,Incêndio rural,0,6,0,29,2025-07-30T10:20:00Z,Cinfães,Viseu,Norte,-8.130378,41.039695,Resolução/Conclusão
25760635,Belinho e Mar,Cávado,309,2025-07-31T03:55:00Z,25760635,Em Resolução/Conclusão,3103,Incêndio rural,0,4,0,12,2025-07-31T03:55:00Z,Esposende,Braga,Norte,-8.780248,41.593495,Resolução/Conclusão
25763964,Pêro Viseu,Beiras e Serra da Estrela,310,2025-07-31T16:58:00Z,25763964,Em Resolução/Conclusão,3103,Incêndio rural,0,2,0,10,2025-07-31T16:58:00Z,Fundão,Castelo Branco,Centro,-7.457652,40.199215,Resolução/Conclusão
25765114,Alegrete,Alto Alentejo,312,2025-07-31T21:12:00Z,25765114,Em Resolução/Conclusão,3101,Incêndio rural,0,8,0,27,2025-07-31T21:12:00Z,Portalegre,Portalegre,Alentejo,-7.287715,39.256223,Resolução/Conclusão
25765599,"Ardegão, Arnozela e Seidões",Ave,309,2025-07-31T23:35:00Z,25765599,Em Resolução/Conclusão,3103,Incêndio rural,0,12,0,42,2025-07-31T23:35:00Z,Fafe,Braga,Norte,-8.125862,41.39654,Resolução/Conclusão
25765932,São Brás e São Lourenço,Alto Alentejo,312,2025-08-01T02:24:00Z,25765932,Em Resolução/Conclusão,3105,Incêndio rural,0,7,0,29,2025-08-01T02:24:00Z,Elvas,Portalegre,Alentejo,-7.209975,38.882789,Resolução/Conclusão
