id,address,subregion,neighborhood,date,id.1,state,nature,nature_description,aerial_means,terrestrial_means,aquatic_means,operational,date.1,Concelho,Distrito,NUTII_DSG,longitude,latitude,state_2
25952099,Almancil,Algarve,313,2025-09-06T13:37:00Z,25952099,Em Resolução/Conclusão,3103,Incêndio rural,0,2,0,6,2025-09-06T13:37:00Z,Faro,Faro,Algarve,-7.969985,37.084469,Resolução/Conclusão
25952617,"Requeixo, Nossa Senhora de Fátima e Nariz",Região de Aveiro,310,2025-09-06T15:26:00Z,25952617,Em Resolução/Conclusão,3101,Incêndio rural,2,21,0,76,2025-09-06T15:26:00Z,Aveiro,Aveiro,Centro,-8.576895,40.591837,Resolução/Conclusão
25952810,Luzim e Vila Cova,Tâmega e Sousa,309,2025-09-06T16:13:00Z,25952810,Em Curso,3101,Incêndio rural,1,12,0,52,2025-09-06T16:13:00Z,Penafiel,Porto,Norte,-8.23573,41.16431,Curso
25952858,Figueira de Castelo Rodrigo,Beiras e Serra da Estrela,310,2025-09-06T16:22:00Z,25952858,Em Curso,3103,Incêndio rural,2,14,0,59,2025-09-06T16:22:00Z,Figueira De Castelo Rodrigo,Guarda,Centro,-6.934648,40.906778,Curso
25952860,Almeirim,Lezíria do Tejo,311,2025-09-06T16:22:00Z,25952860,Em Resolução/Conclusão,3103,Incêndio rural,1,5,0,25,2025-09-06T16:22:00Z,Almeirim,Santarém,Alentejo,-8.64052,39.153487,Resolução/Conclusão
25832672,Piódão,Região de Coimbra,310,2025-08-13T05:08:00Z,25832672,Em Resolução/Conclusão,3103,Incêndio rural,0,14,0,40,2025-08-13T05:08:00Z,Arganil,Coimbra,Centro,-7.81972,40.23083,Resolução/Conclusão
25840417,Lousã e Vilarinho,Região de Coimbra,310,2025-08-14T13:46:00Z,25840417,Em Resolução/Conclusão,3101,Incêndio rural,0,0,0,0,2025-08-14T13:46:00Z,Lousã,Coimbra,Centro,-8.201561,40.080016,Resolução/Conclusão
25951064,Moimenta e Montouto,Terras de Trás-os-Montes,309,2025-09-06T10:05:00Z,25951064,Em Resolução/Conclusão,3103,Incêndio rural,8,13,0,46,2025-09-06T10:05:00Z,Vinhais,Bragança,Norte,-6.971422,41.966033,Resolução/Conclusão
25951457,Vila Cã,Região de Leiria,310,2025-09-06T11:25:00Z,25951457,Em Resolução/Conclusão,3103,Incêndio rural,0,10,0,34,2025-09-06T11:25:00Z,Pombal,Leiria,Centro,-8.56078,39.851197,Resolução/Conclusão
25952314,Oliveira do Douro,Area M. Porto,309,2025-09-06T14:18:00Z,25952314,Em Resolução/Conclusão,3103,Incêndio rural,0,2,0,4,2025-09-06T14:18:00Z,Vila Nova De Gaia,Porto,Norte,-8.588902,41.132377,Resolução/Conclusão
25953052,Celavisa,Região de Coimbra,310,2025-09-06T17:04:00Z,25953052,Em Resolução/Conclusão,3101,Incêndio rural,2,11,0,44,2025-09-06T17:04:00Z,Arganil,Coimbra,Centro,-8.059479,40.19337,Resolução/Conclusão
25953059,Avintes,Area M. Porto,309,2025-09-06T17:06:00Z,25953059,Em Resolução/Conclusão,3103,Incêndio rural,0,2,0,7,2025-09-06T17:06:00Z,Vila Nova De Gaia,Porto,Norte,-8.559285,41.103847,Resolução/Conclusão
25953169,"Algodres, Vale de Afonsinho e Vilar de Amargo",Beiras e Serra da Estrela,310,2025-09-06T17:30:00Z,25953169,Em Curso,3103,Incêndio rural,0,2,0,7,2025-09-06T17:30:00Z,Figueira De Castelo Rodrigo,Guarda,Centro,-7.013253,40.946134,Curso
25951176,Sandomil,Beiras e Serra da Estrela,310,2025-09-06T10:29:00Z,25951176,Em Curso,3103,Incêndio rural,13,151,0,529,2025-09-06T10:29:00Z,Seia,Guarda,Centro,-7.76001,40.351547,Curso
25951795,São Bento do Mato,Alentejo Central,312,2025-09-06T12:34:00Z,25951795,Em Resolução/Conclusão,3103,Incêndio rural,0,16,0,52,2025-09-06T12:34:00Z,Évora,Évora,Alentejo,-7.770928,38.689508,Resolução/Conclusão
25952160,Santa Catarina,Oeste,311,2025-09-06T13:50:00Z,25952160,Em Resolução/Conclusão,3103,Incêndio rural,0,2,0,7,2025-09-06T13:50:00Z,Caldas Da Rainha,Leiria,Centro,-9.008811,39.429874,Resolução/Conclusão
25952612,Aradas,Região de Aveiro,310,2025-09-06T15:25:00Z,25952612,Em Resolução/Conclusão,3105,Incêndio rural,0,4,0,13,2025-09-06T15:25:00Z,Aveiro,Aveiro,Centro,-8.62594,40.595097,Resolução/Conclusão
25952913,São Joaninho,Viseu Dão Lafões,310,2025-09-06T16:32:00Z,25952913,Em Resolução/Conclusão,3105,Incêndio rural,0,7,0,28,2025-09-06T16:32:00Z,Santa Comba Dão,Viseu,Centro,-8.126905,40.445835,Resolução/Conclusão
25952915,Tavira (Santa Maria e Santiago),Algarve,313,2025-09-06T16:39:00Z,25952915,Em Resolução/Conclusão,3103,Incêndio rural,4,11,0,42,2025-09-06T16:39:00Z,Tavira,Faro,Algarve,-7.69144,37.17138,Resolução/Conclusão
25952671,Gavião,Ave,309,2025-09-06T15:37:00Z,25952671,Em Resolução/Conclusão,3103,Incêndio rural,0,4,0,14,2025-09-06T15:37:00Z,Vila Nova De Famalicão,Braga,Norte,-8.502408,41.420665,Resolução/Conclusão
25952706,Charneca de Caparica e Sobreda,Península de Setúbal,311,2025-09-06T15:47:00Z,25952706,Em Resolução/Conclusão,3103,Incêndio rural,0,1,0,2,2025-09-06T15:47:00Z,Almada,Setúbal,Área Metropolitana De Lisboa,-9.179022,38.599895,Resolução/Conclusão
25952939,Este (São Pedro e São Mamede),Cávado,309,2025-09-06T16:40:00Z,25952939,Em Resolução/Conclusão,3111,Queima,0,2,0,6,2025-09-06T16:40:00Z,Braga,Braga,Norte,-8.35992,41.57349,Resolução/Conclusão
25953040,Canedo,Alto Tâmega e Barroso,309,2025-09-06T17:00:00Z,25953040,Em Curso,3103,Incêndio rural,2,11,0,54,2025-09-06T17:00:00Z,Ribeira De Pena,Vila Real,Norte,-7.721235,41.607728,Curso
25953088,Mancelos,Tâmega e Sousa,309,2025-09-06T17:11:00Z,25953088,Em Resolução/Conclusão,3103,Incêndio rural,1,5,0,25,2025-09-06T17:11:00Z,Amarante,Porto,Norte,-8.155101,41.285134,Resolução/Conclusão
25953114,Penedono e Granja,Douro,309,2025-09-06T17:13:00Z,25953114,Em Resolução/Conclusão,3103,Incêndio rural,1,2,0,13,2025-09-06T17:13:00Z,Penedono,Viseu,Norte,-7.392822,40.98611,Resolução/Conclusão
25953138,Caçarilhe e Infesta,Tâmega e Sousa,309,2025-09-06T17:15:00Z,25953138,Em Resolução/Conclusão,3103,Incêndio rural,0,2,0,10,2025-09-06T17:15:00Z,Celorico De Basto,Braga,Norte,-8.059013,41.425132,Resolução/Conclusão
25953156,Arões (São Romão),Ave,309,2025-09-06T17:29:00Z,25953156,Em Despacho,3105,Incêndio rural,0,1,0,5,2025-09-06T17:29:00Z,Fafe,Braga,Norte,-8.2141,41.45425,Despacho
25953187,Nossa Senhora da Graça Dos Degolados,Alto Alentejo,312,2025-09-06T17:31:00Z,25953187,Em Resolução/Conclusão,3105,Incêndio rural,1,7,0,37,2025-09-06T17:31:00Z,Campo Maior,Portalegre,Alentejo,-7.095562,39.039943,Resolução/Conclusão
