id,address,subregion,neighborhood,date,id.1,state,nature,nature_description,aerial_means,terrestrial_means,aquatic_means,operational,date.1,Concelho,Distrito,NUTII_DSG,longitude,latitude,state_2
26022995,Bordeira,Algarve,313,2025-09-21T12:21:00Z,26022995,Em Resolução/Conclusão,3103,Incêndio rural,0,5,0,15,2025-09-21T12:21:00Z,Aljezur,Faro,Algarve,-8.825374,37.23495,Resolução/Conclusão
26081740,Ouca,Região de Aveiro,310,2025-10-03T10:56:00Z,26081740,Em Resolução/Conclusão,3111,Queima,0,1,0,5,2025-10-03T10:56:00Z,Vagos,Aveiro,Centro,-8.653493,40.517244,Resolução/Conclusão
26081825,Mexilhoeira Grande,Algarve,313,2025-10-03T11:23:00Z,26081825,Em Resolução/Conclusão,3103,Incêndio rural,0,5,0,17,2025-10-03T11:23:00Z,Portimão,Faro,Algarve,-8.608198,37.20353,Resolução/Conclusão
26081876,Caparica e Trafaria,Península de Setúbal,311,2025-10-03T11:22:00Z,26081876,Em Resolução/Conclusão,3103,Incêndio rural,0,1,0,5,2025-10-03T11:22:00Z,Almada,Setúbal,Área Metropolitana De Lisboa,-9.205011,38.66171,Resolução/Conclusão
26078806,"Tavares (Chãs, Várzea e Travanca)",Viseu Dão Lafões,310,2025-10-02T17:31:00Z,26078806,Em Resolução/Conclusão,3103,Incêndio rural,0,1,0,2,2025-10-02T17:31:00Z,Mangualde,Viseu,Centro,-7.638958,40.609205,Resolução/Conclusão
26073480,Alcanede,Lezíria do Tejo,311,2025-10-01T16:15:00Z,26073480,Em Resolução/Conclusão,3103,Incêndio rural,0,2,0,10,2025-10-01T16:15:00Z,Santarém,Santarém,Alentejo,-8.787427,39.400588,Resolução/Conclusão
26081777,Nossa Senhora de Machede,Alentejo Central,312,2025-10-03T11:11:00Z,26081777,Em Resolução/Conclusão,3105,Incêndio rural,0,5,0,19,2025-10-03T11:11:00Z,Évora,Évora,Alentejo,-7.779653,38.57945,Resolução/Conclusão
26081881,Anta e Guetim,Area M. Porto,309,2025-10-03T11:32:00Z,26081881,Em Curso,3103,Incêndio rural,0,1,0,5,2025-10-03T11:32:00Z,Espinho,Aveiro,Norte,-8.618275,40.99784,Curso
26077823,São Cipriano e Vil de Souto,Viseu Dão Lafões,310,2025-10-02T14:18:00Z,26077823,Em Resolução/Conclusão,3103,Incêndio rural,0,2,0,7,2025-10-02T14:18:00Z,Viseu,Viseu,Centro,-7.953868,40.632302,Resolução/Conclusão
26078406,Arcozelo,Beiras e Serra da Estrela,310,2025-10-02T16:12:00Z,26078406,Em Resolução/Conclusão,3103,Incêndio rural,0,5,0,21,2025-10-02T16:12:00Z,Gouveia,Guarda,Centro,-7.635898,40.563733,Resolução/Conclusão
