id,address,subregion,neighborhood,date,id.1,state,nature,nature_description,aerial_means,terrestrial_means,aquatic_means,operational,date.1,Concelho,Distrito,NUTII_DSG,longitude,latitude,state_2
26148602,Sobreira,Area M. Porto,309,2025-10-17T03:52:00Z,26148602,Em Resolução/Conclusão,3103,Incêndio rural,0,4,0,14,2025-10-17T03:52:00Z,Paredes,Porto,Norte,-8.389412,41.153068,Resolução/Conclusão
26151494,Paradela,Alto Tâmega e Barroso,309,2025-10-17T15:44:00Z,26151494,Em Resolução/Conclusão,3103,Incêndio rural,0,4,0,14,2025-10-17T15:44:00Z,Chaves,Vila Real,Norte,-7.325628,41.811003,Resolução/Conclusão
26152037,Corval,Alentejo Central,312,2025-10-17T17:14:00Z,26152037,Em Resolução/Conclusão,3105,Incêndio rural,0,5,0,15,2025-10-17T17:14:00Z,Reguengos De Monsaraz,Évora,Alentejo,-7.502805,38.43993,Resolução/Conclusão
26152205,Campo e Sobrado,Area M. Porto,309,2025-10-17T18:10:00Z,26152205,Em Resolução/Conclusão,3101,Incêndio rural,0,4,0,12,2025-10-17T18:10:00Z,Valongo,Porto,Norte,-8.469448,41.224138,Resolução/Conclusão
26152455,Cardosas,Oeste,311,2025-10-17T18:47:00Z,26152455,Em Resolução/Conclusão,3111,Queima,0,2,0,6,2025-10-17T18:47:00Z,Arruda Dos Vinhos,Lisboa,Centro,-9.028309,38.974125,Resolução/Conclusão
26152482,Nine,Ave,309,2025-10-17T19:08:00Z,26152482,Em Despacho,3103,Incêndio rural,0,1,0,5,2025-10-17T19:08:00Z,Vila Nova De Famalicão,Braga,Norte,-8.53394,41.45968,Despacho
26152496,Sarraquinhos,Alto Tâmega e Barroso,309,2025-10-17T19:10:00Z,26152496,Em Despacho,3103,Incêndio rural,0,3,0,14,2025-10-17T19:10:00Z,Montalegre,Vila Real,Norte,-7.648178,41.809519,Despacho
26152530,"Nogueira, Fraião e Lamaçães",Cávado,309,2025-10-17T19:18:00Z,26152530,Em Curso,3103,Incêndio rural,0,2,0,9,2025-10-17T19:18:00Z,Braga,Braga,Norte,-8.399912,41.531469,Curso
26152580,Anta e Guetim,Area M. Porto,309,2025-10-17T19:30:00Z,26152580,Em Despacho,3103,Incêndio rural,0,1,0,4,2025-10-17T19:30:00Z,Espinho,Aveiro,Norte,-8.63103,41.01207,Despacho
26151695,Serpa (Salvador e Santa Maria),Baixo Alentejo,312,2025-10-17T16:19:00Z,26151695,Em Resolução/Conclusão,3105,Incêndio rural,0,5,0,9,2025-10-17T16:19:00Z,Serpa,Beja,Alentejo,-7.556573,37.916337,Resolução/Conclusão
26151979,Alcoentre,Lezíria do Tejo,311,2025-10-17T17:16:00Z,26151979,Em Resolução/Conclusão,3103,Incêndio rural,0,0,0,0,2025-10-17T17:16:00Z,Azambuja,Lisboa,Alentejo,-8.954227,39.196288,Resolução/Conclusão
26152090,Venade e Azevedo,Alto Minho,309,2025-10-17T17:38:00Z,26152090,Em Resolução/Conclusão,3105,Incêndio rural,0,4,0,13,2025-10-17T17:38:00Z,Caminha,Viana Do Castelo,Norte,-8.808792,41.844957,Resolução/Conclusão
26151206,Liceia,Região de Coimbra,310,2025-10-17T14:48:00Z,26151206,Em Resolução/Conclusão,3101,Incêndio rural,0,14,0,48,2025-10-17T14:48:00Z,Montemor-o-Velho,Coimbra,Centro,-8.73417,40.28056,Resolução/Conclusão
26152526,Santa Marinha e São Pedro da Afurada,Area M. Porto,309,2025-10-17T19:13:00Z,26152526,Em Resolução/Conclusão,3101,Incêndio rural,0,2,0,10,2025-10-17T19:13:00Z,Vila Nova De Gaia,Porto,Norte,-8.624714,41.132843,Resolução/Conclusão
26152318,Cidade da Maia,Area M. Porto,309,2025-10-17T18:31:00Z,26152318,Em Curso,3103,Incêndio rural,0,4,0,11,2025-10-17T18:31:00Z,Maia,Porto,Norte,-8.597222,41.22972,Curso
26152551,Picão e Ermida,Viseu Dão Lafões,310,2025-10-17T19:23:00Z,26152551,Em Despacho,3103,Incêndio rural,0,3,0,14,2025-10-17T19:23:00Z,Castro Daire,Viseu,Centro,-7.921754,40.941464,Despacho
26152600,Paderne,Alto Minho,309,2025-10-17T19:35:00Z,26152600,Em Despacho,3103,Incêndio rural,0,0,0,0,2025-10-17T19:35:00Z,Melgaço,Viana Do Castelo,Norte,-8.2749,42.05929,Despacho
26152497,Candemil,Tâmega e Sousa,309,2025-10-17T19:11:00Z,26152497,Em Despacho,3101,Incêndio rural,0,1,0,5,2025-10-17T19:11:00Z,Amarante,Porto,Norte,-7.97897,41.25135,Despacho
26152574,Mazarefes e Vila Fria,Alto Minho,309,2025-10-17T19:28:00Z,26152574,Em Despacho,3105,Incêndio rural,0,1,0,5,2025-10-17T19:28:00Z,Viana Do Castelo,Viana Do Castelo,Norte,-8.7676,41.68054,Despacho
