id,address,subregion,neighborhood,date,id.1,state,nature,nature_description,aerial_means,terrestrial_means,aquatic_means,operational,date.1,Concelho,Distrito,NUTII_DSG,longitude,latitude,state_2
26234021,Ciladas,Alentejo Central,312,2025-11-04T10:32:00Z,26234021,Em Resolução/Conclusão,3105,Incêndio rural,0,5,0,15,2025-11-04T10:32:00Z,Vila Viçosa,Évora,Alentejo,-7.290138,38.75243,Resolução/Conclusão
26234164,Serpa (Salvador e Santa Maria),Baixo Alentejo,312,2025-11-04T10:54:00Z,26234164,Em Resolução/Conclusão,3105,Incêndio rural,0,4,0,10,2025-11-04T10:54:00Z,Serpa,Beja,Alentejo,-7.574085,37.93265,Resolução/Conclusão
26234805,"S.maria, S.miguel, S.martinho, S.pedro Penaferrim",Grande Lisboa,311,2025-11-04T12:58:00Z,26234805,Em Despacho,3111,Queima,0,0,0,0,2025-11-04T12:58:00Z,Sintra,Lisboa,Área Metropolitana De Lisboa,-9.373311,38.78715,Despacho
26234645,Pavia,Alentejo Central,312,2025-11-04T12:25:00Z,26234645,Em Curso,3105,Incêndio rural,0,2,0,7,2025-11-04T12:25:00Z,Mora,Évora,Alentejo,-7.958896,38.869239,Curso
26234568,Ourique,Baixo Alentejo,312,2025-11-04T12:11:00Z,26234568,Em Resolução/Conclusão,3105,Incêndio rural,0,5,0,14,2025-11-04T12:11:00Z,Ourique,Beja,Alentejo,-8.216919,37.643181,Resolução/Conclusão
26234388,"Mogadouro, Valverde, Vale de Porco e Vilar de Rei",Terras de Trás-os-Montes,309,2025-11-04T11:20:00Z,26234388,Em Resolução/Conclusão,3103,Incêndio rural,0,4,0,8,2025-11-04T11:20:00Z,Mogadouro,Bragança,Norte,-6.80943,41.304492,Resolução/Conclusão
