id,address,subregion,neighborhood,date,id.1,state,nature,nature_description,aerial_means,terrestrial_means,aquatic_means,operational,date.1,Concelho,Distrito,NUTII_DSG,longitude,latitude,state_2
25636247,Ventosa e Cova,Ave,309,2025-07-06T13:13:00Z,25636247,Em Resolução/Conclusão,3103,Incêndio rural,0,3,0,12,2025-07-06T13:13:00Z,Vieira Do Minho,Braga,Norte,-8.165258,41.677738,Resolução/Conclusão
25636764,Romariz,Area M. Porto,309,2025-07-06T15:09:00Z,25636764,Em Resolução/Conclusão,3103,Incêndio rural,0,1,0,5,2025-07-06T15:09:00Z,Santa Maria Da Feira,Aveiro,Norte,-8.45104,40.95669,Resolução/Conclusão
25636812,Valdujo,Beiras e Serra da Estrela,310,2025-07-06T15:18:00Z,25636812,Em Resolução/Conclusão,3105,Incêndio rural,0,4,0,14,2025-07-06T15:18:00Z,Trancoso,Guarda,Centro,-7.285625,40.835718,Resolução/Conclusão
25636848,Penafiel,Tâmega e Sousa,309,2025-07-06T15:28:00Z,25636848,Em Resolução/Conclusão,3103,Incêndio rural,0,6,0,22,2025-07-06T15:28:00Z,Penafiel,Porto,Norte,-8.280964,41.200887,Resolução/Conclusão
25637096,"Silvares, Pias, Nogueira e Alvarenga",Tâmega e Sousa,309,2025-07-06T16:26:00Z,25637096,Em Resolução/Conclusão,3105,Incêndio rural,0,1,0,5,2025-07-06T16:26:00Z,Lousada,Porto,Norte,-8.262352,41.274732,Resolução/Conclusão
25637180,Pontével,Lezíria do Tejo,311,2025-07-06T16:45:00Z,25637180,Em Resolução/Conclusão,3103,Incêndio rural,0,4,0,11,2025-07-06T16:45:00Z,Cartaxo,Santarém,Alentejo,-8.845508,39.163895,Resolução/Conclusão
25637498,Cabeça Gorda,Baixo Alentejo,312,2025-07-06T17:57:00Z,25637498,Em Despacho,3103,Incêndio rural,0,5,0,18,2025-07-06T17:57:00Z,Beja,Beja,Alentejo,-7.78958,37.94571,Despacho
25635597,Agilde,Tâmega e Sousa,309,2025-07-06T10:39:00Z,25635597,Em Resolução/Conclusão,3103,Incêndio rural,0,3,0,12,2025-07-06T10:39:00Z,Celorico De Basto,Braga,Norte,-8.110412,41.371243,Resolução/Conclusão
25636440,Lomba,Area M. Porto,309,2025-07-06T13:52:00Z,25636440,Em Resolução/Conclusão,3101,Incêndio rural,0,1,0,2,2025-07-06T13:52:00Z,Gondomar,Porto,Norte,-8.408252,41.034001,Resolução/Conclusão
25636515,"Esqueiros, Nevogilde e Travassós",Cávado,309,2025-07-06T14:11:00Z,25636515,Em Resolução/Conclusão,3103,Incêndio rural,0,18,0,59,2025-07-06T14:11:00Z,Vila Verde,Braga,Norte,-8.460355,41.663657,Resolução/Conclusão
25636608,Vilarinho,Area M. Porto,309,2025-07-06T14:25:00Z,25636608,Em Resolução/Conclusão,3103,Incêndio rural,0,1,0,5,2025-07-06T14:25:00Z,Santo Tirso,Porto,Norte,-8.331512,41.357482,Resolução/Conclusão
25637403,Recezinhos (São Mamede),Tâmega e Sousa,309,2025-07-06T17:37:00Z,25637403,Em Curso,3103,Incêndio rural,0,4,0,20,2025-07-06T17:37:00Z,Penafiel,Porto,Norte,-8.219522,41.23398,Curso
25637437,Quinchães,Ave,309,2025-07-06T17:46:00Z,25637437,Em Resolução/Conclusão,3103,Incêndio rural,1,4,0,25,2025-07-06T17:46:00Z,Fafe,Braga,Norte,-8.135626,41.431551,Resolução/Conclusão
25637446,Corroios,Península de Setúbal,311,2025-07-06T17:48:00Z,25637446,Em Resolução/Conclusão,3105,Incêndio rural,0,5,0,23,2025-07-06T17:48:00Z,Seixal,Setúbal,Área Metropolitana De Lisboa,-9.1492,38.64198,Resolução/Conclusão
25637476,Cidade da Maia,Area M. Porto,309,2025-07-06T17:53:00Z,25637476,Em Despacho,3103,Incêndio rural,0,0,0,0,2025-07-06T17:53:00Z,Maia,Porto,Norte,-8.59813,41.23285,Despacho
25637024,Alijó,Douro,309,2025-07-06T16:09:00Z,25637024,Em Resolução/Conclusão,3103,Incêndio rural,0,8,0,25,2025-07-06T16:09:00Z,Alijó,Vila Real,Norte,-7.477,41.28042,Resolução/Conclusão
25637140,Penafiel,Tâmega e Sousa,309,2025-07-06T16:35:00Z,25637140,Em Resolução/Conclusão,3103,Incêndio rural,0,5,0,18,2025-07-06T16:35:00Z,Penafiel,Porto,Norte,-8.26981,41.215825,Resolução/Conclusão
25637158,São Pedro Fins,Area M. Porto,309,2025-07-06T16:37:00Z,25637158,Em Curso,3103,Incêndio rural,0,13,0,50,2025-07-06T16:37:00Z,Maia,Porto,Norte,-8.548283,41.235428,Curso
25637440,Azambuja,Lezíria do Tejo,311,2025-07-06T17:49:00Z,25637440,Em Despacho,3103,Incêndio rural,1,6,0,26,2025-07-06T17:49:00Z,Azambuja,Lisboa,Alentejo,-8.898558,39.118107,Despacho
25636341,Navió e Vitorino Dos Piães,Alto Minho,309,2025-07-06T13:36:00Z,25636341,Em Curso,3103,Incêndio rural,5,24,0,80,2025-07-06T13:36:00Z,Ponte De Lima,Viana Do Castelo,Norte,-8.636015,41.674557,Curso
25636900,Alhos Vedros,Península de Setúbal,311,2025-07-06T15:41:00Z,25636900,Em Resolução/Conclusão,3103,Incêndio rural,0,12,0,42,2025-07-06T15:41:00Z,Moita,Setúbal,Área Metropolitana De Lisboa,-9.009855,38.647188,Resolução/Conclusão
25636966,Ceivães e Badim,Alto Minho,309,2025-07-06T15:55:00Z,25636966,Em Resolução/Conclusão,3105,Incêndio rural,0,2,0,7,2025-07-06T15:55:00Z,Monção,Viana Do Castelo,Norte,-8.378762,42.074612,Resolução/Conclusão
25636995,Graça,Região de Leiria,310,2025-07-06T16:00:00Z,25636995,Em Resolução/Conclusão,3101,Incêndio rural,0,18,0,62,2025-07-06T16:00:00Z,Pedrógão Grande,Leiria,Centro,-8.220789,39.883478,Resolução/Conclusão
25637027,Alijó,Douro,309,2025-07-06T16:11:00Z,25637027,Em Despacho,3103,Incêndio rural,0,0,0,0,2025-07-06T16:11:00Z,Alijó,Vila Real,Norte,-7.47673,41.28724,Despacho
25637284,Lavos,Região de Coimbra,310,2025-07-06T17:08:00Z,25637284,Em Resolução/Conclusão,3101,Incêndio rural,0,7,0,29,2025-07-06T17:08:00Z,Figueira Da Foz,Coimbra,Centro,-8.86111,40.08028,Resolução/Conclusão
25637490,Sequeira,Cávado,309,2025-07-06T18:02:00Z,25637490,Em Despacho,3103,Incêndio rural,1,2,0,17,2025-07-06T18:02:00Z,Braga,Braga,Norte,-8.47883,41.52938,Despacho
25637334,Oledo,Beira Baixa,310,2025-07-06T17:22:00Z,25637334,Em Curso,3103,Incêndio rural,7,28,0,125,2025-07-06T17:22:00Z,Idanha-a-Nova,Castelo Branco,Centro,-7.273092,39.991795,Curso
25637463,"O. Azeméis, Riba-Ul, Ul, Macinhata Seixa, Madail",Area M. Porto,309,2025-07-06T17:50:00Z,25637463,Em Resolução/Conclusão,3103,Incêndio rural,0,3,0,10,2025-07-06T17:50:00Z,Oliveira De Azeméis,Aveiro,Norte,-8.482939,40.836334,Resolução/Conclusão
