id,address,subregion,neighborhood,date,id.1,state,nature,nature_description,aerial_means,terrestrial_means,aquatic_means,operational,date.1,Concelho,Distrito,NUTII_DSG,longitude,latitude
25071496,São Manços e São Vicente do Pigeiro,Alentejo Central,312,2025-03-11T13:18:00Z,25071496,Em conclusão,1101,Cheia,0,0,0,0,2025-03-11T13:18:00Z,Évora,Évora,Alentejo,-7.713313,38.513673
25457924,Vilar do Torno e Alentém,Tâmega e Sousa,309,2025-05-31T19:23:00Z,25457924,Em conclusão,3311,Queda de elementos de estruturas edificados,0,2,0,7,2025-05-31T19:23:00Z,Lousada,Porto,Norte,-8.220738,41.276138
25457882,Cascais e Estoril,Grande Lisboa,311,2025-05-31T19:08:00Z,25457882,Em despacho,3317,Inundação de estruturas por água canalizada,0,1,0,4,2025-05-31T19:08:00Z,Cascais,Lisboa,Área Metropolitana De Lisboa,-9.419397,38.700982
25458015,Odivelas,Grande Lisboa,311,2025-05-31T19:35:00Z,25458015,Em conclusão,3301,Queda de árvore,0,2,0,7,2025-05-31T19:35:00Z,Odivelas,Lisboa,Área Metropolitana De Lisboa,-9.182813,38.793425
25457904,"Alto do Seixalinho, Santo André e Verderena",Península de Setúbal,311,2025-05-31T19:18:00Z,25457904,Em curso,3301,Queda de árvore,0,1,0,5,2025-05-31T19:18:00Z,Barreiro,Setúbal,Área Metropolitana De Lisboa,-9.06104,38.65677
