id,address,subregion,neighborhood,date,id.1,state,nature,nature_description,aerial_means,terrestrial_means,aquatic_means,operational,date.1,Concelho,Distrito,NUTII_DSG,longitude,latitude,state_2
25832672,Piódão,Região de Coimbra,310,2025-08-13T05:08:00Z,25832672,Em Resolução/Conclusão,3103,Incêndio rural,0,0,0,0,2025-08-13T05:08:00Z,Arganil,Coimbra,Centro,-7.81972,40.23083,Resolução/Conclusão
25984495,São Salvador da Aramenha,Alto Alentejo,312,2025-09-13T13:28:00Z,25984495,Em Resolução/Conclusão,3101,Incêndio rural,0,3,0,9,2025-09-13T13:28:00Z,Marvão,Portalegre,Alentejo,-7.39094,39.36988,Resolução/Conclusão
25989123,Abragão,Tâmega e Sousa,309,2025-09-14T13:45:00Z,25989123,Em Resolução/Conclusão,3105,Incêndio rural,0,1,0,5,2025-09-14T13:45:00Z,Penafiel,Porto,Norte,-8.220402,41.156537,Resolução/Conclusão
25989334,Vagos e Santo António,Região de Aveiro,310,2025-09-14T14:25:00Z,25989334,Em Resolução/Conclusão,3105,Incêndio rural,0,2,0,7,2025-09-14T14:25:00Z,Vagos,Aveiro,Centro,-8.687823,40.538512,Resolução/Conclusão
25989527,Arnóia,Tâmega e Sousa,309,2025-09-14T15:22:00Z,25989527,Em Curso,3101,Incêndio rural,1,6,0,29,2025-09-14T15:22:00Z,Celorico De Basto,Braga,Norte,-8.006943,41.353239,Curso
25980131,Carva e Vilares,Douro,309,2025-09-12T14:27:00Z,25980131,Em Resolução/Conclusão,3103,Incêndio rural,2,87,0,257,2025-09-12T14:27:00Z,Murça,Vila Real,Norte,-7.55901,41.401343,Resolução/Conclusão
25980930,Santo André Das Tojeiras,Beira Baixa,310,2025-09-12T17:08:00Z,25980930,Em Resolução/Conclusão,3101,Incêndio rural,0,5,0,17,2025-09-12T17:08:00Z,Castelo Branco,Castelo Branco,Centro,-7.72701,39.809058,Resolução/Conclusão
25988971,Vialonga,Grande Lisboa,311,2025-09-14T13:07:00Z,25988971,Em Resolução/Conclusão,3103,Incêndio rural,0,11,0,38,2025-09-14T13:07:00Z,Vila Franca De Xira,Lisboa,Área Metropolitana De Lisboa,-9.091665,38.862668,Resolução/Conclusão
25989487,Planalto de Monforte (Oucidres e Bobadela),Alto Tâmega e Barroso,309,2025-09-14T15:08:00Z,25989487,Em Curso,3103,Incêndio rural,1,5,0,30,2025-09-14T15:08:00Z,Chaves,Vila Real,Norte,-7.317415,41.763295,Curso
25989494,"Enxara do Bispo, Gradil e Vila Franca do Rosário",Grande Lisboa,311,2025-09-14T15:08:00Z,25989494,Em Resolução/Conclusão,3103,Incêndio rural,0,7,0,28,2025-09-14T15:08:00Z,Mafra,Lisboa,Área Metropolitana De Lisboa,-9.212012,38.950757,Resolução/Conclusão
25989592,Alfarela de Jales,Alto Tâmega e Barroso,309,2025-09-14T15:40:00Z,25989592,Em Despacho,3103,Incêndio rural,1,0,0,6,2025-09-14T15:40:00Z,Vila Pouca De Aguiar,Vila Real,Norte,-7.576539,41.464361,Despacho
25951176,Sandomil,Beiras e Serra da Estrela,310,2025-09-06T10:29:00Z,25951176,Em Resolução/Conclusão,3103,Incêndio rural,0,2,0,10,2025-09-06T10:29:00Z,Seia,Guarda,Centro,-7.76001,40.351547,Resolução/Conclusão
25989064,Vila de Rei,Beira Baixa,310,2025-09-14T13:32:00Z,25989064,Em Resolução/Conclusão,3101,Incêndio rural,1,49,0,158,2025-09-14T13:32:00Z,Vila De Rei,Castelo Branco,Centro,-8.148365,39.661393,Resolução/Conclusão
25989230,Constantim e Vale de Nogueiras,Douro,309,2025-09-14T14:04:00Z,25989230,Em Resolução/Conclusão,3103,Incêndio rural,0,1,0,5,2025-09-14T14:04:00Z,Vila Real,Vila Real,Norte,-7.695305,41.285477,Resolução/Conclusão
25989330,Santa Marinha e São Pedro da Afurada,Area M. Porto,309,2025-09-14T14:30:00Z,25989330,Em Curso,3103,Incêndio rural,0,2,0,6,2025-09-14T14:30:00Z,Vila Nova De Gaia,Porto,Norte,-8.6081,41.13841,Curso
