id,address,subregion,neighborhood,date,id.1,state,nature,nature_description,aerial_means,terrestrial_means,aquatic_means,operational,date.1,Concelho,Distrito,NUTII_DSG,longitude,latitude
25057660,Alpiarça,Lezíria do Tejo,311,2025-03-08T12:46:00Z,25057660,Em despacho,3315,Inundação de estruturas por precipitação intensa,0,0,0,0,2025-03-08T12:46:00Z,Alpiarça,Santarém,Alentejo,-8.595402,39.262022
25057727,"Querença, Tôr e Benafim",Algarve,313,2025-03-08T13:04:00Z,25057727,Em conclusão,3313,Deslizamento de terras,0,2,0,3,2025-03-08T13:04:00Z,Loulé,Faro,Algarve,-7.945595,37.231142
25058547,Braga (São Vicente),Cávado,309,2025-03-08T16:11:00Z,25058547,Em despacho,3311,Queda de elementos de estruturas edificados,0,1,0,2,2025-03-08T16:11:00Z,Braga,Braga,Norte,-8.42186,41.55393
25058563,Pedrógão Grande,Região de Leiria,310,2025-03-08T16:10:00Z,25058563,Em despacho,3313,Deslizamento de terras,0,1,0,1,2025-03-08T16:10:00Z,Pedrógão Grande,Leiria,Centro,-8.144807,39.916835
25058613,Almeirim,Lezíria do Tejo,311,2025-03-08T16:25:00Z,25058613,Em resolução,3301,Queda de árvore,0,2,0,6,2025-03-08T16:25:00Z,Almeirim,Santarém,Alentejo,-8.656655,39.21719
25057015,Santa Maria do Castelo e Santiago e Santa Susana,Alentejo Litoral,312,2025-03-08T10:20:00Z,25057015,Em curso,1101,Cheia,0,2,0,3,2025-03-08T10:20:00Z,Alcácer Do Sal,Setúbal,Alentejo,-8.432801,38.398147
25057265,Faro (Sé e São Pedro),Algarve,313,2025-03-08T11:00:00Z,25057265,Em conclusão,3329,Queda de estruturas temporárias ou móveis,0,1,0,2,2025-03-08T11:00:00Z,Faro,Faro,Algarve,-7.942032,37.01865
25057817,Portimão,Algarve,313,2025-03-08T13:11:00Z,25057817,Em conclusão,3317,Inundação de estruturas por água canalizada,0,0,0,0,2025-03-08T13:11:00Z,Portimão,Faro,Algarve,-8.532608,37.137966
25058703,Mina de Água,Grande Lisboa,311,2025-03-08T16:30:00Z,25058703,Em despacho,3301,Queda de árvore,0,1,0,6,2025-03-08T16:30:00Z,Amadora,Lisboa,Área Metropolitana De Lisboa,-9.236908,38.777438
25058704,Sacavém e Prior Velho,Grande Lisboa,311,2025-03-08T16:46:00Z,25058704,Em resolução,3329,Queda de estruturas temporárias ou móveis,0,2,0,7,2025-03-08T16:46:00Z,Loures,Lisboa,Área Metropolitana De Lisboa,-9.126385,38.791217
25058729,Carcavelos e Parede,Grande Lisboa,311,2025-03-08T16:18:00Z,25058729,Em despacho,3311,Queda de elementos de estruturas edificados,0,1,0,2,2025-03-08T16:18:00Z,Cascais,Lisboa,Área Metropolitana De Lisboa,-9.355169,38.690219
25058744,Melides,Alentejo Litoral,312,2025-03-08T16:58:00Z,25058744,Em despacho,3301,Queda de árvore,0,1,0,2,2025-03-08T16:58:00Z,Grândola,Setúbal,Alentejo,-8.726303,38.148035
25056922,Bougado (São Martinho e Santiago),Area M. Porto,309,2025-01-22T10:38:00Z,25056922,Em despacho,1101,Cheia,0,0,0,0,2025-01-22T10:38:00Z,Trofa,Porto,Norte,-8.558796,41.329536
25058374,Marmelete,Algarve,313,2025-03-08T15:14:00Z,25058374,Em despacho,3313,Deslizamento de terras,0,1,0,2,2025-03-08T15:14:00Z,Monchique,Faro,Algarve,-8.674356,37.286973
25058408,Sarzedo,Douro,309,2025-03-08T15:28:00Z,25058408,Em curso,3321,Dano na rede de fornecimento de eletricidade ,0,1,0,2,2025-03-08T15:28:00Z,Moimenta Da Beira,Viseu,Norte,-7.644609,41.003658
25058449,Sameiro,Beiras e Serra da Estrela,310,2025-03-08T15:47:00Z,25058449,Em despacho,3301,Queda de árvore,0,1,0,3,2025-03-08T15:47:00Z,Manteigas,Guarda,Centro,-7.480162,40.420082
25056603,"Alto do Seixalinho, Santo André e Verderena",Península de Setúbal,311,2025-03-08T08:14:00Z,25056603,Em curso,3329,Queda de estruturas temporárias ou móveis,0,0,0,0,2025-03-08T08:14:00Z,Barreiro,Setúbal,Área Metropolitana De Lisboa,-9.065968,38.6593
25057228,Carregueira,Lezíria do Tejo,311,2025-03-08T11:12:00Z,25057228,Em despacho,3313,Deslizamento de terras,0,1,0,1,2025-03-08T11:12:00Z,Chamusca,Santarém,Alentejo,-8.411811,39.421134
25058525,"Alto do Seixalinho, Santo André e Verderena",Península de Setúbal,311,2025-03-08T15:53:00Z,25058525,Em despacho,3329,Queda de estruturas temporárias ou móveis,0,1,0,5,2025-03-08T15:53:00Z,Barreiro,Setúbal,Área Metropolitana De Lisboa,-9.061632,38.64534
25058600,São Domingos de Rana,Grande Lisboa,311,2025-03-08T16:23:00Z,25058600,Em despacho,3301,Queda de árvore,0,0,0,0,2025-03-08T16:23:00Z,Cascais,Lisboa,Área Metropolitana De Lisboa,-9.35615,38.70429
25058659,Falagueira-Venda Nova,Grande Lisboa,311,2025-03-08T16:33:00Z,25058659,Em despacho,3329,Queda de estruturas temporárias ou móveis,0,0,0,0,2025-03-08T16:33:00Z,Amadora,Lisboa,Área Metropolitana De Lisboa,-9.222638,38.763335
25058640,"S.maria, S.miguel, S.martinho, S.pedro Penaferrim",Grande Lisboa,311,2025-03-08T16:23:00Z,25058640,Em curso,3301,Queda de árvore,0,2,0,7,2025-03-08T16:23:00Z,Sintra,Lisboa,Área Metropolitana De Lisboa,-9.387899,38.805813
25058658,Eira Vedra,Ave,309,2025-03-08T16:37:00Z,25058658,Em despacho,3311,Queda de elementos de estruturas edificados,0,1,0,2,2025-03-08T16:37:00Z,Vieira Do Minho,Braga,Norte,-8.14735,41.64139
25058660,Campo de Ourique,Grande Lisboa,311,2025-03-08T16:25:00Z,25058660,Em conclusão,3315,Inundação de estruturas por precipitação intensa,0,1,0,5,2025-03-08T16:25:00Z,Lisboa,Lisboa,Área Metropolitana De Lisboa,-9.169863,38.718496
