id,address,subregion,neighborhood,date,id.1,state,nature,nature_description,aerial_means,terrestrial_means,aquatic_means,operational,date.1,Concelho,Distrito,NUTII_DSG,longitude,latitude
25566638,Cabeça Boa,Douro,309,2025-06-23T09:27:00Z,25566638,Em despacho,3107,Consolidação de rescaldo de incêndio rural,0,1,0,5,2025-06-23T09:27:00Z,Torre De Moncorvo,Bragança,Norte,-7.152123,41.191413
25566661,"Sandim, Olival, Lever e Crestuma",Area M. Porto,309,2025-06-23T09:41:00Z,25566661,Em conclusão,2301,Incêndio em transporte rodoviário,0,1,0,5,2025-06-23T09:41:00Z,Vila Nova De Gaia,Porto,Norte,-8.492025,41.046397
25566662,Lindoso,Alto Minho,309,2025-06-23T09:43:00Z,25566662,Em conclusão,3103,Incêndio rural,1,1,0,11,2025-06-23T09:43:00Z,Ponte Da Barca,Viana Do Castelo,Norte,-8.242327,41.861655
25567047,Agilde,Tâmega e Sousa,309,2025-06-23T10:30:00Z,25567047,Em resolução,3103,Incêndio rural,0,2,0,7,2025-06-23T10:30:00Z,Celorico De Basto,Braga,Norte,-8.129673,41.373433
25566625,Monte Redondo e Carreira,Região de Leiria,310,2025-06-23T09:36:00Z,25566625,Em conclusão,2101,Incêndio em edifícios habitacionais,0,2,0,7,2025-06-23T09:36:00Z,Leiria,Leiria,Centro,-8.84432,39.88865
25553154,Pedrógão,Baixo Alentejo,312,2025-06-20T12:23:00Z,25553154,Em conclusão,3103,Incêndio rural,0,0,0,0,2025-06-20T12:23:00Z,Vidigueira,Beja,Alentejo,-7.549947,38.179912
25566733,Perelhal,Cávado,309,2025-06-23T09:47:00Z,25566733,Em conclusão,2101,Incêndio em edifícios habitacionais,0,4,0,9,2025-06-23T09:47:00Z,Barcelos,Braga,Norte,-8.697528,41.521428
25566767,Nogueira da Regedoura,Area M. Porto,309,2025-06-23T09:58:00Z,25566767,Em conclusão,2301,Incêndio em transporte rodoviário,0,1,0,5,2025-06-23T09:58:00Z,Santa Maria Da Feira,Aveiro,Norte,-8.582356,41.007084
