id,address,subregion,neighborhood,date,id.1,state,nature,nature_description,aerial_means,terrestrial_means,aquatic_means,operational,date.1,Concelho,Distrito,NUTII_DSG,longitude,latitude,state_2
25706566,Manteigas (São Pedro),Beiras e Serra da Estrela,310,2025-07-20T13:55:00Z,25706566,Em Despacho,3103,Incêndio rural,0,1,0,5,2025-07-20T13:55:00Z,Manteigas,Guarda,Centro,-7.537096,40.398921,Despacho
25706714,Santa Clara,Grande Lisboa,311,2025-07-20T14:30:00Z,25706714,Em Despacho,3105,Incêndio rural,0,1,0,5,2025-07-20T14:30:00Z,Lisboa,Lisboa,Área Metropolitana De Lisboa,-9.15435,38.7878,Despacho
25686799,Souto Maior,Douro,309,2025-07-16T13:19:00Z,25686799,Em Resolução/Conclusão,3101,Incêndio rural,0,4,0,13,2025-07-16T13:19:00Z,Sabrosa,Vila Real,Norte,-7.57839,41.287518,Resolução/Conclusão
25706539,Melides,Alentejo Litoral,312,2025-07-20T13:45:00Z,25706539,Em Resolução/Conclusão,3103,Incêndio rural,0,11,0,35,2025-07-20T13:45:00Z,Grândola,Setúbal,Alentejo,-8.727294,38.16899,Resolução/Conclusão
25706620,Forno Telheiro,Beiras e Serra da Estrela,310,2025-07-20T14:06:00Z,25706620,Em Resolução/Conclusão,3103,Incêndio rural,1,6,0,30,2025-07-20T14:06:00Z,Celorico Da Beira,Guarda,Centro,-7.400468,40.6775,Resolução/Conclusão
