id,address,subregion,neighborhood,date,id.1,state,nature,nature_description,aerial_means,terrestrial_means,aquatic_means,operational,date.1,Concelho,Distrito,NUTII_DSG,longitude,latitude,state_2
26154040,São Gens,Ave,309,2025-10-18T07:14:00Z,26154040,Em Curso,3103,Incêndio rural,0,1,0,4,2025-10-18T07:14:00Z,Fafe,Braga,Norte,-8.111402,41.447595,Curso
26153835,Couço,Lezíria do Tejo,311,2025-10-18T04:58:00Z,26153835,Em Resolução/Conclusão,3105,Incêndio rural,0,2,0,7,2025-10-18T04:58:00Z,Coruche,Santarém,Alentejo,-8.271267,39.018633,Resolução/Conclusão
26153976,Bem Viver,Tâmega e Sousa,309,2025-10-18T06:56:00Z,26153976,Em Despacho,3105,Incêndio rural,0,0,0,0,2025-10-18T06:56:00Z,Marco De Canaveses,Porto,Norte,-8.22181,41.11046,Despacho
26153832,"Santa Maria da Feira, Travanca, Sanfins e Espargo",Area M. Porto,309,2025-10-18T04:47:00Z,26153832,Em Resolução/Conclusão,3103,Incêndio rural,0,1,0,5,2025-10-18T04:47:00Z,Santa Maria Da Feira,Aveiro,Norte,-8.581871,40.921868,Resolução/Conclusão
26154063,Povolide,Viseu Dão Lafões,310,2025-10-18T07:30:00Z,26154063,Em Curso,3103,Incêndio rural,0,3,0,14,2025-10-18T07:30:00Z,Viseu,Viseu,Centro,-7.818675,40.639567,Curso
