id,address,subregion,neighborhood,date,id.1,state,nature,nature_description,aerial_means,terrestrial_means,aquatic_means,operational,date.1,Concelho,Distrito,NUTII_DSG,longitude,latitude,state_2
25943672,Lorvão,Região de Coimbra,310,2025-09-04T17:36:00Z,25943672,Em Resolução/Conclusão,3101,Incêndio rural,0,13,0,50,2025-09-04T17:36:00Z,Penacova,Coimbra,Centro,-8.3475,40.25917,Resolução/Conclusão
25942303,São Pedro e Santa Maria e Vila Boa do Mondego,Beiras e Serra da Estrela,310,2025-09-04T12:34:00Z,25942303,Em Resolução/Conclusão,3103,Incêndio rural,0,5,0,14,2025-09-04T12:34:00Z,Celorico Da Beira,Guarda,Centro,-7.414827,40.63419,Resolução/Conclusão
25943279,Arez e Amieira do Tejo,Alto Alentejo,312,2025-09-04T16:10:00Z,25943279,Em Resolução/Conclusão,3103,Incêndio rural,0,13,0,48,2025-09-04T16:10:00Z,Nisa,Portalegre,Alentejo,-7.764517,39.462882,Resolução/Conclusão
25943762,Casa Branca,Alto Alentejo,312,2025-09-04T17:52:00Z,25943762,Em Resolução/Conclusão,3105,Incêndio rural,0,1,0,5,2025-09-04T17:52:00Z,Sousel,Portalegre,Alentejo,-7.818165,38.915282,Resolução/Conclusão
25832672,Piódão,Região de Coimbra,310,2025-08-13T05:08:00Z,25832672,Em Resolução/Conclusão,3103,Incêndio rural,0,17,0,47,2025-08-13T05:08:00Z,Arganil,Coimbra,Centro,-7.81972,40.23083,Resolução/Conclusão
25840417,Lousã e Vilarinho,Região de Coimbra,310,2025-08-14T13:46:00Z,25840417,Em Resolução/Conclusão,3101,Incêndio rural,0,0,0,0,2025-08-14T13:46:00Z,Lousã,Coimbra,Centro,-8.201561,40.080016,Resolução/Conclusão
25944501,Setúbal (São Sebastião),Península de Setúbal,311,2025-09-04T21:03:00Z,25944501,Em Curso,3103,Incêndio rural,0,13,0,45,2025-09-04T21:03:00Z,Setúbal,Setúbal,Área Metropolitana De Lisboa,-8.874325,38.52003,Curso
