id,address,subregion,neighborhood,date,id.1,state,nature,nature_description,aerial_means,terrestrial_means,aquatic_means,operational,date.1,Concelho,Distrito,NUTII_DSG,longitude,latitude,state_2
25951176,Sandomil,Beiras e Serra da Estrela,310,2025-09-06T10:29:00Z,25951176,Em Resolução/Conclusão,3103,Incêndio rural,0,15,0,52,2025-09-06T10:29:00Z,Seia,Guarda,Centro,-7.76001,40.351547,Resolução/Conclusão
25981808,"Avidagos, Navalho e Pereira",Terras de Trás-os-Montes,309,2025-09-12T20:38:00Z,25981808,Em Resolução/Conclusão,3103,Incêndio rural,0,2,0,7,2025-09-12T20:38:00Z,Mirandela,Bragança,Norte,-7.264448,41.359912,Resolução/Conclusão
25980131,Carva e Vilares,Douro,309,2025-09-12T14:27:00Z,25980131,Em Curso,3103,Incêndio rural,9,114,0,374,2025-09-12T14:27:00Z,Murça,Vila Real,Norte,-7.55901,41.401343,Curso
25980930,Santo André Das Tojeiras,Beira Baixa,310,2025-09-12T17:08:00Z,25980930,Em Resolução/Conclusão,3101,Incêndio rural,0,21,0,67,2025-09-12T17:08:00Z,Castelo Branco,Castelo Branco,Centro,-7.72701,39.809058,Resolução/Conclusão
25984607,Vascoveiro,Beiras e Serra da Estrela,310,2025-09-13T13:54:00Z,25984607,Em Resolução/Conclusão,3103,Incêndio rural,0,1,0,4,2025-09-13T13:54:00Z,Pinhel,Guarda,Centro,-7.080513,40.72261,Resolução/Conclusão
25985594,Morreira e Trandeiras,Cávado,309,2025-09-13T17:45:00Z,25985594,Em Resolução/Conclusão,3103,Incêndio rural,0,3,0,12,2025-09-13T17:45:00Z,Braga,Braga,Norte,-8.409417,41.48872,Resolução/Conclusão
25832672,Piódão,Região de Coimbra,310,2025-08-13T05:08:00Z,25832672,Em Resolução/Conclusão,3103,Incêndio rural,0,0,0,0,2025-08-13T05:08:00Z,Arganil,Coimbra,Centro,-7.81972,40.23083,Resolução/Conclusão
25984495,São Salvador da Aramenha,Alto Alentejo,312,2025-09-13T13:28:00Z,25984495,Em Resolução/Conclusão,3101,Incêndio rural,0,8,0,24,2025-09-13T13:28:00Z,Marvão,Portalegre,Alentejo,-7.39094,39.36988,Resolução/Conclusão
25985138,Malagueira e Horta Das Figueiras,Alentejo Central,312,2025-09-13T16:01:00Z,25985138,Em Resolução/Conclusão,3103,Incêndio rural,0,0,0,0,2025-09-13T16:01:00Z,Évora,Évora,Alentejo,-7.92772,38.573887,Resolução/Conclusão
25985247,Mexilhoeira Grande,Algarve,313,2025-09-13T16:26:00Z,25985247,Em Resolução/Conclusão,3103,Incêndio rural,0,5,0,13,2025-09-13T16:26:00Z,Portimão,Faro,Algarve,-8.60941,37.17785,Resolução/Conclusão
