id,address,subregion,neighborhood,date,id.1,state,nature,nature_description,aerial_means,terrestrial_means,aquatic_means,operational,date.1,Concelho,Distrito,NUTII_DSG,longitude,latitude
25476884,São João de Ver,Area M. Porto,309,2025-06-04T15:58:00Z,25476884,Em conclusão,2129,Incêndio em edifícios degradados ou devolutos,0,3,0,9,2025-06-04T15:58:00Z,Santa Maria Da Feira,Aveiro,Norte,-8.549167,40.95385
25477352,Cidade da Maia,Area M. Porto,309,2025-06-04T17:46:00Z,25477352,Em conclusão,2117,Incêndio em edifícios comerciais e gares de transporte,0,4,0,15,2025-06-04T17:46:00Z,Maia,Porto,Norte,-8.604123,41.219248
25476644,Palmela,Península de Setúbal,311,2025-06-04T15:12:00Z,25476644,Em conclusão,3105,Incêndio rural,0,0,0,0,2025-06-04T15:12:00Z,Palmela,Setúbal,Área Metropolitana De Lisboa,-8.824663,38.595798
25477139,Charneca de Caparica e Sobreda,Península de Setúbal,311,2025-06-04T16:55:00Z,25477139,Em despacho,2201,Incêndio em equipamentos ou produtos,0,2,0,6,2025-06-04T16:55:00Z,Almada,Setúbal,Área Metropolitana De Lisboa,-9.190193,38.591584
25477330,Lordelo do Ouro e Massarelos,Area M. Porto,309,2025-06-04T17:37:00Z,25477330,Em despacho,3201,Detritos não confinados,0,1,0,5,2025-06-04T17:37:00Z,Porto,Porto,Norte,-8.644953,41.152973
25477374,Massamá e Monte Abraão,Grande Lisboa,311,2025-06-04T17:40:00Z,25477374,Em conclusão,3103,Incêndio rural,0,2,0,7,2025-06-04T17:40:00Z,Sintra,Lisboa,Área Metropolitana De Lisboa,-9.27045,38.75541
25477399,Setúbal (São Sebastião),Península de Setúbal,311,2025-06-04T17:57:00Z,25477399,Em conclusão,3103,Incêndio rural,0,6,0,24,2025-06-04T17:57:00Z,Setúbal,Setúbal,Área Metropolitana De Lisboa,-8.848585,38.559813
