id,address,subregion,neighborhood,date,id.1,state,nature,nature_description,aerial_means,terrestrial_means,aquatic_means,operational,date.1,Concelho,Distrito,NUTII_DSG,longitude,latitude,state_2
25791926,Caldas de São Jorge e Pigeiros,Area M. Porto,309,2025-08-05T18:59:00Z,25791926,Em Resolução/Conclusão,3103,Incêndio rural,0,0,0,0,2025-08-05T18:59:00Z,Santa Maria Da Feira,Aveiro,Norte,-8.496356,40.954077,Resolução/Conclusão
25832672,Piódão,Região de Coimbra,310,2025-08-13T05:08:00Z,25832672,Em Resolução/Conclusão,3103,Incêndio rural,0,13,0,36,2025-08-13T05:08:00Z,Arganil,Coimbra,Centro,-7.81972,40.23083,Resolução/Conclusão
25975494,Escalos de Baixo e Mata,Beira Baixa,310,2025-09-11T14:33:00Z,25975494,Em Resolução/Conclusão,3103,Incêndio rural,0,4,0,16,2025-09-11T14:33:00Z,Castelo Branco,Castelo Branco,Centro,-7.422328,39.890777,Resolução/Conclusão
25976982,Grândola e Santa Margarida da Serra,Alentejo Litoral,312,2025-09-11T20:11:00Z,25976982,Em Resolução/Conclusão,3105,Incêndio rural,0,3,0,12,2025-09-11T20:11:00Z,Grândola,Setúbal,Alentejo,-8.551148,38.181033,Resolução/Conclusão
25951176,Sandomil,Beiras e Serra da Estrela,310,2025-09-06T10:29:00Z,25951176,Em Resolução/Conclusão,3103,Incêndio rural,0,17,0,59,2025-09-06T10:29:00Z,Seia,Guarda,Centro,-7.76001,40.351547,Resolução/Conclusão
25977098,Solveira,Alto Tâmega e Barroso,309,2025-09-11T20:35:00Z,25977098,Em Resolução/Conclusão,3103,Incêndio rural,0,1,0,5,2025-09-11T20:35:00Z,Montalegre,Vila Real,Norte,-7.667443,41.840343,Resolução/Conclusão
25976955,Poceirão e Marateca,Península de Setúbal,311,2025-09-11T20:05:00Z,25976955,Em Resolução/Conclusão,3103,Incêndio rural,0,3,0,12,2025-09-11T20:05:00Z,Palmela,Setúbal,Área Metropolitana De Lisboa,-8.767727,38.700773,Resolução/Conclusão
25977187,"Coruche, Fajarda e Erra",Lezíria do Tejo,311,2025-09-11T21:11:00Z,25977187,Em Despacho,3103,Incêndio rural,0,4,0,15,2025-09-11T21:11:00Z,Coruche,Santarém,Alentejo,-8.492752,38.900284,Despacho
25977188,Moita Dos Ferreiros,Oeste,311,2025-09-11T21:10:00Z,25977188,Em Despacho,3105,Incêndio rural,0,0,0,0,2025-09-11T21:10:00Z,Lourinhã,Lisboa,Centro,-9.19828,39.2528,Despacho
25952858,Figueira de Castelo Rodrigo,Beiras e Serra da Estrela,310,2025-09-06T16:22:00Z,25952858,Em Resolução/Conclusão,3103,Incêndio rural,0,4,0,17,2025-09-06T16:22:00Z,Figueira De Castelo Rodrigo,Guarda,Centro,-6.934648,40.906778,Resolução/Conclusão
25976935,Bornes de Aguiar,Alto Tâmega e Barroso,309,2025-09-11T19:55:00Z,25976935,Em Resolução/Conclusão,3103,Incêndio rural,0,6,0,24,2025-09-11T19:55:00Z,Vila Pouca De Aguiar,Vila Real,Norte,-7.528188,41.55582,Resolução/Conclusão
