id,address,subregion,neighborhood,date,id.1,state,nature,nature_description,aerial_means,terrestrial_means,aquatic_means,operational,date.1,Concelho,Distrito,NUTII_DSG,longitude,latitude,state_2
25728541,Adão,Beiras e Serra da Estrela,310,2025-07-24T23:03:00Z,25728541,Em Resolução/Conclusão,3103,Incêndio rural,0,1,0,5,2025-07-24T23:03:00Z,Guarda,Guarda,Centro,-7.16112,40.473593,Resolução/Conclusão
25728858,Alquerubim,Região de Aveiro,310,2025-07-25T01:26:00Z,25728858,Em Resolução/Conclusão,3103,Incêndio rural,0,9,0,24,2025-07-25T01:26:00Z,Albergaria-a-Velha,Aveiro,Centro,-8.518192,40.624497,Resolução/Conclusão
25729009,Vilarinho Dos Freires,Douro,309,2025-07-25T03:31:00Z,25729009,Em Resolução/Conclusão,3103,Incêndio rural,0,3,0,15,2025-07-25T03:31:00Z,Peso Da Régua,Vila Real,Norte,-7.72592,41.192952,Resolução/Conclusão
25729093,Vila de Cucujães,Area M. Porto,309,2025-07-25T04:57:00Z,25729093,Em Despacho,3103,Incêndio rural,0,2,0,10,2025-07-25T04:57:00Z,Oliveira De Azeméis,Aveiro,Norte,-8.480397,40.86686,Despacho
25712338,Cercal,Alentejo Litoral,312,2025-07-21T17:38:00Z,25712338,Em Resolução/Conclusão,3103,Incêndio rural,0,7,0,18,2025-07-21T17:38:00Z,Santiago Do Cacém,Setúbal,Alentejo,-8.682272,37.791582,Resolução/Conclusão
25721930,Vilar de Perdizes e Meixide,Alto Tâmega e Barroso,309,2025-07-23T16:21:00Z,25721930,Em Resolução/Conclusão,3103,Incêndio rural,0,1,0,5,2025-07-23T16:21:00Z,NA,NA,NA,-7.618655,41.886193,Resolução/Conclusão
25725056,Pedrógão Pequeno,Beira Baixa,310,2025-07-24T10:16:00Z,25725056,Em Resolução/Conclusão,3101,Incêndio rural,0,1,0,5,2025-07-24T10:16:00Z,Sertã,Castelo Branco,Centro,-8.093663,39.879797,Resolução/Conclusão
25728500,Vila Fernando,Beiras e Serra da Estrela,310,2025-07-24T22:48:00Z,25728500,Em Resolução/Conclusão,3103,Incêndio rural,0,8,0,30,2025-07-24T22:48:00Z,Guarda,Guarda,Centro,-7.165667,40.491237,Resolução/Conclusão
25729082,São Jorge e Ermelo,Alto Minho,309,2025-07-25T04:45:00Z,25729082,Em Despacho,3103,Incêndio rural,0,2,0,10,2025-07-25T04:45:00Z,Arcos De Valdevez,Viana Do Castelo,Norte,-8.332957,41.824767,Despacho
25729117,"O. Azeméis, Riba-Ul, Ul, Macinhata Seixa, Madail",Area M. Porto,309,2025-07-25T05:21:00Z,25729117,Em Despacho,3103,Incêndio rural,0,0,0,0,2025-07-25T05:21:00Z,Oliveira De Azeméis,Aveiro,Norte,-8.488976,40.82644,Despacho
25728646,Vila Fernando,Beiras e Serra da Estrela,310,2025-07-24T23:39:00Z,25728646,Em Resolução/Conclusão,3103,Incêndio rural,0,6,0,18,2025-07-24T23:39:00Z,Guarda,Guarda,Centro,-7.135077,40.484042,Resolução/Conclusão
25728780,Vila do Conde,Area M. Porto,309,2025-07-25T00:32:00Z,25728780,Em Resolução/Conclusão,3103,Incêndio rural,0,1,0,2,2025-07-25T00:32:00Z,Vila Do Conde,Porto,Norte,-8.75211,41.36064,Resolução/Conclusão
25728989,Valadares,Tâmega e Sousa,309,2025-07-25T03:08:00Z,25728989,Em Curso,3103,Incêndio rural,0,8,0,34,2025-07-25T03:08:00Z,Baião,Porto,Norte,-7.944105,41.158087,Curso
25729003,"Souto Santa Maria, Souto São Salvador e Gondomar",Ave,309,2025-07-25T03:24:00Z,25729003,Em Resolução/Conclusão,3103,Incêndio rural,0,3,0,12,2025-07-25T03:24:00Z,Guimarães,Braga,Norte,-8.287895,41.489265,Resolução/Conclusão
25729105,"O. Azeméis, Riba-Ul, Ul, Macinhata Seixa, Madail",Area M. Porto,309,2025-07-25T05:08:00Z,25729105,Em Despacho,3101,Incêndio rural,0,4,0,17,2025-07-25T05:08:00Z,Oliveira De Azeméis,Aveiro,Norte,-8.483258,40.82682,Despacho
25721382,Unhais da Serra,Beiras e Serra da Estrela,310,2025-07-23T14:29:00Z,25721382,Em Resolução/Conclusão,3105,Incêndio rural,0,1,0,5,2025-07-23T14:29:00Z,Covilhã,Castelo Branco,Centro,-7.61948,40.25114,Resolução/Conclusão
25725153,Troviscal,Beira Baixa,310,2025-07-24T10:31:00Z,25725153,Em Resolução/Conclusão,3101,Incêndio rural,0,1,0,5,2025-07-24T10:31:00Z,Sertã,Castelo Branco,Centro,-8.084768,39.877972,Resolução/Conclusão
25725251,Pedrógão Pequeno,Beira Baixa,310,2025-07-24T10:52:00Z,25725251,Em Resolução/Conclusão,3101,Incêndio rural,0,5,0,19,2025-07-24T10:52:00Z,Sertã,Castelo Branco,Centro,-8.084635,39.925647,Resolução/Conclusão
25727257,Santiago de Piães,Tâmega e Sousa,309,2025-07-24T17:40:00Z,25727257,Em Curso,3103,Incêndio rural,0,22,0,77,2025-07-24T17:40:00Z,Cinfães,Viseu,Norte,-8.173138,41.025392,Curso
25729079,Couto,Alto Minho,309,2025-07-25T04:41:00Z,25729079,Em Curso,3103,Incêndio rural,0,2,0,10,2025-07-25T04:41:00Z,Arcos De Valdevez,Viana Do Castelo,Norte,-8.402069,41.874501,Curso
