id,address,subregion,neighborhood,date,id.1,state,nature,nature_description,aerial_means,terrestrial_means,aquatic_means,operational,date.1,Concelho,Distrito,NUTII_DSG,longitude,latitude,state_2
26137682,Cabril,Viseu Dão Lafões,310,2025-10-14T20:26:00Z,26137682,Em Resolução/Conclusão,3103,Incêndio rural,0,1,0,5,2025-10-14T20:26:00Z,Castro Daire,Viseu,Centro,-8.09192,40.961935,Resolução/Conclusão
26140933,Gafanha do Carmo,Região de Aveiro,310,2025-10-15T14:10:00Z,26140933,Em Resolução/Conclusão,3105,Incêndio rural,0,0,0,0,2025-10-15T14:10:00Z,Ílhavo,Aveiro,Centro,-8.740618,40.589963,Resolução/Conclusão
26141417,Vieira do Minho,Ave,309,2025-10-15T15:39:00Z,26141417,Em Despacho,3103,Incêndio rural,2,2,0,21,2025-10-15T15:39:00Z,Vieira Do Minho,Braga,Norte,-8.150732,41.621424,Despacho
26140430,"Torres Novas (Santa Maria, Salvador e Santiago)",Médio Tejo,311,2025-10-15T12:29:00Z,26140430,Em Resolução/Conclusão,3103,Incêndio rural,0,3,0,9,2025-10-15T12:29:00Z,Torres Novas,Santarém,Centro,-8.480182,39.489692,Resolução/Conclusão
26141200,"Guia, Ilha e Mata Mourisca",Região de Leiria,310,2025-10-15T14:58:00Z,26141200,Em Resolução/Conclusão,3103,Incêndio rural,0,3,0,14,2025-10-15T14:58:00Z,Pombal,Leiria,Centro,-8.763628,39.976772,Resolução/Conclusão
26141309,São Miguel do Rio Torto e Rossio Ao Sul do Tejo,Médio Tejo,311,2025-10-15T15:23:00Z,26141309,Em Resolução/Conclusão,3103,Incêndio rural,0,9,0,32,2025-10-15T15:23:00Z,Abrantes,Santarém,Centro,-8.125002,39.323103,Resolução/Conclusão
26140392,Soajo,Alto Minho,309,2025-10-15T12:22:00Z,26140392,Em Resolução/Conclusão,3103,Incêndio rural,0,1,0,4,2025-10-15T12:22:00Z,Arcos De Valdevez,Viana Do Castelo,Norte,-8.219368,41.903442,Resolução/Conclusão
26140644,Chorense e Monte,Cávado,309,2025-10-15T13:16:00Z,26140644,Em Resolução/Conclusão,3103,Incêndio rural,0,8,0,34,2025-10-15T13:16:00Z,Terras De Bouro,Braga,Norte,-8.254743,41.702095,Resolução/Conclusão
26140962,Avessadas e Rosém,Tâmega e Sousa,309,2025-10-15T14:10:00Z,26140962,Em Resolução/Conclusão,3103,Incêndio rural,0,2,0,10,2025-10-15T14:10:00Z,Marco De Canaveses,Porto,Norte,-8.190742,41.160777,Resolução/Conclusão
26140978,São Pedro da Cadeira,Oeste,311,2025-10-15T14:18:00Z,26140978,Em Resolução/Conclusão,3103,Incêndio rural,0,4,0,13,2025-10-15T14:18:00Z,Torres Vedras,Lisboa,Centro,-9.369772,39.08541,Resolução/Conclusão
26141111,Alvora e Loureda,Alto Minho,309,2025-10-15T14:43:00Z,26141111,Em Resolução/Conclusão,3103,Incêndio rural,1,1,0,11,2025-10-15T14:43:00Z,Arcos De Valdevez,Viana Do Castelo,Norte,-8.440198,41.951498,Resolução/Conclusão
26141261,Lagares e Figueira,Tâmega e Sousa,309,2025-10-15T15:09:00Z,26141261,Em Resolução/Conclusão,3105,Incêndio rural,0,1,0,5,2025-10-15T15:09:00Z,Penafiel,Porto,Norte,-8.37227,41.119677,Resolução/Conclusão
26141329,Leomil,Douro,309,2025-10-15T15:22:00Z,26141329,Em Curso,3103,Incêndio rural,1,6,0,29,2025-10-15T15:22:00Z,Moimenta Da Beira,Viseu,Norte,-7.68704,40.927062,Curso
26137442,Cabril,Viseu Dão Lafões,310,2025-10-14T19:16:00Z,26137442,Em Resolução/Conclusão,3103,Incêndio rural,0,1,0,4,2025-10-14T19:16:00Z,Castro Daire,Viseu,Centro,-8.059472,40.970448,Resolução/Conclusão
26140802,Talhadas,Região de Aveiro,310,2025-10-15T13:42:00Z,26140802,Em Resolução/Conclusão,3101,Incêndio rural,0,22,0,65,2025-10-15T13:42:00Z,Sever Do Vouga,Aveiro,Centro,-8.320335,40.682953,Resolução/Conclusão
26141505,Paus,Tâmega e Sousa,309,2025-10-15T15:55:00Z,26141505,Em Despacho,3103,Incêndio rural,1,1,0,6,2025-10-15T15:55:00Z,Resende,Viseu,Norte,-7.918959,41.072025,Despacho
