id,address,subregion,neighborhood,date,id.1,state,nature,nature_description,aerial_means,terrestrial_means,aquatic_means,operational,date.1,Concelho,Distrito,NUTII_DSG,longitude,latitude,state_2
26137442,Cabril,Viseu Dão Lafões,310,2025-10-14T19:16:00Z,26137442,Em Resolução/Conclusão,3103,Incêndio rural,0,1,0,4,2025-10-14T19:16:00Z,Castro Daire,Viseu,Centro,-8.059472,40.970448,Resolução/Conclusão
26140802,Talhadas,Região de Aveiro,310,2025-10-15T13:42:00Z,26140802,Em Curso,3101,Incêndio rural,1,16,0,61,2025-10-15T13:42:00Z,Sever Do Vouga,Aveiro,Centro,-8.320335,40.682953,Curso
26137682,Cabril,Viseu Dão Lafões,310,2025-10-14T20:26:00Z,26137682,Em Resolução/Conclusão,3103,Incêndio rural,0,1,0,5,2025-10-14T20:26:00Z,Castro Daire,Viseu,Centro,-8.09192,40.961935,Resolução/Conclusão
26140392,Soajo,Alto Minho,309,2025-10-15T12:22:00Z,26140392,Em Resolução/Conclusão,3103,Incêndio rural,0,2,0,8,2025-10-15T12:22:00Z,Arcos De Valdevez,Viana Do Castelo,Norte,-8.219368,41.903442,Resolução/Conclusão
26140644,Chorense e Monte,Cávado,309,2025-10-15T13:16:00Z,26140644,Em Resolução/Conclusão,3103,Incêndio rural,2,9,0,48,2025-10-15T13:16:00Z,Terras De Bouro,Braga,Norte,-8.254743,41.702095,Resolução/Conclusão
26140676,Alvarelhos e Guidões,Area M. Porto,309,2025-10-15T13:20:00Z,26140676,Em Resolução/Conclusão,3103,Incêndio rural,0,3,0,9,2025-10-15T13:20:00Z,Trofa,Porto,Norte,-8.614493,41.294325,Resolução/Conclusão
26140777,Borbela e Lamas de Olo,Douro,309,2025-10-15T13:38:00Z,26140777,Em Resolução/Conclusão,3103,Incêndio rural,0,3,0,11,2025-10-15T13:38:00Z,Vila Real,Vila Real,Norte,-7.72775,41.324565,Resolução/Conclusão
26140878,Regadas,Ave,309,2025-10-15T14:00:00Z,26140878,Em Resolução/Conclusão,3103,Incêndio rural,0,3,0,7,2025-10-15T14:00:00Z,Fafe,Braga,Norte,-8.140147,41.40536,Resolução/Conclusão
26140962,Avessadas e Rosém,Tâmega e Sousa,309,2025-10-15T14:10:00Z,26140962,Em Curso,3103,Incêndio rural,0,2,0,10,2025-10-15T14:10:00Z,Marco De Canaveses,Porto,Norte,-8.179787,41.152053,Curso
26140978,São Pedro da Cadeira,Oeste,311,2025-10-15T14:18:00Z,26140978,Em Resolução/Conclusão,3103,Incêndio rural,0,4,0,13,2025-10-15T14:18:00Z,Torres Vedras,Lisboa,Centro,-9.369772,39.08541,Resolução/Conclusão
26140430,"Torres Novas (Santa Maria, Salvador e Santiago)",Médio Tejo,311,2025-10-15T12:29:00Z,26140430,Em Resolução/Conclusão,3103,Incêndio rural,0,6,0,21,2025-10-15T12:29:00Z,Torres Novas,Santarém,Centro,-8.480182,39.489692,Resolução/Conclusão
26140915,Cinco Vilas e Reigada,Beiras e Serra da Estrela,310,2025-10-15T14:07:00Z,26140915,Em Resolução/Conclusão,3103,Incêndio rural,0,9,0,28,2025-10-15T14:07:00Z,Figueira De Castelo Rodrigo,Guarda,Centro,-6.94653,40.776967,Resolução/Conclusão
26140933,Gafanha do Carmo,Região de Aveiro,310,2025-10-15T14:10:00Z,26140933,Em Resolução/Conclusão,3105,Incêndio rural,0,4,0,14,2025-10-15T14:10:00Z,Ílhavo,Aveiro,Centro,-8.740618,40.589963,Resolução/Conclusão
26140976,Sapataria,Oeste,311,2025-10-15T14:17:00Z,26140976,Em Resolução/Conclusão,3103,Incêndio rural,0,6,0,24,2025-10-15T14:17:00Z,Sobral De Monte Agraço,Lisboa,Centro,-9.232438,38.951501,Resolução/Conclusão
26141006,Sapataria,Oeste,311,2025-10-15T14:23:00Z,26141006,Em Despacho,3105,Incêndio rural,0,3,0,9,2025-10-15T14:23:00Z,Sobral De Monte Agraço,Lisboa,Centro,-9.23132,38.94988,Despacho
26141033,Freches e Torres,Beiras e Serra da Estrela,310,2025-10-15T14:28:00Z,26141033,Em Resolução/Conclusão,3103,Incêndio rural,1,7,0,31,2025-10-15T14:28:00Z,Trancoso,Guarda,Centro,-7.342162,40.749853,Resolução/Conclusão
26141111,Alvora e Loureda,Alto Minho,309,2025-10-15T14:43:00Z,26141111,Em Despacho,3103,Incêndio rural,1,0,0,6,2025-10-15T14:43:00Z,Arcos De Valdevez,Viana Do Castelo,Norte,-8.440198,41.951498,Despacho
