id,address,subregion,neighborhood,date,id.1,state,nature,nature_description,aerial_means,terrestrial_means,aquatic_means,operational,date.1,Concelho,Distrito,NUTII_DSG,longitude,latitude,state_2
25682254,Panque,Cávado,309,2025-07-15T15:31:00Z,25682254,Em Resolução/Conclusão,3101,Incêndio rural,0,1,0,5,2025-07-15T15:31:00Z,Barcelos,Braga,Norte,-8.607035,41.626113,Resolução/Conclusão
25682641,São Bento,Região de Leiria,310,2025-07-15T16:44:00Z,25682641,Em Resolução/Conclusão,3101,Incêndio rural,0,1,0,3,2025-07-15T16:44:00Z,Porto De Mós,Leiria,Centro,-8.746525,39.524688,Resolução/Conclusão
25683057,Messejana,Baixo Alentejo,312,2025-07-15T18:10:00Z,25683057,Em Resolução/Conclusão,3101,Incêndio rural,0,4,0,7,2025-07-15T18:10:00Z,Aljustrel,Beja,Alentejo,-8.253787,37.845618,Resolução/Conclusão
25686799,Souto Maior,Douro,309,2025-07-16T13:19:00Z,25686799,Em Resolução/Conclusão,3101,Incêndio rural,5,101,0,311,2025-07-16T13:19:00Z,Sabrosa,Vila Real,Norte,-7.57839,41.287518,Resolução/Conclusão
25691716,Peva e Segões,Douro,309,2025-07-17T12:55:00Z,25691716,Em Resolução/Conclusão,3103,Incêndio rural,0,4,0,17,2025-07-17T12:55:00Z,Moimenta Da Beira,Viseu,Norte,-7.690854,40.87186,Resolução/Conclusão
25691996,Cepelos,Area M. Porto,309,2025-07-17T13:43:00Z,25691996,Em Curso,3103,Incêndio rural,0,2,0,6,2025-07-17T13:43:00Z,Vale De Cambra,Aveiro,Norte,-8.326465,40.838605,Curso
25692113,"S.pedro e Santiago, S.maria e S.miguel e Matacães",Oeste,311,2025-07-17T14:04:00Z,25692113,Em Resolução/Conclusão,3103,Incêndio rural,0,5,0,15,2025-07-17T14:04:00Z,Torres Vedras,Lisboa,Centro,-9.219623,39.093936,Resolução/Conclusão
25687827,Rochoso e Monte Margarida,Beiras e Serra da Estrela,310,2025-07-16T16:35:00Z,25687827,Em Resolução/Conclusão,3103,Incêndio rural,0,13,0,48,2025-07-16T16:35:00Z,Guarda,Guarda,Centro,-7.106608,40.527017,Resolução/Conclusão
25688580,São Martinho,Alentejo Litoral,312,2025-07-16T19:33:00Z,25688580,Em Resolução/Conclusão,3103,Incêndio rural,0,0,0,0,2025-07-16T19:33:00Z,Alcácer Do Sal,Setúbal,Alentejo,-8.521302,38.426643,Resolução/Conclusão
25689484,Andrães,Douro,309,2025-07-16T23:49:00Z,25689484,Em Resolução/Conclusão,3103,Incêndio rural,0,8,0,26,2025-07-16T23:49:00Z,Vila Real,Vila Real,Norte,-7.668872,41.241568,Resolução/Conclusão
25691086,Amareleja,Baixo Alentejo,312,2025-07-17T10:53:00Z,25691086,Em Resolução/Conclusão,3105,Incêndio rural,0,4,0,12,2025-07-17T10:53:00Z,Moura,Beja,Alentejo,-7.236017,38.235242,Resolução/Conclusão
25691271,Beja (Salvador e Santa Maria da Feira),Baixo Alentejo,312,2025-07-17T11:29:00Z,25691271,Em Resolução/Conclusão,3105,Incêndio rural,0,0,0,0,2025-07-17T11:29:00Z,Beja,Beja,Alentejo,-7.864113,38.028582,Resolução/Conclusão
25691674,São Vicente do Paul e Vale de Figueira,Lezíria do Tejo,311,2025-07-17T12:46:00Z,25691674,Em Resolução/Conclusão,3103,Incêndio rural,0,1,0,2,2025-07-17T12:46:00Z,Santarém,Santarém,Alentejo,-8.637676,39.340209,Resolução/Conclusão
25688392,Cabril,Região de Coimbra,310,2025-07-16T18:47:00Z,25688392,Em Resolução/Conclusão,3101,Incêndio rural,0,5,0,15,2025-07-16T18:47:00Z,Pampilhosa Da Serra,Coimbra,Centro,-7.86944,40.06556,Resolução/Conclusão
25691795,Algoz e Tunes,Algarve,313,2025-07-17T13:12:00Z,25691795,Em Resolução/Conclusão,3103,Incêndio rural,0,3,0,12,2025-07-17T13:12:00Z,Silves,Faro,Algarve,-8.30423,37.1784,Resolução/Conclusão
25692138,"Canedo, Vale e Vila Maior",Area M. Porto,309,2025-07-17T14:14:00Z,25692138,Em Despacho,3103,Incêndio rural,1,5,0,25,2025-07-17T14:14:00Z,Santa Maria Da Feira,Aveiro,Norte,-8.464691,41.04456,Despacho
25692202,Lustosa e Barrosas (Santo Estêvão),Tâmega e Sousa,309,2025-07-17T14:25:00Z,25692202,Em Despacho,3103,Incêndio rural,0,0,0,0,2025-07-17T14:25:00Z,Lousada,Porto,Norte,-8.325394,41.34307,Despacho
25691994,Faro (Sé e São Pedro),Algarve,313,2025-07-17T13:47:00Z,25691994,Em Resolução/Conclusão,3103,Incêndio rural,0,4,0,14,2025-07-17T13:47:00Z,Faro,Faro,Algarve,-7.909439,37.020395,Resolução/Conclusão
25691805,Canelas,Area M. Porto,309,2025-07-17T13:10:00Z,25691805,Em Resolução/Conclusão,3101,Incêndio rural,0,2,0,7,2025-07-17T13:10:00Z,Vila Nova De Gaia,Porto,Norte,-8.599603,41.079376,Resolução/Conclusão
25692005,Sopo,Alto Minho,309,2025-07-17T13:50:00Z,25692005,Em Resolução/Conclusão,3103,Incêndio rural,1,5,0,23,2025-07-17T13:50:00Z,Vila Nova De Cerveira,Viana Do Castelo,Norte,-8.7251,41.911627,Resolução/Conclusão
25692141,Fornelos,Tâmega e Sousa,309,2025-07-17T14:15:00Z,25692141,Em Curso,3103,Incêndio rural,1,5,0,28,2025-07-17T14:15:00Z,Cinfães,Viseu,Norte,-8.22111,41.019961,Curso
25692205,Pardilhó,Região de Aveiro,310,2025-07-17T14:26:00Z,25692205,Em Despacho,3103,Incêndio rural,0,0,0,0,2025-07-17T14:26:00Z,Estarreja,Aveiro,Centro,-8.60921,40.80306,Despacho
