id,address,subregion,neighborhood,date,id.1,state,nature,nature_description,aerial_means,terrestrial_means,aquatic_means,operational,date.1,Concelho,Distrito,NUTII_DSG,longitude,latitude
25482200,São João Dos Caldeireiros,Baixo Alentejo,312,2025-06-05T17:13:00Z,25482200,Em conclusão,3105,Incêndio rural,0,22,0,49,2025-06-05T17:13:00Z,Mértola,Beja,Alentejo,-7.81599,37.59366
25482784,Longueira/Almograve,Alentejo Litoral,312,2025-06-05T19:39:00Z,25482784,Em conclusão,2301,Incêndio em transporte rodoviário,0,4,0,11,2025-06-05T19:39:00Z,Odemira,Beja,Alentejo,-8.775478,37.657745
25482918,Jou,Douro,309,2025-06-05T20:10:00Z,25482918,Em conclusão,3103,Incêndio rural,0,4,0,13,2025-06-05T20:10:00Z,Murça,Vila Real,Norte,-7.415113,41.46365
25483034,São Pedro da Torre,Alto Minho,309,2025-06-05T20:40:00Z,25483034,Em curso,3201,Detritos não confinados,0,1,0,5,2025-06-05T20:40:00Z,Valença,Viana Do Castelo,Norte,-8.647433,41.980885
25480740,Torre de Coelheiros,Alentejo Central,312,2025-06-05T12:32:00Z,25480740,Em conclusão,3103,Incêndio rural,0,8,0,22,2025-06-05T12:32:00Z,Évora,Évora,Alentejo,-7.799997,38.46965
25483095,Proença-a-Nova e Peral,Beira Baixa,310,2025-06-05T20:56:00Z,25483095,Em curso,2127,"Incêndio em edifícios e recintos industriais, oficinas e armazéns",0,3,0,9,2025-06-05T20:56:00Z,Proença-a-Nova,Castelo Branco,Centro,-7.920738,39.754529
