id,address,subregion,neighborhood,date,id.1,state,nature,nature_description,aerial_means,terrestrial_means,aquatic_means,operational,date.1,Concelho,Distrito,NUTII_DSG,longitude,latitude
24921947,Montalegre e Padroso,Alto Tâmega e Barroso,309,2025-02-06T09:22:00Z,24921947,Em despacho,3301,Queda de árvore,0,1,0,2,2025-02-06T09:22:00Z,Montalegre,Vila Real,Norte,-7.805737,41.826281
24877003,Malagueira e Horta Das Figueiras,Alentejo Central,312,2025-01-27T11:41:00Z,24877003,Em conclusão,3315,Inundação de estruturas por precipitação intensa,0,0,0,0,2025-01-27T11:41:00Z,Évora,Évora,Alentejo,-7.924277,38.57285
24923738,Nossa Senhora da Piedade,Médio Tejo,311,2025-02-06T15:12:00Z,24923738,Em despacho,3301,Queda de árvore,0,1,0,5,2025-02-06T15:12:00Z,Ourém,Santarém,Centro,-8.562129,39.692679
24923464,Espinhosela,Terras de Trás-os-Montes,309,2025-02-06T14:20:00Z,24923464,Em despacho,3301,Queda de árvore,0,2,0,3,2025-02-06T14:20:00Z,Bragança,Bragança,Norte,-6.845617,41.865457
24923671,"S.maria, S.miguel, S.martinho, S.pedro Penaferrim",Grande Lisboa,311,2025-02-06T14:56:00Z,24923671,Em despacho,3301,Queda de árvore,0,1,0,2,2025-02-06T14:56:00Z,Sintra,Lisboa,Área Metropolitana De Lisboa,-9.3538,38.763839
