id,address,subregion,neighborhood,date,id.1,state,nature,nature_description,aerial_means,terrestrial_means,aquatic_means,operational,date.1,Concelho,Distrito,NUTII_DSG,longitude,latitude,state_2
26064162,Mirandela,Terras de Trás-os-Montes,309,2025-09-29T18:33:00Z,26064162,Em Despacho,3103,Incêndio rural,0,2,0,6,2025-09-29T18:33:00Z,Mirandela,Bragança,Norte,-7.170474,41.484193,Despacho
26050704,Tortosendo,Beiras e Serra da Estrela,310,2025-09-26T23:04:00Z,26050704,Em Resolução/Conclusão,3103,Incêndio rural,0,1,0,4,2025-09-26T23:04:00Z,Covilhã,Castelo Branco,Centro,-7.521592,40.251592,Resolução/Conclusão
26064124,Esgueira,Região de Aveiro,310,2025-09-29T18:25:00Z,26064124,Em Curso,3111,Queima,0,3,0,9,2025-09-29T18:25:00Z,Aveiro,Aveiro,Centro,-8.631402,40.64452,Curso
25951176,Sandomil,Beiras e Serra da Estrela,310,2025-09-06T10:29:00Z,25951176,Em Resolução/Conclusão,3103,Incêndio rural,0,2,0,10,2025-09-06T10:29:00Z,Seia,Guarda,Centro,-7.76001,40.351547,Resolução/Conclusão
26063249,"Cambeses do Rio, Donões e Mourilhe",Alto Tâmega e Barroso,309,2025-09-29T15:38:00Z,26063249,Em Despacho,3103,Incêndio rural,0,1,0,5,2025-09-29T15:38:00Z,Montalegre,Vila Real,Norte,-7.838146,41.846175,Despacho
26022995,Bordeira,Algarve,313,2025-09-21T12:21:00Z,26022995,Em Resolução/Conclusão,3103,Incêndio rural,0,6,0,20,2025-09-21T12:21:00Z,Aljezur,Faro,Algarve,-8.825374,37.23495,Resolução/Conclusão
