id,address,subregion,neighborhood,date,id.1,state,nature,nature_description,aerial_means,terrestrial_means,aquatic_means,operational,date.1,Concelho,Distrito,NUTII_DSG,longitude,latitude,state_2
25867021,Carrazeda de Ansiães,Douro,309,2025-08-19T13:27:00Z,25867021,Em Resolução/Conclusão,3103,Incêndio rural,0,14,0,43,2025-08-19T13:27:00Z,Carrazeda De Ansiães,Bragança,Norte,-7.28399,41.211137,Resolução/Conclusão
25876577,Parada e Faílde,Terras de Trás-os-Montes,309,2025-08-21T12:14:00Z,25876577,Em Despacho,3103,Incêndio rural,0,0,0,0,2025-08-21T12:14:00Z,Bragança,Bragança,Norte,-6.697,41.67631,Despacho
25852580,São João de Tarouca,Douro,309,2025-08-16T17:00:00Z,25852580,Em Resolução/Conclusão,3103,Incêndio rural,0,3,0,10,2025-08-16T17:00:00Z,Tarouca,Viseu,Norte,-7.760748,40.986773,Resolução/Conclusão
25846480,Sabugal e Aldeia de Santo António,Beiras e Serra da Estrela,310,2025-08-15T14:41:00Z,25846480,Em Resolução/Conclusão,3103,Incêndio rural,0,96,0,368,2025-08-15T14:41:00Z,Sabugal,Guarda,Centro,-7.125037,40.34023,Resolução/Conclusão
25872720,Lagares e Figueira,Tâmega e Sousa,309,2025-08-20T15:59:00Z,25872720,Em Resolução/Conclusão,3103,Incêndio rural,0,3,0,14,2025-08-20T15:59:00Z,Penafiel,Porto,Norte,-8.333503,41.126387,Resolução/Conclusão
25876330,"Freixianda, Ribeira do Fárrio e Formigais",Médio Tejo,311,2025-08-21T11:33:00Z,25876330,Em Resolução/Conclusão,3103,Incêndio rural,0,8,0,34,2025-08-21T11:33:00Z,Ourém,Santarém,Centro,-8.467112,39.76147,Resolução/Conclusão
25818455,Sobral de São Miguel,Beiras e Serra da Estrela,310,2025-08-10T15:02:00Z,25818455,Em Resolução/Conclusão,3103,Incêndio rural,0,1,0,1,2025-08-10T15:02:00Z,Covilhã,Castelo Branco,Centro,-7.77307,40.200173,Resolução/Conclusão
25875957,Mexilhoeira Grande,Algarve,313,2025-08-21T10:19:00Z,25875957,Em Resolução/Conclusão,3103,Incêndio rural,0,2,0,7,2025-08-21T10:19:00Z,Portimão,Faro,Algarve,-8.611855,37.211557,Resolução/Conclusão
25872413,Cinco Vilas e Reigada,Beiras e Serra da Estrela,310,2025-08-20T14:58:00Z,25872413,Em Curso,3103,Incêndio rural,6,30,0,140,2025-08-20T14:58:00Z,Figueira De Castelo Rodrigo,Guarda,Centro,-6.95815,40.775573,Curso
25875621,Alhadas,Região de Coimbra,310,2025-08-21T09:28:00Z,25875621,Em Resolução/Conclusão,3103,Incêndio rural,0,1,0,6,2025-08-21T09:28:00Z,Figueira Da Foz,Coimbra,Centro,-8.82,40.19333,Resolução/Conclusão
25846016,Poiares,Douro,309,2025-08-15T13:17:00Z,25846016,Em Resolução/Conclusão,3103,Incêndio rural,0,26,0,71,2025-08-15T13:17:00Z,Freixo De Espada à Cinta,Bragança,Norte,-6.843393,41.075787,Resolução/Conclusão
25867995,Lomba,Area M. Porto,309,2025-08-19T16:36:00Z,25867995,Em Resolução/Conclusão,3103,Incêndio rural,0,3,0,12,2025-08-19T16:36:00Z,Gondomar,Porto,Norte,-8.41085,41.05968,Resolução/Conclusão
25836309,Cinfães,Tâmega e Sousa,309,2025-08-13T18:17:00Z,25836309,Em Resolução/Conclusão,3103,Incêndio rural,0,1,0,2,2025-08-13T18:17:00Z,Cinfães,Viseu,Norte,-8.071502,41.049757,Resolução/Conclusão
25832250,Ferreira de Aves,Viseu Dão Lafões,310,2025-08-13T00:03:00Z,25832250,Em Resolução/Conclusão,3103,Incêndio rural,0,16,0,51,2025-08-13T00:03:00Z,Sátão,Viseu,Centro,-7.647793,40.79568,Resolução/Conclusão
25813482,Freches e Torres,Beiras e Serra da Estrela,310,2025-08-09T16:21:00Z,25813482,Em Resolução/Conclusão,3103,Incêndio rural,0,11,0,36,2025-08-09T16:21:00Z,Trancoso,Guarda,Centro,-7.363745,40.709022,Resolução/Conclusão
25840505,Ribeira de Nisa e Carreiras,Alto Alentejo,312,2025-08-14T14:01:00Z,25840505,Em Resolução/Conclusão,3101,Incêndio rural,0,3,0,9,2025-08-14T14:01:00Z,Portalegre,Portalegre,Alentejo,-7.47009,39.374707,Resolução/Conclusão
25851721,Arnóia,Tâmega e Sousa,309,2025-08-16T14:24:00Z,25851721,Em Resolução/Conclusão,3103,Incêndio rural,0,9,0,33,2025-08-16T14:24:00Z,Celorico De Basto,Braga,Norte,-7.994469,41.369836,Resolução/Conclusão
25876222,Recarei,Area M. Porto,309,2025-08-21T11:12:00Z,25876222,Em Resolução/Conclusão,3103,Incêndio rural,0,3,0,12,2025-08-21T11:12:00Z,Paredes,Porto,Norte,-8.427407,41.155043,Resolução/Conclusão
25869388,Armil,Ave,309,2025-08-19T22:29:00Z,25869388,Em Resolução/Conclusão,3103,Incêndio rural,0,12,0,40,2025-08-19T22:29:00Z,Fafe,Braga,Norte,-8.180218,41.423148,Resolução/Conclusão
25832672,Piódão,Região de Coimbra,310,2025-08-13T05:08:00Z,25832672,Em Curso,3103,Incêndio rural,16,545,0,1648,2025-08-13T05:08:00Z,Arganil,Coimbra,Centro,-7.81972,40.23083,Curso
25872437,Alfena,Area M. Porto,309,2025-08-20T15:02:00Z,25872437,Em Resolução/Conclusão,3103,Incêndio rural,0,7,0,30,2025-08-20T15:02:00Z,Valongo,Porto,Norte,-8.535345,41.218567,Resolução/Conclusão
25857322,"Barcel, Marmelos e Valverde da Gestosa",Terras de Trás-os-Montes,309,2025-08-17T15:53:00Z,25857322,Em Resolução/Conclusão,3103,Incêndio rural,0,61,0,160,2025-08-17T15:53:00Z,Mirandela,Bragança,Norte,-7.209414,41.409479,Resolução/Conclusão
25840417,Lousã e Vilarinho,Região de Coimbra,310,2025-08-14T13:46:00Z,25840417,Em Resolução/Conclusão,3101,Incêndio rural,0,23,0,72,2025-08-14T13:46:00Z,Lousã,Coimbra,Centro,-8.201561,40.080016,Resolução/Conclusão
25859212,Moimenta,Cávado,309,2025-08-17T23:49:00Z,25859212,Em Resolução/Conclusão,3103,Incêndio rural,0,2,0,10,2025-08-17T23:49:00Z,Terras De Bouro,Braga,Norte,-8.303262,41.711533,Resolução/Conclusão
25876519,Jolda (São Paio),Alto Minho,309,2025-08-21T12:05:00Z,25876519,Em Despacho,3103,Incêndio rural,1,0,0,6,2025-08-21T12:05:00Z,Arcos De Valdevez,Viana Do Castelo,Norte,-8.496561,41.795499,Despacho
25868316,"Espírito Santo, Nossa Senhora da Graça e São Simão",Alto Alentejo,312,2025-08-19T17:52:00Z,25868316,Em Resolução/Conclusão,3101,Incêndio rural,0,3,0,12,2025-08-19T17:52:00Z,Nisa,Portalegre,Alentejo,-7.710377,39.493737,Resolução/Conclusão
25860828,Vilar de Perdizes e Meixide,Alto Tâmega e Barroso,309,2025-08-18T10:25:00Z,25860828,Em Resolução/Conclusão,3103,Incêndio rural,2,120,0,376,2025-08-18T10:25:00Z,NA,NA,NA,-7.63634,41.880008,Resolução/Conclusão
25876484,Cadima,Região de Coimbra,310,2025-08-21T12:00:00Z,25876484,Em Despacho,3101,Incêndio rural,1,7,0,32,2025-08-21T12:00:00Z,Cantanhede,Coimbra,Centro,-8.616368,40.276961,Despacho
25845171,Pêra do Moço,Beiras e Serra da Estrela,310,2025-08-15T10:44:00Z,25845171,Em Resolução/Conclusão,3103,Incêndio rural,0,0,0,0,2025-08-15T10:44:00Z,Guarda,Guarda,Centro,-7.20956,40.61267,Resolução/Conclusão
25847211,Campelo,Região de Leiria,310,2025-08-15T17:01:00Z,25847211,Em Resolução/Conclusão,3101,Incêndio rural,0,7,0,26,2025-08-15T17:01:00Z,Figueiró Dos Vinhos,Leiria,Centro,-8.258518,39.952923,Resolução/Conclusão
25876398,Santa Clara-a-Nova e Gomes Aires,Baixo Alentejo,312,2025-08-21T11:51:00Z,25876398,Em Resolução/Conclusão,3103,Incêndio rural,1,6,0,27,2025-08-21T11:51:00Z,Almodôvar,Beja,Alentejo,-8.166976,37.454899,Resolução/Conclusão
25861685,Santa Catarina da Serra e Chainça,Região de Leiria,310,2025-08-18T13:03:00Z,25861685,Em Resolução/Conclusão,3103,Incêndio rural,0,1,0,2,2025-08-18T13:03:00Z,Leiria,Leiria,Centro,-8.698656,39.708305,Resolução/Conclusão
25876298,Azambujeira e Malaqueijo,Lezíria do Tejo,311,2025-08-21T11:25:00Z,25876298,Em Resolução/Conclusão,3103,Incêndio rural,0,7,0,29,2025-08-21T11:25:00Z,Rio Maior,Santarém,Alentejo,-8.797192,39.281761,Resolução/Conclusão
