id,address,subregion,neighborhood,date,id.1,state,nature,nature_description,aerial_means,terrestrial_means,aquatic_means,operational,date.1,Concelho,Distrito,NUTII_DSG,longitude,latitude,state_2
25832672,Piódão,Região de Coimbra,310,2025-08-13T05:08:00Z,25832672,Em Curso,3103,Incêndio rural,0,440,0,1295,2025-08-13T05:08:00Z,Arganil,Coimbra,Centro,-7.81972,40.23083,Curso
25857322,"Barcel, Marmelos e Valverde da Gestosa",Terras de Trás-os-Montes,309,2025-08-17T15:53:00Z,25857322,Em Resolução/Conclusão,3103,Incêndio rural,0,7,0,16,2025-08-17T15:53:00Z,Mirandela,Bragança,Norte,-7.209414,41.409479,Resolução/Conclusão
25889310,"Azinhal, Peva e Valverde",Beiras e Serra da Estrela,310,2025-08-24T00:56:00Z,25889310,Em Resolução/Conclusão,3103,Incêndio rural,0,6,0,20,2025-08-24T00:56:00Z,Almeida,Guarda,Centro,-6.977798,40.678315,Resolução/Conclusão
25882910,Picão e Ermida,Viseu Dão Lafões,310,2025-08-22T16:39:00Z,25882910,Em Resolução/Conclusão,3103,Incêndio rural,0,0,0,0,2025-08-22T16:39:00Z,Carregal Do Sal,Viseu,Centro,-7.945985,40.448677000000004,Resolução/Conclusão
25889553,Cedovim,Douro,309,2025-08-24T03:29:00Z,25889553,Em Resolução/Conclusão,3103,Incêndio rural,0,4,0,14,2025-08-24T03:29:00Z,Vila Nova De Foz Côa,Guarda,Norte,-7.282938,41.040948,Resolução/Conclusão
25888885,Cabril,Viseu Dão Lafões,310,2025-08-23T22:24:00Z,25888885,Em Resolução/Conclusão,3103,Incêndio rural,0,1,0,2,2025-08-23T22:24:00Z,Castro Daire,Viseu,Centro,-8.093082,40.956228,Resolução/Conclusão
25840417,Lousã e Vilarinho,Região de Coimbra,310,2025-08-14T13:46:00Z,25840417,Em Resolução/Conclusão,3101,Incêndio rural,0,10,0,26,2025-08-14T13:46:00Z,Lousã,Coimbra,Centro,-8.201561,40.080016,Resolução/Conclusão
25889267,"Aboadela, Sanche e Várzea",Tâmega e Sousa,309,2025-08-24T00:38:00Z,25889267,Em Resolução/Conclusão,3103,Incêndio rural,0,4,0,16,2025-08-24T00:38:00Z,Amarante,Porto,Norte,-7.996755,41.285587,Resolução/Conclusão
25887019,Pedrógão Grande,Região de Leiria,310,2025-08-23T14:27:00Z,25887019,Em Resolução/Conclusão,3101,Incêndio rural,0,232,0,727,2025-08-23T14:27:00Z,Pedrógão Grande,Leiria,Centro,-8.15364,39.9136,Resolução/Conclusão
25883011,Almofala,Viseu Dão Lafões,310,2025-08-22T17:00:00Z,25883011,Em Resolução/Conclusão,3103,Incêndio rural,0,13,0,31,2025-08-22T17:00:00Z,Castro Daire,Viseu,Centro,-7.767003,40.956183,Resolução/Conclusão
25861685,Santa Catarina da Serra e Chainça,Região de Leiria,310,2025-08-18T13:03:00Z,25861685,Em Resolução/Conclusão,3103,Incêndio rural,0,1,0,2,2025-08-18T13:03:00Z,Leiria,Leiria,Centro,-8.698656,39.708305,Resolução/Conclusão
25887755,Vilarinho de Agrochão,Terras de Trás-os-Montes,309,2025-08-23T17:19:00Z,25887755,Em Resolução/Conclusão,3103,Incêndio rural,0,4,0,14,2025-08-23T17:19:00Z,Macedo De Cavaleiros,Bragança,Norte,-7.062665,41.668203,Resolução/Conclusão
25872413,Cinco Vilas e Reigada,Beiras e Serra da Estrela,310,2025-08-20T14:58:00Z,25872413,Em Resolução/Conclusão,3103,Incêndio rural,0,8,0,29,2025-08-20T14:58:00Z,Figueira De Castelo Rodrigo,Guarda,Centro,-6.95815,40.775573,Resolução/Conclusão
25846016,Poiares,Douro,309,2025-08-15T13:17:00Z,25846016,Em Resolução/Conclusão,3103,Incêndio rural,0,6,0,12,2025-08-15T13:17:00Z,Freixo De Espada à Cinta,Bragança,Norte,-6.843393,41.075787,Resolução/Conclusão
25887683,Vilares de Vilariça,Terras de Trás-os-Montes,309,2025-08-23T16:59:00Z,25887683,Em Resolução/Conclusão,3103,Incêndio rural,0,4,0,15,2025-08-23T16:59:00Z,Alfândega Da Fé,Bragança,Norte,-7.045,41.39083,Resolução/Conclusão
25832250,Ferreira de Aves,Viseu Dão Lafões,310,2025-08-13T00:03:00Z,25832250,Em Resolução/Conclusão,3103,Incêndio rural,0,12,0,41,2025-08-13T00:03:00Z,Sátão,Viseu,Centro,-7.647793,40.79568,Resolução/Conclusão
25860828,Vilar de Perdizes e Meixide,Alto Tâmega e Barroso,309,2025-08-18T10:25:00Z,25860828,Em Resolução/Conclusão,3103,Incêndio rural,0,2,0,9,2025-08-18T10:25:00Z,NA,NA,NA,-7.63634,41.880008,Resolução/Conclusão
25882003,"Mamouros, Alva e Ribolhos",Viseu Dão Lafões,310,2025-08-22T13:50:00Z,25882003,Em Resolução/Conclusão,3103,Incêndio rural,0,0,0,0,2025-08-22T13:50:00Z,Castro Daire,Viseu,Centro,-7.964705,40.861392,Resolução/Conclusão
25877725,São Cipriano e Vil de Souto,Viseu Dão Lafões,310,2025-08-21T16:05:00Z,25877725,Em Resolução/Conclusão,3103,Incêndio rural,0,0,0,0,2025-08-21T16:05:00Z,Viseu,Viseu,Centro,-7.959537,40.61783,Resolução/Conclusão
25851721,Arnóia,Tâmega e Sousa,309,2025-08-16T14:24:00Z,25851721,Em Resolução/Conclusão,3103,Incêndio rural,0,8,0,31,2025-08-16T14:24:00Z,Celorico De Basto,Braga,Norte,-7.994469,41.369836,Resolução/Conclusão
25882071,Vila Marim,Douro,309,2025-08-22T14:02:00Z,25882071,Em Resolução/Conclusão,3103,Incêndio rural,0,9,0,27,2025-08-22T14:02:00Z,Vila Real,Vila Real,Norte,-7.814082,41.353615,Resolução/Conclusão
25836309,Cinfães,Tâmega e Sousa,309,2025-08-13T18:17:00Z,25836309,Em Resolução/Conclusão,3103,Incêndio rural,0,1,0,2,2025-08-13T18:17:00Z,Cinfães,Viseu,Norte,-8.071502,41.049757,Resolução/Conclusão
25888869,Campo e Sobrado,Area M. Porto,309,2025-08-23T22:20:00Z,25888869,Em Resolução/Conclusão,3103,Incêndio rural,0,1,0,5,2025-08-23T22:20:00Z,Valongo,Porto,Norte,-8.451152,41.225708,Resolução/Conclusão
25886931,São Miguel de Vila Boa,Viseu Dão Lafões,310,2025-08-23T14:12:00Z,25886931,Em Resolução/Conclusão,3101,Incêndio rural,0,0,0,0,2025-08-23T14:12:00Z,Sátão,Viseu,Centro,-7.75974,40.692665,Resolução/Conclusão
25852580,São João de Tarouca,Douro,309,2025-08-16T17:00:00Z,25852580,Em Resolução/Conclusão,3103,Incêndio rural,0,3,0,12,2025-08-16T17:00:00Z,Tarouca,Viseu,Norte,-7.760748,40.986773,Resolução/Conclusão
25889614,Calvos e Frades,Ave,309,2025-08-24T04:20:00Z,25889614,Em Despacho,3103,Incêndio rural,0,4,0,20,2025-08-24T04:20:00Z,Póvoa De Lanhoso,Braga,Norte,-8.247231,41.61383,Despacho
25846480,Sabugal e Aldeia de Santo António,Beiras e Serra da Estrela,310,2025-08-15T14:41:00Z,25846480,Em Resolução/Conclusão,3103,Incêndio rural,0,28,0,82,2025-08-15T14:41:00Z,Sabugal,Guarda,Centro,-7.125037,40.34023,Resolução/Conclusão
25818455,Sobral de São Miguel,Beiras e Serra da Estrela,310,2025-08-10T15:02:00Z,25818455,Em Resolução/Conclusão,3103,Incêndio rural,0,1,0,1,2025-08-10T15:02:00Z,Covilhã,Castelo Branco,Centro,-7.77307,40.200173,Resolução/Conclusão
25889564,Soutelo de Aguiar,Alto Tâmega e Barroso,309,2025-08-24T03:40:00Z,25889564,Em Despacho,3103,Incêndio rural,0,4,0,20,2025-08-24T03:40:00Z,Vila Pouca De Aguiar,Vila Real,Norte,-7.652171,41.48117,Despacho
25813482,Freches e Torres,Beiras e Serra da Estrela,310,2025-08-09T16:21:00Z,25813482,Em Resolução/Conclusão,3103,Incêndio rural,0,2,0,10,2025-08-09T16:21:00Z,Trancoso,Guarda,Centro,-7.363745,40.709022,Resolução/Conclusão
25889625,Queluz e Belas,Grande Lisboa,311,2025-08-24T04:32:00Z,25889625,Em Despacho,3103,Incêndio rural,0,0,0,0,2025-08-24T04:32:00Z,Sintra,Lisboa,Área Metropolitana De Lisboa,-9.270487,38.76339,Despacho
25840505,Ribeira de Nisa e Carreiras,Alto Alentejo,312,2025-08-14T14:01:00Z,25840505,Em Resolução/Conclusão,3101,Incêndio rural,0,2,0,7,2025-08-14T14:01:00Z,Portalegre,Portalegre,Alentejo,-7.47009,39.374707,Resolução/Conclusão
