id,address,subregion,neighborhood,date,id.1,state,nature,nature_description,aerial_means,terrestrial_means,aquatic_means,operational,date.1,Concelho,Distrito,NUTII_DSG,longitude,latitude,state_2
26115854,Gralhas,Alto Tâmega e Barroso,309,2025-10-10T12:13:00Z,26115854,Em Curso,3103,Incêndio rural,0,40,0,121,2025-10-10T12:13:00Z,Montalegre,Vila Real,Norte,-7.72346,41.854762,Curso
26116442,Rio de Moinhos,Alentejo Central,312,2025-10-10T14:06:00Z,26116442,Em Resolução/Conclusão,3103,Incêndio rural,0,1,0,5,2025-10-10T14:06:00Z,Borba,Évora,Alentejo,-7.49951,38.763823,Resolução/Conclusão
26117844,Alvarelhos e Guidões,Area M. Porto,309,2025-10-10T18:35:00Z,26117844,Em Curso,3103,Incêndio rural,0,6,0,17,2025-10-10T18:35:00Z,Trofa,Porto,Norte,-8.613175,41.294045,Curso
26118162,Alvarelhos e Guidões,Area M. Porto,309,2025-10-10T19:44:00Z,26118162,Em Despacho,3103,Incêndio rural,0,5,0,15,2025-10-10T19:44:00Z,Trofa,Porto,Norte,-8.614107,41.315583,Despacho
26118196,Santa Catarina da Fonte do Bispo,Algarve,313,2025-10-10T19:52:00Z,26118196,Em Resolução/Conclusão,3103,Incêndio rural,0,1,0,5,2025-10-10T19:52:00Z,Tavira,Faro,Algarve,-7.796472,37.155288,Resolução/Conclusão
26118082,"Alhões, Bustelo, Gralheira e Ramires",Tâmega e Sousa,309,2025-10-10T19:27:00Z,26118082,Em Despacho,3103,Incêndio rural,0,3,0,15,2025-10-10T19:27:00Z,Cinfães,Viseu,Norte,-7.960267,40.987143,Despacho
26118199,"Santa Maria da Feira, Travanca, Sanfins e Espargo",Area M. Porto,309,2025-10-10T19:46:00Z,26118199,Em Resolução/Conclusão,3103,Incêndio rural,0,3,0,9,2025-10-10T19:46:00Z,Santa Maria Da Feira,Aveiro,Norte,-8.581871,40.921868,Resolução/Conclusão
26118334,Barrô,Tâmega e Sousa,309,2025-10-10T20:24:00Z,26118334,Em Despacho,3103,Incêndio rural,0,2,0,10,2025-10-10T20:24:00Z,Resende,Viseu,Norte,-7.885435,41.127785,Despacho
26118335,Santo Isidoro,Grande Lisboa,311,2025-10-10T20:16:00Z,26118335,Em Resolução/Conclusão,3103,Incêndio rural,0,1,0,5,2025-10-10T20:16:00Z,Mafra,Lisboa,Área Metropolitana De Lisboa,-9.362699,39.013251,Resolução/Conclusão
26118235,Prado e Remoães,Alto Minho,309,2025-10-10T19:57:00Z,26118235,Em Resolução/Conclusão,3103,Incêndio rural,0,2,0,5,2025-10-10T19:57:00Z,Melgaço,Viana Do Castelo,Norte,-8.28781,42.111937,Resolução/Conclusão
26118344,Vilar e Mosteiró,Area M. Porto,309,2025-10-10T20:25:00Z,26118344,Em Despacho,3105,Incêndio rural,0,1,0,3,2025-10-10T20:25:00Z,Vila Do Conde,Porto,Norte,-8.67427,41.28392,Despacho
26115982,Penamacor,Beira Baixa,310,2025-10-10T12:43:00Z,26115982,Em Resolução/Conclusão,3103,Incêndio rural,0,9,0,28,2025-10-10T12:43:00Z,Penamacor,Castelo Branco,Centro,-7.1652,40.169608,Resolução/Conclusão
26117936,"S.maria, S.miguel, S.martinho, S.pedro Penaferrim",Grande Lisboa,311,2025-10-10T18:53:00Z,26117936,Em Resolução/Conclusão,3103,Incêndio rural,0,0,0,0,2025-10-10T18:53:00Z,Sintra,Lisboa,Área Metropolitana De Lisboa,-9.3564330000000009,38.769113,Resolução/Conclusão
26118179,"Bigorne, Magueija e Pretarouca",Douro,309,2025-10-10T19:47:00Z,26118179,Em Resolução/Conclusão,3103,Incêndio rural,0,2,0,7,2025-10-10T19:47:00Z,Lamego,Viseu,Norte,-7.873312,41.052443,Resolução/Conclusão
26118383,Caminha (Matriz) e Vilarelho,Alto Minho,309,2025-10-10T20:33:00Z,26118383,Em Despacho,3105,Incêndio rural,0,3,0,8,2025-10-10T20:33:00Z,Caminha,Viana Do Castelo,Norte,-8.839419,41.867575,Despacho
26114630,Seixo da Beira,Região de Coimbra,310,2025-10-10T08:46:00Z,26114630,Em Resolução/Conclusão,3101,Incêndio rural,0,50,0,190,2025-10-10T08:46:00Z,Oliveira Do Hospital,Coimbra,Centro,-7.851872,40.421183,Resolução/Conclusão
26118310,Santa Marinha do Zêzere,Tâmega e Sousa,309,2025-10-10T20:22:00Z,26118310,Em Curso,3103,Incêndio rural,0,1,0,5,2025-10-10T20:22:00Z,Baião,Porto,Norte,-7.942772,41.13836,Curso
26118340,Caparica e Trafaria,Península de Setúbal,311,2025-10-10T20:24:00Z,26118340,Em Resolução/Conclusão,3103,Incêndio rural,0,4,0,18,2025-10-10T20:24:00Z,Almada,Setúbal,Área Metropolitana De Lisboa,-9.218098,38.643778,Resolução/Conclusão
