id,address,subregion,neighborhood,date,id.1,state,nature,nature_description,aerial_means,terrestrial_means,aquatic_means,operational,date.1,Concelho,Distrito,NUTII_DSG,longitude,latitude
25554773,Cativelos,Beiras e Serra da Estrela,310,2025-06-20T17:46:00Z,25554773,Em conclusão,3103,Incêndio rural,0,5,0,18,2025-06-20T17:46:00Z,Gouveia,Guarda,Centro,-7.702992,40.53306
25556627,Bougado (São Martinho e Santiago),Area M. Porto,309,2025-06-21T03:58:00Z,25556627,Em curso,2101,Incêndio em edifícios habitacionais,0,1,0,5,2025-06-21T03:58:00Z,Trofa,Porto,Norte,-8.561667,41.343032
25553154,Pedrógão,Baixo Alentejo,312,2025-06-20T12:23:00Z,25553154,Em conclusão,3103,Incêndio rural,0,24,0,66,2025-06-20T12:23:00Z,Vidigueira,Beja,Alentejo,-7.549947,38.179912
25556530,Faro (Sé e São Pedro),Algarve,313,2025-06-21T02:39:00Z,25556530,Em conclusão,2129,Incêndio em edifícios degradados ou devolutos,0,2,0,4,2025-06-21T02:39:00Z,Faro,Faro,Algarve,-7.91976,37.01491
25556582,Rossas,Ave,309,2025-06-21T03:24:00Z,25556582,Em conclusão,3103,Incêndio rural,0,2,0,10,2025-06-21T03:24:00Z,Vieira Do Minho,Braga,Norte,-8.073845,41.586948
