id,address,subregion,neighborhood,date,id.1,state,nature,nature_description,aerial_means,terrestrial_means,aquatic_means,operational,date.1,Concelho,Distrito,NUTII_DSG,longitude,latitude
25551127,Santa Marinha e São Pedro da Afurada,Area M. Porto,309,2025-06-20T00:43:00Z,25551127,Em despacho,2127,"Incêndio em edifícios e recintos industriais, oficinas e armazéns",0,1,0,3,2025-06-20T00:43:00Z,Vila Nova De Gaia,Porto,Norte,-8.624714,41.132843
25551106,"Aldoar, Foz do Douro e Nevogilde",Area M. Porto,309,2025-06-20T00:41:00Z,25551106,Em despacho,3203,Detritos confinados,0,1,0,5,2025-06-20T00:41:00Z,Porto,Porto,Norte,-8.66927,41.14972
25544135,Toulões,Beira Baixa,310,2025-06-18T13:59:00Z,25544135,Em conclusão,3105,Incêndio rural,0,0,0,0,2025-06-18T13:59:00Z,Idanha-a-Nova,Castelo Branco,Centro,-7.056978,39.904387
25550386,Lomba,Area M. Porto,309,2025-06-19T20:17:00Z,25550386,Em conclusão,3101,Incêndio rural,0,1,0,3,2025-06-19T20:17:00Z,Gondomar,Porto,Norte,-8.404195,41.033718
25550982,Carapito,Viseu Dão Lafões,310,2025-06-19T23:28:00Z,25550982,Em conclusão,2127,"Incêndio em edifícios e recintos industriais, oficinas e armazéns",0,8,0,25,2025-06-19T23:28:00Z,Aguiar Da Beira,Guarda,Centro,-7.474373,40.771847
25551057,Sabadim,Alto Minho,309,2025-06-20T00:04:00Z,25551057,Em resolução,3103,Incêndio rural,0,1,0,5,2025-06-20T00:04:00Z,Arcos De Valdevez,Viana Do Castelo,Norte,-8.460767,41.907338
