id,address,subregion,neighborhood,date,id.1,state,nature,nature_description,aerial_means,terrestrial_means,aquatic_means,operational,date.1,Concelho,Distrito,NUTII_DSG,longitude,latitude,state_2
26143768,"Geraz do Lima (S.maria, S.leocádia, Moreira), Deão",Alto Minho,309,2025-10-16T06:20:00Z,26143768,Em Resolução/Conclusão,3103,Incêndio rural,0,3,0,7,2025-10-16T06:20:00Z,Viana Do Castelo,Viana Do Castelo,Norte,-8.671058,41.6898,Resolução/Conclusão
26145593,Penhalonga e Paços de Gaiolo,Tâmega e Sousa,309,2025-10-16T13:08:00Z,26145593,Em Resolução/Conclusão,3105,Incêndio rural,0,1,0,4,2025-10-16T13:08:00Z,Marco De Canaveses,Porto,Norte,-8.160514,41.108235,Resolução/Conclusão
26146071,Riba de Mouro,Alto Minho,309,2025-10-16T14:37:00Z,26146071,Em Despacho,3105,Incêndio rural,0,0,0,0,2025-10-16T14:37:00Z,Monção,Viana Do Castelo,Norte,-8.33652,42.03599,Despacho
26140802,Talhadas,Região de Aveiro,310,2025-10-15T13:42:00Z,26140802,Em Resolução/Conclusão,3101,Incêndio rural,0,1,0,5,2025-10-15T13:42:00Z,Sever Do Vouga,Aveiro,Centro,-8.320335,40.682953,Resolução/Conclusão
26143696,Guarda,Beiras e Serra da Estrela,310,2025-10-16T05:20:00Z,26143696,Em Resolução/Conclusão,3103,Incêndio rural,0,2,0,10,2025-10-16T05:20:00Z,Guarda,Guarda,Centro,-7.275577,40.531809,Resolução/Conclusão
26145098,Grijó e Sermonde,Area M. Porto,309,2025-10-16T11:37:00Z,26145098,Em Resolução/Conclusão,3103,Incêndio rural,0,3,0,6,2025-10-16T11:37:00Z,Vila Nova De Gaia,Porto,Norte,-8.581968,41.020308,Resolução/Conclusão
26146036,Vau,Oeste,311,2025-10-16T14:29:00Z,26146036,Em Despacho,3103,Incêndio rural,0,5,0,16,2025-10-16T14:29:00Z,Óbidos,Leiria,Centro,-9.20106,39.36343,Despacho
26142678,Basto (São Clemente),Tâmega e Sousa,309,2025-10-15T20:09:00Z,26142678,Em Resolução/Conclusão,3103,Incêndio rural,0,2,0,7,2025-10-15T20:09:00Z,Celorico De Basto,Braga,Norte,-8.069937,41.46891,Resolução/Conclusão
26143700,Eiras e Mei,Alto Minho,309,2025-10-16T07:00:00Z,26143700,Em Resolução/Conclusão,3103,Incêndio rural,0,1,0,4,2025-10-16T07:00:00Z,Arcos De Valdevez,Viana Do Castelo,Norte,-8.467538,41.929205,Resolução/Conclusão
26144800,Cedovim,Douro,309,2025-10-16T10:44:00Z,26144800,Em Resolução/Conclusão,3103,Incêndio rural,0,5,0,14,2025-10-16T10:44:00Z,Vila Nova De Foz Côa,Guarda,Norte,-7.27186,41.041813,Resolução/Conclusão
26145077,Calvos e Frades,Ave,309,2025-10-16T11:34:00Z,26145077,Em Resolução/Conclusão,3103,Incêndio rural,0,1,0,5,2025-10-16T11:34:00Z,Póvoa De Lanhoso,Braga,Norte,-8.242965,41.613565,Resolução/Conclusão
26145393,Vila da Ponte,Alto Tâmega e Barroso,309,2025-10-16T12:24:00Z,26145393,Em Curso,3103,Incêndio rural,2,11,0,47,2025-10-16T12:24:00Z,Montalegre,Vila Real,Norte,-7.875308,41.718108,Curso
26145504,"Alhões, Bustelo, Gralheira e Ramires",Tâmega e Sousa,309,2025-10-16T12:53:00Z,26145504,Em Resolução/Conclusão,3105,Incêndio rural,0,1,0,5,2025-10-16T12:53:00Z,Cinfães,Viseu,Norte,-8.011804,41.051449,Resolução/Conclusão
26145586,Rebordosa,Area M. Porto,309,2025-10-16T13:05:00Z,26145586,Em Resolução/Conclusão,3103,Incêndio rural,0,1,0,5,2025-10-16T13:05:00Z,Paredes,Porto,Norte,-8.383577,41.222537,Resolução/Conclusão
26145804,Santa Maria Maior e Monserrate e Meadela,Alto Minho,309,2025-10-16T13:50:00Z,26145804,Em Resolução/Conclusão,3105,Incêndio rural,0,3,0,5,2025-10-16T13:50:00Z,Viana Do Castelo,Viana Do Castelo,Norte,-8.804968,41.699183,Resolução/Conclusão
26146004,Reguengos de Monsaraz,Alentejo Central,312,2025-10-16T14:13:00Z,26146004,Em Resolução/Conclusão,3103,Incêndio rural,0,5,0,17,2025-10-16T14:13:00Z,Reguengos De Monsaraz,Évora,Alentejo,-7.552667,38.418702,Resolução/Conclusão
26146054,Modivas,Area M. Porto,309,2025-10-16T14:32:00Z,26146054,Em Despacho,3103,Incêndio rural,0,1,0,5,2025-10-16T14:32:00Z,Vila Do Conde,Porto,Norte,-8.705442,41.30273,Despacho
