id,address,subregion,neighborhood,date,id.1,state,nature,nature_description,aerial_means,terrestrial_means,aquatic_means,operational,date.1,Concelho,Distrito,NUTII_DSG,longitude,latitude,state_2
25773830,Andrães,Douro,309,2025-08-02T14:23:00Z,25773830,Em Resolução/Conclusão,3103,Incêndio rural,0,15,0,58,2025-08-02T14:23:00Z,Vila Real,Vila Real,Norte,-7.671293,41.267593,Resolução/Conclusão
25774883,Arnóia,Tâmega e Sousa,309,2025-08-02T18:20:00Z,25774883,Em Resolução/Conclusão,3103,Incêndio rural,0,9,0,36,2025-08-02T18:20:00Z,Celorico De Basto,Braga,Norte,-7.998983,41.348727,Resolução/Conclusão
25794472,Boelhe,Tâmega e Sousa,309,2025-08-06T09:45:00Z,25794472,Em Resolução/Conclusão,3103,Incêndio rural,0,4,0,17,2025-08-06T09:45:00Z,Penafiel,Porto,Norte,-8.251117,41.129577,Resolução/Conclusão
25799115,Santiago de Besteiros,Viseu Dão Lafões,310,2025-08-07T01:43:00Z,25799115,Em Resolução/Conclusão,3103,Incêndio rural,0,5,0,18,2025-08-07T01:43:00Z,Tondela,Viseu,Centro,-8.14382,40.57599,Resolução/Conclusão
25799116,Laranjeiro e Feijó,Península de Setúbal,311,2025-08-07T01:43:00Z,25799116,Em Resolução/Conclusão,3103,Incêndio rural,0,5,0,22,2025-08-07T01:43:00Z,Almada,Setúbal,Área Metropolitana De Lisboa,-9.169607,38.65905,Resolução/Conclusão
25763650,Milagres,Região de Leiria,310,2025-07-31T15:58:00Z,25763650,Em Resolução/Conclusão,3101,Incêndio rural,0,1,0,2,2025-07-31T15:58:00Z,Leiria,Leiria,Centro,-8.792217,39.793427,Resolução/Conclusão
25785983,Caçarilhe e Infesta,Tâmega e Sousa,309,2025-08-04T18:22:00Z,25785983,Em Resolução/Conclusão,3103,Incêndio rural,0,68,0,213,2025-08-04T18:22:00Z,Celorico De Basto,Braga,Norte,-8.04611,41.419858,Resolução/Conclusão
25790229,Galegos,Tâmega e Sousa,309,2025-08-05T13:59:00Z,25790229,Em Resolução/Conclusão,3103,Incêndio rural,0,17,0,54,2025-08-05T13:59:00Z,Penafiel,Porto,Norte,-8.31029,41.153427,Resolução/Conclusão
25792058,Cibões e Brufe,Cávado,309,2025-08-05T19:10:00Z,25792058,Em Resolução/Conclusão,3103,Incêndio rural,0,2,0,7,2025-08-05T19:10:00Z,Terras De Bouro,Braga,Norte,-8.293932,41.764918,Resolução/Conclusão
25799037,Lavradas,Alto Minho,309,2025-08-07T01:00:00Z,25799037,Em Resolução/Conclusão,3103,Incêndio rural,0,4,0,12,2025-08-07T01:00:00Z,Ponte Da Barca,Viana Do Castelo,Norte,-8.46494,41.783079,Resolução/Conclusão
25799105,Guilhofrei,Ave,309,2025-08-07T01:37:00Z,25799105,Em Despacho,3103,Incêndio rural,0,5,0,22,2025-08-07T01:37:00Z,Vieira Do Minho,Braga,Norte,-8.14703,41.57031,Despacho
25738747,Lindoso,Alto Minho,309,2025-07-26T21:47:00Z,25738747,Em Resolução/Conclusão,3103,Incêndio rural,0,13,0,39,2025-07-26T21:47:00Z,Ponte Da Barca,Viana Do Castelo,Norte,-8.220528,41.865272,Resolução/Conclusão
25775263,Torgueda,Douro,309,2025-08-02T19:49:00Z,25775263,Em Resolução/Conclusão,3101,Incêndio rural,0,6,0,14,2025-08-02T19:49:00Z,Vila Real,Vila Real,Norte,-7.785983,41.274952,Resolução/Conclusão
25785466,Caçarilhe e Infesta,Tâmega e Sousa,309,2025-08-04T16:48:00Z,25785466,Em Resolução/Conclusão,3103,Incêndio rural,0,1,0,19,2025-08-04T16:48:00Z,Celorico De Basto,Braga,Norte,-8.035342,41.42903,Resolução/Conclusão
25793572,Real,Tâmega e Sousa,309,2025-08-06T04:31:00Z,25793572,Em Resolução/Conclusão,3103,Incêndio rural,0,2,0,10,2025-08-06T04:31:00Z,Castelo De Paiva,Aveiro,Norte,-8.293568,40.988583,Resolução/Conclusão
25796239,Eiras e Mei,Alto Minho,309,2025-08-06T14:18:00Z,25796239,Em Resolução/Conclusão,3103,Incêndio rural,0,3,0,7,2025-08-06T14:18:00Z,Arcos De Valdevez,Viana Do Castelo,Norte,-8.480352,41.924652,Resolução/Conclusão
25796580,Vila Boa de Quires e Maureles,Tâmega e Sousa,309,2025-08-06T15:05:00Z,25796580,Em Resolução/Conclusão,3103,Incêndio rural,0,3,0,3,2025-08-06T15:05:00Z,Marco De Canaveses,Porto,Norte,-8.2103,41.191717,Resolução/Conclusão
25798518,Belinho e Mar,Cávado,309,2025-08-06T21:58:00Z,25798518,Em Resolução/Conclusão,3103,Incêndio rural,0,2,0,8,2025-08-06T21:58:00Z,Esposende,Braga,Norte,-8.791392,41.594685,Resolução/Conclusão
25799029,Vila Boa de Quires e Maureles,Tâmega e Sousa,309,2025-08-07T01:00:00Z,25799029,Em Curso,3103,Incêndio rural,0,3,0,12,2025-08-07T01:00:00Z,Marco De Canaveses,Porto,Norte,-8.206973,41.196188,Curso
25799056,Meinedo,Tâmega e Sousa,309,2025-08-07T01:12:00Z,25799056,Em Resolução/Conclusão,3103,Incêndio rural,0,2,0,7,2025-08-07T01:12:00Z,Lousada,Porto,Norte,-8.231372,41.255378,Resolução/Conclusão
25748118,Canelas e Espiunca,Area M. Porto,309,2025-07-28T17:16:00Z,25748118,Em Resolução/Conclusão,3101,Incêndio rural,0,2,0,5,2025-07-28T17:16:00Z,Arouca,Aveiro,Norte,-8.212231,40.969918,Resolução/Conclusão
25776263,"Pena, Quintã e Vila Cova",Douro,309,2025-08-02T23:45:00Z,25776263,Em Resolução/Conclusão,3103,Incêndio rural,0,126,0,393,2025-08-02T23:45:00Z,Vila Real,Vila Real,Norte,-7.811902,41.317355,Resolução/Conclusão
25783717,Cunha Baixa,Viseu Dão Lafões,310,2025-08-04T11:48:00Z,25783717,Em Resolução/Conclusão,3101,Incêndio rural,0,1,0,2,2025-08-04T11:48:00Z,Mangualde,Viseu,Centro,-7.764411,40.559738,Resolução/Conclusão
25785204,Ribas,Tâmega e Sousa,309,2025-08-04T16:03:00Z,25785204,Em Resolução/Conclusão,3103,Incêndio rural,0,3,0,4,2025-08-04T16:03:00Z,Celorico De Basto,Braga,Norte,-8.022547,41.449583,Resolução/Conclusão
25787860,Faíl e Vila Chã de Sá,Viseu Dão Lafões,310,2025-08-05T05:55:00Z,25787860,Em Resolução/Conclusão,3103,Incêndio rural,0,0,0,0,2025-08-05T05:55:00Z,Viseu,Viseu,Centro,-7.987877,40.601342,Resolução/Conclusão
25796634,Várzea Dos Cavaleiros,Beira Baixa,310,2025-08-06T15:20:00Z,25796634,Em Resolução/Conclusão,3103,Incêndio rural,0,18,0,64,2025-08-06T15:20:00Z,Sertã,Castelo Branco,Centro,-8.002335,39.78494,Resolução/Conclusão
25798321,Paradinha e Nagosa,Douro,309,2025-08-06T21:03:00Z,25798321,Em Resolução/Conclusão,3103,Incêndio rural,0,1,0,5,2025-08-06T21:03:00Z,Moimenta Da Beira,Viseu,Norte,-7.595055,41.017742,Resolução/Conclusão
25798825,Moreira do Rei e Várzea Cova,Ave,309,2025-08-06T23:27:00Z,25798825,Em Resolução/Conclusão,3103,Incêndio rural,0,5,0,17,2025-08-06T23:27:00Z,Fafe,Braga,Norte,-8.12243,41.465247,Resolução/Conclusão
