id,address,subregion,neighborhood,date,id.1,state,nature,nature_description,aerial_means,terrestrial_means,aquatic_means,operational,date.1,Concelho,Distrito,NUTII_DSG,longitude,latitude
24851780,"São Miguel, Santa Eufémia e Rabaçal",Região de Coimbra,310,2025-01-21T23:25:00Z,24851780,Em curso,3315,Inundação de estruturas por precipitação intensa,0,0,0,0,2025-01-21T23:25:00Z,Penela,Coimbra,Centro,-8.399036,40.025502
24875677,Mondim de Basto,Ave,309,2025-01-27T08:25:00Z,24875677,Em despacho,3301,Queda de árvore,0,2,0,6,2025-01-27T08:25:00Z,Mondim De Basto,Vila Real,Norte,-7.962111,41.409753
24875862,Ramela,Beiras e Serra da Estrela,310,2025-01-27T09:01:00Z,24875862,Em despacho,3329,Queda de estruturas temporárias ou móveis,0,2,0,4,2025-01-27T09:01:00Z,Guarda,Guarda,Centro,-7.258056,40.46528
24875911,Tavarede,Região de Coimbra,310,2025-01-27T08:50:00Z,24875911,Em despacho,3315,Inundação de estruturas por precipitação intensa,0,0,0,0,2025-01-27T08:50:00Z,Figueira Da Foz,Coimbra,Centro,-8.853871,40.165854
24876130,Bornes de Aguiar,Alto Tâmega e Barroso,309,2025-01-27T09:37:00Z,24876130,Em curso,3315,Inundação de estruturas por precipitação intensa,0,1,0,5,2025-01-27T09:37:00Z,Vila Pouca De Aguiar,Vila Real,Norte,-7.60702,41.543737
24876495,Beco,Médio Tejo,311,2025-01-27T10:38:00Z,24876495,Em despacho,3313,Deslizamento de terras,0,3,0,4,2025-01-27T10:38:00Z,Ferreira Do Zêzere,Santarém,Centro,-8.275501,39.771744
24876515,Beco,Médio Tejo,311,2025-01-27T10:40:00Z,24876515,Em despacho,3313,Deslizamento de terras,0,3,0,4,2025-01-27T10:40:00Z,Ferreira Do Zêzere,Santarém,Centro,-8.307143,39.779162
24876897,Esmoriz,Região de Aveiro,310,2025-01-27T11:30:00Z,24876897,Em curso,1115,Galgamento costeiro,0,2,0,6,2025-01-27T11:30:00Z,Ovar,Aveiro,Centro,-8.626595,40.959676
24877482,Paranhos,Area M. Porto,309,2025-01-27T13:01:00Z,24877482,Em despacho,3315,Inundação de estruturas por precipitação intensa,0,1,0,5,2025-01-27T13:01:00Z,Porto,Porto,Norte,-8.607437,41.17569
24877484,Palmela,Península de Setúbal,311,2025-01-27T13:10:00Z,24877484,Em conclusão,3321,Dano na rede de fornecimento de eletricidade ,0,1,0,4,2025-01-27T13:10:00Z,Palmela,Setúbal,Área Metropolitana De Lisboa,-8.83721,38.5788
24877501,"Torres Novas (Santa Maria, Salvador e Santiago)",Médio Tejo,311,2025-01-27T13:14:00Z,24877501,Em curso,3309,Desabamento de estruturas edificadas,0,9,0,19,2025-01-27T13:14:00Z,Torres Novas,Santarém,Centro,-8.527287,39.530908
24877565,Bucelas,Grande Lisboa,311,2025-01-27T13:06:00Z,24877565,Em despacho,3301,Queda de árvore,0,1,0,5,2025-01-27T13:06:00Z,Loures,Lisboa,Área Metropolitana De Lisboa,-9.145486,38.920762
24877816,Venteira,Grande Lisboa,311,2025-01-27T13:50:00Z,24877816,Em curso,3311,Queda de elementos de estruturas edificados,0,1,0,6,2025-01-27T13:50:00Z,Amadora,Lisboa,Área Metropolitana De Lisboa,-9.240965,38.755077
24877818,Chamusca e Pinheiro Grande,Lezíria do Tejo,311,2025-01-27T14:04:00Z,24877818,Em curso,3301,Queda de árvore,0,1,0,2,2025-01-27T14:04:00Z,Porto De Mós,Leiria,Centro,-8.82724,39.561155
24875531,Silveira,Oeste,311,2025-01-27T07:52:00Z,24875531,Em despacho,3313,Deslizamento de terras,0,1,0,2,2025-01-27T07:52:00Z,Torres Vedras,Lisboa,Centro,-9.3555,39.09169
24875758,Valhelhas,Beiras e Serra da Estrela,310,2025-01-27T08:41:00Z,24875758,Em curso,3301,Queda de árvore,0,1,0,2,2025-01-27T08:41:00Z,Guarda,Guarda,Centro,-7.405093,40.406271
24876669,Bilhó,Ave,309,2025-01-27T11:00:00Z,24876669,Em despacho,3311,Queda de elementos de estruturas edificados,0,1,0,2,2025-01-27T11:00:00Z,Mondim De Basto,Vila Real,Norte,-7.839872,41.409996
24876708,Montaria,Alto Minho,309,2025-01-27T10:59:00Z,24876708,Em curso,3301,Queda de árvore,0,2,0,3,2025-01-27T10:59:00Z,Viana Do Castelo,Viana Do Castelo,Norte,-8.694724,41.798689
24876783,Santo António Dos Olivais,Região de Coimbra,310,2025-01-27T10:56:00Z,24876783,Em despacho,3315,Inundação de estruturas por precipitação intensa,0,1,0,2,2025-01-27T10:56:00Z,Coimbra,Coimbra,Centro,-8.426807,40.217261
24876901,Albergaria-a-Velha e Valmaior,Região de Aveiro,310,2025-01-27T11:00:00Z,24876901,Em curso,3313,Deslizamento de terras,0,2,0,3,2025-01-27T11:00:00Z,Albergaria-a-Velha,Aveiro,Centro,-8.458513,40.701665
24877003,Malagueira e Horta Das Figueiras,Alentejo Central,312,2025-01-27T11:41:00Z,24877003,Em conclusão,3315,Inundação de estruturas por precipitação intensa,0,1,0,2,2025-01-27T11:41:00Z,Évora,Évora,Alentejo,-7.924277,38.57285
24877026,Buarcos,Região de Coimbra,310,2025-01-27T11:50:00Z,24877026,Em despacho,3317,Inundação de estruturas por água canalizada,0,1,0,3,2025-01-27T11:50:00Z,Figueira Da Foz,Coimbra,Centro,-8.880897,40.168384
24874428,Donai,Terras de Trás-os-Montes,309,2025-01-26T21:18:00Z,24874428,Em curso,3315,Inundação de estruturas por precipitação intensa,0,1,0,2,2025-01-26T21:18:00Z,Bragança,Bragança,Norte,-6.805385,41.830788
24874564,"Sé, Santa Maria e Meixedo",Terras de Trás-os-Montes,309,2025-01-26T21:55:00Z,24874564,Em curso,3315,Inundação de estruturas por precipitação intensa,0,1,0,2,2025-01-26T21:55:00Z,Bragança,Bragança,Norte,-6.761223,41.813164
24875382,Pampilhosa da Serra,Região de Coimbra,310,2025-01-27T06:56:00Z,24875382,Em despacho,3315,Inundação de estruturas por precipitação intensa,0,4,0,8,2025-01-27T06:56:00Z,Pampilhosa Da Serra,Coimbra,Centro,-7.953077,40.054967
24875591,Serpins,Região de Coimbra,310,2025-01-27T08:05:00Z,24875591,Em curso,3315,Inundação de estruturas por precipitação intensa,0,1,0,1,2025-01-27T08:05:00Z,Lousã,Coimbra,Centro,-8.200016,40.156377
24875834,Tábua,Região de Coimbra,310,2025-01-27T08:50:00Z,24875834,Em curso,3315,Inundação de estruturas por precipitação intensa,0,1,0,2,2025-01-27T08:50:00Z,Tábua,Coimbra,Centro,-8.022455,40.361675
24875909,Almeirim,Lezíria do Tejo,311,2025-01-27T09:10:00Z,24875909,Em conclusão,3315,Inundação de estruturas por precipitação intensa,0,1,0,2,2025-01-27T09:10:00Z,Almeirim,Santarém,Alentejo,-8.588832,39.142251
24876200,Ceira,Região de Coimbra,310,2025-01-27T09:56:00Z,24876200,Em despacho,3315,Inundação de estruturas por precipitação intensa,0,1,0,2,2025-01-27T09:56:00Z,Coimbra,Coimbra,Centro,-8.376144,40.175952
24876277,Alhadas,Região de Coimbra,310,2025-01-27T10:00:00Z,24876277,Em despacho,3301,Queda de árvore,0,0,0,0,2025-01-27T10:00:00Z,Figueira Da Foz,Coimbra,Centro,-8.808093,40.16613
24875937,Açores e Velosa,Beiras e Serra da Estrela,310,2025-01-27T09:15:00Z,24875937,Em despacho,3301,Queda de árvore,0,2,0,4,2025-01-27T09:15:00Z,Celorico Da Beira,Guarda,Centro,-7.293622,40.654959
24875969,Albergaria-a-Velha e Valmaior,Região de Aveiro,310,2025-01-27T09:15:00Z,24875969,Em conclusão,3313,Deslizamento de terras,0,1,0,1,2025-01-27T09:15:00Z,Albergaria-a-Velha,Aveiro,Centro,-8.479745,40.688996
24876436,Beja (Santiago Maior e São João Baptista),Baixo Alentejo,312,2025-01-27T10:20:00Z,24876436,Em conclusão,3301,Queda de árvore,0,2,0,3,2025-01-27T10:20:00Z,Beja,Beja,Alentejo,-7.858232,38.009245
24877173,"Cedofeita, Ildefonso, Sé, Miragaia, Nicolau e Vitória",Area M. Porto,309,2025-01-27T12:00:00Z,24877173,Em curso,3311,Queda de elementos de estruturas edificados,0,1,0,3,2025-01-27T12:00:00Z,Porto,Porto,Norte,-8.615939,41.15359
24877543,"S.julião, N.s. da Anunciada e S. Maria da Graça",Península de Setúbal,311,2025-01-27T13:16:00Z,24877543,Em conclusão,3329,Queda de estruturas temporárias ou móveis,0,2,0,4,2025-01-27T13:16:00Z,Setúbal,Setúbal,Área Metropolitana De Lisboa,-8.89348,38.535337
24877623,Ega,Região de Coimbra,310,2025-01-27T13:34:00Z,24877623,Em conclusão,3301,Queda de árvore,0,2,0,4,2025-01-27T13:34:00Z,Condeixa-a-Nova,Coimbra,Centro,-8.53647,40.09942
24876461,Buarcos,Região de Coimbra,310,2025-01-27T10:20:00Z,24876461,Em despacho,3315,Inundação de estruturas por precipitação intensa,0,2,0,5,2025-01-27T10:20:00Z,Figueira Da Foz,Coimbra,Centro,-8.880897,40.168384
24876602,Barreiro e Lavradio,Península de Setúbal,311,2025-01-27T10:54:00Z,24876602,Em conclusão,3313,Deslizamento de terras,0,2,0,3,2025-01-27T10:54:00Z,Barreiro,Setúbal,Área Metropolitana De Lisboa,-9.076291,38.66241
24876802,Paião,Região de Coimbra,310,2025-01-27T11:17:00Z,24876802,Em despacho,3301,Queda de árvore,0,1,0,5,2025-01-27T11:17:00Z,Figueira Da Foz,Coimbra,Centro,-8.771908,40.062768
24876893,"Sé, Santa Maria e Meixedo",Terras de Trás-os-Montes,309,2025-01-27T11:22:00Z,24876893,Em curso,3315,Inundação de estruturas por precipitação intensa,0,1,0,2,2025-01-27T11:22:00Z,Bragança,Bragança,Norte,-6.761223,41.813164
24877045,Algueirão-Mem Martins,Grande Lisboa,311,2025-01-27T11:55:00Z,24877045,Em despacho,3301,Queda de árvore,0,2,0,3,2025-01-27T11:55:00Z,Sintra,Lisboa,Área Metropolitana De Lisboa,-9.32321,38.8018
24877472,Azeitão (São Lourenço e São Simão),Península de Setúbal,311,2025-01-27T13:02:00Z,24877472,Em despacho,3329,Queda de estruturas temporárias ou móveis,0,1,0,4,2025-01-27T13:02:00Z,Setúbal,Setúbal,Área Metropolitana De Lisboa,-9.033171,38.51723
24877552,Mafamude e Vilar do Paraíso,Area M. Porto,309,2025-01-27T13:22:00Z,24877552,Em despacho,3321,Dano na rede de fornecimento de eletricidade ,0,0,0,0,2025-01-27T13:22:00Z,Vila Nova De Gaia,Porto,Norte,-8.601666,41.12167
24877604,"Cedofeita, Ildefonso, Sé, Miragaia, Nicolau e Vitória",Area M. Porto,309,2025-01-27T13:20:00Z,24877604,Em curso,3315,Inundação de estruturas por precipitação intensa,0,1,0,5,2025-01-27T13:20:00Z,Porto,Porto,Norte,-8.615939,41.15359
24877228,Eiras e São Paulo de Frades,Região de Coimbra,310,2025-01-27T12:14:00Z,24877228,Em despacho,3301,Queda de árvore,0,1,0,2,2025-01-27T12:14:00Z,Coimbra,Coimbra,Centro,-8.392843,40.24436
24877462,Canelas,Area M. Porto,309,2025-01-27T13:06:00Z,24877462,Em despacho,3301,Queda de árvore,0,1,0,5,2025-01-27T13:06:00Z,Vila Nova De Gaia,Porto,Norte,-8.593513,41.08389
24877587,Setúbal (São Sebastião),Península de Setúbal,311,2025-01-27T13:26:00Z,24877587,Em despacho,3301,Queda de árvore,0,1,0,5,2025-01-27T13:26:00Z,Setúbal,Setúbal,Área Metropolitana De Lisboa,-8.845145,38.518526
24877644,Tavira (Santa Maria e Santiago),Algarve,313,2025-01-27T13:33:00Z,24877644,Em curso,3301,Queda de árvore,0,2,0,2,2025-01-27T13:33:00Z,Tavira,Faro,Algarve,-7.64864,37.125854
24877689,"St.tirso, Couto (S.cristina e S.miguel) e Burgães",Area M. Porto,309,2025-01-27T13:39:00Z,24877689,Em despacho,3311,Queda de elementos de estruturas edificados,0,1,0,2,2025-01-27T13:39:00Z,Santo Tirso,Porto,Norte,-8.470053,41.34802
24877710,"Seixal, Arrentela e Aldeia de Paio Pires",Península de Setúbal,311,2025-01-27T13:48:00Z,24877710,Em despacho,3315,Inundação de estruturas por precipitação intensa,0,1,0,2,2025-01-27T13:48:00Z,Seixal,Setúbal,Área Metropolitana De Lisboa,-9.09472,38.63538
24877773,Couto de Baixo e Couto de Cima,Viseu Dão Lafões,310,2025-01-27T13:58:00Z,24877773,Em despacho,3301,Queda de árvore,0,0,0,0,2025-01-27T13:58:00Z,Viseu,Viseu,Centro,-8.013651,40.683156
24877774,Castelo Branco,Beira Baixa,310,2025-01-27T13:55:00Z,24877774,Em curso,3301,Queda de árvore,0,3,0,5,2025-01-27T13:55:00Z,Castelo Branco,Castelo Branco,Centro,-7.490756,39.816895
24877776,Mafamude e Vilar do Paraíso,Area M. Porto,309,2025-01-27T13:51:00Z,24877776,Em despacho,3329,Queda de estruturas temporárias ou móveis,0,2,0,6,2025-01-27T13:51:00Z,Vila Nova De Gaia,Porto,Norte,-8.622265,41.086486
24877777,"O. Azeméis, Riba-Ul, Ul, Macinhata Seixa, Madail",Area M. Porto,309,2025-01-27T13:55:00Z,24877777,Em despacho,3301,Queda de árvore,0,1,0,2,2025-01-27T13:55:00Z,Oliveira De Azeméis,Aveiro,Norte,-8.487606,40.83215
24877825,"Cedofeita, Ildefonso, Sé, Miragaia, Nicolau e Vitória",Area M. Porto,309,2025-01-27T13:40:00Z,24877825,Em despacho,3311,Queda de elementos de estruturas edificados,0,1,0,3,2025-01-27T13:40:00Z,Porto,Porto,Norte,-8.615939,41.15359
24877857,"Achete, Azoia de Baixo e Póvoa de Santarém",Lezíria do Tejo,311,2025-01-27T14:13:00Z,24877857,Em despacho,3301,Queda de árvore,0,0,0,0,2025-01-27T14:13:00Z,Santarém,Santarém,Alentejo,-8.70609,39.29702
24877688,Nossa Senhora de Fátima,Médio Tejo,311,2025-01-27T13:42:00Z,24877688,Em despacho,3329,Queda de estruturas temporárias ou móveis,0,2,0,4,2025-01-27T13:42:00Z,Entroncamento,Santarém,Centro,-8.485202,39.466869
24877711,Bonfim,Area M. Porto,309,2025-01-27T13:48:00Z,24877711,Em despacho,3311,Queda de elementos de estruturas edificados,0,0,0,0,2025-01-27T13:48:00Z,Porto,Porto,Norte,-8.594893,41.1531
24877738,"Torres Novas (Santa Maria, Salvador e Santiago)",Médio Tejo,311,2025-01-27T13:51:00Z,24877738,Em conclusão,3309,Desabamento de estruturas edificadas,0,4,0,8,2025-01-27T13:51:00Z,Torres Novas,Santarém,Centro,-8.5355,39.48231
24877772,"Raiva, Pedorido e Paraíso",Tâmega e Sousa,309,2025-01-27T13:55:00Z,24877772,Em resolução,3301,Queda de árvore,0,2,0,4,2025-01-27T13:55:00Z,Castelo De Paiva,Aveiro,Norte,-8.341048,41.018258
24877806,Góis,Região de Coimbra,310,2025-01-27T14:00:00Z,24877806,Em despacho,3301,Queda de árvore,0,1,0,3,2025-01-27T14:00:00Z,Góis,Coimbra,Centro,-8.157756,40.138382
24877811,"Freixianda, Ribeira do Fárrio e Formigais",Médio Tejo,311,2025-01-27T14:03:00Z,24877811,Em curso,3301,Queda de árvore,0,1,0,4,2025-01-27T14:03:00Z,Ourém,Santarém,Centro,-8.458636,39.748857
24877822,"Seia, São Romão e Lapa Dos Dinheiros",Beiras e Serra da Estrela,310,2025-01-27T14:05:00Z,24877822,Em despacho,3301,Queda de árvore,0,1,0,5,2025-01-27T14:05:00Z,Seia,Guarda,Centro,-7.706579,40.420381
24877831,Penacova,Região de Coimbra,310,2025-01-27T13:56:00Z,24877831,Em despacho,3301,Queda de árvore,0,1,0,2,2025-01-27T13:56:00Z,Penacova,Coimbra,Centro,-8.294186,40.270656
24877875,Espinho,Area M. Porto,309,2025-01-27T14:11:00Z,24877875,Em despacho,3329,Queda de estruturas temporárias ou móveis,0,1,0,4,2025-01-27T14:11:00Z,Espinho,Aveiro,Norte,-8.64078,41.007665
24877755,Paranhos,Area M. Porto,309,2025-01-27T13:54:00Z,24877755,Em despacho,3311,Queda de elementos de estruturas edificados,0,0,0,0,2025-01-27T13:54:00Z,Porto,Porto,Norte,-8.604254,41.174248
24877871,Cepos e Teixeira,Região de Coimbra,310,2025-01-27T14:07:00Z,24877871,Em despacho,3301,Queda de árvore,0,1,0,4,2025-01-27T14:07:00Z,Arganil,Coimbra,Centro,-7.973479,40.160791
