id,address,subregion,neighborhood,date,id.1,state,nature,nature_description,aerial_means,terrestrial_means,aquatic_means,operational,date.1,Concelho,Distrito,NUTII_DSG,longitude,latitude,state_2
25692303,Abrantes (São Vicente e São João) e Alferrarede,Médio Tejo,311,2025-07-17T14:41:00Z,25692303,Em Resolução/Conclusão,3103,Incêndio rural,0,15,0,46,2025-07-17T14:41:00Z,Abrantes,Santarém,Centro,-8.195112,39.499466,Resolução/Conclusão
25692562,Atouguia,Médio Tejo,311,2025-07-17T15:31:00Z,25692562,Em Resolução/Conclusão,3103,Incêndio rural,1,33,0,129,2025-07-17T15:31:00Z,Ourém,Santarém,Centro,-8.62029,39.654072,Resolução/Conclusão
25692637,Alvarenga,Area M. Porto,309,2025-07-17T15:37:00Z,25692637,Em Resolução/Conclusão,3103,Incêndio rural,0,2,0,7,2025-07-17T15:37:00Z,Arouca,Aveiro,Norte,-8.168908,40.977443,Resolução/Conclusão
25692814,"Espírito Santo, Nossa Senhora da Graça e São Simão",Alto Alentejo,312,2025-07-17T16:23:00Z,25692814,Em Resolução/Conclusão,3103,Incêndio rural,6,28,0,112,2025-07-17T16:23:00Z,Nisa,Portalegre,Alentejo,-7.635642,39.486993,Resolução/Conclusão
25692873,Bombarral e Vale Covo,Oeste,311,2025-07-17T16:34:00Z,25692873,Em Resolução/Conclusão,3103,Incêndio rural,0,1,0,5,2025-07-17T16:34:00Z,Bombarral,Leiria,Centro,-9.153454,39.234145,Resolução/Conclusão
25693046,Santo Aleixo,Alto Alentejo,312,2025-07-17T17:04:00Z,25693046,Em Curso,3103,Incêndio rural,1,15,0,49,2025-07-17T17:04:00Z,Monforte,Portalegre,Alentejo,-7.397183,38.919233,Curso
25693162,Romariz,Area M. Porto,309,2025-07-17T17:37:00Z,25693162,Em Despacho,3103,Incêndio rural,0,0,0,0,2025-07-17T17:37:00Z,Santa Maria Da Feira,Aveiro,Norte,-8.448094,40.95347,Despacho
25688392,Cabril,Região de Coimbra,310,2025-07-16T18:47:00Z,25688392,Em Resolução/Conclusão,3101,Incêndio rural,0,3,0,11,2025-07-16T18:47:00Z,Pampilhosa Da Serra,Coimbra,Centro,-7.86944,40.06556,Resolução/Conclusão
25692138,"Canedo, Vale e Vila Maior",Area M. Porto,309,2025-07-17T14:14:00Z,25692138,Em Resolução/Conclusão,3103,Incêndio rural,0,1,0,1,2025-07-17T14:14:00Z,Santa Maria Da Feira,Aveiro,Norte,-8.464653,41.044543,Resolução/Conclusão
25692211,Figueiró,Tâmega e Sousa,309,2025-07-17T14:19:00Z,25692211,Em Resolução/Conclusão,3105,Incêndio rural,0,3,0,9,2025-07-17T14:19:00Z,Paços De Ferreira,Porto,Norte,-8.334348,41.304818,Resolução/Conclusão
25693072,Alvor,Algarve,313,2025-07-17T17:12:00Z,25693072,Em Resolução/Conclusão,3103,Incêndio rural,0,6,0,26,2025-07-17T17:12:00Z,Portimão,Faro,Algarve,-8.587715,37.153057,Resolução/Conclusão
25687827,Rochoso e Monte Margarida,Beiras e Serra da Estrela,310,2025-07-16T16:35:00Z,25687827,Em Resolução/Conclusão,3103,Incêndio rural,0,13,0,48,2025-07-16T16:35:00Z,Guarda,Guarda,Centro,-7.106608,40.527017,Resolução/Conclusão
25688580,São Martinho,Alentejo Litoral,312,2025-07-16T19:33:00Z,25688580,Em Resolução/Conclusão,3103,Incêndio rural,0,0,0,0,2025-07-16T19:33:00Z,Alcácer Do Sal,Setúbal,Alentejo,-8.521302,38.426643,Resolução/Conclusão
25689484,Andrães,Douro,309,2025-07-16T23:49:00Z,25689484,Em Resolução/Conclusão,3103,Incêndio rural,0,7,0,24,2025-07-16T23:49:00Z,Vila Real,Vila Real,Norte,-7.668872,41.241568,Resolução/Conclusão
25692675,Cabanelas,Cávado,309,2025-07-17T15:52:00Z,25692675,Em Resolução/Conclusão,3103,Incêndio rural,0,4,0,15,2025-07-17T15:52:00Z,Vila Verde,Braga,Norte,-8.504623,41.583147,Resolução/Conclusão
25692759,Póvoa de Rio de Moinhos e Cafede,Beira Baixa,310,2025-07-17T16:10:00Z,25692759,Em Resolução/Conclusão,3105,Incêndio rural,0,13,0,39,2025-07-17T16:10:00Z,Castelo Branco,Castelo Branco,Centro,-7.507702,39.933293,Resolução/Conclusão
25693191,São Pedro de Castelões,Area M. Porto,309,2025-07-17T17:31:00Z,25693191,Em Resolução/Conclusão,3103,Incêndio rural,0,1,0,5,2025-07-17T17:31:00Z,Vale De Cambra,Aveiro,Norte,-8.39388,40.815821,Resolução/Conclusão
25682254,Panque,Cávado,309,2025-07-15T15:31:00Z,25682254,Em Resolução/Conclusão,3101,Incêndio rural,0,1,0,5,2025-07-15T15:31:00Z,Barcelos,Braga,Norte,-8.607035,41.626113,Resolução/Conclusão
25682641,São Bento,Região de Leiria,310,2025-07-15T16:44:00Z,25682641,Em Resolução/Conclusão,3101,Incêndio rural,0,0,0,0,2025-07-15T16:44:00Z,Porto De Mós,Leiria,Centro,-8.746525,39.524688,Resolução/Conclusão
25683057,Messejana,Baixo Alentejo,312,2025-07-15T18:10:00Z,25683057,Em Resolução/Conclusão,3101,Incêndio rural,0,0,0,0,2025-07-15T18:10:00Z,Aljustrel,Beja,Alentejo,-8.253787,37.845618,Resolução/Conclusão
25686799,Souto Maior,Douro,309,2025-07-16T13:19:00Z,25686799,Em Resolução/Conclusão,3101,Incêndio rural,3,90,0,282,2025-07-16T13:19:00Z,Sabrosa,Vila Real,Norte,-7.57839,41.287518,Resolução/Conclusão
25691716,Peva e Segões,Douro,309,2025-07-17T12:55:00Z,25691716,Em Resolução/Conclusão,3103,Incêndio rural,0,4,0,17,2025-07-17T12:55:00Z,Moimenta Da Beira,Viseu,Norte,-7.690854,40.87186,Resolução/Conclusão
25692617,Mairos,Alto Tâmega e Barroso,309,2025-07-17T15:38:00Z,25692617,Em Resolução/Conclusão,3101,Incêndio rural,0,5,0,24,2025-07-17T15:38:00Z,Chaves,Vila Real,Norte,-7.316337,41.821573,Resolução/Conclusão
25692684,Frazão Arreigada,Tâmega e Sousa,309,2025-07-17T15:53:00Z,25692684,Em Resolução/Conclusão,3103,Incêndio rural,0,2,0,6,2025-07-17T15:53:00Z,Paços De Ferreira,Porto,Norte,-8.386045,41.26623,Resolução/Conclusão
