id,address,subregion,neighborhood,date,id.1,state,nature,nature_description,aerial_means,terrestrial_means,aquatic_means,operational,date.1,Concelho,Distrito,NUTII_DSG,longitude,latitude
24877003,Malagueira e Horta Das Figueiras,Alentejo Central,312,2025-01-27T11:41:00Z,24877003,Em conclusão,3315,Inundação de estruturas por precipitação intensa,0,0,0,0,2025-01-27T11:41:00Z,Évora,Évora,Alentejo,-7.924277,38.57285
24991801,Abrantes (São Vicente e São João) e Alferrarede,Médio Tejo,311,2025-02-21T16:43:00Z,24991801,Em despacho,3315,Inundação de estruturas por precipitação intensa,0,1,0,2,2025-02-21T16:43:00Z,Abrantes,Santarém,Centro,-8.184237,39.472798
24888293,Pernes,Lezíria do Tejo,311,2025-01-29T16:41:00Z,24888293,Em curso,3301,Queda de árvore,0,0,0,0,2025-01-29T16:41:00Z,Santarém,Santarém,Alentejo,-8.658865,39.381547
24991784,Carnaxide e Queijas,Grande Lisboa,311,2025-02-21T16:30:00Z,24991784,Em despacho,3315,Inundação de estruturas por precipitação intensa,0,1,0,2,2025-02-21T16:30:00Z,Oeiras,Lisboa,Área Metropolitana De Lisboa,-9.256277,38.716014
24991918,Lousã e Vilarinho,Região de Coimbra,310,2025-02-21T17:10:00Z,24991918,Em despacho,3301,Queda de árvore,0,1,0,2,2025-02-21T17:10:00Z,Lousã,Coimbra,Centro,-8.201113,40.080726
24991161,Santo António Dos Olivais,Região de Coimbra,310,2025-02-21T14:20:00Z,24991161,Em despacho,3311,Queda de elementos de estruturas edificados,0,1,0,3,2025-02-21T14:20:00Z,Coimbra,Coimbra,Centro,-8.426807,40.217261
24992048,Carvalhal,Oeste,311,2025-02-21T17:43:00Z,24992048,Em despacho,3301,Queda de árvore,0,1,0,3,2025-02-21T17:43:00Z,Bombarral,Leiria,Centro,-9.123994,39.280336
