id,address,subregion,neighborhood,date,id.1,state,nature,nature_description,aerial_means,terrestrial_means,aquatic_means,operational,date.1,Concelho,Distrito,NUTII_DSG,longitude,latitude,state_2
26166331,Costa da Caparica,Península de Setúbal,311,2025-10-20T18:40:00Z,26166331,Em Resolução/Conclusão,3103,Incêndio rural,0,2,0,7,2025-10-20T18:40:00Z,Almada,Setúbal,Área Metropolitana De Lisboa,-9.233232,38.653598,Resolução/Conclusão
26166532,Pontével,Lezíria do Tejo,311,2025-10-20T19:40:00Z,26166532,Em Despacho,3103,Incêndio rural,0,3,0,9,2025-10-20T19:40:00Z,Cartaxo,Santarém,Alentejo,-8.834097,39.147337,Despacho
26160929,Caranguejeira,Região de Leiria,310,2025-10-19T16:50:00Z,26160929,Em Resolução/Conclusão,3101,Incêndio rural,0,1,0,2,2025-10-19T16:50:00Z,Leiria,Leiria,Centro,-8.697637,39.726483,Resolução/Conclusão
26165861,Colos,Alentejo Litoral,312,2025-10-20T17:03:00Z,26165861,Em Resolução/Conclusão,3103,Incêndio rural,0,5,0,13,2025-10-20T17:03:00Z,Odemira,Beja,Alentejo,-8.569803,37.791463,Resolução/Conclusão
26166284,"Oeiras e S. Julião da Barra, Paço de Arcos e Caxias",Grande Lisboa,311,2025-10-20T18:44:00Z,26166284,Em Resolução/Conclusão,3103,Incêndio rural,0,1,0,5,2025-10-20T18:44:00Z,Oeiras,Lisboa,Área Metropolitana De Lisboa,-9.302383,38.71165,Resolução/Conclusão
26166429,Sesimbra (Castelo),Península de Setúbal,311,2025-10-20T19:08:00Z,26166429,Em Curso,3103,Incêndio rural,0,1,0,5,2025-10-20T19:08:00Z,Sesimbra,Setúbal,Área Metropolitana De Lisboa,-9.16191,38.459417,Curso
26166503,Canaviais,Alentejo Central,312,2025-10-20T19:31:00Z,26166503,Em Despacho,3111,Queima,0,1,0,5,2025-10-20T19:31:00Z,Évora,Évora,Alentejo,-7.899381,38.616252,Despacho
