id,address,subregion,neighborhood,date,id.1,state,nature,nature_description,aerial_means,terrestrial_means,aquatic_means,operational,date.1,Concelho,Distrito,NUTII_DSG,longitude,latitude
25577650,"Cedofeita, Ildefonso, Sé, Miragaia, Nicolau e Vitória",Area M. Porto,309,2025-06-25T11:51:00Z,25577650,Em despacho,2101,Incêndio em edifícios habitacionais,0,0,0,0,2025-06-25T11:51:00Z,Porto,Porto,Norte,-8.6187,41.16021
25576293,Aveiras de Baixo,Lezíria do Tejo,311,2025-06-25T07:56:00Z,25576293,Em despacho,3109,Gestão de combustível,0,1,0,4,2025-06-25T07:56:00Z,Azambuja,Lisboa,Alentejo,-8.826556,39.086132
25577461,"Coruche, Fajarda e Erra",Lezíria do Tejo,311,2025-06-25T11:21:00Z,25577461,Em conclusão,3101,Incêndio rural,0,5,0,19,2025-06-25T11:21:00Z,Coruche,Santarém,Alentejo,-8.522068,38.974268
25577645,Cadafaz e Colmeal,Região de Coimbra,310,2025-06-25T11:50:00Z,25577645,Em despacho,3111,Queima,0,3,0,11,2025-06-25T11:50:00Z,Góis,Coimbra,Centro,-8.033358,40.150051
25577437,Penude,Douro,309,2025-06-25T11:15:00Z,25577437,Em resolução,3103,Incêndio rural,1,5,0,28,2025-06-25T11:15:00Z,Lamego,Viseu,Norte,-7.868872,41.067995
25577571,Fanhões,Grande Lisboa,311,2025-06-25T11:34:00Z,25577571,Em resolução,3105,Incêndio rural,0,2,0,7,2025-06-25T11:34:00Z,Loures,Lisboa,Área Metropolitana De Lisboa,-9.170259,38.880011
