id,address,subregion,neighborhood,date,id.1,state,nature,nature_description,aerial_means,terrestrial_means,aquatic_means,operational,date.1,Concelho,Distrito,NUTII_DSG,longitude,latitude,state_2
26114630,Seixo da Beira,Região de Coimbra,310,2025-10-10T08:46:00Z,26114630,Em Resolução/Conclusão,3101,Incêndio rural,0,3,0,9,2025-10-10T08:46:00Z,Oliveira Do Hospital,Coimbra,Centro,-7.851872,40.421183,Resolução/Conclusão
26119160,Moimenta e Montouto,Terras de Trás-os-Montes,309,2025-10-11T01:45:00Z,26119160,Em Resolução/Conclusão,3103,Incêndio rural,0,5,0,18,2025-10-11T01:45:00Z,Vinhais,Bragança,Norte,-6.965835,41.949908,Resolução/Conclusão
26120028,Pelariga,Região de Leiria,310,2025-10-11T09:26:00Z,26120028,Em Resolução/Conclusão,3111,Queima,0,1,0,5,2025-10-11T09:26:00Z,Pombal,Leiria,Centro,-8.581441,39.94881,Resolução/Conclusão
26119150,Prado (São Miguel),Cávado,309,2025-10-11T01:42:00Z,26119150,Em Resolução/Conclusão,3103,Incêndio rural,0,5,0,13,2025-10-11T01:42:00Z,Vila Verde,Braga,Norte,-8.437767,41.6985,Resolução/Conclusão
26115854,Gralhas,Alto Tâmega e Barroso,309,2025-10-10T12:13:00Z,26115854,Em Resolução/Conclusão,3103,Incêndio rural,0,19,0,49,2025-10-10T12:13:00Z,Montalegre,Vila Real,Norte,-7.72346,41.854762,Resolução/Conclusão
26119509,São Gens,Ave,309,2025-10-11T06:41:00Z,26119509,Em Resolução/Conclusão,3103,Incêndio rural,0,6,0,23,2025-10-11T06:41:00Z,Fafe,Braga,Norte,-8.117385,41.44606,Resolução/Conclusão
26119614,Estorãos,Ave,309,2025-10-11T07:43:00Z,26119614,Em Resolução/Conclusão,3103,Incêndio rural,0,4,0,16,2025-10-11T07:43:00Z,Fafe,Braga,Norte,-8.127398,41.495262,Resolução/Conclusão
26120033,Buarcos,Região de Coimbra,310,2025-10-11T09:25:00Z,26120033,Em Resolução/Conclusão,3103,Incêndio rural,1,5,0,27,2025-10-11T09:25:00Z,Figueira Da Foz,Coimbra,Centro,-8.895155,40.1836,Resolução/Conclusão
