id,address,subregion,neighborhood,date,id.1,state,nature,nature_description,aerial_means,terrestrial_means,aquatic_means,operational,date.1,Concelho,Distrito,NUTII_DSG,longitude,latitude,state_2
25688392,Cabril,Região de Coimbra,310,2025-07-16T18:47:00Z,25688392,Em Resolução/Conclusão,3101,Incêndio rural,0,1,0,5,2025-07-16T18:47:00Z,Pampilhosa Da Serra,Coimbra,Centro,-7.86944,40.06556,Resolução/Conclusão
25693533,Girabolhos,Beiras e Serra da Estrela,310,2025-07-17T19:03:00Z,25693533,Em Resolução/Conclusão,3103,Incêndio rural,0,9,0,31,2025-07-17T19:03:00Z,Seia,Guarda,Centro,-7.73881,40.498453,Resolução/Conclusão
25693547,Montijo e Afonsoeiro,Península de Setúbal,311,2025-07-17T19:06:00Z,25693547,Em Resolução/Conclusão,3105,Incêndio rural,0,5,0,19,2025-07-17T19:06:00Z,Montijo,Setúbal,Área Metropolitana De Lisboa,-8.95012,38.714865,Resolução/Conclusão
25693706,Romariz,Area M. Porto,309,2025-07-17T19:46:00Z,25693706,Em Resolução/Conclusão,3103,Incêndio rural,0,1,0,5,2025-07-17T19:46:00Z,Santa Maria Da Feira,Aveiro,Norte,-8.461832,40.93452,Resolução/Conclusão
25693783,Faro (Sé e São Pedro),Algarve,313,2025-07-17T20:05:00Z,25693783,Em Resolução/Conclusão,3103,Incêndio rural,0,3,0,7,2025-07-17T20:05:00Z,Faro,Faro,Algarve,-7.942032,37.01865,Resolução/Conclusão
25687827,Rochoso e Monte Margarida,Beiras e Serra da Estrela,310,2025-07-16T16:35:00Z,25687827,Em Resolução/Conclusão,3103,Incêndio rural,0,12,0,46,2025-07-16T16:35:00Z,Guarda,Guarda,Centro,-7.106608,40.527017,Resolução/Conclusão
25689484,Andrães,Douro,309,2025-07-16T23:49:00Z,25689484,Em Resolução/Conclusão,3103,Incêndio rural,0,5,0,15,2025-07-16T23:49:00Z,Vila Real,Vila Real,Norte,-7.668872,41.241568,Resolução/Conclusão
25692759,Póvoa de Rio de Moinhos e Cafede,Beira Baixa,310,2025-07-17T16:10:00Z,25692759,Em Resolução/Conclusão,3105,Incêndio rural,0,2,0,7,2025-07-17T16:10:00Z,Castelo Branco,Castelo Branco,Centro,-7.507702,39.933293,Resolução/Conclusão
25693392,Faro (Sé e São Pedro),Algarve,313,2025-07-17T18:27:00Z,25693392,Em Resolução/Conclusão,3103,Incêndio rural,0,4,0,14,2025-07-17T18:27:00Z,Faro,Faro,Algarve,-7.939748,37.033063,Resolução/Conclusão
25692562,Atouguia,Médio Tejo,311,2025-07-17T15:31:00Z,25692562,Em Resolução/Conclusão,3103,Incêndio rural,0,26,0,95,2025-07-17T15:31:00Z,Ourém,Santarém,Centro,-8.62029,39.654072,Resolução/Conclusão
25692637,Alvarenga,Area M. Porto,309,2025-07-17T15:37:00Z,25692637,Em Resolução/Conclusão,3103,Incêndio rural,0,2,0,7,2025-07-17T15:37:00Z,Arouca,Aveiro,Norte,-8.168908,40.977443,Resolução/Conclusão
25692814,"Espírito Santo, Nossa Senhora da Graça e São Simão",Alto Alentejo,312,2025-07-17T16:23:00Z,25692814,Em Resolução/Conclusão,3103,Incêndio rural,0,23,0,80,2025-07-17T16:23:00Z,Nisa,Portalegre,Alentejo,-7.635642,39.486993,Resolução/Conclusão
25693046,Santo Aleixo,Alto Alentejo,312,2025-07-17T17:04:00Z,25693046,Em Resolução/Conclusão,3103,Incêndio rural,2,31,0,94,2025-07-17T17:04:00Z,Monforte,Portalegre,Alentejo,-7.397183,38.919233,Resolução/Conclusão
25693698,Gulpilhares e Valadares,Area M. Porto,309,2025-07-17T19:42:00Z,25693698,Em Resolução/Conclusão,3103,Incêndio rural,0,1,0,4,2025-07-17T19:42:00Z,Vila Nova De Gaia,Porto,Norte,-8.656558,41.071998,Resolução/Conclusão
25693766,Tornada e Salir do Porto,Oeste,311,2025-07-17T19:57:00Z,25693766,Em Despacho,3101,Incêndio rural,0,3,0,9,2025-07-17T19:57:00Z,Caldas Da Rainha,Leiria,Centro,-9.152249,39.470135,Despacho
25682254,Panque,Cávado,309,2025-07-15T15:31:00Z,25682254,Em Resolução/Conclusão,3101,Incêndio rural,0,1,0,5,2025-07-15T15:31:00Z,Barcelos,Braga,Norte,-8.607035,41.626113,Resolução/Conclusão
25682641,São Bento,Região de Leiria,310,2025-07-15T16:44:00Z,25682641,Em Resolução/Conclusão,3101,Incêndio rural,0,0,0,0,2025-07-15T16:44:00Z,Porto De Mós,Leiria,Centro,-8.746525,39.524688,Resolução/Conclusão
25686799,Souto Maior,Douro,309,2025-07-16T13:19:00Z,25686799,Em Resolução/Conclusão,3101,Incêndio rural,2,82,0,246,2025-07-16T13:19:00Z,Sabrosa,Vila Real,Norte,-7.57839,41.287518,Resolução/Conclusão
25691716,Peva e Segões,Douro,309,2025-07-17T12:55:00Z,25691716,Em Resolução/Conclusão,3103,Incêndio rural,0,0,0,0,2025-07-17T12:55:00Z,Moimenta Da Beira,Viseu,Norte,-7.690854,40.87186,Resolução/Conclusão
25692617,Mairos,Alto Tâmega e Barroso,309,2025-07-17T15:38:00Z,25692617,Em Resolução/Conclusão,3101,Incêndio rural,0,4,0,19,2025-07-17T15:38:00Z,Chaves,Vila Real,Norte,-7.316337,41.821573,Resolução/Conclusão
25693618,Trancoso (São Pedro e Santa Maria) e Souto Maior,Beiras e Serra da Estrela,310,2025-07-17T19:22:00Z,25693618,Em Resolução/Conclusão,3105,Incêndio rural,0,9,0,31,2025-07-17T19:22:00Z,Trancoso,Guarda,Centro,-7.36276,40.774855,Resolução/Conclusão
25693770,Malagueira e Horta Das Figueiras,Alentejo Central,312,2025-07-17T20:05:00Z,25693770,Em Despacho,3103,Incêndio rural,0,3,0,11,2025-07-17T20:05:00Z,Évora,Évora,Alentejo,-7.889814,38.55883,Despacho
