id,address,subregion,neighborhood,date,id.1,state,nature,nature_description,aerial_means,terrestrial_means,aquatic_means,operational,date.1,Concelho,Distrito,NUTII_DSG,longitude,latitude,state_2
26100473,Rebordosa,Area M. Porto,309,2025-10-07T10:23:00Z,26100473,Em Resolução/Conclusão,3103,Incêndio rural,0,1,0,5,2025-10-07T10:23:00Z,Paredes,Porto,Norte,-8.386263,41.222687,Resolução/Conclusão
26100537,"Bigorne, Magueija e Pretarouca",Douro,309,2025-10-07T10:39:00Z,26100537,Em Resolução/Conclusão,3103,Incêndio rural,1,3,0,21,2025-10-07T10:39:00Z,Lamego,Viseu,Norte,-7.873312,41.052443,Resolução/Conclusão
26093602,Castro Daire,Viseu Dão Lafões,310,2025-10-05T22:05:00Z,26093602,Em Resolução/Conclusão,3103,Incêndio rural,0,5,0,18,2025-10-05T22:05:00Z,Castro Daire,Viseu,Centro,-7.9408,40.925289,Resolução/Conclusão
26093991,Santa Comba,Beiras e Serra da Estrela,310,2025-10-06T01:09:00Z,26093991,Em Resolução/Conclusão,3101,Incêndio rural,0,1,0,5,2025-10-06T01:09:00Z,Seia,Guarda,Centro,-7.745905,40.442718,Resolução/Conclusão
26096901,"Geraz do Lima (S.maria, S.leocádia, Moreira), Deão",Alto Minho,309,2025-10-06T14:44:00Z,26096901,Em Resolução/Conclusão,3103,Incêndio rural,0,3,0,7,2025-10-06T14:44:00Z,Viana Do Castelo,Viana Do Castelo,Norte,-8.674877,41.687823,Resolução/Conclusão
26097250,Rocas do Vouga,Região de Aveiro,310,2025-10-06T15:45:00Z,26097250,Em Resolução/Conclusão,3101,Incêndio rural,0,1,0,5,2025-10-06T15:45:00Z,Sever Do Vouga,Aveiro,Centro,-8.346582,40.74071,Resolução/Conclusão
26100442,Penhalonga e Paços de Gaiolo,Tâmega e Sousa,309,2025-10-07T10:20:00Z,26100442,Em Resolução/Conclusão,3103,Incêndio rural,0,1,0,5,2025-10-07T10:20:00Z,Marco De Canaveses,Porto,Norte,-8.135337,41.115498,Resolução/Conclusão
26100510,Santiago da Ribeira de Alhariz,Alto Tâmega e Barroso,309,2025-10-07T10:33:00Z,26100510,Em Resolução/Conclusão,3105,Incêndio rural,0,1,0,5,2025-10-07T10:33:00Z,Valpaços,Vila Real,Norte,-7.42778,41.630182,Resolução/Conclusão
