id,address,subregion,neighborhood,date,id.1,state,nature,nature_description,aerial_means,terrestrial_means,aquatic_means,operational,date.1,Concelho,Distrito,NUTII_DSG,longitude,latitude,state_2
25965123,Azeitão (São Lourenço e São Simão),Península de Setúbal,311,2025-09-09T11:08:00Z,25965123,Em Curso,3103,Incêndio rural,0,2,0,10,2025-09-09T11:08:00Z,Setúbal,Setúbal,Área Metropolitana De Lisboa,-9.03564,38.51268,Curso
25951176,Sandomil,Beiras e Serra da Estrela,310,2025-09-06T10:29:00Z,25951176,Em Resolução/Conclusão,3103,Incêndio rural,0,17,0,59,2025-09-06T10:29:00Z,Seia,Guarda,Centro,-7.76001,40.351547,Resolução/Conclusão
25961053,Santo António de Monforte,Alto Tâmega e Barroso,309,2025-09-08T13:20:00Z,25961053,Em Resolução/Conclusão,3103,Incêndio rural,1,63,0,182,2025-09-08T13:20:00Z,Chaves,Vila Real,Norte,-7.339083,41.787585,Resolução/Conclusão
25962908,Vale da Porca,Terras de Trás-os-Montes,309,2025-09-08T20:13:00Z,25962908,Em Resolução/Conclusão,3103,Incêndio rural,0,9,0,24,2025-09-08T20:13:00Z,Macedo De Cavaleiros,Bragança,Norte,-6.873435,41.529718,Resolução/Conclusão
25964393,Azias,Alto Minho,309,2025-09-09T08:57:00Z,25964393,Em Resolução/Conclusão,3103,Incêndio rural,0,0,0,0,2025-09-09T08:57:00Z,Ponte Da Barca,Viana Do Castelo,Norte,-8.356365,41.768452,Resolução/Conclusão
25952858,Figueira de Castelo Rodrigo,Beiras e Serra da Estrela,310,2025-09-06T16:22:00Z,25952858,Em Resolução/Conclusão,3103,Incêndio rural,0,4,0,17,2025-09-06T16:22:00Z,Figueira De Castelo Rodrigo,Guarda,Centro,-6.934648,40.906778,Resolução/Conclusão
25832672,Piódão,Região de Coimbra,310,2025-08-13T05:08:00Z,25832672,Em Resolução/Conclusão,3103,Incêndio rural,0,14,0,41,2025-08-13T05:08:00Z,Arganil,Coimbra,Centro,-7.81972,40.23083,Resolução/Conclusão
25840417,Lousã e Vilarinho,Região de Coimbra,310,2025-08-14T13:46:00Z,25840417,Em Resolução/Conclusão,3101,Incêndio rural,0,1,0,4,2025-08-14T13:46:00Z,Lousã,Coimbra,Centro,-8.201561,40.080016,Resolução/Conclusão
25965184,Pousaflores,Região de Leiria,310,2025-09-09T11:20:00Z,25965184,Em Resolução/Conclusão,3105,Incêndio rural,0,6,0,24,2025-09-09T11:20:00Z,Ansião,Leiria,Centro,-8.448902,39.873517,Resolução/Conclusão
