id,address,subregion,neighborhood,date,id.1,state,nature,nature_description,aerial_means,terrestrial_means,aquatic_means,operational,date.1,Concelho,Distrito,NUTII_DSG,longitude,latitude,state_2
25688392,Cabril,Região de Coimbra,310,2025-07-16T18:47:00Z,25688392,Em Resolução/Conclusão,3101,Incêndio rural,0,5,0,15,2025-07-16T18:47:00Z,Pampilhosa Da Serra,Coimbra,Centro,-7.86944,40.06556,Resolução/Conclusão
25692138,"Canedo, Vale e Vila Maior",Area M. Porto,309,2025-07-17T14:14:00Z,25692138,Em Resolução/Conclusão,3103,Incêndio rural,0,5,0,19,2025-07-17T14:14:00Z,Santa Maria Da Feira,Aveiro,Norte,-8.464653,41.044543,Resolução/Conclusão
25692202,Lustosa e Barrosas (Santo Estêvão),Tâmega e Sousa,309,2025-07-17T14:25:00Z,25692202,Em Resolução/Conclusão,3103,Incêndio rural,0,1,0,5,2025-07-17T14:25:00Z,Lousada,Porto,Norte,-8.325394,41.34307,Resolução/Conclusão
25692211,Figueiró,Tâmega e Sousa,309,2025-07-17T14:19:00Z,25692211,Em Resolução/Conclusão,3105,Incêndio rural,0,4,0,11,2025-07-17T14:19:00Z,Paços De Ferreira,Porto,Norte,-8.334348,41.304818,Resolução/Conclusão
25687827,Rochoso e Monte Margarida,Beiras e Serra da Estrela,310,2025-07-16T16:35:00Z,25687827,Em Resolução/Conclusão,3103,Incêndio rural,0,13,0,48,2025-07-16T16:35:00Z,Guarda,Guarda,Centro,-7.106608,40.527017,Resolução/Conclusão
25688580,São Martinho,Alentejo Litoral,312,2025-07-16T19:33:00Z,25688580,Em Resolução/Conclusão,3103,Incêndio rural,0,0,0,0,2025-07-16T19:33:00Z,Alcácer Do Sal,Setúbal,Alentejo,-8.521302,38.426643,Resolução/Conclusão
25689484,Andrães,Douro,309,2025-07-16T23:49:00Z,25689484,Em Resolução/Conclusão,3103,Incêndio rural,0,8,0,26,2025-07-16T23:49:00Z,Vila Real,Vila Real,Norte,-7.668872,41.241568,Resolução/Conclusão
25691805,Canelas,Area M. Porto,309,2025-07-17T13:10:00Z,25691805,Em Resolução/Conclusão,3101,Incêndio rural,0,2,0,7,2025-07-17T13:10:00Z,Vila Nova De Gaia,Porto,Norte,-8.599603,41.079376,Resolução/Conclusão
25692005,Sopo,Alto Minho,309,2025-07-17T13:50:00Z,25692005,Em Resolução/Conclusão,3103,Incêndio rural,0,2,0,7,2025-07-17T13:50:00Z,Vila Nova De Cerveira,Viana Do Castelo,Norte,-8.7251,41.911627,Resolução/Conclusão
25692141,Fornelos,Tâmega e Sousa,309,2025-07-17T14:15:00Z,25692141,Em Resolução/Conclusão,3103,Incêndio rural,0,4,0,14,2025-07-17T14:15:00Z,Cinfães,Viseu,Norte,-8.220575,41.025627,Resolução/Conclusão
25692205,Pardilhó,Região de Aveiro,310,2025-07-17T14:26:00Z,25692205,Em Resolução/Conclusão,3105,Incêndio rural,0,5,0,18,2025-07-17T14:26:00Z,Estarreja,Aveiro,Centro,-8.609417,40.803007,Resolução/Conclusão
25692303,Abrantes (São Vicente e São João) e Alferrarede,Médio Tejo,311,2025-07-17T14:41:00Z,25692303,Em Resolução/Conclusão,3103,Incêndio rural,2,20,0,83,2025-07-17T14:41:00Z,Abrantes,Santarém,Centro,-8.195112,39.499466,Resolução/Conclusão
25692562,Atouguia,Médio Tejo,311,2025-07-17T15:31:00Z,25692562,Em Curso,3103,Incêndio rural,2,19,0,84,2025-07-17T15:31:00Z,Ourém,Santarém,Centro,-8.637747,39.670759,Curso
25692637,Alvarenga,Area M. Porto,309,2025-07-17T15:37:00Z,25692637,Em Despacho,3103,Incêndio rural,1,2,0,13,2025-07-17T15:37:00Z,Arouca,Aveiro,Norte,-8.172332,40.966861,Despacho
25682254,Panque,Cávado,309,2025-07-15T15:31:00Z,25682254,Em Resolução/Conclusão,3101,Incêndio rural,0,1,0,5,2025-07-15T15:31:00Z,Barcelos,Braga,Norte,-8.607035,41.626113,Resolução/Conclusão
25682641,São Bento,Região de Leiria,310,2025-07-15T16:44:00Z,25682641,Em Resolução/Conclusão,3101,Incêndio rural,0,2,0,7,2025-07-15T16:44:00Z,Porto De Mós,Leiria,Centro,-8.746525,39.524688,Resolução/Conclusão
25683057,Messejana,Baixo Alentejo,312,2025-07-15T18:10:00Z,25683057,Em Resolução/Conclusão,3101,Incêndio rural,0,0,0,0,2025-07-15T18:10:00Z,Aljustrel,Beja,Alentejo,-8.253787,37.845618,Resolução/Conclusão
25686799,Souto Maior,Douro,309,2025-07-16T13:19:00Z,25686799,Em Resolução/Conclusão,3101,Incêndio rural,7,98,0,307,2025-07-16T13:19:00Z,Sabrosa,Vila Real,Norte,-7.57839,41.287518,Resolução/Conclusão
25691716,Peva e Segões,Douro,309,2025-07-17T12:55:00Z,25691716,Em Resolução/Conclusão,3103,Incêndio rural,0,4,0,17,2025-07-17T12:55:00Z,Moimenta Da Beira,Viseu,Norte,-7.690854,40.87186,Resolução/Conclusão
25691996,Cepelos,Area M. Porto,309,2025-07-17T13:43:00Z,25691996,Em Resolução/Conclusão,3103,Incêndio rural,0,2,0,6,2025-07-17T13:43:00Z,Vale De Cambra,Aveiro,Norte,-8.352935,40.827617,Resolução/Conclusão
25692374,"Aboim, Felgueiras, Gontim e Pedraído",Ave,309,2025-07-17T14:54:00Z,25692374,Em Resolução/Conclusão,3103,Incêndio rural,0,1,0,5,2025-07-17T14:54:00Z,Fafe,Braga,Norte,-8.076135,41.532413,Resolução/Conclusão
25692617,Mairos,Alto Tâmega e Barroso,309,2025-07-17T15:38:00Z,25692617,Em Despacho,3103,Incêndio rural,1,5,0,30,2025-07-17T15:38:00Z,Chaves,Vila Real,Norte,-7.345952,41.824055,Despacho
25692618,Conceição e Estoi,Algarve,313,2025-07-17T15:38:00Z,25692618,Em Despacho,3103,Incêndio rural,0,5,0,18,2025-07-17T15:38:00Z,Faro,Faro,Algarve,-7.89434,37.09305,Despacho
