id,address,subregion,neighborhood,date,id.1,state,nature,nature_description,aerial_means,terrestrial_means,aquatic_means,operational,date.1,Concelho,Distrito,NUTII_DSG,longitude,latitude,state_2
25647385,Castelo Novo,Beiras e Serra da Estrela,310,2025-07-08T15:11:00Z,25647385,Em Resolução/Conclusão,3103,Incêndio rural,0,3,0,10,2025-07-08T15:11:00Z,Fundão,Castelo Branco,Centro,-7.447838,40.023465,Resolução/Conclusão
25650962,Castedo e Cotas,Douro,309,2025-07-09T10:04:00Z,25650962,Em Resolução/Conclusão,3103,Incêndio rural,0,4,0,13,2025-07-09T10:04:00Z,Alijó,Vila Real,Norte,-7.459645,41.212807,Resolução/Conclusão
25651179,Gançaria,Lezíria do Tejo,311,2025-07-09T10:39:00Z,25651179,Em Resolução/Conclusão,3101,Incêndio rural,0,1,0,5,2025-07-09T10:39:00Z,Santarém,Santarém,Alentejo,-8.888905,39.403696,Resolução/Conclusão
25651828,Alfena,Area M. Porto,309,2025-07-09T12:32:00Z,25651828,Em Resolução/Conclusão,3103,Incêndio rural,1,4,0,19,2025-07-09T12:32:00Z,Valongo,Porto,Norte,-8.525157,41.225625,Resolução/Conclusão
25651931,Carregosa,Area M. Porto,309,2025-07-09T12:50:00Z,25651931,Em Resolução/Conclusão,3105,Incêndio rural,0,0,0,0,2025-07-09T12:50:00Z,Oliveira De Azeméis,Aveiro,Norte,-8.41843,40.901713,Resolução/Conclusão
25652015,Paços de Ferreira,Tâmega e Sousa,309,2025-07-09T13:15:00Z,25652015,Em Resolução/Conclusão,3105,Incêndio rural,0,1,0,5,2025-07-09T13:15:00Z,Paços De Ferreira,Porto,Norte,-8.38098,41.25945,Resolução/Conclusão
25646735,Campelo e Ovil,Tâmega e Sousa,309,2025-07-08T13:19:00Z,25646735,Em Resolução/Conclusão,3105,Incêndio rural,0,6,0,22,2025-07-08T13:19:00Z,Baião,Porto,Norte,-8.00404,41.193612,Resolução/Conclusão
25649913,Travanca,Tâmega e Sousa,309,2025-07-09T03:31:00Z,25649913,Em Resolução/Conclusão,3103,Incêndio rural,0,1,0,4,2025-07-09T03:31:00Z,Cinfães,Viseu,Norte,-8.219175,41.043948,Resolução/Conclusão
25651767,Lousã e Vilarinho,Região de Coimbra,310,2025-07-09T12:18:00Z,25651767,Em Resolução/Conclusão,3103,Incêndio rural,0,1,0,2,2025-07-09T12:18:00Z,Lousã,Coimbra,Centro,-8.24861,40.14028,Resolução/Conclusão
25652269,Beja (Salvador e Santa Maria da Feira),Baixo Alentejo,312,2025-07-09T13:57:00Z,25652269,Em Resolução/Conclusão,3103,Incêndio rural,0,2,0,7,2025-07-09T13:57:00Z,Beja,Beja,Alentejo,-7.857487,38.018587,Resolução/Conclusão
25652369,Mafamude e Vilar do Paraíso,Area M. Porto,309,2025-07-09T14:09:00Z,25652369,Em Resolução/Conclusão,3103,Incêndio rural,0,1,0,5,2025-07-09T14:09:00Z,Vila Nova De Gaia,Porto,Norte,-8.593583,41.101565,Resolução/Conclusão
25652415,Cruz,Ave,309,2025-07-09T14:24:00Z,25652415,Em Resolução/Conclusão,3103,Incêndio rural,0,3,0,15,2025-07-09T14:24:00Z,Vila Nova De Famalicão,Braga,Norte,-8.495552,41.440794,Resolução/Conclusão
25652447,Landal,Oeste,311,2025-07-09T14:27:00Z,25652447,Em Curso,3101,Incêndio rural,1,11,0,41,2025-07-09T14:27:00Z,Caldas Da Rainha,Leiria,Centro,-9.014505,39.294287,Curso
25652533,Rio Maior,Lezíria do Tejo,311,2025-07-09T14:45:00Z,25652533,Em Despacho,3103,Incêndio rural,1,5,0,28,2025-07-09T14:45:00Z,Rio Maior,Santarém,Alentejo,-8.981679,39.299475,Despacho
25646909,Nespereira,Tâmega e Sousa,309,2025-07-08T13:53:00Z,25646909,Em Resolução/Conclusão,3103,Incêndio rural,0,40,0,131,2025-07-08T13:53:00Z,Cinfães,Viseu,Norte,-8.122663,40.996095,Resolução/Conclusão
25649968,Pussos São Pedro,Região de Leiria,310,2025-07-09T04:38:00Z,25649968,Em Resolução/Conclusão,3103,Incêndio rural,0,3,0,7,2025-07-09T04:38:00Z,Alvaiázere,Leiria,Centro,-8.334062,39.841006,Resolução/Conclusão
25651034,"Aboim, Felgueiras, Gontim e Pedraído",Ave,309,2025-07-09T10:13:00Z,25651034,Em Resolução/Conclusão,3103,Incêndio rural,0,10,0,40,2025-07-09T10:13:00Z,Fafe,Braga,Norte,-8.097062,41.504728,Resolução/Conclusão
25651854,Santo António de Monforte,Alto Tâmega e Barroso,309,2025-07-09T12:39:00Z,25651854,Em Resolução/Conclusão,3103,Incêndio rural,0,12,0,43,2025-07-09T12:39:00Z,Chaves,Vila Real,Norte,-7.38141,41.794737,Resolução/Conclusão
25651970,Lousã e Vilarinho,Região de Coimbra,310,2025-07-09T13:02:00Z,25651970,Em Resolução/Conclusão,3105,Incêndio rural,0,13,0,45,2025-07-09T13:02:00Z,Lousã,Coimbra,Centro,-8.258201,40.115269,Resolução/Conclusão
25652020,Faro (Sé e São Pedro),Algarve,313,2025-07-09T13:10:00Z,25652020,Em Resolução/Conclusão,3103,Incêndio rural,0,0,0,0,2025-07-09T13:10:00Z,Faro,Faro,Algarve,-7.942032,37.01865,Resolução/Conclusão
25644630,Recezinhos (São Mamede),Tâmega e Sousa,309,2025-07-08T04:33:00Z,25644630,Em Resolução/Conclusão,3103,Incêndio rural,0,4,0,14,2025-07-08T04:33:00Z,Penafiel,Porto,Norte,-8.216673,41.2387,Resolução/Conclusão
25645409,Terena (São Pedro),Alentejo Central,312,2025-07-08T09:22:00Z,25645409,Em Resolução/Conclusão,3103,Incêndio rural,0,90,0,245,2025-07-08T09:22:00Z,Alandroal,Évora,Alentejo,-7.410956,38.623883,Resolução/Conclusão
25647106,Tortosendo,Beiras e Serra da Estrela,310,2025-07-08T14:25:00Z,25647106,Em Resolução/Conclusão,3103,Incêndio rural,0,2,0,7,2025-07-08T14:25:00Z,Covilhã,Castelo Branco,Centro,-7.508533,40.223705,Resolução/Conclusão
25649987,Pedrógão Pequeno,Beira Baixa,310,2025-07-09T05:02:00Z,25649987,Em Resolução/Conclusão,3101,Incêndio rural,0,1,0,5,2025-07-09T05:02:00Z,Sertã,Castelo Branco,Centro,-8.110455,39.900822,Resolução/Conclusão
25651516,Penafiel,Tâmega e Sousa,309,2025-07-09T11:36:00Z,25651516,Em Resolução/Conclusão,3103,Incêndio rural,0,2,0,6,2025-07-09T11:36:00Z,Penafiel,Porto,Norte,-8.263833,41.203645,Resolução/Conclusão
25652307,Lufrei,Tâmega e Sousa,309,2025-07-09T14:06:00Z,25652307,Em Resolução/Conclusão,3103,Incêndio rural,0,5,0,22,2025-07-09T14:06:00Z,Amarante,Porto,Norte,-8.060562,41.280407,Resolução/Conclusão
25652538,Landim,Ave,309,2025-07-09T14:46:00Z,25652538,Em Despacho,3103,Incêndio rural,0,3,0,15,2025-07-09T14:46:00Z,Vila Nova De Famalicão,Braga,Norte,-8.461502,41.385198,Despacho
25652227,"Real, Dume e Semelhe",Cávado,309,2025-07-09T13:49:00Z,25652227,Em Resolução/Conclusão,3105,Incêndio rural,0,2,0,8,2025-07-09T13:49:00Z,Braga,Braga,Norte,-8.438852,41.565042,Resolução/Conclusão
25652275,São João de Lourosa,Viseu Dão Lafões,310,2025-07-09T13:59:00Z,25652275,Em Resolução/Conclusão,3103,Incêndio rural,1,11,0,42,2025-07-09T13:59:00Z,Celorico Da Beira,Guarda,Centro,-7.434252,40.594713,Resolução/Conclusão
25652461,"Santa Iria de Azoia, São João da Talha e Bobadela",Grande Lisboa,311,2025-07-09T14:29:00Z,25652461,Em Despacho,3103,Incêndio rural,0,2,0,7,2025-07-09T14:29:00Z,Loures,Lisboa,Área Metropolitana De Lisboa,-9.098065,38.824783,Despacho
