id,address,subregion,neighborhood,date,id.1,state,nature,nature_description,aerial_means,terrestrial_means,aquatic_means,operational,date.1,Concelho,Distrito,NUTII_DSG,longitude,latitude,state_2
26321507,Serpa (Salvador e Santa Maria),Baixo Alentejo,312,2025-11-21T16:34:00Z,26321507,Em Resolução/Conclusão,3105,Incêndio rural,0,0,0,0,2025-11-21T16:34:00Z,Serpa,Beja,Alentejo,-7.495407,37.832828,Resolução/Conclusão
26321662,Gesteira e Brunhós,Região de Coimbra,310,2025-11-21T17:12:00Z,26321662,Em Resolução/Conclusão,3111,Queima,0,3,0,7,2025-11-21T17:12:00Z,Soure,Coimbra,Centro,-8.6675,40.08194,Resolução/Conclusão
26321855,Outeiro,Alto Minho,309,2025-11-21T17:48:00Z,26321855,Em Resolução/Conclusão,3103,Incêndio rural,0,2,0,8,2025-11-21T17:48:00Z,Viana Do Castelo,Viana Do Castelo,Norte,-8.788156,41.761011,Resolução/Conclusão
26321919,São João de Negrilhos,Baixo Alentejo,312,2025-11-21T18:10:00Z,26321919,Em Despacho,3105,Incêndio rural,0,2,0,7,2025-11-21T18:10:00Z,Aljustrel,Beja,Alentejo,-8.252401,37.96678,Despacho
26321980,Vila Nova de Cacela,Algarve,313,2025-11-21T18:18:00Z,26321980,Em Despacho,3103,Incêndio rural,0,2,0,7,2025-11-21T18:18:00Z,Vila Real De Santo António,Faro,Algarve,-7.550997,37.164251,Despacho
