id,address,subregion,neighborhood,date,id.1,state,nature,nature_description,aerial_means,terrestrial_means,aquatic_means,operational,date.1,Concelho,Distrito,NUTII_DSG,longitude,latitude
25068300,Almeirim,Lezíria do Tejo,311,2025-03-10T20:52:00Z,25068300,Em curso,1101,Cheia,0,0,0,0,2025-03-10T20:52:00Z,Almeirim,Santarém,Alentejo,-8.635002,39.187436
25109482,Algueirão-Mem Martins,Grande Lisboa,311,2025-03-19T13:55:00Z,25109482,Em despacho,3329,Queda de estruturas temporárias ou móveis,0,1,0,2,2025-03-19T13:55:00Z,Sintra,Lisboa,Área Metropolitana De Lisboa,-9.340934,38.801232
25109730,Cela,Oeste,311,2025-03-19T14:44:00Z,25109730,Em conclusão,3301,Queda de árvore,0,2,0,6,2025-03-19T14:44:00Z,Alcobaça,Leiria,Centro,-9.047246,39.526851
25110225,"Ovar, São João, Arada e São Vicente de Pereira Jusã",Região de Aveiro,310,2025-03-19T16:18:00Z,25110225,Em conclusão,3301,Queda de árvore,0,3,0,10,2025-03-19T16:18:00Z,Ovar,Aveiro,Centro,-8.55821,40.86796
25110427,Foz de Arouce e Casal de Ermio,Região de Coimbra,310,2025-03-19T16:59:00Z,25110427,Em despacho,3301,Queda de árvore,0,1,0,3,2025-03-19T16:59:00Z,Lousã,Coimbra,Centro,-8.275534,40.18715
25110532,Loulé (São Clemente),Algarve,313,2025-03-19T16:20:00Z,25110532,Em despacho,3317,Inundação de estruturas por água canalizada,0,1,0,2,2025-03-19T16:20:00Z,Loulé,Faro,Algarve,-8.018267,37.137687
25110577,Golegã,Lezíria do Tejo,311,2025-03-19T17:33:00Z,25110577,Em resolução,3301,Queda de árvore,0,1,0,5,2025-03-19T17:33:00Z,Golegã,Santarém,Alentejo,-8.4767690000000009,39.409014
25110602,Oliveira do Conde,Viseu Dão Lafões,310,2025-03-19T17:36:00Z,25110602,Em curso,3301,Queda de árvore,0,1,0,2,2025-03-19T17:36:00Z,Carregal Do Sal,Viseu,Centro,-7.978752,40.425565
25110632,Caldas da Rainha - Santo Onofre e Serra do Bouro,Oeste,311,2025-03-19T17:43:00Z,25110632,Em despacho,3317,Inundação de estruturas por água canalizada,0,1,0,2,2025-03-19T17:43:00Z,Caldas Da Rainha,Leiria,Centro,-9.148929,39.401713
25087162,Pedrógão,Baixo Alentejo,312,2025-03-14T17:00:00Z,25087162,Em curso,1101,Cheia,0,0,0,0,2025-03-14T17:00:00Z,Vidigueira,Beja,Alentejo,-7.630327,38.110775
25108988,"Alto do Seixalinho, Santo André e Verderena",Península de Setúbal,311,2025-03-19T12:45:00Z,25108988,Em despacho,3329,Queda de estruturas temporárias ou móveis,0,2,0,6,2025-03-19T12:45:00Z,Barreiro,Setúbal,Área Metropolitana De Lisboa,-9.056708,38.653969
25109867,Espinho,Região de Coimbra,310,2025-03-19T15:02:00Z,25109867,Em curso,3301,Queda de árvore,0,2,0,3,2025-03-19T15:02:00Z,Mortágua,Viseu,Centro,-8.295708,40.413843
25110001,Lousa,Grande Lisboa,311,2025-03-19T15:34:00Z,25110001,Em despacho,3301,Queda de árvore,0,1,0,1,2025-03-19T15:34:00Z,Loures,Lisboa,Área Metropolitana De Lisboa,-9.203808,38.888715
25110081,Vila Nova da Baronia,Baixo Alentejo,312,2025-03-19T15:46:00Z,25110081,Em conclusão,3301,Queda de árvore,0,0,0,0,2025-03-19T15:46:00Z,Alvito,Beja,Alentejo,-8.065497,38.224428
25110106,São Teotónio,Alentejo Litoral,312,2025-03-19T15:54:00Z,25110106,Em conclusão,3301,Queda de árvore,0,4,0,9,2025-03-19T15:54:00Z,Odemira,Beja,Alentejo,-8.807968,37.597892
25110131,Espinho,Area M. Porto,309,2025-03-19T15:57:00Z,25110131,Em curso,3311,Queda de elementos de estruturas edificados,0,2,0,5,2025-03-19T15:57:00Z,Espinho,Aveiro,Norte,-8.64903,41.00893
25110183,São Miguel de Poiares,Região de Coimbra,310,2025-03-19T15:50:00Z,25110183,Em despacho,3321,Dano na rede de fornecimento de eletricidade ,0,1,0,2,2025-03-19T15:50:00Z,Vila Nova De Poiares,Coimbra,Centro,-8.217696,40.214903
25063232,Santa Maria do Castelo e Santiago e Santa Susana,Alentejo Litoral,312,2025-03-09T19:02:00Z,25063232,Em curso,1101,Cheia,0,0,0,0,2025-03-09T19:02:00Z,Alcácer Do Sal,Setúbal,Alentejo,-8.48167,38.29806
25110245,Salto,Alto Tâmega e Barroso,309,2025-03-19T16:13:00Z,25110245,Em despacho,3317,Inundação de estruturas por água canalizada,0,1,0,5,2025-03-19T16:13:00Z,Montalegre,Vila Real,Norte,-7.986688,41.651086
25110295,Olaia e Paço,Médio Tejo,311,2025-03-19T16:30:00Z,25110295,Em curso,3301,Queda de árvore,0,3,0,5,2025-03-19T16:30:00Z,Torres Novas,Santarém,Centro,-8.513317,39.508212
25110345,Avanca,Região de Aveiro,310,2025-03-19T16:35:00Z,25110345,Em conclusão,3311,Queda de elementos de estruturas edificados,0,1,0,2,2025-03-19T16:35:00Z,Estarreja,Aveiro,Centro,-8.575154,40.804832
25110444,São João Das Lampas e Terrugem,Grande Lisboa,311,2025-03-19T16:34:00Z,25110444,Em despacho,3301,Queda de árvore,0,1,0,2,2025-03-19T16:34:00Z,Sintra,Lisboa,Área Metropolitana De Lisboa,-9.436253,38.869236
25110446,Souto da Carpalhosa e Ortigosa,Região de Leiria,310,2025-03-19T17:01:00Z,25110446,Em despacho,3301,Queda de árvore,0,1,0,4,2025-03-19T17:01:00Z,Leiria,Leiria,Centro,-8.830641,39.845383
25059714,Torrão,Alentejo Litoral,312,2025-03-08T22:10:00Z,25059714,Em curso,1101,Cheia,0,2,0,3,2025-03-08T22:10:00Z,Alcácer Do Sal,Setúbal,Alentejo,-8.359133,38.252053
25070044,Praia do Ribatejo,Médio Tejo,311,2025-03-10T19:30:00Z,25070044,Em curso,1101,Cheia,0,0,0,0,2025-03-10T19:30:00Z,Vila Nova Da Barquinha,Santarém,Centro,-8.357309,39.485638
25071496,São Manços e São Vicente do Pigeiro,Alentejo Central,312,2025-03-11T13:18:00Z,25071496,Em curso,1101,Cheia,0,2,0,4,2025-03-11T13:18:00Z,Évora,Évora,Alentejo,-7.713313,38.513673
25109169,Brinches,Baixo Alentejo,312,2025-03-19T13:13:00Z,25109169,Em resolução,3301,Queda de árvore,0,0,0,0,2025-03-19T13:13:00Z,Serpa,Beja,Alentejo,-7.609927,38.037268
25110137,Montargil,Alto Alentejo,312,2025-03-19T16:00:00Z,25110137,Em curso,3301,Queda de árvore,0,1,0,3,2025-03-19T16:00:00Z,Ponte De Sor,Portalegre,Alentejo,-8.167765,39.078287
25110471,"Braga (Maximinos, Sé e Cividade)",Cávado,309,2025-03-19T17:04:00Z,25110471,Em despacho,3329,Queda de estruturas temporárias ou móveis,0,2,0,5,2025-03-19T17:04:00Z,Braga,Braga,Norte,-8.436822,41.544605
25110506,Vidigueira,Baixo Alentejo,312,2025-03-19T17:14:00Z,25110506,Em despacho,3301,Queda de árvore,0,1,0,3,2025-03-19T17:14:00Z,Vidigueira,Beja,Alentejo,-7.803388,38.210941
25110520,Abrantes (São Vicente e São João) e Alferrarede,Médio Tejo,311,2025-03-19T17:21:00Z,25110520,Em conclusão,3321,Dano na rede de fornecimento de eletricidade ,0,1,0,2,2025-03-19T17:21:00Z,Abrantes,Santarém,Centro,-8.204377,39.482772
25110326,Chãos,Médio Tejo,311,2025-03-19T16:39:00Z,25110326,Em despacho,3301,Queda de árvore,0,1,0,2,2025-03-19T16:39:00Z,Ferreira Do Zêzere,Santarém,Centro,-8.397775,39.699476
25110474,Couço,Lezíria do Tejo,311,2025-03-19T17:11:00Z,25110474,Em conclusão,3301,Queda de árvore,0,2,0,7,2025-03-19T17:11:00Z,Coruche,Santarém,Alentejo,-8.2511,38.978828
25110510,Sesimbra (Santiago),Península de Setúbal,311,2025-03-19T17:13:00Z,25110510,Em despacho,3329,Queda de estruturas temporárias ou móveis,0,1,0,5,2025-03-19T17:13:00Z,Sesimbra,Setúbal,Área Metropolitana De Lisboa,-9.097261,38.445674
25110549,Oliveira do Douro,Area M. Porto,309,2025-03-19T17:13:00Z,25110549,Em despacho,3311,Queda de elementos de estruturas edificados,0,1,0,3,2025-03-19T17:13:00Z,Vila Nova De Gaia,Porto,Norte,-8.585272,41.125484
25110551,Loulé (São Clemente),Algarve,313,2025-03-19T17:27:00Z,25110551,Em conclusão,3301,Queda de árvore,0,1,0,5,2025-03-19T17:27:00Z,Loulé,Faro,Algarve,-8.018267,37.137687
25110567,Alcabideche,Grande Lisboa,311,2025-03-19T17:31:00Z,25110567,Em despacho,3301,Queda de árvore,0,1,0,5,2025-03-19T17:31:00Z,Cascais,Lisboa,Área Metropolitana De Lisboa,-9.444553,38.76254
25110573,Cantanhede e Pocariça,Região de Coimbra,310,2025-03-19T17:33:00Z,25110573,Em resolução,3321,Dano na rede de fornecimento de eletricidade ,0,3,0,8,2025-03-19T17:33:00Z,Cantanhede,Coimbra,Centro,-8.59414,40.35176
25110653,Colares,Grande Lisboa,311,2025-03-19T17:49:00Z,25110653,Em despacho,3321,Dano na rede de fornecimento de eletricidade ,0,1,0,5,2025-03-19T17:49:00Z,Sintra,Lisboa,Área Metropolitana De Lisboa,-9.445808,38.824992
25110547,Carcavelos e Parede,Grande Lisboa,311,2025-03-19T17:28:00Z,25110547,Em despacho,3301,Queda de árvore,0,1,0,2,2025-03-19T17:28:00Z,Cascais,Lisboa,Área Metropolitana De Lisboa,-9.36332,38.69388
25110614,Albufeira e Olhos de Água,Algarve,313,2025-03-19T17:29:00Z,25110614,Em despacho,3301,Queda de árvore,0,1,0,2,2025-03-19T17:29:00Z,Albufeira,Faro,Algarve,-8.252292,37.091727
25110615,Figueiró do Campo,Região de Coimbra,310,2025-03-19T17:40:00Z,25110615,Em despacho,3301,Queda de árvore,0,1,0,2,2025-03-19T17:40:00Z,Soure,Coimbra,Centro,-8.583767,40.14831
25110648,São José da Lamarosa,Lezíria do Tejo,311,2025-03-19T17:49:00Z,25110648,Em despacho,3301,Queda de árvore,0,3,0,4,2025-03-19T17:49:00Z,Coruche,Santarém,Alentejo,-8.464709,39.066108
25110601,Carcavelos e Parede,Grande Lisboa,311,2025-03-19T17:26:00Z,25110601,Em despacho,3301,Queda de árvore,0,1,0,1,2025-03-19T17:26:00Z,Cascais,Lisboa,Área Metropolitana De Lisboa,-9.355169,38.690219
25110649,"Pinheiro da Bemposta, Travanca e Palmaz",Area M. Porto,309,2025-03-19T17:30:00Z,25110649,Em curso,3301,Queda de árvore,0,1,0,2,2025-03-19T17:30:00Z,Oliveira De Azeméis,Aveiro,Norte,-8.458958,40.792613
