id,address,subregion,neighborhood,date,id.1,state,nature,nature_description,aerial_means,terrestrial_means,aquatic_means,operational,date.1,Concelho,Distrito,NUTII_DSG,longitude,latitude,state_2
25984495,São Salvador da Aramenha,Alto Alentejo,312,2025-09-13T13:28:00Z,25984495,Em Curso,3101,Incêndio rural,5,20,0,92,2025-09-13T13:28:00Z,Marvão,Portalegre,Alentejo,-7.383478,39.368624,Curso
25984614,Fânzeres e São Pedro da Cova,Area M. Porto,309,2025-09-13T13:55:00Z,25984614,Em Despacho,3103,Incêndio rural,0,1,0,4,2025-09-13T13:55:00Z,Gondomar,Porto,Norte,-8.534594,41.1659,Despacho
25951176,Sandomil,Beiras e Serra da Estrela,310,2025-09-06T10:29:00Z,25951176,Em Resolução/Conclusão,3103,Incêndio rural,0,15,0,52,2025-09-06T10:29:00Z,Seia,Guarda,Centro,-7.76001,40.351547,Resolução/Conclusão
25981808,"Avidagos, Navalho e Pereira",Terras de Trás-os-Montes,309,2025-09-12T20:38:00Z,25981808,Em Resolução/Conclusão,3103,Incêndio rural,0,2,0,7,2025-09-12T20:38:00Z,Mirandela,Bragança,Norte,-7.264448,41.359912,Resolução/Conclusão
25983781,Carrapichana,Beiras e Serra da Estrela,310,2025-09-13T10:35:00Z,25983781,Em Resolução/Conclusão,3103,Incêndio rural,0,4,0,14,2025-09-13T10:35:00Z,Celorico Da Beira,Guarda,Centro,-7.489677,40.56135,Resolução/Conclusão
25984700,Pinhal Novo,Península de Setúbal,311,2025-09-13T14:08:00Z,25984700,Em Despacho,3103,Incêndio rural,0,4,0,17,2025-09-13T14:08:00Z,Palmela,Setúbal,Área Metropolitana De Lisboa,-8.877096,38.614715,Despacho
25980131,Carva e Vilares,Douro,309,2025-09-12T14:27:00Z,25980131,Em Curso,3103,Incêndio rural,10,105,0,350,2025-09-12T14:27:00Z,Murça,Vila Real,Norte,-7.55901,41.401343,Curso
25980930,Santo André Das Tojeiras,Beira Baixa,310,2025-09-12T17:08:00Z,25980930,Em Resolução/Conclusão,3101,Incêndio rural,0,21,0,67,2025-09-12T17:08:00Z,Castelo Branco,Castelo Branco,Centro,-7.72701,39.809058,Resolução/Conclusão
25984607,Vascoveiro,Beiras e Serra da Estrela,310,2025-09-13T13:54:00Z,25984607,Em Resolução/Conclusão,3103,Incêndio rural,1,3,0,20,2025-09-13T13:54:00Z,Pinhel,Guarda,Centro,-7.069897,40.73346,Resolução/Conclusão
