id,address,subregion,neighborhood,date,id.1,state,nature,nature_description,aerial_means,terrestrial_means,aquatic_means,operational,date.1,Concelho,Distrito,NUTII_DSG,longitude,latitude
24877003,Malagueira e Horta Das Figueiras,Alentejo Central,312,2025-01-27T11:41:00Z,24877003,Em conclusão,3315,Inundação de estruturas por precipitação intensa,0,0,0,0,2025-01-27T11:41:00Z,Évora,Évora,Alentejo,-7.924277,38.57285
24929093,Chafé,Alto Minho,309,2025-02-07T18:16:00Z,24929093,Em despacho,3301,Queda de árvore,0,1,0,2,2025-02-07T18:16:00Z,Viana Do Castelo,Viana Do Castelo,Norte,-8.799022,41.645926
24928362,"S.maria, S.miguel, S.martinho, S.pedro Penaferrim",Grande Lisboa,311,2025-02-07T15:17:00Z,24928362,Em resolução,3301,Queda de árvore,0,2,0,4,2025-02-07T15:17:00Z,Sintra,Lisboa,Área Metropolitana De Lisboa,-9.387899,38.805813
24929015,Válega,Região de Aveiro,310,2025-02-07T18:08:00Z,24929015,Em curso,3321,Dano na rede de fornecimento de eletricidade ,0,1,0,4,2025-02-07T18:08:00Z,Ovar,Aveiro,Centro,-8.5614,40.85438
24929037,Corroios,Península de Setúbal,311,2025-02-07T18:01:00Z,24929037,Em curso,3321,Dano na rede de fornecimento de eletricidade ,0,2,0,5,2025-02-07T18:01:00Z,Seixal,Setúbal,Área Metropolitana De Lisboa,-9.15139,38.58
24929157,Alverca do Ribatejo e Sobralinho,Grande Lisboa,311,2025-02-07T18:35:00Z,24929157,Em despacho,3317,Inundação de estruturas por água canalizada,0,1,0,3,2025-02-07T18:35:00Z,Vila Franca De Xira,Lisboa,Área Metropolitana De Lisboa,-9.046012,38.896362
