id,address,subregion,neighborhood,date,id.1,state,nature,nature_description,aerial_means,terrestrial_means,aquatic_means,operational,date.1,Concelho,Distrito,NUTII_DSG,longitude,latitude
25519053,Pedroso e Seixezelo,Area M. Porto,309,2025-06-13T10:34:00Z,25519053,Em resolução,3103,Incêndio rural,0,4,0,14,2025-06-13T10:34:00Z,Vila Nova De Gaia,Porto,Norte,-8.55785,41.06333
25519419,Pechão,Algarve,313,2025-06-13T11:42:00Z,25519419,Em conclusão,2301,Incêndio em transporte rodoviário,0,4,0,8,2025-06-13T11:42:00Z,Olhão,Faro,Algarve,-7.864436,37.03562
25519646,Quinta do Conde,Península de Setúbal,311,2025-06-13T12:27:00Z,25519646,Em conclusão,2101,Incêndio em edifícios habitacionais,0,4,0,13,2025-06-13T12:27:00Z,Sesimbra,Setúbal,Área Metropolitana De Lisboa,-9.04561,38.5491
25519809,Santo Agostinho e São João Baptista e Santo Amador,Baixo Alentejo,312,2025-06-13T13:01:00Z,25519809,Em despacho,3105,Incêndio rural,0,3,0,12,2025-06-13T13:01:00Z,Moura,Beja,Alentejo,-7.40473,38.20139
25518902,Serra e Junceira,Médio Tejo,311,2025-06-13T10:13:00Z,25518902,Em despacho,3109,Gestão de combustível,0,1,0,1,2025-06-13T10:13:00Z,Tomar,Santarém,Centro,-8.275164,39.608725
25519681,Vau,Oeste,311,2025-06-13T12:35:00Z,25519681,Em curso,3103,Incêndio rural,0,5,0,19,2025-06-13T12:35:00Z,Óbidos,Leiria,Centro,-9.231928,39.398198
25519770,Samora Correia,Lezíria do Tejo,311,2025-06-13T12:53:00Z,25519770,Em curso,3203,Detritos confinados,0,2,0,7,2025-06-13T12:53:00Z,Benavente,Santarém,Alentejo,-8.847797,38.900448
25519183,"Lemenhe, Mouquim e Jesufrei",Ave,309,2025-06-13T10:52:00Z,25519183,Em conclusão,2101,Incêndio em edifícios habitacionais,0,2,0,5,2025-06-13T10:52:00Z,Vila Nova De Famalicão,Braga,Norte,-8.519555,41.447557
25519619,Nossa Senhora da Tourega e Nossa Senhora de Guadalupe,Alentejo Central,312,2025-06-13T12:20:00Z,25519619,Em conclusão,3103,Incêndio rural,1,6,0,29,2025-06-13T12:20:00Z,Évora,Évora,Alentejo,-8.011365,38.573067
25519767,Rebordelo,Terras de Trás-os-Montes,309,2025-06-13T12:51:00Z,25519767,Em resolução,3103,Incêndio rural,0,2,0,7,2025-06-13T12:51:00Z,Vinhais,Bragança,Norte,-7.164225,41.742539
