id,address,subregion,neighborhood,date,id.1,state,nature,nature_description,aerial_means,terrestrial_means,aquatic_means,operational,date.1,Concelho,Distrito,NUTII_DSG,longitude,latitude
25531750,"Querença, Tôr e Benafim",Algarve,313,2025-06-16T06:46:00Z,25531750,Em conclusão,3111,Queima,0,0,0,0,2025-06-16T06:46:00Z,Loulé,Faro,Algarve,-7.992045,37.212173
25525290,Selmes,Baixo Alentejo,312,2025-06-14T16:14:00Z,25525290,Em conclusão,3105,Incêndio rural,0,0,0,0,2025-06-14T16:14:00Z,Vidigueira,Beja,Alentejo,-7.724372,38.135682
25531376,Moreira,Area M. Porto,309,2025-06-16T00:55:00Z,25531376,Em conclusão,2127,"Incêndio em edifícios e recintos industriais, oficinas e armazéns",0,12,0,34,2025-06-16T00:55:00Z,Maia,Porto,Norte,-8.64631,41.257387
25531624,Ceivães e Badim,Alto Minho,309,2025-06-16T05:00:00Z,25531624,Em curso,3103,Incêndio rural,0,7,0,23,2025-06-16T05:00:00Z,Monção,Viana Do Castelo,Norte,-8.375257,42.073545
25531722,Lordelo do Ouro e Massarelos,Area M. Porto,309,2025-06-16T06:30:00Z,25531722,Em despacho,3201,Detritos não confinados,0,2,0,10,2025-06-16T06:30:00Z,Porto,Porto,Norte,-8.64946,41.15808
25531689,"Querença, Tôr e Benafim",Algarve,313,2025-06-16T06:05:00Z,25531689,Em conclusão,3103,Incêndio rural,0,2,0,10,2025-06-16T06:05:00Z,Loulé,Faro,Algarve,-7.992045,37.212173
