id,address,subregion,neighborhood,date,id.1,state,nature,nature_description,aerial_means,terrestrial_means,aquatic_means,operational,date.1,Concelho,Distrito,NUTII_DSG,longitude,latitude,state_2
25706882,Lustosa e Barrosas (Santo Estêvão),Tâmega e Sousa,309,2025-07-20T15:12:00Z,25706882,Em Despacho,3103,Incêndio rural,0,1,0,5,2025-07-20T15:12:00Z,Lousada,Porto,Norte,-8.321844,41.320582,Despacho
25706930,"Assunção, Ajuda, Salvador e Santo Ildefonso",Alto Alentejo,312,2025-07-20T15:18:00Z,25706930,Em Resolução/Conclusão,3105,Incêndio rural,0,6,0,24,2025-07-20T15:18:00Z,Elvas,Portalegre,Alentejo,-7.16295,38.829641,Resolução/Conclusão
25706952,"Raiva, Pedorido e Paraíso",Tâmega e Sousa,309,2025-07-20T15:25:00Z,25706952,Em Resolução/Conclusão,3103,Incêndio rural,0,7,0,26,2025-07-20T15:25:00Z,Castelo De Paiva,Aveiro,Norte,-8.317233,41.035013,Resolução/Conclusão
25686799,Souto Maior,Douro,309,2025-07-16T13:19:00Z,25686799,Em Resolução/Conclusão,3101,Incêndio rural,0,4,0,13,2025-07-16T13:19:00Z,Sabrosa,Vila Real,Norte,-7.57839,41.287518,Resolução/Conclusão
25706539,Melides,Alentejo Litoral,312,2025-07-20T13:45:00Z,25706539,Em Resolução/Conclusão,3101,Incêndio rural,0,5,0,13,2025-07-20T13:45:00Z,Grândola,Setúbal,Alentejo,-8.727294,38.16899,Resolução/Conclusão
25706620,Forno Telheiro,Beiras e Serra da Estrela,310,2025-07-20T14:06:00Z,25706620,Em Resolução/Conclusão,3103,Incêndio rural,0,6,0,24,2025-07-20T14:06:00Z,Celorico Da Beira,Guarda,Centro,-7.400468,40.6775,Resolução/Conclusão
25706840,Canelas e Fermelã,Região de Aveiro,310,2025-07-20T15:00:00Z,25706840,Em Resolução/Conclusão,3103,Incêndio rural,0,3,0,11,2025-07-20T15:00:00Z,Estarreja,Aveiro,Centro,-8.537475,40.697433,Resolução/Conclusão
25706871,Muxagata,Douro,309,2025-07-20T15:06:00Z,25706871,Em Curso,3103,Incêndio rural,1,5,0,25,2025-07-20T15:06:00Z,Vila Nova De Foz Côa,Guarda,Norte,-7.196442,41.046397,Curso
25707021,Envendos,Médio Tejo,311,2025-07-20T15:39:00Z,25707021,Em Despacho,3103,Incêndio rural,2,5,0,29,2025-07-20T15:39:00Z,Mação,Santarém,Centro,-7.873863,39.56647,Despacho
25707022,São Brás de Alportel,Algarve,313,2025-07-20T15:37:00Z,25707022,Em Curso,3103,Incêndio rural,1,5,0,24,2025-07-20T15:37:00Z,São Brás De Alportel,Faro,Algarve,-7.853969,37.13201,Curso
