id,address,subregion,neighborhood,date,id.1,state,nature,nature_description,aerial_means,terrestrial_means,aquatic_means,operational,date.1,Concelho,Distrito,NUTII_DSG,longitude,latitude,state_2
25845171,Pêra do Moço,Beiras e Serra da Estrela,310,2025-08-15T10:44:00Z,25845171,Em Resolução/Conclusão,3103,Incêndio rural,0,6,0,22,2025-08-15T10:44:00Z,Guarda,Guarda,Centro,-7.20956,40.61267,Resolução/Conclusão
25846016,Poiares,Douro,309,2025-08-15T13:17:00Z,25846016,Em Resolução/Conclusão,3103,Incêndio rural,0,80,0,228,2025-08-15T13:17:00Z,Freixo De Espada à Cinta,Bragança,Norte,-6.843393,41.075787,Resolução/Conclusão
25847211,Campelo,Região de Leiria,310,2025-08-15T17:01:00Z,25847211,Em Resolução/Conclusão,3101,Incêndio rural,0,2,0,7,2025-08-15T17:01:00Z,Figueiró Dos Vinhos,Leiria,Centro,-8.258518,39.952923,Resolução/Conclusão
25859434,"Valbom (São Pedro), Passô e Valbom (São Martinho)",Cávado,309,2025-08-18T01:46:00Z,25859434,Em Resolução/Conclusão,3103,Incêndio rural,0,1,0,4,2025-08-18T01:46:00Z,Vila Verde,Braga,Norte,-8.356937,41.715582,Resolução/Conclusão
25860858,Valadares,Viseu Dão Lafões,310,2025-08-18T10:30:00Z,25860858,Em Resolução/Conclusão,3101,Incêndio rural,0,0,0,0,2025-08-18T10:30:00Z,São Pedro Do Sul,Viseu,Centro,-8.191795,40.74812,Resolução/Conclusão
25861685,Santa Catarina da Serra e Chainça,Região de Leiria,310,2025-08-18T13:03:00Z,25861685,Em Resolução/Conclusão,3103,Incêndio rural,0,6,0,23,2025-08-18T13:03:00Z,Leiria,Leiria,Centro,-8.698656,39.708305,Resolução/Conclusão
25862694,Mexilhoeira Grande,Algarve,313,2025-08-18T16:00:00Z,25862694,Em Resolução/Conclusão,3103,Incêndio rural,0,14,0,37,2025-08-18T16:00:00Z,Portimão,Faro,Algarve,-8.63954,37.193757,Resolução/Conclusão
25863430,Mioma,Viseu Dão Lafões,310,2025-08-18T18:33:00Z,25863430,Em Resolução/Conclusão,3103,Incêndio rural,0,0,0,0,2025-08-18T18:33:00Z,Sátão,Viseu,Centro,-7.719747,40.742767,Resolução/Conclusão
25813482,Freches e Torres,Beiras e Serra da Estrela,310,2025-08-09T16:21:00Z,25813482,Em Resolução/Conclusão,3103,Incêndio rural,0,44,0,122,2025-08-09T16:21:00Z,Trancoso,Guarda,Centro,-7.363745,40.709022,Resolução/Conclusão
25830378,Ermidas-Sado,Alentejo Litoral,312,2025-08-12T16:42:00Z,25830378,Em Resolução/Conclusão,3101,Incêndio rural,0,0,0,0,2025-08-12T16:42:00Z,Santiago Do Cacém,Setúbal,Alentejo,-8.407646,38.059897,Resolução/Conclusão
25832250,Ferreira de Aves,Viseu Dão Lafões,310,2025-08-13T00:03:00Z,25832250,Em Resolução/Conclusão,3103,Incêndio rural,0,63,0,196,2025-08-13T00:03:00Z,Sátão,Viseu,Centro,-7.647793,40.79568,Resolução/Conclusão
25836309,Cinfães,Tâmega e Sousa,309,2025-08-13T18:17:00Z,25836309,Em Resolução/Conclusão,3103,Incêndio rural,0,1,0,2,2025-08-13T18:17:00Z,Cinfães,Viseu,Norte,-8.071502,41.049757,Resolução/Conclusão
25840505,Ribeira de Nisa e Carreiras,Alto Alentejo,312,2025-08-14T14:01:00Z,25840505,Em Resolução/Conclusão,3101,Incêndio rural,0,4,0,11,2025-08-14T14:01:00Z,Portalegre,Portalegre,Alentejo,-7.47009,39.374707,Resolução/Conclusão
25851721,Arnóia,Tâmega e Sousa,309,2025-08-16T14:24:00Z,25851721,Em Resolução/Conclusão,3103,Incêndio rural,0,8,0,33,2025-08-16T14:24:00Z,Celorico De Basto,Braga,Norte,-7.994469,41.369836,Resolução/Conclusão
25852438,Campanhó e Paradança,Ave,309,2025-08-16T16:41:00Z,25852438,Em Resolução/Conclusão,3103,Incêndio rural,0,2,0,5,2025-08-16T16:41:00Z,Mondim De Basto,Vila Real,Norte,-7.965877,41.391997,Resolução/Conclusão
25856549,"Oliveira de Frades, Souto de Lafões e Sejães",Viseu Dão Lafões,310,2025-08-17T13:08:00Z,25856549,Em Resolução/Conclusão,3103,Incêndio rural,0,1,0,2,2025-08-17T13:08:00Z,Oliveira De Frades,Viseu,Centro,-8.203795,40.74088,Resolução/Conclusão
25856751,Silves,Algarve,313,2025-08-17T13:56:00Z,25856751,Em Resolução/Conclusão,3103,Incêndio rural,0,0,0,0,2025-08-17T13:56:00Z,Silves,Faro,Algarve,-8.49143,37.203538,Resolução/Conclusão
25860828,Vilar de Perdizes e Meixide,Alto Tâmega e Barroso,309,2025-08-18T10:25:00Z,25860828,Em Curso,3103,Incêndio rural,0,57,0,170,2025-08-18T10:25:00Z,NA,NA,NA,-7.63634,41.880008,Curso
25820422,Távora e Pereiro,Douro,309,2025-08-10T22:27:00Z,25820422,Em Resolução/Conclusão,3103,Incêndio rural,0,5,0,18,2025-08-10T22:27:00Z,Tabuaço,Viseu,Norte,-7.55556,41.097602,Resolução/Conclusão
25832672,Piódão,Região de Coimbra,310,2025-08-13T05:08:00Z,25832672,Em Curso,3103,Incêndio rural,0,492,0,1455,2025-08-13T05:08:00Z,Arganil,Coimbra,Centro,-7.81972,40.23083,Curso
25835176,Faíl e Vila Chã de Sá,Viseu Dão Lafões,310,2025-08-13T14:35:00Z,25835176,Em Resolução/Conclusão,3103,Incêndio rural,0,0,0,0,2025-08-13T14:35:00Z,Viseu,Viseu,Centro,-7.951177,40.594167,Resolução/Conclusão
25840417,Lousã e Vilarinho,Região de Coimbra,310,2025-08-14T13:46:00Z,25840417,Em Resolução/Conclusão,3101,Incêndio rural,0,65,0,208,2025-08-14T13:46:00Z,Lousã,Coimbra,Centro,-8.201561,40.080016,Resolução/Conclusão
25857322,"Barcel, Marmelos e Valverde da Gestosa",Terras de Trás-os-Montes,309,2025-08-17T15:53:00Z,25857322,Em Curso,3103,Incêndio rural,0,112,0,339,2025-08-17T15:53:00Z,Mirandela,Bragança,Norte,-7.209414,41.409479,Curso
25859212,Moimenta,Cávado,309,2025-08-17T23:49:00Z,25859212,Em Resolução/Conclusão,3103,Incêndio rural,0,3,0,11,2025-08-17T23:49:00Z,Terras De Bouro,Braga,Norte,-8.303262,41.711533,Resolução/Conclusão
25861391,Leomil,Douro,309,2025-08-18T12:02:00Z,25861391,Em Resolução/Conclusão,3103,Incêndio rural,0,1,0,5,2025-08-18T12:02:00Z,Moimenta Da Beira,Viseu,Norte,-7.673645,40.99361,Resolução/Conclusão
25864465,Beja (Salvador e Santa Maria da Feira),Baixo Alentejo,312,2025-08-18T22:52:00Z,25864465,Em Resolução/Conclusão,3105,Incêndio rural,0,0,0,0,2025-08-18T22:52:00Z,Beja,Beja,Alentejo,-7.852828,38.031327,Resolução/Conclusão
25774883,Arnóia,Tâmega e Sousa,309,2025-08-02T18:20:00Z,25774883,Em Resolução/Conclusão,3103,Incêndio rural,0,0,0,0,2025-08-02T18:20:00Z,Celorico De Basto,Braga,Norte,-7.998983,41.348727,Resolução/Conclusão
25818455,Sobral de São Miguel,Beiras e Serra da Estrela,310,2025-08-10T15:02:00Z,25818455,Em Resolução/Conclusão,3103,Incêndio rural,0,1,0,1,2025-08-10T15:02:00Z,Covilhã,Castelo Branco,Centro,-7.77307,40.200173,Resolução/Conclusão
25846480,Sabugal e Aldeia de Santo António,Beiras e Serra da Estrela,310,2025-08-15T14:41:00Z,25846480,Em Curso,3103,Incêndio rural,0,98,0,374,2025-08-15T14:41:00Z,Sabugal,Guarda,Centro,-7.125037,40.34023,Curso
25851846,"Mamouros, Alva e Ribolhos",Viseu Dão Lafões,310,2025-08-16T14:44:00Z,25851846,Em Resolução/Conclusão,3103,Incêndio rural,0,1,0,2,2025-08-16T14:44:00Z,Castro Daire,Viseu,Centro,-7.965645,40.850267,Resolução/Conclusão
25852580,São João de Tarouca,Douro,309,2025-08-16T17:00:00Z,25852580,Em Resolução/Conclusão,3103,Incêndio rural,0,73,0,224,2025-08-16T17:00:00Z,Tarouca,Viseu,Norte,-7.760748,40.986773,Resolução/Conclusão
25864862,Idanha-a-Nova e Alcafozes,Beira Baixa,310,2025-08-19T01:46:00Z,25864862,Em Resolução/Conclusão,3103,Incêndio rural,0,11,0,23,2025-08-19T01:46:00Z,Idanha-a-Nova,Castelo Branco,Centro,-7.232448,39.940072,Resolução/Conclusão
25865062,"Fundão, Valverde, Donas, Aldeia de Joanes e Aldeia Nova do Cabo",Beiras e Serra da Estrela,310,2025-08-19T04:30:00Z,25865062,Em Resolução/Conclusão,3103,Incêndio rural,0,1,0,5,2025-08-19T04:30:00Z,Fundão,Castelo Branco,Centro,-7.465293,40.154478,Resolução/Conclusão
25865063,Santa Eufémia e Boa Vista,Região de Leiria,310,2025-08-19T04:46:00Z,25865063,Em Curso,3101,Incêndio rural,0,2,0,10,2025-08-19T04:46:00Z,Leiria,Leiria,Centro,-8.76757,39.77344,Curso
25862583,Podence e Santa Combinha,Terras de Trás-os-Montes,309,2025-08-18T15:41:00Z,25862583,Em Resolução/Conclusão,3103,Incêndio rural,0,2,0,6,2025-08-18T15:41:00Z,Macedo De Cavaleiros,Bragança,Norte,-6.924897,41.595,Resolução/Conclusão
25864689,Adoufe e Vilarinho de Samardã,Douro,309,2025-08-19T00:10:00Z,25864689,Em Resolução/Conclusão,3103,Incêndio rural,0,1,0,5,2025-08-19T00:10:00Z,Vila Real,Vila Real,Norte,-7.729018,41.33618,Resolução/Conclusão
