id,address,subregion,neighborhood,date,id.1,state,nature,nature_description,aerial_means,terrestrial_means,aquatic_means,operational,date.1,Concelho,Distrito,NUTII_DSG,longitude,latitude
24851780,"São Miguel, Santa Eufémia e Rabaçal",Região de Coimbra,310,2025-01-21T23:25:00Z,24851780,Em curso,3315,Inundação de estruturas por precipitação intensa,0,0,0,0,2025-01-21T23:25:00Z,Penela,Coimbra,Centro,-8.399036,40.025502
24905293,"S.maria, S.miguel, S.martinho, S.pedro Penaferrim",Grande Lisboa,311,2025-02-02T12:35:00Z,24905293,Em conclusão,3301,Queda de árvore,0,1,0,5,2025-02-02T12:35:00Z,Sintra,Lisboa,Área Metropolitana De Lisboa,-9.39627,38.79626
24905307,Ramada e Caneças,Grande Lisboa,311,2025-02-02T12:28:00Z,24905307,Em resolução,3321,Dano na rede de fornecimento de eletricidade ,0,2,0,5,2025-02-02T12:28:00Z,Odivelas,Lisboa,Área Metropolitana De Lisboa,-9.194441,38.801427
24877003,Malagueira e Horta Das Figueiras,Alentejo Central,312,2025-01-27T11:41:00Z,24877003,Em conclusão,3315,Inundação de estruturas por precipitação intensa,0,0,0,0,2025-01-27T11:41:00Z,Évora,Évora,Alentejo,-7.924277,38.57285
24905254,Alverca do Ribatejo e Sobralinho,Grande Lisboa,311,2025-02-02T12:00:00Z,24905254,Em despacho,3329,Queda de estruturas temporárias ou móveis,0,1,0,2,2025-02-02T12:00:00Z,Vila Franca De Xira,Lisboa,Área Metropolitana De Lisboa,-9.046012,38.896362
24905290,Alverca do Ribatejo e Sobralinho,Grande Lisboa,311,2025-02-02T12:23:00Z,24905290,Em despacho,3329,Queda de estruturas temporárias ou móveis,0,1,0,3,2025-02-02T12:23:00Z,Vila Franca De Xira,Lisboa,Área Metropolitana De Lisboa,-9.046012,38.896362
24905168,Lamego (Almacave e Sé),Douro,309,2025-02-02T12:03:00Z,24905168,Em despacho,3317,Inundação de estruturas por água canalizada,0,1,0,2,2025-02-02T12:03:00Z,Lamego,Viseu,Norte,-7.818885,41.098809
