id,address,subregion,neighborhood,date,id.1,state,nature,nature_description,aerial_means,terrestrial_means,aquatic_means,operational,date.1,Concelho,Distrito,NUTII_DSG,longitude,latitude
25519053,Pedroso e Seixezelo,Area M. Porto,309,2025-06-13T10:34:00Z,25519053,Em conclusão,3103,Incêndio rural,0,2,0,7,2025-06-13T10:34:00Z,Vila Nova De Gaia,Porto,Norte,-8.55785,41.06333
25518666,Pedreiras,Região de Leiria,310,2025-06-13T09:35:00Z,25518666,Em conclusão,2101,Incêndio em edifícios habitacionais,0,2,0,7,2025-06-13T09:35:00Z,Porto De Mós,Leiria,Centro,-8.860405,39.586323
25518964,"Seixal, Arrentela e Aldeia de Paio Pires",Península de Setúbal,311,2025-06-13T10:23:00Z,25518964,Em curso,2301,Incêndio em transporte rodoviário,0,1,0,2,2025-06-13T10:23:00Z,Seixal,Setúbal,Área Metropolitana De Lisboa,-9.10624,38.60603
25518759,Loulé (São Sebastião),Algarve,313,2025-06-13T09:51:00Z,25518759,Em conclusão,3103,Incêndio rural,0,0,0,0,2025-06-13T09:51:00Z,Loulé,Faro,Algarve,-8.066692,37.102583
25518777,Pedroso e Seixezelo,Area M. Porto,309,2025-06-13T09:54:00Z,25518777,Em conclusão,3103,Incêndio rural,0,2,0,9,2025-06-13T09:54:00Z,Vila Nova De Gaia,Porto,Norte,-8.577748,41.08542
25518902,Serra e Junceira,Médio Tejo,311,2025-06-13T10:13:00Z,25518902,Em despacho,3109,Gestão de combustível,0,1,0,1,2025-06-13T10:13:00Z,Tomar,Santarém,Centro,-8.275164,39.608725
