id,address,subregion,neighborhood,date,id.1,state,nature,nature_description,aerial_means,terrestrial_means,aquatic_means,operational,date.1,Concelho,Distrito,NUTII_DSG,longitude,latitude
24873097,Ruivães e Campos,Ave,309,2025-01-26T16:09:00Z,24873097,Em despacho,3301,Queda de árvore,0,1,0,2,2025-01-26T16:09:00Z,Vieira Do Minho,Braga,Norte,-8.032822,41.664634
24873361,Colmeias e Memória,Região de Leiria,310,2025-01-26T17:06:00Z,24873361,Em despacho,3321,Dano na rede de fornecimento de eletricidade ,0,2,0,7,2025-01-26T17:06:00Z,Leiria,Leiria,Centro,-8.650466,39.813005
24873480,"Almargem do Bispo, Pêro Pinheiro e Montelavar",Grande Lisboa,311,2025-01-26T17:24:00Z,24873480,Em conclusão,3301,Queda de árvore,0,2,0,6,2025-01-26T17:24:00Z,Sintra,Lisboa,Área Metropolitana De Lisboa,-9.259177,38.818835
24873497,"Pinheiro da Bemposta, Travanca e Palmaz",Area M. Porto,309,2025-01-26T17:37:00Z,24873497,Em despacho,3301,Queda de árvore,0,1,0,2,2025-01-26T17:37:00Z,Oliveira De Azeméis,Aveiro,Norte,-8.468107,40.789674
24873498,Portela e Extremo,Alto Minho,309,2025-01-26T17:40:00Z,24873498,Em conclusão,3301,Queda de árvore,0,0,0,0,2025-01-26T17:40:00Z,Arcos De Valdevez,Viana Do Castelo,Norte,-8.469222,41.939978
24873512,Arcos de Valdevez (São Paio) e Giela,Alto Minho,309,2025-01-26T17:44:00Z,24873512,Em despacho,3311,Queda de elementos de estruturas edificados,0,1,0,3,2025-01-26T17:44:00Z,Arcos De Valdevez,Viana Do Castelo,Norte,-8.4081,41.85633
24873595,Sequeiros e Gradiz,Viseu Dão Lafões,310,2025-01-26T17:58:00Z,24873595,Em despacho,3301,Queda de árvore,0,1,0,3,2025-01-26T17:58:00Z,Aguiar Da Beira,Guarda,Centro,-7.498667,40.852572
24873631,"Mangualde, Mesquitela e Cunha Alta",Viseu Dão Lafões,310,2025-01-26T18:01:00Z,24873631,Em curso,3311,Queda de elementos de estruturas edificados,0,2,0,4,2025-01-26T18:01:00Z,Mangualde,Viseu,Centro,-7.764584,40.587178
24873646,São Romão de Neiva,Alto Minho,309,2025-01-26T18:14:00Z,24873646,Em despacho,3301,Queda de árvore,0,0,0,0,2025-01-26T18:14:00Z,Viana Do Castelo,Viana Do Castelo,Norte,-8.774882,41.62943
24873647,São Bernardo,Região de Aveiro,310,2025-01-26T18:09:00Z,24873647,Em despacho,3329,Queda de estruturas temporárias ou móveis,0,1,0,3,2025-01-26T18:09:00Z,Aveiro,Aveiro,Centro,-8.625929,40.620025
24873648,Valongo,Area M. Porto,309,2025-01-26T18:09:00Z,24873648,Em despacho,3301,Queda de árvore,0,1,0,2,2025-01-26T18:09:00Z,Valongo,Porto,Norte,-8.498295,41.191956
24873665,Carrazedo de Montenegro e Curros,Alto Tâmega e Barroso,309,2025-01-26T18:13:00Z,24873665,Em despacho,3301,Queda de árvore,0,1,0,4,2025-01-26T18:13:00Z,Valpaços,Vila Real,Norte,-7.457597,41.506943
24873681,Luso,Região de Coimbra,310,2025-01-26T18:15:00Z,24873681,Em despacho,3301,Queda de árvore,0,1,0,4,2025-01-26T18:15:00Z,Mealhada,Aveiro,Centro,-8.376887,40.38218
24873730,Gualtar,Cávado,309,2025-01-26T18:29:00Z,24873730,Em despacho,3321,Dano na rede de fornecimento de eletricidade ,0,1,0,3,2025-01-26T18:29:00Z,Braga,Braga,Norte,-8.387989,41.567983
24872923,Prado (São Miguel),Cávado,309,2025-01-26T15:20:00Z,24872923,Em despacho,3301,Queda de árvore,0,1,0,2,2025-01-26T15:20:00Z,Vila Verde,Braga,Norte,-8.434569,41.70253
24873143,"St.tirso, Couto (S.cristina e S.miguel) e Burgães",Area M. Porto,309,2025-01-26T16:20:00Z,24873143,Em curso,3301,Queda de árvore,0,2,0,4,2025-01-26T16:20:00Z,Santo Tirso,Porto,Norte,-8.466513,41.351058
24873200,Nogueiró e Tenões,Cávado,309,2025-01-26T15:40:00Z,24873200,Em despacho,3301,Queda de árvore,0,1,0,2,2025-01-26T15:40:00Z,Braga,Braga,Norte,-8.389412,41.550753
24873243,Frazão Arreigada,Tâmega e Sousa,309,2025-01-26T16:39:00Z,24873243,Em conclusão,3321,Dano na rede de fornecimento de eletricidade ,0,1,0,2,2025-01-26T16:39:00Z,Paços De Ferreira,Porto,Norte,-8.405185,41.257386
24873252,"Romãs, Decermilo e Vila Longa",Viseu Dão Lafões,310,2025-01-26T16:44:00Z,24873252,Em despacho,3315,Inundação de estruturas por precipitação intensa,0,1,0,2,2025-01-26T16:44:00Z,Sátão,Viseu,Centro,-7.65827,40.755185
24873284,"Sandim, Olival, Lever e Crestuma",Area M. Porto,309,2025-01-26T16:28:00Z,24873284,Em conclusão,3301,Queda de árvore,0,3,0,7,2025-01-26T16:28:00Z,Vila Nova De Gaia,Porto,Norte,-8.502382,41.048753
24873291,Duas Igrejas,Area M. Porto,309,2025-01-26T16:44:00Z,24873291,Em conclusão,3301,Queda de árvore,0,2,0,7,2025-01-26T16:44:00Z,Paredes,Porto,Norte,-8.376281,41.228302
24873393,Rebordões (Santa Maria),Alto Minho,309,2025-01-26T17:10:00Z,24873393,Em conclusão,3301,Queda de árvore,0,4,0,8,2025-01-26T17:10:00Z,Ponte De Lima,Viana Do Castelo,Norte,-8.582497,41.71627
24872774,Fânzeres e São Pedro da Cova,Area M. Porto,309,2025-01-26T14:47:00Z,24872774,Em conclusão,3329,Queda de estruturas temporárias ou móveis,0,3,0,7,2025-01-26T14:47:00Z,Gondomar,Porto,Norte,-8.511531,41.155311
24873333,"Celeirós, Aveleda e Vimieiro",Cávado,309,2025-01-26T17:04:00Z,24873333,Em despacho,3301,Queda de árvore,0,2,0,4,2025-01-26T17:04:00Z,Braga,Braga,Norte,-8.44978,41.51462
24873442,"Valença, Cristelo Covo e Arão",Alto Minho,309,2025-01-26T17:25:00Z,24873442,Em despacho,3311,Queda de elementos de estruturas edificados,0,1,0,2,2025-01-26T17:25:00Z,Valença,Viana Do Castelo,Norte,-8.644383,42.018188
24873551,Bornes e Burga,Terras de Trás-os-Montes,309,2025-01-26T17:47:00Z,24873551,Em despacho,3301,Queda de árvore,0,2,0,6,2025-01-26T17:47:00Z,Macedo De Cavaleiros,Bragança,Norte,-7.009685,41.435018
24873578,Guilhufe e Urrô,Tâmega e Sousa,309,2025-01-26T17:56:00Z,24873578,Em despacho,3301,Queda de árvore,0,0,0,0,2025-01-26T17:56:00Z,Penafiel,Porto,Norte,-8.311341,41.20261
24873585,Melres e Medas,Area M. Porto,309,2025-01-26T17:57:00Z,24873585,Em curso,3301,Queda de árvore,0,1,0,2,2025-01-26T17:57:00Z,Gondomar,Porto,Norte,-8.438667,41.066392
24873601,Cinfães,Tâmega e Sousa,309,2025-01-26T18:02:00Z,24873601,Em curso,3301,Queda de árvore,0,2,0,5,2025-01-26T18:02:00Z,Cinfães,Viseu,Norte,-8.103983,41.07938
24851780,"São Miguel, Santa Eufémia e Rabaçal",Região de Coimbra,310,2025-01-21T23:25:00Z,24851780,Em curso,3315,Inundação de estruturas por precipitação intensa,0,0,0,0,2025-01-21T23:25:00Z,Penela,Coimbra,Centro,-8.399036,40.025502
24873070,Sobrosa,Area M. Porto,309,2025-01-26T15:59:00Z,24873070,Em despacho,3315,Inundação de estruturas por precipitação intensa,0,1,0,2,2025-01-26T15:59:00Z,Paredes,Porto,Norte,-8.352394,41.249863
24873437,Eiras e Mei,Alto Minho,309,2025-01-26T17:28:00Z,24873437,Em despacho,3301,Queda de árvore,0,0,0,0,2025-01-26T17:28:00Z,Arcos De Valdevez,Viana Do Castelo,Norte,-8.469838,41.93914
24873471,Santa Marinha e São Pedro da Afurada,Area M. Porto,309,2025-01-26T17:34:00Z,24873471,Em despacho,3311,Queda de elementos de estruturas edificados,0,2,0,8,2025-01-26T17:34:00Z,Vila Nova De Gaia,Porto,Norte,-8.60714,41.132437
24873503,Paço de Sousa,Tâmega e Sousa,309,2025-01-26T17:29:00Z,24873503,Em despacho,3311,Queda de elementos de estruturas edificados,0,1,0,4,2025-01-26T17:29:00Z,Penafiel,Porto,Norte,-8.348796,41.163862
24873416,Santa Cruz do Douro e São Tomé de Covelas,Tâmega e Sousa,309,2025-01-26T17:24:00Z,24873416,Em conclusão,3313,Deslizamento de terras,0,1,0,4,2025-01-26T17:24:00Z,Baião,Porto,Norte,-8.026933,41.125072
24873432,Beça,Alto Tâmega e Barroso,309,2025-01-26T17:20:00Z,24873432,Em conclusão,3301,Queda de árvore,0,2,0,5,2025-01-26T17:20:00Z,Boticas,Vila Real,Norte,-7.732077,41.686927
24873436,São João da Madeira,Area M. Porto,309,2025-01-26T17:08:00Z,24873436,Em despacho,3301,Queda de árvore,0,1,0,2,2025-01-26T17:08:00Z,São João Da Madeira,Aveiro,Norte,-8.490365,40.895632
24873459,Insalde e Porreiras,Alto Minho,309,2025-01-26T17:29:00Z,24873459,Em conclusão,3301,Queda de árvore,0,1,0,2,2025-01-26T17:29:00Z,Paredes De Coura,Viana Do Castelo,Norte,-8.514677,41.955722
24873484,Paredes,Area M. Porto,309,2025-01-26T17:37:00Z,24873484,Em despacho,3301,Queda de árvore,0,0,0,0,2025-01-26T17:37:00Z,Paredes,Porto,Norte,-8.325115,41.20775
24873493,Valongo,Area M. Porto,309,2025-01-26T17:35:00Z,24873493,Em curso,3309,Desabamento de estruturas edificadas,0,2,0,5,2025-01-26T17:35:00Z,Valongo,Porto,Norte,-8.498959,41.192118
24873518,Venda Nova e Pondras,Alto Tâmega e Barroso,309,2025-01-26T17:38:00Z,24873518,Em resolução,3301,Queda de árvore,0,3,0,8,2025-01-26T17:38:00Z,Montalegre,Vila Real,Norte,-7.964197,41.670982
24873536,Santa Cruz da Trapa e São Cristóvão de Lafões,Viseu Dão Lafões,310,2025-01-26T17:45:00Z,24873536,Em curso,3301,Queda de árvore,0,1,0,2,2025-01-26T17:45:00Z,São Pedro Do Sul,Viseu,Centro,-8.179319,40.770555
24873628,Eiriz,Tâmega e Sousa,309,2025-01-26T18:04:00Z,24873628,Em despacho,3301,Queda de árvore,0,1,0,3,2025-01-26T18:04:00Z,Paços De Ferreira,Porto,Norte,-8.380309,41.305164
24873653,"Britelo, Gémeos e Ourilhe",Tâmega e Sousa,309,2025-01-26T18:16:00Z,24873653,Em despacho,3301,Queda de árvore,0,0,0,0,2025-01-26T18:16:00Z,Celorico De Basto,Braga,Norte,-8.01637,41.39336
24873658,Tarouca e Dálvares,Douro,309,2025-01-26T18:10:00Z,24873658,Em despacho,3313,Deslizamento de terras,0,1,0,2,2025-01-26T18:10:00Z,Tarouca,Viseu,Norte,-7.772894,41.019436
24873667,Santo António da Charneca,Península de Setúbal,311,2025-01-26T18:09:00Z,24873667,Em despacho,3329,Queda de estruturas temporárias ou móveis,0,1,0,5,2025-01-26T18:09:00Z,Barreiro,Setúbal,Área Metropolitana De Lisboa,-9.029919,38.624451
24873703,Vila Pouca de Aguiar,Alto Tâmega e Barroso,309,2025-01-26T18:19:00Z,24873703,Em despacho,3301,Queda de árvore,0,1,0,5,2025-01-26T18:19:00Z,Vila Pouca De Aguiar,Vila Real,Norte,-7.645977,41.499519
24873717,Rio de Couros e Casal Dos Bernardos,Médio Tejo,311,2025-01-26T18:28:00Z,24873717,Em despacho,3301,Queda de árvore,0,2,0,6,2025-01-26T18:28:00Z,Ourém,Santarém,Centro,-8.490054,39.732553
24873506,Antuzede e Vil de Matos,Região de Coimbra,310,2025-01-26T17:41:00Z,24873506,Em conclusão,3301,Queda de árvore,0,2,0,5,2025-01-26T17:41:00Z,Coimbra,Coimbra,Centro,-8.494521,40.24818
24873521,Lanhelas,Alto Minho,309,2025-01-26T17:17:00Z,24873521,Em curso,3301,Queda de árvore,0,1,0,5,2025-01-26T17:17:00Z,Caminha,Viana Do Castelo,Norte,-8.784374,41.914049
24873523,"Sé, Santa Maria e Meixedo",Terras de Trás-os-Montes,309,2025-01-26T17:45:00Z,24873523,Em despacho,3301,Queda de árvore,0,2,0,4,2025-01-26T17:45:00Z,Bragança,Bragança,Norte,-6.751361,41.80672
24873537,Sangalhos,Região de Aveiro,310,2025-01-26T17:47:00Z,24873537,Em resolução,3301,Queda de árvore,0,2,0,5,2025-01-26T17:47:00Z,Anadia,Aveiro,Centro,-8.490482,40.484546
24873539,Fermentões,Ave,309,2025-01-26T17:45:00Z,24873539,Em curso,3311,Queda de elementos de estruturas edificados,0,1,0,2,2025-01-26T17:45:00Z,Guimarães,Braga,Norte,-8.314269,41.456141
24873540,Canelas e Espiunca,Area M. Porto,309,2025-01-26T17:24:00Z,24873540,Em despacho,3301,Queda de árvore,0,1,0,2,2025-01-26T17:24:00Z,Arouca,Aveiro,Norte,-8.212231,40.969918
24873554,Parada de Ester e Ester,Viseu Dão Lafões,310,2025-01-26T17:19:00Z,24873554,Em despacho,3301,Queda de árvore,0,1,0,2,2025-01-26T17:19:00Z,Castro Daire,Viseu,Centro,-8.071387,40.932635
24873555,Gondar e Orbacém,Alto Minho,309,2025-01-26T17:46:00Z,24873555,Em conclusão,3301,Queda de árvore,0,1,0,4,2025-01-26T17:46:00Z,Caminha,Viana Do Castelo,Norte,-8.791293,41.807407
24873556,Lordelo,Area M. Porto,309,2025-01-26T17:45:00Z,24873556,Em curso,3301,Queda de árvore,0,2,0,6,2025-01-26T17:45:00Z,Paredes,Porto,Norte,-8.41544,41.23364
24873570,Cedrim e Paradela,Região de Aveiro,310,2025-01-26T17:44:00Z,24873570,Em resolução,3301,Queda de árvore,0,2,0,5,2025-01-26T17:44:00Z,Sever Do Vouga,Aveiro,Centro,-8.34347,40.701228
24873543,"Coruche, Fajarda e Erra",Lezíria do Tejo,311,2025-01-26T17:48:00Z,24873543,Em curso,3301,Queda de árvore,0,2,0,4,2025-01-26T17:48:00Z,Coruche,Santarém,Alentejo,-8.54111,38.890215
24873550,"Sé, Santa Maria e Meixedo",Terras de Trás-os-Montes,309,2025-01-26T17:46:00Z,24873550,Em curso,3315,Inundação de estruturas por precipitação intensa,0,1,0,2,2025-01-26T17:46:00Z,Bragança,Bragança,Norte,-6.761223,41.813164
24873575,Montemor-o-Velho e Gatões,Região de Coimbra,310,2025-01-26T17:25:00Z,24873575,Em curso,3301,Queda de árvore,0,2,0,5,2025-01-26T17:25:00Z,Montemor-o-Velho,Coimbra,Centro,-8.684865,40.169486
24873618,Malveira e São Miguel de Alcainça,Grande Lisboa,311,2025-01-26T18:07:00Z,24873618,Em conclusão,3301,Queda de árvore,0,1,0,5,2025-01-26T18:07:00Z,Mafra,Lisboa,Área Metropolitana De Lisboa,-9.275014,38.92273
24873625,Este (São Pedro e São Mamede),Cávado,309,2025-01-26T18:09:00Z,24873625,Em despacho,3301,Queda de árvore,0,1,0,4,2025-01-26T18:09:00Z,Braga,Braga,Norte,-8.37483,41.5691
24873634,"Silvares, Pias, Nogueira e Alvarenga",Tâmega e Sousa,309,2025-01-26T18:12:00Z,24873634,Em despacho,3329,Queda de estruturas temporárias ou móveis,0,1,0,2,2025-01-26T18:12:00Z,Lousada,Porto,Norte,-8.283056,41.27457
24873572,Fontoura,Alto Minho,309,2025-01-26T17:55:00Z,24873572,Em despacho,3301,Queda de árvore,0,0,0,0,2025-01-26T17:55:00Z,Valença,Viana Do Castelo,Norte,-8.62519,41.96094
24873573,"Nossa Senhora da Conceição, São Pedro e São Dinis",Douro,309,2025-01-26T17:56:00Z,24873573,Em despacho,3329,Queda de estruturas temporárias ou móveis,0,1,0,1,2025-01-26T17:56:00Z,Vila Real,Vila Real,Norte,-7.739745,41.30403
24873623,Selho (São Jorge),Ave,309,2025-01-26T18:08:00Z,24873623,Em despacho,3311,Queda de elementos de estruturas edificados,0,0,0,0,2025-01-26T18:08:00Z,Guimarães,Braga,Norte,-8.35995,41.43162
24873638,Campo de Besteiros,Viseu Dão Lafões,310,2025-01-26T18:06:00Z,24873638,Em despacho,3313,Deslizamento de terras,0,1,0,4,2025-01-26T18:06:00Z,Tondela,Viseu,Centro,-8.12366,40.559335
24873640,Ribeira,Cávado,309,2025-01-26T18:08:00Z,24873640,Em despacho,3301,Queda de árvore,0,1,0,2,2025-01-26T18:08:00Z,Terras De Bouro,Braga,Norte,-8.328544,41.694567
24873655,Mira de Aire,Região de Leiria,310,2025-01-26T18:12:00Z,24873655,Em despacho,3301,Queda de árvore,0,1,0,3,2025-01-26T18:12:00Z,Porto De Mós,Leiria,Centro,-8.710094,39.541626
24873673,"S.pedro e Santiago, S.maria e S.miguel e Matacães",Oeste,311,2025-01-26T18:14:00Z,24873673,Em despacho,3329,Queda de estruturas temporárias ou móveis,0,1,0,2,2025-01-26T18:14:00Z,Torres Vedras,Lisboa,Centro,-9.251952,39.091829
24873687,"Nossa Senhora da Conceição, São Pedro e São Dinis",Douro,309,2025-01-26T18:21:00Z,24873687,Em despacho,3309,Desabamento de estruturas edificadas,0,1,0,1,2025-01-26T18:21:00Z,Vila Real,Vila Real,Norte,-7.74444,41.29637
24873688,Sendim,Tâmega e Sousa,309,2025-01-26T18:17:00Z,24873688,Em despacho,3301,Queda de árvore,0,2,0,4,2025-01-26T18:17:00Z,Felgueiras,Porto,Norte,-8.186937,41.386455
24873704,Codeçoso,Tâmega e Sousa,309,2025-01-26T18:25:00Z,24873704,Em despacho,3301,Queda de árvore,0,0,0,0,2025-01-26T18:25:00Z,Celorico De Basto,Braga,Norte,-8.02435,41.340993
24873675,Oliveira do Conde,Viseu Dão Lafões,310,2025-01-26T18:19:00Z,24873675,Em despacho,3301,Queda de árvore,0,1,0,2,2025-01-26T18:19:00Z,Carregal Do Sal,Viseu,Centro,-7.986788,40.44811
24873695,Areosa,Alto Minho,309,2025-01-26T18:14:00Z,24873695,Em despacho,3301,Queda de árvore,0,1,0,2,2025-01-26T18:14:00Z,Viana Do Castelo,Viana Do Castelo,Norte,-8.841057,41.722906
24873707,Campo,Viseu Dão Lafões,310,2025-01-26T18:24:00Z,24873707,Em despacho,3301,Queda de árvore,0,0,0,0,2025-01-26T18:24:00Z,Viseu,Viseu,Centro,-7.917758,40.707331
24873723,Treixedo e Nagozela,Viseu Dão Lafões,310,2025-01-26T18:23:00Z,24873723,Em despacho,3301,Queda de árvore,0,1,0,3,2025-01-26T18:23:00Z,Santa Comba Dão,Viseu,Centro,-8.097762,40.437368
