id,address,subregion,neighborhood,date,id.1,state,nature,nature_description,aerial_means,terrestrial_means,aquatic_means,operational,date.1,Concelho,Distrito,NUTII_DSG,longitude,latitude
25070044,Praia do Ribatejo,Médio Tejo,311,2025-03-10T19:30:00Z,25070044,Em curso,1101,Cheia,0,0,0,0,2025-03-10T19:30:00Z,Vila Nova Da Barquinha,Santarém,Centro,-8.357309,39.485638
25071496,São Manços e São Vicente do Pigeiro,Alentejo Central,312,2025-03-11T13:18:00Z,25071496,Em conclusão,1101,Cheia,0,0,0,0,2025-03-11T13:18:00Z,Évora,Évora,Alentejo,-7.713313,38.513673
25202441,Serpa (Salvador e Santa Maria),Baixo Alentejo,312,2025-04-06T10:25:00Z,25202441,Em conclusão,1101,Cheia,0,0,0,0,2025-04-06T10:25:00Z,Serpa,Beja,Alentejo,-7.555783,37.88592
25245306,Queluz e Belas,Grande Lisboa,311,2025-04-15T17:52:00Z,25245306,Em conclusão,3321,Dano na rede de fornecimento de eletricidade ,0,2,0,6,2025-04-15T17:52:00Z,Sintra,Lisboa,Área Metropolitana De Lisboa,-9.27613,38.76244
25245423,Pegões,Península de Setúbal,311,2025-04-15T18:20:00Z,25245423,Em despacho,3301,Queda de árvore,0,1,0,5,2025-04-15T18:20:00Z,Montijo,Setúbal,Área Metropolitana De Lisboa,-8.659163,38.685652
25245401,Caldas da Rainha - Santo Onofre e Serra do Bouro,Oeste,311,2025-04-15T18:10:00Z,25245401,Em conclusão,3301,Queda de árvore,0,2,0,6,2025-04-15T18:10:00Z,Caldas Da Rainha,Leiria,Centro,-9.148929,39.401713
25245410,"Vila Garcia, Aboim e Chapa",Tâmega e Sousa,309,2025-04-15T18:15:00Z,25245410,Em despacho,3301,Queda de árvore,0,1,0,3,2025-04-15T18:15:00Z,Amarante,Porto,Norte,-8.045955,41.315304
25068300,Almeirim,Lezíria do Tejo,311,2025-03-10T20:52:00Z,25068300,Em curso,1101,Cheia,0,0,0,0,2025-03-10T20:52:00Z,Almeirim,Santarém,Alentejo,-8.635002,39.187436
25245422,"Leiria, Pousos, Barreira e Cortes",Região de Leiria,310,2025-04-15T18:25:00Z,25245422,Em despacho,3311,Queda de elementos de estruturas edificados,0,1,0,2,2025-04-15T18:25:00Z,Leiria,Leiria,Centro,-8.802832,39.749179
