id,address,subregion,neighborhood,date,id.1,state,nature,nature_description,aerial_means,terrestrial_means,aquatic_means,operational,date.1,Concelho,Distrito,NUTII_DSG,longitude,latitude
24904755,Sesimbra (Castelo),Península de Setúbal,311,2025-02-02T10:28:00Z,24904755,Em despacho,3317,Inundação de estruturas por água canalizada,0,1,0,3,2025-02-02T10:28:00Z,Sesimbra,Setúbal,Área Metropolitana De Lisboa,-9.106828,38.452682
24904815,"Gondomar (São Cosme), Valbom e Jovim",Area M. Porto,309,2025-02-02T10:34:00Z,24904815,Em despacho,3301,Queda de árvore,0,1,0,4,2025-02-02T10:34:00Z,Gondomar,Porto,Norte,-8.561686,41.139677
24851780,"São Miguel, Santa Eufémia e Rabaçal",Região de Coimbra,310,2025-01-21T23:25:00Z,24851780,Em curso,3315,Inundação de estruturas por precipitação intensa,0,0,0,0,2025-01-21T23:25:00Z,Penela,Coimbra,Centro,-8.399036,40.025502
24877003,Malagueira e Horta Das Figueiras,Alentejo Central,312,2025-01-27T11:41:00Z,24877003,Em conclusão,3315,Inundação de estruturas por precipitação intensa,0,0,0,0,2025-01-27T11:41:00Z,Évora,Évora,Alentejo,-7.924277,38.57285
24904836,Cascais e Estoril,Grande Lisboa,311,2025-02-02T10:50:00Z,24904836,Em despacho,3317,Inundação de estruturas por água canalizada,0,1,0,5,2025-02-02T10:50:00Z,Cascais,Lisboa,Área Metropolitana De Lisboa,-9.419397,38.700982
24904843,Vila do Bispo e Raposeira,Algarve,313,2025-02-02T10:46:00Z,24904843,Em curso,3301,Queda de árvore,0,1,0,5,2025-02-02T10:46:00Z,Vila Do Bispo,Faro,Algarve,-8.899241,37.111831
