id,address,subregion,neighborhood,date,id.1,state,nature,nature_description,aerial_means,terrestrial_means,aquatic_means,operational,date.1,Concelho,Distrito,NUTII_DSG,longitude,latitude
25574977,Águas Santas,Area M. Porto,309,2025-06-24T20:05:00Z,25574977,Em conclusão,3103,Incêndio rural,0,3,0,9,2025-06-24T20:05:00Z,Maia,Porto,Norte,-8.571618,41.223165
25574208,Ribeirão,Ave,309,2025-06-24T16:51:00Z,25574208,Em conclusão,3101,Incêndio rural,0,0,0,0,2025-06-24T16:51:00Z,Vila Nova De Famalicão,Braga,Norte,-8.582528,41.360623
25574859,Atalaia e Alto-Estanqueiro-Jardia,Península de Setúbal,311,2025-06-24T19:33:00Z,25574859,Em resolução,2201,Incêndio em equipamentos ou produtos,0,1,0,4,2025-06-24T19:33:00Z,Montijo,Setúbal,Área Metropolitana De Lisboa,-8.925153,38.70862
25575068,Colares,Grande Lisboa,311,2025-06-24T20:26:00Z,25575068,Em despacho,3111,Queima,0,2,0,7,2025-06-24T20:26:00Z,Sintra,Lisboa,Área Metropolitana De Lisboa,-9.451332,38.81232
25575035,Aguiar,Alentejo Central,312,2025-06-24T20:14:00Z,25575035,Em curso,3103,Incêndio rural,0,5,0,19,2025-06-24T20:14:00Z,Viana Do Alentejo,Évora,Alentejo,-7.967224,38.387876
25574985,Fânzeres e São Pedro da Cova,Area M. Porto,309,2025-06-24T20:04:00Z,25574985,Em conclusão,3103,Incêndio rural,0,1,0,4,2025-06-24T20:04:00Z,Gondomar,Porto,Norte,-8.511531,41.155311
25574849,Carnota,Oeste,311,2025-06-24T19:28:00Z,25574849,Em conclusão,2101,Incêndio em edifícios habitacionais,0,6,0,22,2025-06-24T19:28:00Z,Alenquer,Lisboa,Centro,-9.05772,39.04375
25574055,Coronado (São Romão e São Mamede),Area M. Porto,309,2025-06-24T16:07:00Z,25574055,Em conclusão,3101,Incêndio rural,0,9,0,21,2025-06-24T16:07:00Z,Trofa,Porto,Norte,-8.575562,41.283106
