id,address,subregion,neighborhood,date,id.1,state,nature,nature_description,aerial_means,terrestrial_means,aquatic_means,operational,date.1,Concelho,Distrito,NUTII_DSG,longitude,latitude,state_2
25686799,Souto Maior,Douro,309,2025-07-16T13:19:00Z,25686799,Em Resolução/Conclusão,3101,Incêndio rural,0,36,0,120,2025-07-16T13:19:00Z,Sabrosa,Vila Real,Norte,-7.57839,41.287518,Resolução/Conclusão
25697095,Alfarelos,Região de Coimbra,310,2025-07-18T14:01:00Z,25697095,Em Resolução/Conclusão,3101,Incêndio rural,0,1,0,2,2025-07-18T14:01:00Z,Soure,Coimbra,Centro,-8.640182,40.154127,Resolução/Conclusão
25698400,Alcaria Ruiva,Baixo Alentejo,312,2025-07-18T18:37:00Z,25698400,Em Resolução/Conclusão,3105,Incêndio rural,0,16,0,36,2025-07-18T18:37:00Z,Mértola,Beja,Alentejo,-7.784537,37.770317,Resolução/Conclusão
25698451,Arnóia,Tâmega e Sousa,309,2025-07-18T18:50:00Z,25698451,Em Resolução/Conclusão,3101,Incêndio rural,0,6,0,19,2025-07-18T18:50:00Z,Celorico De Basto,Braga,Norte,-8.015378,41.373849,Resolução/Conclusão
25698799,Touro,Viseu Dão Lafões,310,2025-07-18T20:02:00Z,25698799,Em Resolução/Conclusão,3105,Incêndio rural,0,2,0,5,2025-07-18T20:02:00Z,Vila Nova De Paiva,Viseu,Centro,-7.715232,40.937493,Resolução/Conclusão
25699067,Mourão,Alentejo Central,312,2025-07-18T21:11:00Z,25699067,Em Resolução/Conclusão,3103,Incêndio rural,0,4,0,11,2025-07-18T21:11:00Z,Mourão,Évora,Alentejo,-7.350227,38.385667,Resolução/Conclusão
25696955,"Vilela, Seramil e Paredes Secas",Cávado,309,2025-07-18T13:36:00Z,25696955,Em Resolução/Conclusão,3101,Incêndio rural,0,15,0,51,2025-07-18T13:36:00Z,Amares,Braga,Norte,-8.309448,41.67517,Resolução/Conclusão
25698189,Fregim,Tâmega e Sousa,309,2025-07-18T17:53:00Z,25698189,Em Resolução/Conclusão,3103,Incêndio rural,0,1,0,5,2025-07-18T17:53:00Z,Amarante,Porto,Norte,-8.106882,41.26401,Resolução/Conclusão
25698842,Mozelos,Area M. Porto,309,2025-07-18T20:20:00Z,25698842,Em Resolução/Conclusão,3103,Incêndio rural,0,1,0,5,2025-07-18T20:20:00Z,Santa Maria Da Feira,Aveiro,Norte,-8.562222,41.00945,Resolução/Conclusão
25698975,Caparica e Trafaria,Península de Setúbal,311,2025-07-18T20:42:00Z,25698975,Em Resolução/Conclusão,3103,Incêndio rural,0,1,0,5,2025-07-18T20:42:00Z,Almada,Setúbal,Área Metropolitana De Lisboa,-9.218537,38.64447,Resolução/Conclusão
25695378,Refóios do Lima,Alto Minho,309,2025-07-18T08:35:00Z,25695378,Em Resolução/Conclusão,3103,Incêndio rural,0,3,0,8,2025-07-18T08:35:00Z,Ponte De Lima,Viana Do Castelo,Norte,-8.52127,41.804412,Resolução/Conclusão
25697900,Pias,Baixo Alentejo,312,2025-07-18T16:52:00Z,25697900,Em Resolução/Conclusão,3105,Incêndio rural,0,3,0,12,2025-07-18T16:52:00Z,Serpa,Beja,Alentejo,-7.484853,38.020383,Resolução/Conclusão
25698177,Mafra,Grande Lisboa,311,2025-07-18T17:46:00Z,25698177,Em Resolução/Conclusão,3101,Incêndio rural,0,6,0,20,2025-07-18T17:46:00Z,Mafra,Lisboa,Área Metropolitana De Lisboa,-9.379183,38.944485,Resolução/Conclusão
25698472,Pinhal Novo,Península de Setúbal,311,2025-07-18T18:55:00Z,25698472,Em Resolução/Conclusão,3105,Incêndio rural,0,0,0,0,2025-07-18T18:55:00Z,Palmela,Setúbal,Área Metropolitana De Lisboa,-8.937928,38.63138,Resolução/Conclusão
25698811,Penacova,Região de Coimbra,310,2025-07-18T20:12:00Z,25698811,Em Resolução/Conclusão,3101,Incêndio rural,0,5,0,21,2025-07-18T20:12:00Z,Penacova,Coimbra,Centro,-8.258354,40.247219,Resolução/Conclusão
25692562,Atouguia,Médio Tejo,311,2025-07-17T15:31:00Z,25692562,Em Resolução/Conclusão,3101,Incêndio rural,0,3,0,12,2025-07-17T15:31:00Z,Ourém,Santarém,Centro,-8.62029,39.654072,Resolução/Conclusão
25692814,Tolosa,Alto Alentejo,312,2025-07-17T16:23:00Z,25692814,Em Resolução/Conclusão,3103,Incêndio rural,0,2,0,7,2025-07-17T16:23:00Z,Nisa,Portalegre,Alentejo,-7.635642,39.486993,Resolução/Conclusão
25698385,Marinha Das Ondas,Região de Coimbra,310,2025-07-18T18:37:00Z,25698385,Em Resolução/Conclusão,3101,Incêndio rural,0,1,0,5,2025-07-18T18:37:00Z,Figueira Da Foz,Coimbra,Centro,-8.85194,40.03861,Resolução/Conclusão
25698687,Repeses e São Salvador,Viseu Dão Lafões,310,2025-07-18T19:44:00Z,25698687,Em Resolução/Conclusão,3103,Incêndio rural,0,9,0,43,2025-07-18T19:44:00Z,Viseu,Viseu,Centro,-7.922508,40.643612,Resolução/Conclusão
25698973,"Torres Novas (Santa Maria, Salvador e Santiago)",Médio Tejo,311,2025-07-18T20:52:00Z,25698973,Em Despacho,3103,Incêndio rural,0,11,0,42,2025-07-18T20:52:00Z,Torres Novas,Santarém,Centro,-8.539335,39.476394,Despacho
