id,address,subregion,neighborhood,date,id.1,state,nature,nature_description,aerial_means,terrestrial_means,aquatic_means,operational,date.1,Concelho,Distrito,NUTII_DSG,longitude,latitude
25593098,Serpa (Salvador e Santa Maria),Baixo Alentejo,312,2025-06-28T12:57:00Z,25593098,Em resolução,3105,Incêndio rural,0,10,0,27,2025-06-28T12:57:00Z,Serpa,Beja,Alentejo,-7.518193,37.997937
25593757,Alburitel,Médio Tejo,311,2025-06-28T15:08:00Z,25593757,Em conclusão,2301,Incêndio em transporte rodoviário,0,3,0,6,2025-06-28T15:08:00Z,Ourém,Santarém,Centro,-8.538137,39.63656
25593807,Alburitel,Médio Tejo,311,2025-06-28T15:19:00Z,25593807,Em conclusão,3103,Incêndio rural,0,2,0,7,2025-06-28T15:19:00Z,Ourém,Santarém,Centro,-8.538137,39.63656
25593866,Ribeirão,Ave,309,2025-06-28T15:25:00Z,25593866,Em despacho,3107,Consolidação de rescaldo de incêndio rural,0,1,0,2,2025-06-28T15:25:00Z,Vila Nova De Famalicão,Braga,Norte,-8.558043,41.368877
25593907,Sé e São Lourenço,Alto Alentejo,312,2025-06-28T15:30:00Z,25593907,Em conclusão,3103,Incêndio rural,0,9,0,32,2025-06-28T15:30:00Z,Portalegre,Portalegre,Alentejo,-7.439875,39.304592
25593927,Mina de Água,Grande Lisboa,311,2025-06-28T15:43:00Z,25593927,Em conclusão,2101,Incêndio em edifícios habitacionais,0,4,0,11,2025-06-28T15:43:00Z,Amadora,Lisboa,Área Metropolitana De Lisboa,-9.228086,38.77113
25594107,Caíde de Rei,Tâmega e Sousa,309,2025-06-28T16:29:00Z,25594107,Em resolução,3105,Incêndio rural,0,1,0,5,2025-06-28T16:29:00Z,Lousada,Porto,Norte,-8.230027,41.250043
25593167,Ermelo e Pardelhas,Ave,309,2025-06-28T13:11:00Z,25593167,Em resolução,3107,Consolidação de rescaldo de incêndio rural,0,1,0,4,2025-06-28T13:11:00Z,Mondim De Basto,Vila Real,Norte,-7.85282,41.36145
25593218,Urqueira,Médio Tejo,311,2025-06-28T13:24:00Z,25593218,Em conclusão,3103,Incêndio rural,0,0,0,0,2025-06-28T13:24:00Z,Ourém,Santarém,Centro,-8.579262,39.760715
25593470,Duas Igrejas,Tâmega e Sousa,309,2025-06-28T14:16:00Z,25593470,Em curso,3103,Incêndio rural,3,12,0,46,2025-06-28T14:16:00Z,Penafiel,Porto,Norte,-8.278005,41.170128
25593769,Campo,Viseu Dão Lafões,310,2025-06-28T15:10:00Z,25593769,Em conclusão,3103,Incêndio rural,0,8,0,21,2025-06-28T15:10:00Z,Viseu,Viseu,Centro,-7.95445,40.690428
25594005,Paços de Ferreira,Tâmega e Sousa,309,2025-06-28T16:01:00Z,25594005,Em resolução,3103,Incêndio rural,0,3,0,12,2025-06-28T16:01:00Z,Paços De Ferreira,Porto,Norte,-8.38478,41.265605
25594106,Rebordões,Area M. Porto,309,2025-06-28T16:25:00Z,25594106,Em resolução,3103,Incêndio rural,0,3,0,15,2025-06-28T16:25:00Z,Santo Tirso,Porto,Norte,-8.424557,41.345995
25592306,Vilarinho Dos Freires,Douro,309,2025-06-28T10:08:00Z,25592306,Em conclusão,3103,Incêndio rural,0,11,0,35,2025-06-28T10:08:00Z,Peso Da Régua,Vila Real,Norte,-7.733775,41.207972
25592954,Lomba,Area M. Porto,309,2025-06-28T12:21:00Z,25592954,Em conclusão,3103,Incêndio rural,0,5,0,18,2025-06-28T12:21:00Z,Gondomar,Porto,Norte,-8.404907,41.03697
25593349,Labruja,Alto Minho,309,2025-06-28T13:50:00Z,25593349,Em curso,3107,Consolidação de rescaldo de incêndio rural,0,2,0,10,2025-06-28T13:50:00Z,Ponte De Lima,Viana Do Castelo,Norte,-8.591233,41.835535
25593674,Silves,Algarve,313,2025-06-28T14:51:00Z,25593674,Em resolução,3103,Incêndio rural,0,9,0,28,2025-06-28T14:51:00Z,Silves,Faro,Algarve,-8.41948,37.19032
25593933,Azeitão (São Lourenço e São Simão),Península de Setúbal,311,2025-06-28T15:45:00Z,25593933,Em conclusão,3105,Incêndio rural,0,6,0,20,2025-06-28T15:45:00Z,Setúbal,Setúbal,Área Metropolitana De Lisboa,-9.000672,38.553398
25594142,Pontével,Lezíria do Tejo,311,2025-06-28T16:32:00Z,25594142,Em conclusão,3103,Incêndio rural,0,2,0,7,2025-06-28T16:32:00Z,Cartaxo,Santarém,Alentejo,-8.818611,39.12389
25594176,"Geraz do Lima (S.maria, S.leocádia, Moreira), Deão",Alto Minho,309,2025-06-28T16:31:00Z,25594176,Em curso,3103,Incêndio rural,0,1,0,5,2025-06-28T16:31:00Z,Viana Do Castelo,Viana Do Castelo,Norte,-8.675355,41.704457
25592341,Lomba,Area M. Porto,309,2025-06-28T10:12:00Z,25592341,Em conclusão,3107,Consolidação de rescaldo de incêndio rural,0,1,0,5,2025-06-28T10:12:00Z,Gondomar,Porto,Norte,-8.411494,41.057475
25593094,Sobrosa,Area M. Porto,309,2025-06-28T12:54:00Z,25593094,Em conclusão,3103,Incêndio rural,0,8,0,23,2025-06-28T12:54:00Z,Paredes,Porto,Norte,-8.35855,41.256482
25593747,Miranda do Corvo,Região de Coimbra,310,2025-06-28T15:06:00Z,25593747,Em conclusão,3101,Incêndio rural,0,3,0,8,2025-06-28T15:06:00Z,Miranda Do Corvo,Coimbra,Centro,-8.35944,40.14194
25594011,Cortegaça,Região de Aveiro,310,2025-06-28T16:03:00Z,25594011,Em conclusão,3101,Incêndio rural,0,6,0,20,2025-06-28T16:03:00Z,Ovar,Aveiro,Centro,-8.638255,40.94137
25594197,Campo e Campinho,Alentejo Central,312,2025-06-28T16:43:00Z,25594197,Em despacho,2129,Incêndio em edifícios degradados ou devolutos,0,4,0,10,2025-06-28T16:43:00Z,Reguengos De Monsaraz,Évora,Alentejo,-7.467166,38.363867
25594231,Ramada e Caneças,Grande Lisboa,311,2025-06-28T16:44:00Z,25594231,Em resolução,3103,Incêndio rural,0,4,0,17,2025-06-28T16:44:00Z,Odivelas,Lisboa,Área Metropolitana De Lisboa,-9.194441,38.801427
25594242,Pataias e Martingança,Oeste,311,2025-06-28T16:47:00Z,25594242,Em despacho,3101,Incêndio rural,1,5,0,28,2025-06-28T16:47:00Z,Alcobaça,Leiria,Centro,-8.943291,39.68794
25594237,Caria,Beiras e Serra da Estrela,310,2025-06-28T16:50:00Z,25594237,Em despacho,3103,Incêndio rural,1,10,0,46,2025-06-28T16:50:00Z,Belmonte,Castelo Branco,Centro,-7.355793,40.282247
