id,address,subregion,neighborhood,date,id.1,state,nature,nature_description,aerial_means,terrestrial_means,aquatic_means,operational,date.1,Concelho,Distrito,NUTII_DSG,longitude,latitude
25063232,Santa Maria do Castelo e Santiago e Santa Susana,Alentejo Litoral,312,2025-03-09T19:02:00Z,25063232,Em curso,1101,Cheia,0,0,0,0,2025-03-09T19:02:00Z,Alcácer Do Sal,Setúbal,Alentejo,-8.48167,38.29806
25109696,Soalhães,Tâmega e Sousa,309,2025-03-19T14:39:00Z,25109696,Em conclusão,3301,Queda de árvore,0,1,0,2,2025-03-19T14:39:00Z,Marco De Canaveses,Porto,Norte,-8.095816,41.164388
25109978,Monchique,Algarve,313,2025-03-19T15:11:00Z,25109978,Em curso,3301,Queda de árvore,0,2,0,5,2025-03-19T15:11:00Z,Monchique,Faro,Algarve,-8.559443,37.306366
25109995,Corroios,Península de Setúbal,311,2025-03-19T15:32:00Z,25109995,Em despacho,3329,Queda de estruturas temporárias ou móveis,0,1,0,3,2025-03-19T15:32:00Z,Seixal,Setúbal,Área Metropolitana De Lisboa,-9.143762,38.636133
25110044,Azeitão (São Lourenço e São Simão),Península de Setúbal,311,2025-03-19T15:41:00Z,25110044,Em despacho,3301,Queda de árvore,0,1,0,4,2025-03-19T15:41:00Z,Setúbal,Setúbal,Área Metropolitana De Lisboa,-8.981834,38.539233
25110080,São João Das Lampas e Terrugem,Grande Lisboa,311,2025-03-19T15:50:00Z,25110080,Em despacho,3321,Dano na rede de fornecimento de eletricidade ,0,0,0,0,2025-03-19T15:50:00Z,Sintra,Lisboa,Área Metropolitana De Lisboa,-9.395219,38.92634
25110093,Santa Clara e Castelo Viegas,Região de Coimbra,310,2025-03-19T15:47:00Z,25110093,Em despacho,3301,Queda de árvore,0,1,0,3,2025-03-19T15:47:00Z,Coimbra,Coimbra,Centro,-8.430244,40.197439
25087162,Pedrógão,Baixo Alentejo,312,2025-03-14T17:00:00Z,25087162,Em curso,1101,Cheia,0,0,0,0,2025-03-14T17:00:00Z,Vidigueira,Beja,Alentejo,-7.630327,38.110775
25108988,"Alto do Seixalinho, Santo André e Verderena",Península de Setúbal,311,2025-03-19T12:45:00Z,25108988,Em despacho,3329,Queda de estruturas temporárias ou móveis,0,2,0,6,2025-03-19T12:45:00Z,Barreiro,Setúbal,Área Metropolitana De Lisboa,-9.056708,38.653969
25109147,Alcabideche,Grande Lisboa,311,2025-03-19T13:05:00Z,25109147,Em conclusão,3301,Queda de árvore,0,1,0,6,2025-03-19T13:05:00Z,Cascais,Lisboa,Área Metropolitana De Lisboa,-9.438785,38.755713
25109254,"S.maria, S.miguel, S.martinho, S.pedro Penaferrim",Grande Lisboa,311,2025-03-19T13:30:00Z,25109254,Em conclusão,3301,Queda de árvore,0,1,0,2,2025-03-19T13:30:00Z,Sintra,Lisboa,Área Metropolitana De Lisboa,-9.39664,38.76786
25109529,Torres do Mondego,Região de Coimbra,310,2025-03-19T14:10:00Z,25109529,Em despacho,3301,Queda de árvore,0,2,0,5,2025-03-19T14:10:00Z,Coimbra,Coimbra,Centro,-8.362208,40.22101
25109681,"S.maria, S.miguel, S.martinho, S.pedro Penaferrim",Grande Lisboa,311,2025-03-19T14:35:00Z,25109681,Em despacho,3329,Queda de estruturas temporárias ou móveis,0,1,0,3,2025-03-19T14:35:00Z,Sintra,Lisboa,Área Metropolitana De Lisboa,-9.366763,38.781718
25068300,Almeirim,Lezíria do Tejo,311,2025-03-10T20:52:00Z,25068300,Em curso,1101,Cheia,0,0,0,0,2025-03-10T20:52:00Z,Almeirim,Santarém,Alentejo,-8.635002,39.187436
25109482,Algueirão-Mem Martins,Grande Lisboa,311,2025-03-19T13:55:00Z,25109482,Em despacho,3329,Queda de estruturas temporárias ou móveis,0,1,0,2,2025-03-19T13:55:00Z,Sintra,Lisboa,Área Metropolitana De Lisboa,-9.340934,38.801232
25109730,Cela,Oeste,311,2025-03-19T14:44:00Z,25109730,Em conclusão,3301,Queda de árvore,0,2,0,6,2025-03-19T14:44:00Z,Alcobaça,Leiria,Centro,-9.047246,39.526851
25109782,"Almargem do Bispo, Pêro Pinheiro e Montelavar",Grande Lisboa,311,2025-03-19T14:56:00Z,25109782,Em curso,3311,Queda de elementos de estruturas edificados,0,1,0,4,2025-03-19T14:56:00Z,Sintra,Lisboa,Área Metropolitana De Lisboa,-9.31502,38.85228
25059714,Torrão,Alentejo Litoral,312,2025-03-08T22:10:00Z,25059714,Em curso,1101,Cheia,0,2,0,3,2025-03-08T22:10:00Z,Alcácer Do Sal,Setúbal,Alentejo,-8.359133,38.252053
25070044,Praia do Ribatejo,Médio Tejo,311,2025-03-10T19:30:00Z,25070044,Em curso,1101,Cheia,0,0,0,0,2025-03-10T19:30:00Z,Vila Nova Da Barquinha,Santarém,Centro,-8.357309,39.485638
25071496,São Manços e São Vicente do Pigeiro,Alentejo Central,312,2025-03-11T13:18:00Z,25071496,Em curso,1101,Cheia,0,2,0,4,2025-03-11T13:18:00Z,Évora,Évora,Alentejo,-7.713313,38.513673
25107996,Arega,Região de Leiria,310,2025-03-19T09:30:00Z,25107996,Em despacho,3313,Deslizamento de terras,0,2,0,3,2025-03-19T09:30:00Z,Figueiró Dos Vinhos,Leiria,Centro,-8.329272,39.800486
25109487,Ramada e Caneças,Grande Lisboa,311,2025-03-19T14:09:00Z,25109487,Em despacho,3301,Queda de árvore,0,1,0,5,2025-03-19T14:09:00Z,Odivelas,Lisboa,Área Metropolitana De Lisboa,-9.224517,38.811058
25109534,Tarouca e Dálvares,Douro,309,2025-03-19T14:17:00Z,25109534,Em despacho,3301,Queda de árvore,0,1,0,2,2025-03-19T14:17:00Z,Tarouca,Viseu,Norte,-7.772894,41.019436
25109867,Espinho,Região de Coimbra,310,2025-03-19T15:02:00Z,25109867,Em despacho,3301,Queda de árvore,0,3,0,8,2025-03-19T15:02:00Z,Mortágua,Viseu,Centro,-8.295708,40.413843
25109947,"S.maria, S.miguel, S.martinho, S.pedro Penaferrim",Grande Lisboa,311,2025-03-19T14:35:00Z,25109947,Em despacho,3301,Queda de árvore,0,1,0,3,2025-03-19T14:35:00Z,Sintra,Lisboa,Área Metropolitana De Lisboa,-9.366763,38.781718
25110001,Lousa,Grande Lisboa,311,2025-03-19T15:34:00Z,25110001,Em despacho,3301,Queda de árvore,0,1,0,1,2025-03-19T15:34:00Z,Loures,Lisboa,Área Metropolitana De Lisboa,-9.203808,38.888715
25110015,Bonfim,Area M. Porto,309,2025-03-19T15:20:00Z,25110015,Em despacho,3311,Queda de elementos de estruturas edificados,0,2,0,7,2025-03-19T15:20:00Z,Porto,Porto,Norte,-8.596119,41.151713
25110042,São João Das Lampas e Terrugem,Grande Lisboa,311,2025-03-19T15:37:00Z,25110042,Em resolução,3315,Inundação de estruturas por precipitação intensa,0,2,0,5,2025-03-19T15:37:00Z,Sintra,Lisboa,Área Metropolitana De Lisboa,-9.442718,38.844843
25110047,Madalena e Beselga,Médio Tejo,311,2025-03-19T15:43:00Z,25110047,Em despacho,3321,Dano na rede de fornecimento de eletricidade ,0,2,0,6,2025-03-19T15:43:00Z,Tomar,Santarém,Centro,-8.418174,39.557122
25109954,Mafra,Grande Lisboa,311,2025-03-19T15:21:00Z,25109954,Em despacho,3311,Queda de elementos de estruturas edificados,0,2,0,7,2025-03-19T15:21:00Z,Mafra,Lisboa,Área Metropolitana De Lisboa,-9.356043,38.961979
25109968,Barcarena,Grande Lisboa,311,2025-03-19T15:28:00Z,25109968,Em conclusão,3301,Queda de árvore,0,1,0,5,2025-03-19T15:28:00Z,Oeiras,Lisboa,Área Metropolitana De Lisboa,-9.277392,38.733987
25110105,Sesimbra (Castelo),Península de Setúbal,311,2025-03-19T15:49:00Z,25110105,Em despacho,3301,Queda de árvore,0,1,0,5,2025-03-19T15:49:00Z,Sesimbra,Setúbal,Área Metropolitana De Lisboa,-9.101463,38.479751
25110137,Montargil,Alto Alentejo,312,2025-03-19T16:00:00Z,25110137,Em despacho,3301,Queda de árvore,0,1,0,3,2025-03-19T16:00:00Z,Ponte De Sor,Portalegre,Alentejo,-8.167765,39.078287
25109907,Santana do Mato,Lezíria do Tejo,311,2025-03-19T15:18:00Z,25109907,Em curso,3301,Queda de árvore,0,3,0,9,2025-03-19T15:18:00Z,Coruche,Santarém,Alentejo,-8.412243,38.856197
25110009,Cascais e Estoril,Grande Lisboa,311,2025-03-19T15:27:00Z,25110009,Em despacho,3301,Queda de árvore,0,1,0,5,2025-03-19T15:27:00Z,Cascais,Lisboa,Área Metropolitana De Lisboa,-9.374686,38.707771
25110073,Santa Cruz da Trapa e São Cristóvão de Lafões,Viseu Dão Lafões,310,2025-03-19T15:43:00Z,25110073,Em despacho,3301,Queda de árvore,0,1,0,4,2025-03-19T15:43:00Z,São Pedro Do Sul,Viseu,Centro,-8.149709,40.773265
25110123,Benfica do Ribatejo,Lezíria do Tejo,311,2025-03-19T15:59:00Z,25110123,Em despacho,3301,Queda de árvore,0,0,0,0,2025-03-19T15:59:00Z,Almeirim,Santarém,Alentejo,-8.6637,39.12794
25110051,Mora,Alentejo Central,312,2025-03-19T15:39:00Z,25110051,Em resolução,3301,Queda de árvore,0,2,0,7,2025-03-19T15:39:00Z,Mora,Évora,Alentejo,-8.191393,38.941088
25110081,Alvito,Baixo Alentejo,312,2025-03-19T15:46:00Z,25110081,Em curso,3301,Queda de árvore,0,1,0,4,2025-03-19T15:46:00Z,Alvito,Beja,Alentejo,-8.005897,38.222244
25110106,São Teotónio,Alentejo Litoral,312,2025-03-19T15:54:00Z,25110106,Em despacho,3301,Queda de árvore,0,3,0,7,2025-03-19T15:54:00Z,Odemira,Beja,Alentejo,-8.803445,37.599856
25110131,Espinho,Area M. Porto,309,2025-03-19T15:57:00Z,25110131,Em despacho,3311,Queda de elementos de estruturas edificados,0,2,0,5,2025-03-19T15:57:00Z,Espinho,Aveiro,Norte,-8.64903,41.00893
