id,address,subregion,neighborhood,date,id.1,state,nature,nature_description,aerial_means,terrestrial_means,aquatic_means,operational,date.1,Concelho,Distrito,NUTII_DSG,longitude,latitude,state_2
25773830,Andrães,Douro,309,2025-08-02T14:23:00Z,25773830,Em Resolução/Conclusão,3103,Incêndio rural,0,0,0,0,2025-08-02T14:23:00Z,Vila Real,Vila Real,Norte,-7.671293,41.267593,Resolução/Conclusão
25774883,Arnóia,Tâmega e Sousa,309,2025-08-02T18:20:00Z,25774883,Em Resolução/Conclusão,3103,Incêndio rural,0,2,0,6,2025-08-02T18:20:00Z,Celorico De Basto,Braga,Norte,-7.998983,41.348727,Resolução/Conclusão
25804968,Alvadia,Alto Tâmega e Barroso,309,2025-08-08T07:21:00Z,25804968,Em Resolução/Conclusão,3103,Incêndio rural,0,26,0,89,2025-08-08T07:21:00Z,Ribeira De Pena,Vila Real,Norte,-7.782872,41.457452,Resolução/Conclusão
25814493,Cota,Viseu Dão Lafões,310,2025-08-09T20:08:00Z,25814493,Em Resolução/Conclusão,3101,Incêndio rural,0,0,0,0,2025-08-09T20:08:00Z,Viseu,Viseu,Centro,-7.80263,40.777299,Resolução/Conclusão
25818455,Sobral de São Miguel,Beiras e Serra da Estrela,310,2025-08-10T15:02:00Z,25818455,Em Curso,3103,Incêndio rural,8,144,0,435,2025-08-10T15:02:00Z,Covilhã,Castelo Branco,Centro,-7.77307,40.200173,Curso
25823732,Padreiro (Salvador e Santa Cristina),Alto Minho,309,2025-08-11T13:45:00Z,25823732,Em Resolução/Conclusão,3103,Incêndio rural,0,2,0,10,2025-08-11T13:45:00Z,Arcos De Valdevez,Viana Do Castelo,Norte,-8.493513,41.827053,Resolução/Conclusão
25824371,Lindoso,Alto Minho,309,2025-08-11T15:33:00Z,25824371,Em Resolução/Conclusão,3101,Incêndio rural,0,0,0,0,2025-08-11T15:33:00Z,Ponte Da Barca,Viana Do Castelo,Norte,-8.219392,41.865392,Resolução/Conclusão
25824837,Guilhabreu,Area M. Porto,309,2025-08-11T16:55:00Z,25824837,Em Resolução/Conclusão,3103,Incêndio rural,0,1,0,5,2025-08-11T16:55:00Z,Vila Do Conde,Porto,Norte,-8.629313,41.294067,Resolução/Conclusão
25824919,Constantim e Vale de Nogueiras,Douro,309,2025-08-11T17:13:00Z,25824919,Em Resolução/Conclusão,3103,Incêndio rural,0,5,0,23,2025-08-11T17:13:00Z,Vila Real,Vila Real,Norte,-7.680113,41.285368,Resolução/Conclusão
25775263,Torgueda,Douro,309,2025-08-02T19:49:00Z,25775263,Em Resolução/Conclusão,3101,Incêndio rural,0,7,0,23,2025-08-02T19:49:00Z,Vila Real,Vila Real,Norte,-7.785983,41.274952,Resolução/Conclusão
25803707,Almofala e Escarigo,Beiras e Serra da Estrela,310,2025-08-07T20:50:00Z,25803707,Em Resolução/Conclusão,3103,Incêndio rural,0,2,0,10,2025-08-07T20:50:00Z,Figueira De Castelo Rodrigo,Guarda,Centro,-6.847203,40.887165,Resolução/Conclusão
25807426,Alvite,Douro,309,2025-08-08T14:31:00Z,25807426,Em Resolução/Conclusão,3103,Incêndio rural,0,38,0,127,2025-08-08T14:31:00Z,Moimenta Da Beira,Viseu,Norte,-7.688727,40.96613,Resolução/Conclusão
25812717,"Mangualde, Mesquitela e Cunha Alta",Viseu Dão Lafões,310,2025-08-09T12:50:00Z,25812717,Em Resolução/Conclusão,3103,Incêndio rural,0,4,0,14,2025-08-09T12:50:00Z,Mangualde,Viseu,Centro,-7.778468,40.59536,Resolução/Conclusão
25817277,Lorvão,Região de Coimbra,310,2025-08-10T11:09:00Z,25817277,Em Resolução/Conclusão,3101,Incêndio rural,0,2,0,10,2025-08-10T11:09:00Z,Penacova,Coimbra,Centro,-8.31417,40.23889,Resolução/Conclusão
25817913,Valpedre,Tâmega e Sousa,309,2025-08-10T13:18:00Z,25817913,Em Resolução/Conclusão,3103,Incêndio rural,0,6,0,20,2025-08-10T13:18:00Z,Penafiel,Porto,Norte,-8.311582,41.144047,Resolução/Conclusão
25823038,"Crasto, Ruivos e Grovelas",Alto Minho,309,2025-08-11T11:38:00Z,25823038,Em Resolução/Conclusão,3101,Incêndio rural,0,2,0,6,2025-08-11T11:38:00Z,Ponte Da Barca,Viana Do Castelo,Norte,-8.444263,41.762168,Resolução/Conclusão
25823188,Fornos,Tâmega e Sousa,309,2025-08-11T12:07:00Z,25823188,Em Resolução/Conclusão,3105,Incêndio rural,0,1,0,5,2025-08-11T12:07:00Z,Castelo De Paiva,Aveiro,Norte,-8.247402,41.051843,Resolução/Conclusão
25823454,Aguiar de Sousa,Area M. Porto,309,2025-08-11T12:53:00Z,25823454,Em Resolução/Conclusão,3103,Incêndio rural,0,3,0,10,2025-08-11T12:53:00Z,Paredes,Porto,Norte,-8.4251,41.127738,Resolução/Conclusão
25785983,Caçarilhe e Infesta,Tâmega e Sousa,309,2025-08-04T18:22:00Z,25785983,Em Resolução/Conclusão,3103,Incêndio rural,0,6,0,16,2025-08-04T18:22:00Z,Celorico De Basto,Braga,Norte,-8.04611,41.419858,Resolução/Conclusão
25792058,Cibões e Brufe,Cávado,309,2025-08-05T19:10:00Z,25792058,Em Resolução/Conclusão,3103,Incêndio rural,0,1,0,5,2025-08-05T19:10:00Z,Terras De Bouro,Braga,Norte,-8.293932,41.764918,Resolução/Conclusão
25819818,Sobrado e Bairros,Tâmega e Sousa,309,2025-08-10T20:13:00Z,25819818,Em Resolução/Conclusão,3103,Incêndio rural,0,1,0,5,2025-08-10T20:13:00Z,Castelo De Paiva,Aveiro,Norte,-8.252268,41.018942,Resolução/Conclusão
25820422,Távora e Pereiro,Douro,309,2025-08-10T22:27:00Z,25820422,Em Curso,3103,Incêndio rural,2,68,0,220,2025-08-10T22:27:00Z,Tabuaço,Viseu,Norte,-7.55556,41.097602,Curso
25821490,Vreia de Jales,Alto Tâmega e Barroso,309,2025-08-11T07:40:00Z,25821490,Em Resolução/Conclusão,3103,Incêndio rural,0,1,0,4,2025-08-11T07:40:00Z,Vila Pouca De Aguiar,Vila Real,Norte,-7.640608,41.421142,Resolução/Conclusão
25822776,Santos Evos,Viseu Dão Lafões,310,2025-08-11T11:05:00Z,25822776,Em Resolução/Conclusão,3103,Incêndio rural,0,1,0,5,2025-08-11T11:05:00Z,Viseu,Viseu,Centro,-7.810218,40.667813,Resolução/Conclusão
25822851,Salto,Alto Tâmega e Barroso,309,2025-08-11T11:14:00Z,25822851,Em Resolução/Conclusão,3103,Incêndio rural,0,15,0,55,2025-08-11T11:14:00Z,Montalegre,Vila Real,Norte,-7.976273,41.659475,Resolução/Conclusão
25823578,Vilela,Area M. Porto,309,2025-08-11T13:10:00Z,25823578,Em Resolução/Conclusão,3103,Incêndio rural,0,2,0,10,2025-08-11T13:10:00Z,Paredes,Porto,Norte,-8.393883,41.233295,Resolução/Conclusão
25823805,Sé e São Lourenço,Alto Alentejo,312,2025-08-11T13:59:00Z,25823805,Em Resolução/Conclusão,3105,Incêndio rural,0,5,0,17,2025-08-11T13:59:00Z,Portalegre,Portalegre,Alentejo,-7.458013,39.299598,Resolução/Conclusão
25823831,Pico,Cávado,309,2025-08-11T14:03:00Z,25823831,Em Resolução/Conclusão,3103,Incêndio rural,0,2,0,6,2025-08-11T14:03:00Z,Vila Verde,Braga,Norte,-8.421773,41.711832,Resolução/Conclusão
25824154,Paredes,Area M. Porto,309,2025-08-11T14:57:00Z,25824154,Em Resolução/Conclusão,3103,Incêndio rural,0,1,0,5,2025-08-11T14:57:00Z,Paredes,Porto,Norte,-8.335294,41.22836,Resolução/Conclusão
25824172,Vila Boa de Quires e Maureles,Tâmega e Sousa,309,2025-08-11T15:04:00Z,25824172,Em Resolução/Conclusão,3103,Incêndio rural,0,9,0,39,2025-08-11T15:04:00Z,Marco De Canaveses,Porto,Norte,-8.209745,41.18909,Resolução/Conclusão
25824540,Alvão,Alto Tâmega e Barroso,309,2025-08-11T16:02:00Z,25824540,Em Resolução/Conclusão,3103,Incêndio rural,0,3,0,12,2025-08-11T16:02:00Z,Vila Pouca De Aguiar,Vila Real,Norte,-7.749902,41.475382,Resolução/Conclusão
25824756,São Mamede de Infesta e Senhora da Hora,Area M. Porto,309,2025-08-11T16:40:00Z,25824756,Em Resolução/Conclusão,3103,Incêndio rural,0,3,0,10,2025-08-11T16:40:00Z,Matosinhos,Porto,Norte,-8.62871,41.188042,Resolução/Conclusão
25824790,Bemposta,Médio Tejo,311,2025-08-11T16:49:00Z,25824790,Em Resolução/Conclusão,3103,Incêndio rural,0,13,0,43,2025-08-11T16:49:00Z,Abrantes,Santarém,Centro,-8.165642,39.324077,Resolução/Conclusão
25825076,Meia Via,Médio Tejo,311,2025-08-11T17:41:00Z,25825076,Em Despacho,3103,Incêndio rural,0,2,0,10,2025-08-11T17:41:00Z,Torres Novas,Santarém,Centro,-8.501825,39.475071,Despacho
25824032,Ferreira do Alentejo e Canhestros,Baixo Alentejo,312,2025-08-11T14:34:00Z,25824032,Em Resolução/Conclusão,3103,Incêndio rural,0,17,0,42,2025-08-11T14:34:00Z,Ferreira Do Alentejo,Beja,Alentejo,-8.344453,38.025437,Resolução/Conclusão
25824041,Recezinhos (São Martinho),Tâmega e Sousa,309,2025-08-11T14:37:00Z,25824041,Em Resolução/Conclusão,3103,Incêndio rural,0,1,0,5,2025-08-11T14:37:00Z,Penafiel,Porto,Norte,-8.207647,41.225825,Resolução/Conclusão
25824216,Portela e Extremo,Alto Minho,309,2025-08-11T15:08:00Z,25824216,Em Curso,3101,Incêndio rural,0,9,0,29,2025-08-11T15:08:00Z,Arcos De Valdevez,Viana Do Castelo,Norte,-8.448272,41.954047,Curso
25824843,Cimo de Vila da Castanheira,Alto Tâmega e Barroso,309,2025-08-11T16:58:00Z,25824843,Em Resolução/Conclusão,3103,Incêndio rural,1,11,0,45,2025-08-11T16:58:00Z,Chaves,Vila Real,Norte,-7.30766,41.790605,Resolução/Conclusão
25824977,Loulé (São Sebastião),Algarve,313,2025-08-11T17:24:00Z,25824977,Em Resolução/Conclusão,3103,Incêndio rural,1,5,0,26,2025-08-11T17:24:00Z,Loulé,Faro,Algarve,-8.07524,37.10436,Resolução/Conclusão
25776263,"Pena, Quintã e Vila Cova",Douro,309,2025-08-02T23:45:00Z,25776263,Em Curso,3103,Incêndio rural,3,100,0,304,2025-08-02T23:45:00Z,Vila Real,Vila Real,Norte,-7.811902,41.317355,Curso
25783717,Cunha Baixa,Viseu Dão Lafões,310,2025-08-04T11:48:00Z,25783717,Em Resolução/Conclusão,3101,Incêndio rural,0,1,0,2,2025-08-04T11:48:00Z,Mangualde,Viseu,Centro,-7.764411,40.559738,Resolução/Conclusão
25787860,Faíl e Vila Chã de Sá,Viseu Dão Lafões,310,2025-08-05T05:55:00Z,25787860,Em Resolução/Conclusão,3103,Incêndio rural,0,0,0,0,2025-08-05T05:55:00Z,Viseu,Viseu,Centro,-7.987877,40.601342,Resolução/Conclusão
25802450,Canas de Santa Maria,Viseu Dão Lafões,310,2025-08-07T16:14:00Z,25802450,Em Resolução/Conclusão,3103,Incêndio rural,0,1,0,2,2025-08-07T16:14:00Z,Tondela,Viseu,Centro,-8.032777,40.56017,Resolução/Conclusão
25808937,Abrunhosa-a-Velha,Viseu Dão Lafões,310,2025-08-08T19:26:00Z,25808937,Em Resolução/Conclusão,3103,Incêndio rural,0,2,0,7,2025-08-08T19:26:00Z,Mangualde,Viseu,Centro,-7.647667,40.572515,Resolução/Conclusão
25813482,Freches e Torres,Beiras e Serra da Estrela,310,2025-08-09T16:21:00Z,25813482,Em Curso,3103,Incêndio rural,6,213,0,647,2025-08-09T16:21:00Z,Trancoso,Guarda,Centro,-7.363745,40.709022,Curso
25823074,Vila Boa de Quires e Maureles,Tâmega e Sousa,309,2025-08-11T11:45:00Z,25823074,Em Resolução/Conclusão,3103,Incêndio rural,0,6,0,17,2025-08-11T11:45:00Z,Marco De Canaveses,Porto,Norte,-8.201422,41.213995,Resolução/Conclusão
25824796,Moimenta,Tâmega e Sousa,309,2025-08-11T16:49:00Z,25824796,Em Resolução/Conclusão,3103,Incêndio rural,0,1,0,5,2025-08-11T16:49:00Z,Cinfães,Viseu,Norte,-8.201944,41.05,Resolução/Conclusão
25824945,Povolide,Viseu Dão Lafões,310,2025-08-11T17:17:00Z,25824945,Em Resolução/Conclusão,3103,Incêndio rural,0,10,0,37,2025-08-11T17:17:00Z,Viseu,Viseu,Centro,-7.79583,40.660003,Resolução/Conclusão
25825063,Alcabideche,Grande Lisboa,311,2025-08-11T17:35:00Z,25825063,Em Resolução/Conclusão,3103,Incêndio rural,0,2,0,7,2025-08-11T17:35:00Z,Cascais,Lisboa,Área Metropolitana De Lisboa,-9.417389,38.717218,Resolução/Conclusão
