id,address,subregion,neighborhood,date,id.1,state,nature,nature_description,aerial_means,terrestrial_means,aquatic_means,operational,date.1,Concelho,Distrito,NUTII_DSG,longitude,latitude,state_2
25775263,Torgueda,Douro,309,2025-08-02T19:49:00Z,25775263,Em Resolução/Conclusão,3101,Incêndio rural,0,6,0,19,2025-08-02T19:49:00Z,Vila Real,Vila Real,Norte,-7.785983,41.274952,Resolução/Conclusão
25807426,Alvite,Douro,309,2025-08-08T14:31:00Z,25807426,Em Resolução/Conclusão,3103,Incêndio rural,0,17,0,66,2025-08-08T14:31:00Z,Moimenta Da Beira,Viseu,Norte,-7.688727,40.96613,Resolução/Conclusão
25817913,Valpedre,Tâmega e Sousa,309,2025-08-10T13:18:00Z,25817913,Em Resolução/Conclusão,3103,Incêndio rural,0,3,0,9,2025-08-10T13:18:00Z,Penafiel,Porto,Norte,-8.311582,41.144047,Resolução/Conclusão
25823188,Fornos,Tâmega e Sousa,309,2025-08-11T12:07:00Z,25823188,Em Resolução/Conclusão,3105,Incêndio rural,0,1,0,5,2025-08-11T12:07:00Z,Castelo De Paiva,Aveiro,Norte,-8.247402,41.051843,Resolução/Conclusão
25824172,Vila Boa de Quires e Maureles,Tâmega e Sousa,309,2025-08-11T15:04:00Z,25824172,Em Resolução/Conclusão,3103,Incêndio rural,0,4,0,11,2025-08-11T15:04:00Z,Marco De Canaveses,Porto,Norte,-8.209745,41.18909,Resolução/Conclusão
25826678,Landal,Oeste,311,2025-08-12T00:07:00Z,25826678,Em Resolução/Conclusão,3101,Incêndio rural,0,1,0,2,2025-08-12T00:07:00Z,Caldas Da Rainha,Leiria,Centro,-9.020722,39.295158,Resolução/Conclusão
25829740,NA,NA,0,2025-08-12T14:44:00Z,25829740,Em Despacho,3103,Incêndio rural,0,4,0,9,2025-08-12T14:44:00Z,NA,NA,NA,-7.03798,42.004282,Despacho
25829897,"Espírito Santo, Nossa Senhora da Graça e São Simão",Alto Alentejo,312,2025-08-12T15:11:00Z,25829897,Em Resolução/Conclusão,3105,Incêndio rural,0,6,0,21,2025-08-12T15:11:00Z,Nisa,Portalegre,Alentejo,-7.671712,39.441083,Resolução/Conclusão
25776263,"Pena, Quintã e Vila Cova",Douro,309,2025-08-02T23:45:00Z,25776263,Em Curso,3103,Incêndio rural,7,141,0,411,2025-08-02T23:45:00Z,Vila Real,Vila Real,Norte,-7.811902,41.317355,Curso
25813482,Freches e Torres,Beiras e Serra da Estrela,310,2025-08-09T16:21:00Z,25813482,Em Curso,3103,Incêndio rural,9,202,0,596,2025-08-09T16:21:00Z,Trancoso,Guarda,Centro,-7.363745,40.709022,Curso
25824945,Povolide,Viseu Dão Lafões,310,2025-08-11T17:17:00Z,25824945,Em Resolução/Conclusão,3103,Incêndio rural,0,0,0,0,2025-08-11T17:17:00Z,Viseu,Viseu,Centro,-7.79583,40.660003,Resolução/Conclusão
25828555,Boivães,Alto Minho,309,2025-08-12T11:20:00Z,25828555,Em Resolução/Conclusão,3103,Incêndio rural,0,1,0,4,2025-08-12T11:20:00Z,Ponte Da Barca,Viana Do Castelo,Norte,-8.446513,41.757167,Resolução/Conclusão
25829674,"Nossa Senhora do Pópulo, Coto e São Gregório",Oeste,311,2025-08-12T14:37:00Z,25829674,Em Resolução/Conclusão,3103,Incêndio rural,0,0,0,0,2025-08-12T14:37:00Z,Caldas Da Rainha,Leiria,Centro,-9.107878,39.40138,Resolução/Conclusão
25829975,Mouçós e Lamares,Douro,309,2025-08-12T15:27:00Z,25829975,Em Resolução/Conclusão,3103,Incêndio rural,0,3,0,12,2025-08-12T15:27:00Z,Vila Real,Vila Real,Norte,-7.693615,41.311583,Resolução/Conclusão
25830028,Mondim de Basto,Ave,309,2025-08-12T15:39:00Z,25830028,Em Resolução/Conclusão,3103,Incêndio rural,0,3,0,11,2025-08-12T15:39:00Z,Mondim De Basto,Vila Real,Norte,-7.951092,41.393133,Resolução/Conclusão
25785983,Caçarilhe e Infesta,Tâmega e Sousa,309,2025-08-04T18:22:00Z,25785983,Em Resolução/Conclusão,3103,Incêndio rural,0,4,0,9,2025-08-04T18:22:00Z,Celorico De Basto,Braga,Norte,-8.04611,41.419858,Resolução/Conclusão
25792058,Cibões e Brufe,Cávado,309,2025-08-05T19:10:00Z,25792058,Em Resolução/Conclusão,3103,Incêndio rural,0,1,0,5,2025-08-05T19:10:00Z,Terras De Bouro,Braga,Norte,-8.293932,41.764918,Resolução/Conclusão
25819818,Sobrado e Bairros,Tâmega e Sousa,309,2025-08-10T20:13:00Z,25819818,Em Resolução/Conclusão,3103,Incêndio rural,0,1,0,5,2025-08-10T20:13:00Z,Castelo De Paiva,Aveiro,Norte,-8.252268,41.018942,Resolução/Conclusão
25820422,Távora e Pereiro,Douro,309,2025-08-10T22:27:00Z,25820422,Em Curso,3103,Incêndio rural,6,71,0,227,2025-08-10T22:27:00Z,Tabuaço,Viseu,Norte,-7.55556,41.097602,Curso
25822776,Santos Evos,Viseu Dão Lafões,310,2025-08-11T11:05:00Z,25822776,Em Resolução/Conclusão,3103,Incêndio rural,0,1,0,5,2025-08-11T11:05:00Z,Viseu,Viseu,Centro,-7.810218,40.667813,Resolução/Conclusão
25826974,Salto,Alto Tâmega e Barroso,309,2025-08-12T03:35:00Z,25826974,Em Resolução/Conclusão,3103,Incêndio rural,0,1,0,5,2025-08-12T03:35:00Z,Montalegre,Vila Real,Norte,-7.97911,41.650235,Resolução/Conclusão
25830279,"Pena, Quintã e Vila Cova",Douro,309,2025-08-12T16:21:00Z,25830279,Em Resolução/Conclusão,3103,Incêndio rural,0,5,0,19,2025-08-12T16:21:00Z,Vila Real,Vila Real,Norte,-7.86331,41.318053,Resolução/Conclusão
25830378,Ermidas-Sado,Alentejo Litoral,312,2025-08-12T16:42:00Z,25830378,Em Curso,3101,Incêndio rural,4,54,0,173,2025-08-12T16:42:00Z,Santiago Do Cacém,Setúbal,Alentejo,-8.404102,38.056457,Curso
25830513,Pelariga,Região de Leiria,310,2025-08-12T17:10:00Z,25830513,Em Resolução/Conclusão,3101,Incêndio rural,0,6,0,23,2025-08-12T17:10:00Z,Pombal,Leiria,Centro,-8.622348,39.986015,Resolução/Conclusão
25830563,Mosteiro,Beira Baixa,310,2025-08-12T17:19:00Z,25830563,Em Resolução/Conclusão,3103,Incêndio rural,0,1,0,5,2025-08-12T17:19:00Z,Oleiros,Castelo Branco,Centro,-7.983452,39.87832,Resolução/Conclusão
25830630,Safara e Santo Aleixo da Restauração,Baixo Alentejo,312,2025-08-12T17:24:00Z,25830630,Em Curso,3103,Incêndio rural,1,16,0,52,2025-08-12T17:24:00Z,Moura,Beja,Alentejo,-7.089277,38.059982,Curso
25830830,Podence e Santa Combinha,Terras de Trás-os-Montes,309,2025-08-12T18:14:00Z,25830830,Em Despacho,3103,Incêndio rural,0,0,0,0,2025-08-12T18:14:00Z,Macedo De Cavaleiros,Bragança,Norte,-6.92733,41.59221,Despacho
25830104,Abraveses,Viseu Dão Lafões,310,2025-08-12T15:50:00Z,25830104,Em Resolução/Conclusão,3103,Incêndio rural,0,0,0,0,2025-08-12T15:50:00Z,Viseu,Viseu,Centro,-7.942775,40.690638,Resolução/Conclusão
25830256,Fratel,Beira Baixa,310,2025-08-12T16:18:00Z,25830256,Em Resolução/Conclusão,3103,Incêndio rural,0,4,0,7,2025-08-12T16:18:00Z,Vila Velha De Ródão,Castelo Branco,Centro,-7.777318,39.577918,Resolução/Conclusão
25773830,Andrães,Douro,309,2025-08-02T14:23:00Z,25773830,Em Resolução/Conclusão,3103,Incêndio rural,0,0,0,0,2025-08-02T14:23:00Z,Vila Real,Vila Real,Norte,-7.671293,41.267593,Resolução/Conclusão
25774883,Arnóia,Tâmega e Sousa,309,2025-08-02T18:20:00Z,25774883,Em Resolução/Conclusão,3103,Incêndio rural,0,2,0,6,2025-08-02T18:20:00Z,Celorico De Basto,Braga,Norte,-7.998983,41.348727,Resolução/Conclusão
25804968,Alvadia,Alto Tâmega e Barroso,309,2025-08-08T07:21:00Z,25804968,Em Resolução/Conclusão,3103,Incêndio rural,0,11,0,51,2025-08-08T07:21:00Z,Ribeira De Pena,Vila Real,Norte,-7.782872,41.457452,Resolução/Conclusão
25818455,Sobral de São Miguel,Beiras e Serra da Estrela,310,2025-08-10T15:02:00Z,25818455,Em Resolução/Conclusão,3103,Incêndio rural,1,143,0,447,2025-08-10T15:02:00Z,Covilhã,Castelo Branco,Centro,-7.77307,40.200173,Resolução/Conclusão
25828482,Escalos de Cima e Lousa,Beira Baixa,310,2025-08-12T11:10:00Z,25828482,Em Resolução/Conclusão,3103,Incêndio rural,0,1,0,5,2025-08-12T11:10:00Z,Castelo Branco,Castelo Branco,Centro,-7.368352,39.919662,Resolução/Conclusão
25829000,Escalos de Baixo e Mata,Beira Baixa,310,2025-08-12T12:36:00Z,25829000,Em Resolução/Conclusão,3103,Incêndio rural,0,5,0,17,2025-08-12T12:36:00Z,Castelo Branco,Castelo Branco,Centro,-7.3691,39.871955,Resolução/Conclusão
25829250,São João Baptista,Alto Alentejo,312,2025-08-12T13:17:00Z,25829250,Em Resolução/Conclusão,3105,Incêndio rural,0,6,0,24,2025-08-12T13:17:00Z,Campo Maior,Portalegre,Alentejo,-7.04285,39.032642,Resolução/Conclusão
25830150,Landal,Oeste,311,2025-08-12T15:55:00Z,25830150,Em Resolução/Conclusão,3101,Incêndio rural,0,7,0,23,2025-08-12T15:55:00Z,Cadaval,Lisboa,Centro,-9.018853,39.289973,Resolução/Conclusão
25829955,Vila Boa do Bispo,Tâmega e Sousa,309,2025-08-12T15:24:00Z,25829955,Em Resolução/Conclusão,3105,Incêndio rural,0,2,0,4,2025-08-12T15:24:00Z,Marco De Canaveses,Porto,Norte,-8.215792,41.121412,Resolução/Conclusão
25830130,Pataias e Martingança,Oeste,311,2025-08-12T15:57:00Z,25830130,Em Resolução/Conclusão,3103,Incêndio rural,0,1,0,5,2025-08-12T15:57:00Z,Alcobaça,Leiria,Centro,-8.988767,39.677123,Resolução/Conclusão
25830164,Campelo e Ovil,Tâmega e Sousa,309,2025-08-12T16:02:00Z,25830164,Em Resolução/Conclusão,3105,Incêndio rural,0,4,0,15,2025-08-12T16:02:00Z,Baião,Porto,Norte,-8.02631,41.156633,Resolução/Conclusão
25830205,"Mogadouro, Valverde, Vale de Porco e Vilar de Rei",Terras de Trás-os-Montes,309,2025-08-12T16:07:00Z,25830205,Em Resolução/Conclusão,3103,Incêndio rural,0,0,0,0,2025-08-12T16:07:00Z,Mogadouro,Bragança,Norte,-6.71427,41.32039,Resolução/Conclusão
25830257,Vila Alva,Baixo Alentejo,312,2025-08-12T16:21:00Z,25830257,Em Curso,3103,Incêndio rural,0,20,0,63,2025-08-12T16:21:00Z,Cuba,Beja,Alentejo,-7.870563,38.233373,Curso
25830325,Duas Igrejas,Area M. Porto,309,2025-08-12T16:20:00Z,25830325,Em Resolução/Conclusão,3103,Incêndio rural,0,1,0,5,2025-08-12T16:20:00Z,Paredes,Porto,Norte,-8.376281,41.228302,Resolução/Conclusão
25830405,Antas e Ourozinho,Douro,309,2025-08-12T16:36:00Z,25830405,Em Resolução/Conclusão,3103,Incêndio rural,0,4,0,13,2025-08-12T16:36:00Z,Penedono,Viseu,Norte,-7.362458,40.952385,Resolução/Conclusão
25830417,Sezures,Viseu Dão Lafões,310,2025-08-12T16:50:00Z,25830417,Em Resolução/Conclusão,3101,Incêndio rural,0,13,0,48,2025-08-12T16:50:00Z,Penalva Do Castelo,Viseu,Centro,-7.601704,40.72072,Resolução/Conclusão
25830505,Figueira Dos Cavaleiros,Baixo Alentejo,312,2025-08-12T17:08:00Z,25830505,Em Curso,3103,Incêndio rural,0,6,0,22,2025-08-12T17:08:00Z,Ferreira Do Alentejo,Beja,Alentejo,-8.355429,38.111489,Curso
25830573,Melres e Medas,Area M. Porto,309,2025-08-12T17:19:00Z,25830573,Em Curso,3103,Incêndio rural,3,18,0,75,2025-08-12T17:19:00Z,Gondomar,Porto,Norte,-8.42413,41.060482,Curso
25830664,Alhos Vedros,Península de Setúbal,311,2025-08-12T17:38:00Z,25830664,Em Resolução/Conclusão,3103,Incêndio rural,0,0,0,0,2025-08-12T17:38:00Z,Moita,Setúbal,Área Metropolitana De Lisboa,-9.001868,38.652205,Resolução/Conclusão
25830673,Aguiar de Sousa,Area M. Porto,309,2025-08-12T17:40:00Z,25830673,Em Resolução/Conclusão,3103,Incêndio rural,0,1,0,5,2025-08-12T17:40:00Z,Paredes,Porto,Norte,-8.425338,41.126925,Resolução/Conclusão
