id,address,subregion,neighborhood,date,id.1,state,nature,nature_description,aerial_means,terrestrial_means,aquatic_means,operational,date.1,Concelho,Distrito,NUTII_DSG,longitude,latitude
25068300,Almeirim,Lezíria do Tejo,311,2025-03-10T20:52:00Z,25068300,Em curso,1101,Cheia,0,0,0,0,2025-03-10T20:52:00Z,Almeirim,Santarém,Alentejo,-8.635002,39.187436
25110532,Loulé (São Clemente),Algarve,313,2025-03-19T16:20:00Z,25110532,Em despacho,3317,Inundação de estruturas por água canalizada,0,1,0,2,2025-03-19T16:20:00Z,Loulé,Faro,Algarve,-8.018267,37.137687
25110734,"Torres Novas (Santa Maria, Salvador e Santiago)",Médio Tejo,311,2025-03-19T18:10:00Z,25110734,Em conclusão,3301,Queda de árvore,0,0,0,0,2025-03-19T18:10:00Z,Torres Novas,Santarém,Centro,-8.493655,39.4882
25110977,Arganil,Região de Coimbra,310,2025-03-19T19:05:00Z,25110977,Em despacho,3311,Queda de elementos de estruturas edificados,0,1,0,2,2025-03-19T19:05:00Z,Arganil,Coimbra,Centro,-8.049704,40.220309
25111204,Atouguia da Baleia,Oeste,311,2025-03-19T19:57:00Z,25111204,Em curso,3301,Queda de árvore,0,1,0,1,2025-03-19T19:57:00Z,Peniche,Leiria,Centro,-9.293139,39.353139
25111284,"Manique do Intendente, V. N. de São Pedro e Maçussa",Lezíria do Tejo,311,2025-03-19T20:22:00Z,25111284,Em conclusão,3329,Queda de estruturas temporárias ou móveis,0,2,0,6,2025-03-19T20:22:00Z,Azambuja,Lisboa,Alentejo,-8.889528,39.229128
25059714,Torrão,Alentejo Litoral,312,2025-03-08T22:10:00Z,25059714,Em curso,1101,Cheia,0,2,0,3,2025-03-08T22:10:00Z,Alcácer Do Sal,Setúbal,Alentejo,-8.359133,38.252053
25070044,Praia do Ribatejo,Médio Tejo,311,2025-03-10T19:30:00Z,25070044,Em curso,1101,Cheia,0,0,0,0,2025-03-10T19:30:00Z,Vila Nova Da Barquinha,Santarém,Centro,-8.357309,39.485638
25071496,São Manços e São Vicente do Pigeiro,Alentejo Central,312,2025-03-11T13:18:00Z,25071496,Em curso,1101,Cheia,0,2,0,4,2025-03-11T13:18:00Z,Évora,Évora,Alentejo,-7.713313,38.513673
25110573,Cantanhede e Pocariça,Região de Coimbra,310,2025-03-19T17:33:00Z,25110573,Em conclusão,3321,Dano na rede de fornecimento de eletricidade ,0,3,0,8,2025-03-19T17:33:00Z,Cantanhede,Coimbra,Centro,-8.59414,40.35176
25111288,Monte Redondo e Carreira,Região de Leiria,310,2025-03-19T20:19:00Z,25111288,Em despacho,3301,Queda de árvore,0,1,0,2,2025-03-19T20:19:00Z,Leiria,Leiria,Centro,-8.847483,39.892112
25111307,Pousaflores,Região de Leiria,310,2025-03-19T20:25:00Z,25111307,Em despacho,3309,Desabamento de estruturas edificadas,0,1,0,4,2025-03-19T20:25:00Z,Ansião,Leiria,Centro,-8.452183,39.866859
25111379,Santa Clara e Castelo Viegas,Região de Coimbra,310,2025-03-19T20:43:00Z,25111379,Em despacho,3301,Queda de árvore,0,1,0,3,2025-03-19T20:43:00Z,Coimbra,Coimbra,Centro,-8.437323,40.204625
25111388,Vila Verde Dos Francos,Oeste,311,2025-03-19T20:41:00Z,25111388,Em resolução,3301,Queda de árvore,0,1,0,4,2025-03-19T20:41:00Z,Alenquer,Lisboa,Centro,-9.129186,39.155994
25111420,Fátima,Médio Tejo,311,2025-03-19T20:54:00Z,25111420,Em resolução,3321,Dano na rede de fornecimento de eletricidade ,0,3,0,9,2025-03-19T20:54:00Z,Ourém,Santarém,Centro,-8.670268,39.649073
25111443,Monchique,Algarve,313,2025-03-19T20:49:00Z,25111443,Em despacho,3301,Queda de árvore,0,1,0,3,2025-03-19T20:49:00Z,Monchique,Faro,Algarve,-8.589695,37.272914
25111477,Santo António Dos Olivais,Região de Coimbra,310,2025-03-19T21:06:00Z,25111477,Em despacho,3321,Dano na rede de fornecimento de eletricidade ,0,1,0,3,2025-03-19T21:06:00Z,Coimbra,Coimbra,Centro,-8.426807,40.217261
25111486,Póvoa de Santa Iria e Forte da Casa,Grande Lisboa,311,2025-03-19T20:48:00Z,25111486,Em despacho,3311,Queda de elementos de estruturas edificados,0,1,0,4,2025-03-19T20:48:00Z,Vila Franca De Xira,Lisboa,Área Metropolitana De Lisboa,-9.080109,38.86006
25111513,Silves,Algarve,313,2025-03-19T21:04:00Z,25111513,Em curso,3301,Queda de árvore,0,1,0,5,2025-03-19T21:04:00Z,Silves,Faro,Algarve,-8.519646,37.244332
25111518,Malveira e São Miguel de Alcainça,Grande Lisboa,311,2025-03-19T21:18:00Z,25111518,Em resolução,3311,Queda de elementos de estruturas edificados,0,1,0,5,2025-03-19T21:18:00Z,Mafra,Lisboa,Área Metropolitana De Lisboa,-9.29918,38.9198
25111322,Freiria,Oeste,311,2025-03-19T20:29:00Z,25111322,Em despacho,3301,Queda de árvore,0,2,0,7,2025-03-19T20:29:00Z,Torres Vedras,Lisboa,Centro,-9.351589,39.038587
25111409,Foz do Arelho,Oeste,311,2025-03-19T20:46:00Z,25111409,Em conclusão,3301,Queda de árvore,0,1,0,3,2025-03-19T20:46:00Z,Caldas Da Rainha,Leiria,Centro,-9.207478,39.434512
25111425,Batalha,Região de Leiria,310,2025-03-19T20:55:00Z,25111425,Em curso,3311,Queda de elementos de estruturas edificados,0,0,0,0,2025-03-19T20:55:00Z,Batalha,Leiria,Centro,-8.824108,39.65989
25111442,Nogueira do Cravo,Região de Coimbra,310,2025-03-19T20:55:00Z,25111442,Em despacho,3329,Queda de estruturas temporárias ou móveis,0,1,0,2,2025-03-19T20:55:00Z,Oliveira Do Hospital,Coimbra,Centro,-7.893039,40.338066
25111456,Monchique,Algarve,313,2025-03-19T20:53:00Z,25111456,Em despacho,3301,Queda de árvore,0,1,0,3,2025-03-19T20:53:00Z,Monchique,Faro,Algarve,-8.576824,37.328951000000004
25111492,Atouguia da Baleia,Oeste,311,2025-03-19T21:10:00Z,25111492,Em curso,3301,Queda de árvore,0,3,0,5,2025-03-19T21:10:00Z,Peniche,Leiria,Centro,-9.32433,39.339703
25111509,Salvaterra de Magos e Foros de Salvaterra,Lezíria do Tejo,311,2025-03-19T21:14:00Z,25111509,Em resolução,3329,Queda de estruturas temporárias ou móveis,0,3,0,9,2025-03-19T21:14:00Z,Salvaterra De Magos,Santarém,Alentejo,-8.790194,39.028695
25111523,Portimão,Algarve,313,2025-03-19T21:11:00Z,25111523,Em conclusão,3301,Queda de árvore,0,1,0,3,2025-03-19T21:11:00Z,Portimão,Faro,Algarve,-8.532608,37.137966
25063232,Santa Maria do Castelo e Santiago e Santa Susana,Alentejo Litoral,312,2025-03-09T19:02:00Z,25063232,Em curso,1101,Cheia,0,0,0,0,2025-03-09T19:02:00Z,Alcácer Do Sal,Setúbal,Alentejo,-8.48167,38.29806
25111348,"Enxara do Bispo, Gradil e Vila Franca do Rosário",Grande Lisboa,311,2025-03-19T20:25:00Z,25111348,Em despacho,3311,Queda de elementos de estruturas edificados,0,1,0,5,2025-03-19T20:25:00Z,Mafra,Lisboa,Área Metropolitana De Lisboa,-9.256159,38.992708
25111431,Santa Eufémia e Boa Vista,Região de Leiria,310,2025-03-19T20:58:00Z,25111431,Em despacho,3301,Queda de árvore,0,1,0,3,2025-03-19T20:58:00Z,Leiria,Leiria,Centro,-8.746531,39.73764
25111483,Souto da Carpalhosa e Ortigosa,Região de Leiria,310,2025-03-19T21:09:00Z,25111483,Em despacho,3301,Queda de árvore,0,1,0,3,2025-03-19T21:09:00Z,Leiria,Leiria,Centro,-8.843441,39.81062
25111497,Melides,Alentejo Litoral,312,2025-03-19T21:03:00Z,25111497,Em conclusão,3301,Queda de árvore,0,1,0,2,2025-03-19T21:03:00Z,Grândola,Setúbal,Alentejo,-8.697874,38.159887
25111500,Colares,Grande Lisboa,311,2025-03-19T21:07:00Z,25111500,Em despacho,3301,Queda de árvore,0,1,0,3,2025-03-19T21:07:00Z,Sintra,Lisboa,Área Metropolitana De Lisboa,-9.486381,38.778591
25087162,Pedrógão,Baixo Alentejo,312,2025-03-14T17:00:00Z,25087162,Em curso,1101,Cheia,0,0,0,0,2025-03-14T17:00:00Z,Vidigueira,Beja,Alentejo,-7.630327,38.110775
25111362,Benedita,Oeste,311,2025-03-19T20:27:00Z,25111362,Em conclusão,3321,Dano na rede de fornecimento de eletricidade ,0,2,0,4,2025-03-19T20:27:00Z,Alcobaça,Leiria,Centro,-8.999343,39.415534
25111394,Marinha Grande,Região de Leiria,310,2025-03-19T20:49:00Z,25111394,Em despacho,3301,Queda de árvore,0,2,0,3,2025-03-19T20:49:00Z,Marinha Grande,Leiria,Centro,-8.940945,39.76753
25111419,Carvalhal,Oeste,311,2025-03-19T20:43:00Z,25111419,Em resolução,3301,Queda de árvore,0,1,0,4,2025-03-19T20:43:00Z,Bombarral,Leiria,Centro,-9.140539,39.302711
25111421,Febres,Região de Coimbra,310,2025-03-19T20:53:00Z,25111421,Em despacho,3311,Queda de elementos de estruturas edificados,0,1,0,2,2025-03-19T20:53:00Z,Cantanhede,Coimbra,Centro,-8.637168,40.385839
25111529,Aveiras de Baixo,Lezíria do Tejo,311,2025-03-19T21:20:00Z,25111529,Em despacho,3301,Queda de árvore,0,1,0,2,2025-03-19T21:20:00Z,Azambuja,Lisboa,Alentejo,-8.852747,39.09655
25111538,Eixo e Eirol,Região de Aveiro,310,2025-03-19T21:22:00Z,25111538,Em despacho,3301,Queda de árvore,0,1,0,4,2025-03-19T21:22:00Z,Aveiro,Aveiro,Centro,-8.567958,40.62154
25111561,Queluz e Belas,Grande Lisboa,311,2025-03-19T21:26:00Z,25111561,Em despacho,3301,Queda de árvore,0,1,0,4,2025-03-19T21:26:00Z,Sintra,Lisboa,Área Metropolitana De Lisboa,-9.27752,38.7651
25111563,Aljubarrota,Oeste,311,2025-03-19T21:15:00Z,25111563,Em conclusão,3329,Queda de estruturas temporárias ou móveis,0,1,0,4,2025-03-19T21:15:00Z,Alcobaça,Leiria,Centro,-8.95846,39.548545
25111593,Tavarede,Região de Coimbra,310,2025-03-19T21:27:00Z,25111593,Em despacho,3301,Queda de árvore,0,1,0,3,2025-03-19T21:27:00Z,Figueira Da Foz,Coimbra,Centro,-8.853871,40.165854
25111602,Vidais,Oeste,311,2025-03-19T21:28:00Z,25111602,Em despacho,3301,Queda de árvore,0,2,0,7,2025-03-19T21:28:00Z,Caldas Da Rainha,Leiria,Centro,-9.048666,39.369221
25111611,Sesimbra (Castelo),Península de Setúbal,311,2025-03-19T21:35:00Z,25111611,Em despacho,3301,Queda de árvore,0,0,0,0,2025-03-19T21:35:00Z,Sesimbra,Setúbal,Área Metropolitana De Lisboa,-9.106586,38.49022
25111620,Seixo,Região de Coimbra,310,2025-03-19T21:36:00Z,25111620,Em despacho,3329,Queda de estruturas temporárias ou móveis,0,0,0,0,2025-03-19T21:36:00Z,Mira,Coimbra,Centro,-8.722954,40.46458
25111541,Santa Eufémia e Boa Vista,Região de Leiria,310,2025-03-19T21:19:00Z,25111541,Em despacho,3311,Queda de elementos de estruturas edificados,0,1,0,4,2025-03-19T21:19:00Z,Leiria,Leiria,Centro,-8.74943,39.779197
25111542,Pinhal Novo,Península de Setúbal,311,2025-03-19T21:16:00Z,25111542,Em despacho,3301,Queda de árvore,0,1,0,5,2025-03-19T21:16:00Z,Palmela,Setúbal,Área Metropolitana De Lisboa,-8.91294,38.637902
25111573,Fornos de Maceira Dão,Viseu Dão Lafões,310,2025-03-19T21:28:00Z,25111573,Em despacho,3301,Queda de árvore,0,1,0,4,2025-03-19T21:28:00Z,Mangualde,Viseu,Centro,-7.815312,40.600836
25111576,Salvaterra de Magos e Foros de Salvaterra,Lezíria do Tejo,311,2025-03-19T21:29:00Z,25111576,Em despacho,3329,Queda de estruturas temporárias ou móveis,0,1,0,6,2025-03-19T21:29:00Z,Salvaterra De Magos,Santarém,Alentejo,-8.791365,39.03049
25111623,Alqueidão,Região de Coimbra,310,2025-03-19T21:36:00Z,25111623,Em despacho,3301,Queda de árvore,0,0,0,0,2025-03-19T21:36:00Z,Figueira Da Foz,Coimbra,Centro,-8.76809,40.07898
25111624,Alcabideche,Grande Lisboa,311,2025-03-19T21:30:00Z,25111624,Em despacho,3301,Queda de árvore,0,1,0,5,2025-03-19T21:30:00Z,Cascais,Lisboa,Área Metropolitana De Lisboa,-9.438785,38.755713
25111625,"Coz, Alpedriz e Montes",Oeste,311,2025-03-19T21:27:00Z,25111625,Em despacho,3301,Queda de árvore,0,1,0,5,2025-03-19T21:27:00Z,Alcobaça,Leiria,Centro,-8.96247,39.634666
25111517,Lajeosa do Dão,Viseu Dão Lafões,310,2025-03-19T21:15:00Z,25111517,Em despacho,3301,Queda de árvore,0,1,0,2,2025-03-19T21:15:00Z,Tondela,Viseu,Centro,-7.999747,40.535456
25111550,"Camarate, Unhos e Apelação",Grande Lisboa,311,2025-03-19T21:18:00Z,25111550,Em curso,3301,Queda de árvore,0,1,0,5,2025-03-19T21:18:00Z,Loures,Lisboa,Área Metropolitana De Lisboa,-9.139208,38.802817
25111565,Sebal e Belide,Região de Coimbra,310,2025-03-19T21:23:00Z,25111565,Em despacho,3301,Queda de árvore,0,1,0,3,2025-03-19T21:23:00Z,Condeixa-a-Nova,Coimbra,Centro,-8.536649,40.118765
25111566,Portimão,Algarve,313,2025-03-19T21:17:00Z,25111566,Em despacho,3311,Queda de elementos de estruturas edificados,0,1,0,2,2025-03-19T21:17:00Z,Portimão,Faro,Algarve,-8.532608,37.137966
25111567,Alpiarça,Lezíria do Tejo,311,2025-03-19T21:25:00Z,25111567,Em despacho,3309,Desabamento de estruturas edificadas,0,1,0,1,2025-03-19T21:25:00Z,Alpiarça,Santarém,Alentejo,-8.595402,39.262022
25111581,Manteigas (São Pedro),Beiras e Serra da Estrela,310,2025-03-19T21:30:00Z,25111581,Em despacho,3321,Dano na rede de fornecimento de eletricidade ,0,1,0,3,2025-03-19T21:30:00Z,Manteigas,Guarda,Centro,-7.537096,40.398921
25111584,Miranda do Corvo,Região de Coimbra,310,2025-03-19T21:25:00Z,25111584,Em despacho,3329,Queda de estruturas temporárias ou móveis,0,1,0,4,2025-03-19T21:25:00Z,Miranda Do Corvo,Coimbra,Centro,-8.339499,40.09407
25111428,Gondemaria e Olival,Médio Tejo,311,2025-03-19T20:57:00Z,25111428,Em curso,3321,Dano na rede de fornecimento de eletricidade ,0,2,0,7,2025-03-19T20:57:00Z,Ourém,Santarém,Centro,-8.621883,39.719692
25111496,Amoreira,Oeste,311,2025-03-19T20:45:00Z,25111496,Em despacho,3301,Queda de árvore,0,1,0,4,2025-03-19T20:45:00Z,Óbidos,Leiria,Centro,-9.213027,39.342591
25111501,Castanheira do Ribatejo e Cachoeiras,Grande Lisboa,311,2025-03-19T21:05:00Z,25111501,Em despacho,3313,Deslizamento de terras,0,2,0,7,2025-03-19T21:05:00Z,Vila Franca De Xira,Lisboa,Área Metropolitana De Lisboa,-8.979234,38.999552
25111505,Maceira,Região de Leiria,310,2025-03-19T20:56:00Z,25111505,Em despacho,3301,Queda de árvore,0,1,0,3,2025-03-19T20:56:00Z,Leiria,Leiria,Centro,-8.897861,39.69095
25111510,Sesimbra (Castelo),Península de Setúbal,311,2025-03-19T21:06:00Z,25111510,Em curso,3301,Queda de árvore,0,0,0,0,2025-03-19T21:06:00Z,Sesimbra,Setúbal,Área Metropolitana De Lisboa,-9.081806,38.4664
25111530,Barcarena,Grande Lisboa,311,2025-03-19T21:15:00Z,25111530,Em curso,3301,Queda de árvore,0,3,0,9,2025-03-19T21:15:00Z,Oeiras,Lisboa,Área Metropolitana De Lisboa,-9.275236,38.743015
25111537,Santo António Dos Olivais,Região de Coimbra,310,2025-03-19T21:22:00Z,25111537,Em despacho,3301,Queda de árvore,0,0,0,0,2025-03-19T21:22:00Z,Coimbra,Coimbra,Centro,-8.426807,40.217261
25111569,Peniche,Oeste,311,2025-03-19T21:21:00Z,25111569,Em despacho,3321,Dano na rede de fornecimento de eletricidade ,0,1,0,6,2025-03-19T21:21:00Z,Peniche,Leiria,Centro,-9.376833,39.357166
25111580,Marinha Grande,Região de Leiria,310,2025-03-19T21:20:00Z,25111580,Em despacho,3301,Queda de árvore,0,1,0,2,2025-03-19T21:20:00Z,Marinha Grande,Leiria,Centro,-8.958105,39.757184
25111600,Nossa Senhora da Piedade,Médio Tejo,311,2025-03-19T21:33:00Z,25111600,Em despacho,3301,Queda de árvore,0,1,0,5,2025-03-19T21:33:00Z,Ourém,Santarém,Centro,-8.577145,39.671007
25111632,Peniche,Oeste,311,2025-03-19T21:30:00Z,25111632,Em despacho,3329,Queda de estruturas temporárias ou móveis,0,2,0,4,2025-03-19T21:30:00Z,Peniche,Leiria,Centro,-9.376833,39.357166
25111633,"Guia, Ilha e Mata Mourisca",Região de Leiria,310,2025-03-19T21:30:00Z,25111633,Em despacho,3301,Queda de árvore,0,1,0,3,2025-03-19T21:30:00Z,Pombal,Leiria,Centro,-8.789424,39.933884
25111596,Paião,Região de Coimbra,310,2025-03-19T21:30:00Z,25111596,Em despacho,3301,Queda de árvore,0,1,0,2,2025-03-19T21:30:00Z,Figueira Da Foz,Coimbra,Centro,-8.756598,40.054747
25111605,Sesimbra (Castelo),Península de Setúbal,311,2025-03-19T21:25:00Z,25111605,Em despacho,3329,Queda de estruturas temporárias ou móveis,0,1,0,3,2025-03-19T21:25:00Z,Sesimbra,Setúbal,Área Metropolitana De Lisboa,-9.112506,38.449031
25111610,Marrazes e Barosa,Região de Leiria,310,2025-03-19T21:35:00Z,25111610,Em despacho,3301,Queda de árvore,0,0,0,0,2025-03-19T21:35:00Z,Leiria,Leiria,Centro,-8.81813,39.75452
