id,address,subregion,neighborhood,date,id.1,state,nature,nature_description,aerial_means,terrestrial_means,aquatic_means,operational,date.1,Concelho,Distrito,NUTII_DSG,longitude,latitude,state_2
25749937,Moimenta,Tâmega e Sousa,309,2025-07-29T04:11:00Z,25749937,Em Resolução/Conclusão,3103,Incêndio rural,0,25,0,82,2025-07-29T04:11:00Z,Cinfães,Viseu,Norte,-8.173308,41.072792,Resolução/Conclusão
25751241,Molelos,Viseu Dão Lafões,310,2025-07-29T10:43:00Z,25751241,Em Resolução/Conclusão,3103,Incêndio rural,0,1,0,2,2025-07-29T10:43:00Z,Tondela,Viseu,Centro,-8.09574,40.551495,Resolução/Conclusão
25751893,"Espírito Santo, Nossa Senhora da Graça e São Simão",Alto Alentejo,312,2025-07-29T12:32:00Z,25751893,Em Resolução/Conclusão,3101,Incêndio rural,0,2,0,6,2025-07-29T12:32:00Z,Nisa,Portalegre,Alentejo,-7.634827,39.571162,Resolução/Conclusão
25761996,Ninho do Açor e Sobral do Campo,Beira Baixa,310,2025-07-31T10:54:00Z,25761996,Em Resolução/Conclusão,3101,Incêndio rural,0,1,0,5,2025-07-31T10:54:00Z,Castelo Branco,Castelo Branco,Centro,-7.588895,39.990642,Resolução/Conclusão
25763532,Ninho do Açor e Sobral do Campo,Beira Baixa,310,2025-07-31T15:31:00Z,25763532,Em Resolução/Conclusão,3101,Incêndio rural,0,1,0,2,2025-07-31T15:31:00Z,Castelo Branco,Castelo Branco,Centro,-7.57756,39.994833,Resolução/Conclusão
25763650,Milagres,Região de Leiria,310,2025-07-31T15:58:00Z,25763650,Em Resolução/Conclusão,3101,Incêndio rural,0,1,0,2,2025-07-31T15:58:00Z,Leiria,Leiria,Centro,-8.792217,39.793427,Resolução/Conclusão
25767817,Cabanas de Viriato,Viseu Dão Lafões,310,2025-08-01T11:54:00Z,25767817,Em Resolução/Conclusão,3103,Incêndio rural,0,4,0,11,2025-08-01T11:54:00Z,Tondela,Viseu,Centro,-8.120597,40.489477,Resolução/Conclusão
25770009,Bravães,Alto Minho,309,2025-08-01T18:46:00Z,25770009,Em Resolução/Conclusão,3103,Incêndio rural,0,1,0,3,2025-08-01T18:46:00Z,Ponte Da Barca,Viana Do Castelo,Norte,-8.441788,41.787833,Resolução/Conclusão
25738747,Lindoso,Alto Minho,309,2025-07-26T21:47:00Z,25738747,Em Curso,3103,Incêndio rural,0,224,0,635,2025-07-26T21:47:00Z,Ponte Da Barca,Viana Do Castelo,Norte,-8.220528,41.865272,Curso
25747773,Aranhas,Beira Baixa,310,2025-07-28T16:36:00Z,25747773,Em Resolução/Conclusão,3103,Incêndio rural,0,9,0,25,2025-07-28T16:36:00Z,Penamacor,Castelo Branco,Centro,-7.14438,40.117542,Resolução/Conclusão
25751999,Pombal,Região de Leiria,310,2025-07-29T12:53:00Z,25751999,Em Resolução/Conclusão,3101,Incêndio rural,0,1,0,2,2025-07-29T12:53:00Z,Pombal,Leiria,Centro,-8.6801,39.93227,Resolução/Conclusão
25752083,Alcanede,Lezíria do Tejo,311,2025-07-29T13:12:00Z,25752083,Em Resolução/Conclusão,3103,Incêndio rural,0,14,0,44,2025-07-29T13:12:00Z,Santarém,Santarém,Alentejo,-8.802682,39.405543,Resolução/Conclusão
25756620,Recarei,Area M. Porto,309,2025-07-30T10:47:00Z,25756620,Em Resolução/Conclusão,3103,Incêndio rural,0,14,0,37,2025-07-30T10:47:00Z,Paredes,Porto,Norte,-8.416721,41.151,Resolução/Conclusão
25764258,Valongo de Milhais,Douro,309,2025-07-31T18:03:00Z,25764258,Em Resolução/Conclusão,3103,Incêndio rural,0,3,0,11,2025-07-31T18:03:00Z,Murça,Vila Real,Norte,-7.42714,41.46461,Resolução/Conclusão
25766012,"Sande, Vilarinho, Barros e Gomide",Cávado,309,2025-08-01T03:15:00Z,25766012,Em Resolução/Conclusão,3103,Incêndio rural,0,0,0,0,2025-08-01T03:15:00Z,Vila Verde,Braga,Norte,-8.405045,41.734195,Resolução/Conclusão
25766089,"Sande, Vilarinho, Barros e Gomide",Cávado,309,2025-08-01T04:35:00Z,25766089,Em Curso,3103,Incêndio rural,0,30,0,96,2025-08-01T04:35:00Z,Vila Verde,Braga,Norte,-8.38083,41.72917,Curso
25769483,Oura,Alto Tâmega e Barroso,309,2025-08-01T17:12:00Z,25769483,Em Resolução/Conclusão,3103,Incêndio rural,0,1,0,2,2025-08-01T17:12:00Z,Chaves,Vila Real,Norte,-7.562031,41.617352,Resolução/Conclusão
25769624,"Almargem do Bispo, Pêro Pinheiro e Montelavar",Grande Lisboa,311,2025-08-01T17:37:00Z,25769624,Em Resolução/Conclusão,3103,Incêndio rural,0,0,0,0,2025-08-01T17:37:00Z,Sintra,Lisboa,Área Metropolitana De Lisboa,-9.247442,38.842418,Resolução/Conclusão
25770708,Grijó e Sermonde,Area M. Porto,309,2025-08-01T21:49:00Z,25770708,Em Resolução/Conclusão,3103,Incêndio rural,0,1,0,4,2025-08-01T21:49:00Z,Vila Nova De Gaia,Porto,Norte,-8.565243,41.01511,Resolução/Conclusão
25770883,Cinfães,Tâmega e Sousa,309,2025-08-01T22:37:00Z,25770883,Em Resolução/Conclusão,3103,Incêndio rural,0,2,0,10,2025-08-01T22:37:00Z,Cinfães,Viseu,Norte,-8.10472,41.07885,Resolução/Conclusão
25750701,Capela,Tâmega e Sousa,309,2025-07-29T09:26:00Z,25750701,Em Resolução/Conclusão,3103,Incêndio rural,0,57,0,188,2025-07-29T09:26:00Z,Penafiel,Porto,Norte,-8.345202,41.09353,Resolução/Conclusão
25762916,Cota,Viseu Dão Lafões,310,2025-07-31T13:40:00Z,25762916,Em Resolução/Conclusão,3101,Incêndio rural,0,1,0,2,2025-07-31T13:40:00Z,Viseu,Viseu,Centro,-7.801223,40.780375,Resolução/Conclusão
25765473,Sameice e Santa Eulália,Beiras e Serra da Estrela,310,2025-07-31T23:02:00Z,25765473,Em Resolução/Conclusão,3103,Incêndio rural,0,1,0,5,2025-07-31T23:02:00Z,Seia,Guarda,Centro,-7.775783,40.420218,Resolução/Conclusão
25767713,Passô,Douro,309,2025-08-01T11:36:00Z,25767713,Em Resolução/Conclusão,3103,Incêndio rural,0,1,0,2,2025-08-01T11:36:00Z,Moimenta Da Beira,Viseu,Norte,-7.718256,41.011149,Resolução/Conclusão
25767796,"Mangualde, Mesquitela e Cunha Alta",Viseu Dão Lafões,310,2025-08-01T11:50:00Z,25767796,Em Resolução/Conclusão,3103,Incêndio rural,0,1,0,2,2025-08-01T11:50:00Z,Mangualde,Viseu,Centro,-7.788212,40.612402,Resolução/Conclusão
25768400,Paradinha e Nagosa,Douro,309,2025-08-01T13:43:00Z,25768400,Em Resolução/Conclusão,3103,Incêndio rural,0,22,0,80,2025-08-01T13:43:00Z,Moimenta Da Beira,Viseu,Norte,-7.602597,41.01336,Resolução/Conclusão
25769301,Caria,Douro,309,2025-08-01T16:33:00Z,25769301,Em Resolução/Conclusão,3103,Incêndio rural,0,6,0,21,2025-08-01T16:33:00Z,Moimenta Da Beira,Viseu,Norte,-7.591565,40.945662,Resolução/Conclusão
25770506,Duas Igrejas,Area M. Porto,309,2025-08-01T21:03:00Z,25770506,Em Resolução/Conclusão,3103,Incêndio rural,0,1,0,5,2025-08-01T21:03:00Z,Paredes,Porto,Norte,-8.370005,41.222027,Resolução/Conclusão
25770543,Lavradas,Alto Minho,309,2025-08-01T21:11:00Z,25770543,Em Resolução/Conclusão,3103,Incêndio rural,0,3,0,8,2025-08-01T21:11:00Z,Ponte Da Barca,Viana Do Castelo,Norte,-8.465033,41.793673,Resolução/Conclusão
25770702,Loulé (São Clemente),Algarve,313,2025-08-01T21:48:00Z,25770702,Em Resolução/Conclusão,3103,Incêndio rural,0,1,0,5,2025-08-01T21:48:00Z,Loulé,Faro,Algarve,-8.039679,37.114279,Resolução/Conclusão
25770852,Gondar,Tâmega e Sousa,309,2025-08-01T22:29:00Z,25770852,Em Curso,3103,Incêndio rural,0,8,0,28,2025-08-01T22:29:00Z,Amarante,Porto,Norte,-8.025288,41.27175,Curso
25748118,Canelas e Espiunca,Area M. Porto,309,2025-07-28T17:16:00Z,25748118,Em Resolução/Conclusão,3101,Incêndio rural,0,152,0,416,2025-07-28T17:16:00Z,Arouca,Aveiro,Norte,-8.212231,40.969918,Resolução/Conclusão
25749320,Rebordões (Santa Maria),Alto Minho,309,2025-07-28T22:47:00Z,25749320,Em Resolução/Conclusão,3103,Incêndio rural,0,4,0,17,2025-07-28T22:47:00Z,Ponte De Lima,Viana Do Castelo,Norte,-8.588365,41.729993,Resolução/Conclusão
25749641,Silva Escura e Dornelas,Região de Aveiro,310,2025-07-29T01:02:00Z,25749641,Em Resolução/Conclusão,3101,Incêndio rural,0,6,0,16,2025-07-29T01:02:00Z,Sever Do Vouga,Aveiro,Centro,-8.399623,40.769354,Resolução/Conclusão
25756006,Pinhanços,Beiras e Serra da Estrela,310,2025-07-30T09:07:00Z,25756006,Em Resolução/Conclusão,3103,Incêndio rural,0,7,0,20,2025-07-30T09:07:00Z,Seia,Guarda,Centro,-7.708132,40.473517,Resolução/Conclusão
25756459,Nespereira,Tâmega e Sousa,309,2025-07-30T10:20:00Z,25756459,Em Resolução/Conclusão,3103,Incêndio rural,0,8,0,34,2025-07-30T10:20:00Z,Cinfães,Viseu,Norte,-8.130378,41.039695,Resolução/Conclusão
25763964,Pêro Viseu,Beiras e Serra da Estrela,310,2025-07-31T16:58:00Z,25763964,Em Resolução/Conclusão,3103,Incêndio rural,0,1,0,5,2025-07-31T16:58:00Z,Fundão,Castelo Branco,Centro,-7.457652,40.199215,Resolução/Conclusão
25770328,São Miguel de Vila Boa,Viseu Dão Lafões,310,2025-08-01T20:18:00Z,25770328,Em Resolução/Conclusão,3103,Incêndio rural,0,4,0,9,2025-08-01T20:18:00Z,Sátão,Viseu,Centro,-7.753755,40.693043,Resolução/Conclusão
25770665,Sabadim,Alto Minho,309,2025-08-01T21:39:00Z,25770665,Em Curso,3103,Incêndio rural,0,6,0,18,2025-08-01T21:39:00Z,Arcos De Valdevez,Viana Do Castelo,Norte,-8.485485,41.913642,Curso
25770704,Laranjeiro e Feijó,Península de Setúbal,311,2025-08-01T21:49:00Z,25770704,Em Resolução/Conclusão,3103,Incêndio rural,0,5,0,20,2025-08-01T21:49:00Z,Almada,Setúbal,Área Metropolitana De Lisboa,-9.167785,38.659792,Resolução/Conclusão
25770787,Ourique,Baixo Alentejo,312,2025-08-01T22:12:00Z,25770787,Em Resolução/Conclusão,3103,Incêndio rural,0,3,0,9,2025-08-01T22:12:00Z,Ourique,Beja,Alentejo,-8.209453,37.664575,Resolução/Conclusão
25770807,Vila Chã do Marão,Tâmega e Sousa,309,2025-08-01T22:17:00Z,25770807,Em Resolução/Conclusão,3103,Incêndio rural,0,1,0,3,2025-08-01T22:17:00Z,Amarante,Porto,Norte,-8.02668,41.273093,Resolução/Conclusão
25770840,Freixo de Cima e de Baixo,Tâmega e Sousa,309,2025-08-01T22:26:00Z,25770840,Em Despacho,3103,Incêndio rural,0,2,0,10,2025-08-01T22:26:00Z,Amarante,Porto,Norte,-8.14814,41.30665,Despacho
25770991,Encosta do Sol,Grande Lisboa,311,2025-08-01T23:14:00Z,25770991,Em Despacho,3103,Incêndio rural,0,0,0,0,2025-08-01T23:14:00Z,Amadora,Lisboa,Área Metropolitana De Lisboa,-9.2202,38.76901,Despacho
