id,address,subregion,neighborhood,date,id.1,state,nature,nature_description,aerial_means,terrestrial_means,aquatic_means,operational,date.1,Concelho,Distrito,NUTII_DSG,longitude,latitude
24871871,Campanhã,Area M. Porto,309,2025-01-26T11:24:00Z,24871871,Em despacho,3311,Queda de elementos de estruturas edificados,0,1,0,5,2025-01-26T11:24:00Z,Porto,Porto,Norte,-8.581128,41.15419
24871894,Lomar e Arcos,Cávado,309,2025-01-26T11:28:00Z,24871894,Em despacho,3329,Queda de estruturas temporárias ou móveis,0,0,0,0,2025-01-26T11:28:00Z,Braga,Braga,Norte,-8.42985,41.524158
24871865,Lagoa e Carvoeiro,Algarve,313,2025-01-26T11:10:00Z,24871865,Em despacho,3311,Queda de elementos de estruturas edificados,0,1,0,5,2025-01-26T11:10:00Z,Lagoa,Faro,Algarve,-8.449309,37.134614
24871886,Braga (São José de São Lázaro e São João do Souto),Cávado,309,2025-01-26T11:24:00Z,24871886,Em despacho,3329,Queda de estruturas temporárias ou móveis,0,0,0,0,2025-01-26T11:24:00Z,Braga,Braga,Norte,-8.419101,41.543217
24851780,"São Miguel, Santa Eufémia e Rabaçal",Região de Coimbra,310,2025-01-21T23:25:00Z,24851780,Em curso,3315,Inundação de estruturas por precipitação intensa,0,0,0,0,2025-01-21T23:25:00Z,Penela,Coimbra,Centro,-8.399036,40.025502
24871716,"Ovar, São João, Arada e São Vicente de Pereira Jusã",Região de Aveiro,310,2025-01-26T10:35:00Z,24871716,Em resolução,3315,Inundação de estruturas por precipitação intensa,0,1,0,2,2025-01-26T10:35:00Z,Ovar,Aveiro,Centro,-8.671695,40.872857
24871818,Santa Marinha e São Pedro da Afurada,Area M. Porto,309,2025-01-26T11:13:00Z,24871818,Em despacho,3329,Queda de estruturas temporárias ou móveis,0,0,0,0,2025-01-26T11:13:00Z,Vila Nova De Gaia,Porto,Norte,-8.60494,41.1341
