id,address,subregion,neighborhood,date,id.1,state,nature,nature_description,aerial_means,terrestrial_means,aquatic_means,operational,date.1,Concelho,Distrito,NUTII_DSG,longitude,latitude
25048195,"Seixal, Arrentela e Aldeia de Paio Pires",Península de Setúbal,311,2025-03-06T12:00:00Z,25048195,Em despacho,3315,Inundação de estruturas por precipitação intensa,0,1,0,3,2025-03-06T12:00:00Z,Seixal,Setúbal,Área Metropolitana De Lisboa,-9.087279,38.620394
25048412,Palhais e Coina,Península de Setúbal,311,2025-03-06T12:40:00Z,25048412,Em despacho,3315,Inundação de estruturas por precipitação intensa,0,1,0,4,2025-03-06T12:40:00Z,Barreiro,Setúbal,Área Metropolitana De Lisboa,-9.046005,38.625227
25048193,Amora,Península de Setúbal,311,2025-03-06T12:02:00Z,25048193,Em despacho,3315,Inundação de estruturas por precipitação intensa,0,2,0,5,2025-03-06T12:02:00Z,Seixal,Setúbal,Área Metropolitana De Lisboa,-9.125227,38.624582
25047814,Corroios,Península de Setúbal,311,2025-03-06T10:53:00Z,25047814,Em conclusão,3315,Inundação de estruturas por precipitação intensa,0,0,0,0,2025-03-06T10:53:00Z,Seixal,Setúbal,Área Metropolitana De Lisboa,-9.143762,38.636133
25048234,Baixa da Banheira e Vale da Amoreira,Península de Setúbal,311,2025-03-06T12:10:00Z,25048234,Em despacho,3315,Inundação de estruturas por precipitação intensa,0,1,0,5,2025-03-06T12:10:00Z,Moita,Setúbal,Área Metropolitana De Lisboa,-9.043028,38.662183
25048300,Santo António da Charneca,Península de Setúbal,311,2025-03-06T12:18:00Z,25048300,Em despacho,3315,Inundação de estruturas por precipitação intensa,0,1,0,5,2025-03-06T12:18:00Z,Barreiro,Setúbal,Área Metropolitana De Lisboa,-9.029919,38.624451
