id,address,subregion,neighborhood,date,id.1,state,nature,nature_description,aerial_means,terrestrial_means,aquatic_means,operational,date.1,Concelho,Distrito,NUTII_DSG,longitude,latitude,state_2
26013405,Barreiros e Cepões,Viseu Dão Lafões,310,2025-09-19T11:56:00Z,26013405,Em Resolução/Conclusão,3103,Incêndio rural,0,9,0,36,2025-09-19T11:56:00Z,Viseu,Viseu,Centro,-7.786007,40.76602,Resolução/Conclusão
26022429,"Coz, Alpedriz e Montes",Oeste,311,2025-09-21T10:13:00Z,26022429,Em Resolução/Conclusão,3101,Incêndio rural,0,1,0,2,2025-09-21T10:13:00Z,Alcobaça,Leiria,Centro,-8.922105,39.590488,Resolução/Conclusão
26022995,Bordeira,Algarve,313,2025-09-21T12:21:00Z,26022995,Em Curso,3103,Incêndio rural,8,83,0,261,2025-09-21T12:21:00Z,Aljezur,Faro,Algarve,-8.825374,37.23495,Curso
26023264,Arnóia,Tâmega e Sousa,309,2025-09-21T13:33:00Z,26023264,Em Curso,3103,Incêndio rural,1,5,0,32,2025-09-21T13:33:00Z,Celorico De Basto,Braga,Norte,-8.00144,41.34423,Curso
26023279,Ílhavo (São Salvador),Região de Aveiro,310,2025-09-21T13:35:00Z,26023279,Em Resolução/Conclusão,3105,Incêndio rural,0,4,0,17,2025-09-21T13:35:00Z,Ílhavo,Aveiro,Centro,-8.66477,40.59755,Resolução/Conclusão
25951176,Sandomil,Beiras e Serra da Estrela,310,2025-09-06T10:29:00Z,25951176,Em Resolução/Conclusão,3103,Incêndio rural,0,2,0,10,2025-09-06T10:29:00Z,Seia,Guarda,Centro,-7.76001,40.351547,Resolução/Conclusão
26020631,"Tavares (Chãs, Várzea e Travanca)",Viseu Dão Lafões,310,2025-09-20T21:15:00Z,26020631,Em Resolução/Conclusão,3103,Incêndio rural,0,2,0,10,2025-09-20T21:15:00Z,Mangualde,Viseu,Centro,-7.639468,40.609133,Resolução/Conclusão
26023007,Viade de Baixo e Fervidelas,Alto Tâmega e Barroso,309,2025-09-21T12:25:00Z,26023007,Em Resolução/Conclusão,3103,Incêndio rural,0,2,0,8,2025-09-21T12:25:00Z,Montalegre,Vila Real,Norte,-7.82553,41.732438,Resolução/Conclusão
26023037,Rio Maior,Lezíria do Tejo,311,2025-09-21T12:34:00Z,26023037,Em Resolução/Conclusão,3103,Incêndio rural,0,3,0,12,2025-09-21T12:34:00Z,Rio Maior,Santarém,Alentejo,-8.924637,39.35585,Resolução/Conclusão
26003298,Barreiros e Cepões,Viseu Dão Lafões,310,2025-09-17T12:05:00Z,26003298,Em Resolução/Conclusão,3101,Incêndio rural,0,1,0,2,2025-09-17T12:05:00Z,Viseu,Viseu,Centro,-7.825281,40.745844,Resolução/Conclusão
26013065,Mezio e Moura Morta,Viseu Dão Lafões,310,2025-09-19T11:05:00Z,26013065,Em Resolução/Conclusão,3103,Incêndio rural,1,33,0,160,2025-09-19T11:05:00Z,Castro Daire,Viseu,Centro,-7.878187,40.98632,Resolução/Conclusão
26013919,Ervedal e Vila Franca da Beira,Região de Coimbra,310,2025-09-19T13:25:00Z,26013919,Em Resolução/Conclusão,3103,Incêndio rural,0,23,0,75,2025-09-19T13:25:00Z,Oliveira Do Hospital,Coimbra,Centro,-7.90472,40.43917,Resolução/Conclusão
26021680,Cimo de Vila da Castanheira,Alto Tâmega e Barroso,309,2025-09-21T07:00:00Z,26021680,Em Resolução/Conclusão,3103,Incêndio rural,0,2,0,9,2025-09-21T07:00:00Z,Chaves,Vila Real,Norte,-7.303293,41.804648,Resolução/Conclusão
26022857,NA,NA,0,2025-09-21T08:20:00Z,26022857,Em Curso,3103,Incêndio rural,1,5,0,19,2025-09-21T08:20:00Z,NA,NA,NA,-8.10654,41.86587,Curso
25832672,Piódão,Região de Coimbra,310,2025-08-13T05:08:00Z,25832672,Em Resolução/Conclusão,3103,Incêndio rural,0,0,0,0,2025-08-13T05:08:00Z,Arganil,Coimbra,Centro,-7.81972,40.23083,Resolução/Conclusão
26013902,Penacova,Região de Coimbra,310,2025-09-19T13:28:00Z,26013902,Em Resolução/Conclusão,3103,Incêndio rural,0,1,0,4,2025-09-19T13:28:00Z,Penacova,Coimbra,Centro,-8.32583,40.32722,Resolução/Conclusão
26016785,Gralhas,Alto Tâmega e Barroso,309,2025-09-20T01:20:00Z,26016785,Em Resolução/Conclusão,3103,Incêndio rural,5,56,0,211,2025-09-20T01:20:00Z,Montalegre,Vila Real,Norte,-7.720897,41.880163,Resolução/Conclusão
26019877,Guardão,Viseu Dão Lafões,310,2025-09-20T17:50:00Z,26019877,Em Resolução/Conclusão,3103,Incêndio rural,0,6,0,22,2025-09-20T17:50:00Z,Tondela,Viseu,Centro,-8.148484,40.610274,Resolução/Conclusão
26023167,Perozelo,Tâmega e Sousa,309,2025-09-21T13:11:00Z,26023167,Em Resolução/Conclusão,3103,Incêndio rural,0,3,0,15,2025-09-21T13:11:00Z,Penafiel,Porto,Norte,-8.26514,41.14569,Resolução/Conclusão
26023301,Queluz e Belas,Grande Lisboa,311,2025-09-21T13:39:00Z,26023301,Em Despacho,3103,Incêndio rural,1,3,0,21,2025-09-21T13:39:00Z,Sintra,Lisboa,Área Metropolitana De Lisboa,-9.25877,38.77984,Despacho
26023342,Orada,Alentejo Central,312,2025-09-21T13:42:00Z,26023342,Em Despacho,3105,Incêndio rural,0,5,0,16,2025-09-21T13:42:00Z,Borba,Évora,Alentejo,-7.454161,38.875308,Despacho
26023186,Águeda e Borralha,Região de Aveiro,310,2025-09-21T13:13:00Z,26023186,Em Resolução/Conclusão,3105,Incêndio rural,0,4,0,17,2025-09-21T13:13:00Z,Águeda,Aveiro,Centro,-8.437223,40.55552,Resolução/Conclusão
26023354,Beja (Salvador e Santa Maria da Feira),Baixo Alentejo,312,2025-09-21T13:46:00Z,26023354,Em Curso,3105,Incêndio rural,0,4,0,17,2025-09-21T13:46:00Z,Beja,Beja,Alentejo,-7.857487,38.018587,Curso
