id,address,subregion,neighborhood,date,id.1,state,nature,nature_description,aerial_means,terrestrial_means,aquatic_means,operational,date.1,Concelho,Distrito,NUTII_DSG,longitude,latitude
24649675,Montijo e Afonsoeiro,Península de Setúbal,311,2024-12-07T23:31:00Z,24649675,Em curso,3301,Queda de árvore,0,1,0,1,2024-12-07T23:31:00Z,Montijo,Setúbal,Área Metropolitana De Lisboa,-8.975715,38.702323
24649693,"Malhou, Louriceira e Espinheiro",Médio Tejo,311,2024-12-08T00:39:00Z,24649693,Em resolução,3301,Queda de árvore,0,3,0,12,2024-12-08T00:39:00Z,Alcanena,Santarém,Centro,-8.742192,39.461875
24649799,Póvoa de Santo Adrião e Olival Basto,Grande Lisboa,311,2024-12-08T01:40:00Z,24649799,Em despacho,3301,Queda de árvore,0,1,0,5,2024-12-08T01:40:00Z,Odivelas,Lisboa,Área Metropolitana De Lisboa,-9.159939,38.803537
24649629,"Oeiras e S. Julião da Barra, Paço de Arcos e Caxias",Grande Lisboa,311,2024-12-07T23:57:00Z,24649629,Em curso,3301,Queda de árvore,0,5,0,15,2024-12-07T23:57:00Z,Oeiras,Lisboa,Área Metropolitana De Lisboa,-9.31733,38.693742
24649562,Amora,Península de Setúbal,311,2024-12-07T23:26:00Z,24649562,Em curso,3301,Queda de árvore,0,3,0,9,2024-12-07T23:26:00Z,Seixal,Setúbal,Área Metropolitana De Lisboa,-9.14758,38.581152
