id,address,subregion,neighborhood,date,id.1,state,nature,nature_description,aerial_means,terrestrial_means,aquatic_means,operational,date.1,Concelho,Distrito,NUTII_DSG,longitude,latitude
24873550,"Sé, Santa Maria e Meixedo",Terras de Trás-os-Montes,309,2025-01-26T17:46:00Z,24873550,Em curso,3315,Inundação de estruturas por precipitação intensa,0,1,0,2,2025-01-26T17:46:00Z,Bragança,Bragança,Norte,-6.761223,41.813164
24873802,Paranhos,Beiras e Serra da Estrela,310,2025-01-26T18:47:00Z,24873802,Em resolução,3301,Queda de árvore,0,3,0,9,2025-01-26T18:47:00Z,Seia,Guarda,Centro,-7.787098,40.478328
24873950,Rio de Moinhos,Alto Minho,309,2025-01-26T19:19:00Z,24873950,Em conclusão,3313,Deslizamento de terras,0,1,0,2,2025-01-26T19:19:00Z,Arcos De Valdevez,Viana Do Castelo,Norte,-8.452558,41.893777
24874129,Fiães,Area M. Porto,309,2025-01-26T20:04:00Z,24874129,Em conclusão,3301,Queda de árvore,0,1,0,2,2025-01-26T20:04:00Z,Santa Maria Da Feira,Aveiro,Norte,-8.522206,40.985785
24874168,"Britelo, Gémeos e Ourilhe",Tâmega e Sousa,309,2025-01-26T20:18:00Z,24874168,Em despacho,3301,Queda de árvore,0,1,0,2,2025-01-26T20:18:00Z,Celorico De Basto,Braga,Norte,-7.992773,41.391579
24874211,Fornelos e Queijada,Alto Minho,309,2025-01-26T20:15:00Z,24874211,Em conclusão,3301,Queda de árvore,0,0,0,0,2025-01-26T20:15:00Z,Ponte De Lima,Viana Do Castelo,Norte,-8.5641,41.752233
24874213,Antas e Matela,Viseu Dão Lafões,310,2025-01-26T20:29:00Z,24874213,Em despacho,3301,Queda de árvore,0,1,0,3,2025-01-26T20:29:00Z,Penalva Do Castelo,Viseu,Centro,-7.574693,40.695379
24874227,Leomil,Douro,309,2025-01-26T20:35:00Z,24874227,Em despacho,3313,Deslizamento de terras,0,2,0,6,2025-01-26T20:35:00Z,Moimenta Da Beira,Viseu,Norte,-7.636471,40.979311
24874229,Chacim,Terras de Trás-os-Montes,309,2025-01-26T20:35:00Z,24874229,Em despacho,3301,Queda de árvore,0,1,0,2,2025-01-26T20:35:00Z,Macedo De Cavaleiros,Bragança,Norte,-6.903879,41.462748
24874261,Carvalhosa,Tâmega e Sousa,309,2025-01-26T20:35:00Z,24874261,Em curso,3301,Queda de árvore,0,1,0,2,2025-01-26T20:35:00Z,Paços De Ferreira,Porto,Norte,-8.358801,41.300706
24874268,Gulpilhares e Valadares,Area M. Porto,309,2025-01-26T20:35:00Z,24874268,Em despacho,3329,Queda de estruturas temporárias ou móveis,0,1,0,4,2025-01-26T20:35:00Z,Vila Nova De Gaia,Porto,Norte,-8.637978,41.084091
24874279,Paredes de Coura e Resende,Alto Minho,309,2025-01-26T20:35:00Z,24874279,Em despacho,3301,Queda de árvore,0,1,0,3,2025-01-26T20:35:00Z,Paredes De Coura,Viana Do Castelo,Norte,-8.561569,41.905822
24874313,Parreira e Chouto,Lezíria do Tejo,311,2025-01-26T20:59:00Z,24874313,Em despacho,3301,Queda de árvore,0,2,0,4,2025-01-26T20:59:00Z,Chamusca,Santarém,Alentejo,-8.356501,39.193372
24874320,Mancelos,Tâmega e Sousa,309,2025-01-26T21:00:00Z,24874320,Em despacho,3301,Queda de árvore,0,2,0,6,2025-01-26T21:00:00Z,Amarante,Porto,Norte,-8.160586,41.275715
24851780,"São Miguel, Santa Eufémia e Rabaçal",Região de Coimbra,310,2025-01-21T23:25:00Z,24851780,Em curso,3315,Inundação de estruturas por precipitação intensa,0,0,0,0,2025-01-21T23:25:00Z,Penela,Coimbra,Centro,-8.399036,40.025502
24873521,Lanhelas,Alto Minho,309,2025-01-26T17:17:00Z,24873521,Em conclusão,3301,Queda de árvore,0,1,0,5,2025-01-26T17:17:00Z,Caminha,Viana Do Castelo,Norte,-8.784374,41.914049
24873573,"Nossa Senhora da Conceição, São Pedro e São Dinis",Douro,309,2025-01-26T17:56:00Z,24873573,Em despacho,3329,Queda de estruturas temporárias ou móveis,0,1,0,1,2025-01-26T17:56:00Z,Vila Real,Vila Real,Norte,-7.739745,41.30403
24873687,"Nossa Senhora da Conceição, São Pedro e São Dinis",Douro,309,2025-01-26T18:21:00Z,24873687,Em despacho,3309,Desabamento de estruturas edificadas,0,1,0,1,2025-01-26T18:21:00Z,Vila Real,Vila Real,Norte,-7.74444,41.29637
24873704,Codeçoso,Tâmega e Sousa,309,2025-01-26T18:25:00Z,24873704,Em conclusão,3301,Queda de árvore,0,1,0,4,2025-01-26T18:25:00Z,Celorico De Basto,Braga,Norte,-8.02435,41.340993
24874106,Queluz e Belas,Grande Lisboa,311,2025-01-26T20:03:00Z,24874106,Em conclusão,3321,Dano na rede de fornecimento de eletricidade ,0,1,0,4,2025-01-26T20:03:00Z,Sintra,Lisboa,Área Metropolitana De Lisboa,-9.271079,38.77098
24873598,Rebordosa,Area M. Porto,309,2025-01-26T18:01:00Z,24873598,Em despacho,3313,Deslizamento de terras,0,0,0,0,2025-01-26T18:01:00Z,Paredes,Porto,Norte,-8.40324,41.22908
24873882,Janeiro de Cima e Bogas de Baixo,Beiras e Serra da Estrela,310,2025-01-26T19:08:00Z,24873882,Em despacho,3301,Queda de árvore,0,1,0,2,2025-01-26T19:08:00Z,Fundão,Castelo Branco,Centro,-7.80579,40.05508
24874066,Andrães,Douro,309,2025-01-26T19:51:00Z,24874066,Em despacho,3301,Queda de árvore,0,2,0,7,2025-01-26T19:51:00Z,Vila Real,Vila Real,Norte,-7.68558,41.25616
24874113,Alvito (São Pedro e São Martinho) e Couto,Cávado,309,2025-01-26T20:07:00Z,24874113,Em curso,3301,Queda de árvore,0,1,0,2,2025-01-26T20:07:00Z,Barcelos,Braga,Norte,-8.59501,41.61108
24874131,Freixieiro de Soutelo,Alto Minho,309,2025-01-26T19:38:00Z,24874131,Em despacho,3301,Queda de árvore,0,1,0,2,2025-01-26T19:38:00Z,Viana Do Castelo,Viana Do Castelo,Norte,-8.809416,41.791696
24874166,Espinho,Cávado,309,2025-01-26T19:26:00Z,24874166,Em despacho,3301,Queda de árvore,0,1,0,2,2025-01-26T19:26:00Z,Braga,Braga,Norte,-8.358069,41.545513
24874180,Quiaios,Região de Coimbra,310,2025-01-26T20:20:00Z,24874180,Em resolução,3301,Queda de árvore,0,1,0,2,2025-01-26T20:20:00Z,Figueira Da Foz,Coimbra,Centro,-8.863532,40.191009
24874267,"Mêda, Outeiro de Gatos e Fonte Longa",Beiras e Serra da Estrela,310,2025-01-26T20:45:00Z,24874267,Em despacho,3329,Queda de estruturas temporárias ou móveis,0,2,0,5,2025-01-26T20:45:00Z,Mêda,Guarda,Centro,-7.260318,40.964741
24873878,Tabuaças,Ave,309,2025-01-26T19:06:00Z,24873878,Em despacho,3301,Queda de árvore,0,1,0,2,2025-01-26T19:06:00Z,Vieira Do Minho,Braga,Norte,-8.184761,41.63763
24873903,Aguiar da Beira e Coruche,Viseu Dão Lafões,310,2025-01-26T19:04:00Z,24873903,Em despacho,3301,Queda de árvore,0,1,0,3,2025-01-26T19:04:00Z,Aguiar Da Beira,Guarda,Centro,-7.542862,40.816787
24874003,"Paradela, Contim e Fiães",Alto Tâmega e Barroso,309,2025-01-26T19:30:00Z,24874003,Em despacho,3301,Queda de árvore,0,1,0,4,2025-01-26T19:30:00Z,Montalegre,Vila Real,Norte,-7.922364,41.76938
24874094,Gosende,Viseu Dão Lafões,310,2025-01-26T19:46:00Z,24874094,Em despacho,3313,Deslizamento de terras,0,1,0,2,2025-01-26T19:46:00Z,Castro Daire,Viseu,Centro,-7.933494,40.986508
24874103,Mateus,Douro,309,2025-01-26T20:03:00Z,24874103,Em despacho,3315,Inundação de estruturas por precipitação intensa,0,0,0,0,2025-01-26T20:03:00Z,Vila Real,Vila Real,Norte,-7.718755,41.310993
24874185,Luso,Região de Coimbra,310,2025-01-26T20:20:00Z,24874185,Em despacho,3301,Queda de árvore,0,2,0,5,2025-01-26T20:20:00Z,Mealhada,Aveiro,Centro,-8.363927,40.380406
24874210,Rio Caldo,Cávado,309,2025-01-26T20:33:00Z,24874210,Em despacho,3301,Queda de árvore,0,0,0,0,2025-01-26T20:33:00Z,Terras De Bouro,Braga,Norte,-8.208911,41.69677
24874212,Santa Maria de Lamas,Area M. Porto,309,2025-01-26T20:27:00Z,24874212,Em despacho,3311,Queda de elementos de estruturas edificados,0,1,0,3,2025-01-26T20:27:00Z,Santa Maria Da Feira,Aveiro,Norte,-8.567533,40.978979
24874282,Borbela e Lamas de Olo,Douro,309,2025-01-26T20:47:00Z,24874282,Em despacho,3301,Queda de árvore,0,1,0,4,2025-01-26T20:47:00Z,Vila Real,Vila Real,Norte,-7.75687,41.328231
24874284,Freamunde,Tâmega e Sousa,309,2025-01-26T20:48:00Z,24874284,Em despacho,3315,Inundação de estruturas por precipitação intensa,0,0,0,0,2025-01-26T20:48:00Z,Paços De Ferreira,Porto,Norte,-8.339671,41.292638
24874315,Grândola e Santa Margarida da Serra,Alentejo Litoral,312,2025-01-26T20:56:00Z,24874315,Em despacho,3329,Queda de estruturas temporárias ou móveis,0,1,0,2,2025-01-26T20:56:00Z,Grândola,Setúbal,Alentejo,-8.5587510000000009,38.173088
24874317,Mafamude e Vilar do Paraíso,Area M. Porto,309,2025-01-26T21:01:00Z,24874317,Em despacho,3311,Queda de elementos de estruturas edificados,0,0,0,0,2025-01-26T21:01:00Z,Vila Nova De Gaia,Porto,Norte,-8.611105,41.107184
24874108,Santa Cruz do Douro e São Tomé de Covelas,Tâmega e Sousa,309,2025-01-26T20:04:00Z,24874108,Em despacho,3301,Queda de árvore,0,1,0,4,2025-01-26T20:04:00Z,Baião,Porto,Norte,-7.998456,41.123167
24874208,Póvoa de Lanhoso (Nossa Senhora do Amparo),Ave,309,2025-01-26T20:30:00Z,24874208,Em curso,3309,Desabamento de estruturas edificadas,0,2,0,2,2025-01-26T20:30:00Z,Póvoa De Lanhoso,Braga,Norte,-8.26784,41.577971
24874240,Alhos Vedros,Península de Setúbal,311,2025-01-26T20:34:00Z,24874240,Em despacho,3321,Dano na rede de fornecimento de eletricidade ,0,1,0,4,2025-01-26T20:34:00Z,Moita,Setúbal,Área Metropolitana De Lisboa,-9.026889,38.657804
24874257,Eixo e Eirol,Região de Aveiro,310,2025-01-26T20:45:00Z,24874257,Em curso,3301,Queda de árvore,0,3,0,9,2025-01-26T20:45:00Z,Aveiro,Aveiro,Centro,-8.594152,40.639067
24874291,Vade,Cávado,309,2025-01-26T20:50:00Z,24874291,Em despacho,3301,Queda de árvore,0,0,0,0,2025-01-26T20:50:00Z,Vila Verde,Braga,Norte,-8.428804,41.733615
24874323,Sever do Vouga,Região de Aveiro,310,2025-01-26T20:58:00Z,24874323,Em despacho,3301,Queda de árvore,0,1,0,3,2025-01-26T20:58:00Z,Sever Do Vouga,Aveiro,Centro,-8.366336,40.734307
24874219,Oliveira do Douro,Area M. Porto,309,2025-01-26T20:24:00Z,24874219,Em despacho,3329,Queda de estruturas temporárias ou móveis,0,1,0,3,2025-01-26T20:24:00Z,Vila Nova De Gaia,Porto,Norte,-8.585272,41.125484
24874226,Mira,Região de Coimbra,310,2025-01-26T20:30:00Z,24874226,Em despacho,3301,Queda de árvore,0,1,0,2,2025-01-26T20:30:00Z,Mira,Coimbra,Centro,-8.714798,40.374667
24874228,Cerdal,Alto Minho,309,2025-01-26T20:30:00Z,24874228,Em despacho,3301,Queda de árvore,0,1,0,2,2025-01-26T20:30:00Z,Valença,Viana Do Castelo,Norte,-8.610077,41.973993
24874269,Águas Boas e Forles,Viseu Dão Lafões,310,2025-01-26T20:45:00Z,24874269,Em despacho,3301,Queda de árvore,0,1,0,2,2025-01-26T20:45:00Z,Sátão,Viseu,Centro,-7.638591,40.854155
24874319,Cruz,Ave,309,2025-01-26T21:03:00Z,24874319,Em despacho,3301,Queda de árvore,0,0,0,0,2025-01-26T21:03:00Z,Vila Nova De Famalicão,Braga,Norte,-8.501798,41.43575
24874321,"Refojos de Basto, Outeiro e Painzela",Ave,309,2025-01-26T21:00:00Z,24874321,Em despacho,3313,Deslizamento de terras,0,1,0,2,2025-01-26T21:00:00Z,Cabeceiras De Basto,Braga,Norte,-8.010408,41.514146
