id,address,subregion,neighborhood,date,id.1,state,nature,nature_description,aerial_means,terrestrial_means,aquatic_means,operational,date.1,Concelho,Distrito,NUTII_DSG,longitude,latitude,state_2
26157343,Refóios do Lima,Alto Minho,309,2025-10-18T20:06:00Z,26157343,Em Curso,3103,Incêndio rural,0,4,0,17,2025-10-18T20:06:00Z,Ponte De Lima,Viana Do Castelo,Norte,-8.524077,41.818625,Curso
26157552,Carvalhosa,Tâmega e Sousa,309,2025-10-18T21:00:00Z,26157552,Em Resolução/Conclusão,3105,Incêndio rural,0,2,0,7,2025-10-18T21:00:00Z,Paços De Ferreira,Porto,Norte,-8.365405,41.304613,Resolução/Conclusão
26157586,Montaria,Alto Minho,309,2025-10-18T21:08:00Z,26157586,Em Curso,3103,Incêndio rural,0,6,0,20,2025-10-18T21:08:00Z,Viana Do Castelo,Viana Do Castelo,Norte,-8.75187,41.81628,Curso
26156265,Viade de Baixo e Fervidelas,Alto Tâmega e Barroso,309,2025-10-18T15:45:00Z,26156265,Em Curso,3103,Incêndio rural,0,10,0,37,2025-10-18T15:45:00Z,Montalegre,Vila Real,Norte,-7.834732,41.773632,Curso
26157385,"Algodres, Vale de Afonsinho e Vilar de Amargo",Beiras e Serra da Estrela,310,2025-10-18T20:18:00Z,26157385,Em Curso,3103,Incêndio rural,0,15,0,50,2025-10-18T20:18:00Z,Figueira De Castelo Rodrigo,Guarda,Centro,-7.026137,40.954202,Curso
26157762,Vilar e Mosteiró,Area M. Porto,309,2025-10-18T22:18:00Z,26157762,Em Despacho,3103,Incêndio rural,0,1,0,4,2025-10-18T22:18:00Z,Vila Do Conde,Porto,Norte,-8.679891,41.289721,Despacho
26157805,"Margaride (Santa Eulália), Várzea, Lagares, Varziela e Moure",Tâmega e Sousa,309,2025-10-18T22:32:00Z,26157805,Em Despacho,3103,Incêndio rural,0,1,0,4,2025-10-18T22:32:00Z,Felgueiras,Porto,Norte,-8.208433,41.365733,Despacho
26156244,"Real, Ataíde e Oliveira",Tâmega e Sousa,309,2025-10-18T15:35:00Z,26156244,Em Resolução/Conclusão,3103,Incêndio rural,0,8,0,21,2025-10-18T15:35:00Z,Amarante,Porto,Norte,-8.171672,41.257368,Resolução/Conclusão
26156294,Calde,Viseu Dão Lafões,310,2025-10-18T15:50:00Z,26156294,Em Resolução/Conclusão,3101,Incêndio rural,0,1,0,5,2025-10-18T15:50:00Z,Viseu,Viseu,Centro,-7.940081,40.763201,Resolução/Conclusão
26156036,Vila Nova de São Bento e Vale de Vargo,Baixo Alentejo,312,2025-10-18T14:58:00Z,26156036,Em Resolução/Conclusão,3105,Incêndio rural,0,5,0,13,2025-10-18T14:58:00Z,Serpa,Beja,Alentejo,-7.379152,37.882523,Resolução/Conclusão
26156756,Monte Real e Carvide,Região de Leiria,310,2025-10-18T17:36:00Z,26156756,Em Resolução/Conclusão,3105,Incêndio rural,0,2,0,5,2025-10-18T17:36:00Z,Leiria,Leiria,Centro,-8.865167,39.827822,Resolução/Conclusão
26157440,Cabeça Santa,Tâmega e Sousa,309,2025-10-18T20:33:00Z,26157440,Em Resolução/Conclusão,3103,Incêndio rural,0,2,0,7,2025-10-18T20:33:00Z,Penafiel,Porto,Norte,-8.277547,41.128848,Resolução/Conclusão
26157509,Loureira,Cávado,309,2025-10-18T20:56:00Z,26157509,Em Resolução/Conclusão,3103,Incêndio rural,0,2,0,6,2025-10-18T20:56:00Z,Vila Verde,Braga,Norte,-8.420037,41.637248,Resolução/Conclusão
26157757,Guilhofrei,Ave,309,2025-10-18T22:15:00Z,26157757,Em Despacho,3103,Incêndio rural,0,1,0,5,2025-10-18T22:15:00Z,Vieira Do Minho,Braga,Norte,-8.136028,41.56846,Despacho
