id,address,subregion,neighborhood,date,id.1,state,nature,nature_description,aerial_means,terrestrial_means,aquatic_means,operational,date.1,Concelho,Distrito,NUTII_DSG,longitude,latitude,state_2
25832672,Piódão,Região de Coimbra,310,2025-08-13T05:08:00Z,25832672,Em Resolução/Conclusão,3103,Incêndio rural,0,16,0,42,2025-08-13T05:08:00Z,Arganil,Coimbra,Centro,-7.81972,40.23083,Resolução/Conclusão
25840417,Lousã e Vilarinho,Região de Coimbra,310,2025-08-14T13:46:00Z,25840417,Em Resolução/Conclusão,3101,Incêndio rural,0,1,0,1,2025-08-14T13:46:00Z,Lousã,Coimbra,Centro,-8.201561,40.080016,Resolução/Conclusão
25935529,Vermoil,Região de Leiria,310,2025-09-02T22:56:00Z,25935529,Em Resolução/Conclusão,3101,Incêndio rural,0,1,0,2,2025-09-02T22:56:00Z,Pombal,Leiria,Centro,-8.673463,39.83745,Resolução/Conclusão
25936041,Santo António Dos Cavaleiros e Frielas,Grande Lisboa,311,2025-09-03T06:16:00Z,25936041,Em Resolução/Conclusão,3103,Incêndio rural,0,12,0,38,2025-09-03T06:16:00Z,Loures,Lisboa,Área Metropolitana De Lisboa,-9.142847,38.812523,Resolução/Conclusão
25936617,Colares,Grande Lisboa,311,2025-09-03T09:08:00Z,25936617,Em Resolução/Conclusão,3103,Incêndio rural,0,2,0,7,2025-09-03T09:08:00Z,Sintra,Lisboa,Área Metropolitana De Lisboa,-9.438572,38.807058,Resolução/Conclusão
