id,address,subregion,neighborhood,date,id.1,state,nature,nature_description,aerial_means,terrestrial_means,aquatic_means,operational,date.1,Concelho,Distrito,NUTII_DSG,longitude,latitude
25053083,Alcabideche,Grande Lisboa,311,2025-03-07T13:28:00Z,25053083,Em despacho,3301,Queda de árvore,0,1,0,4,2025-03-07T13:28:00Z,Cascais,Lisboa,Área Metropolitana De Lisboa,-9.418781,38.730714
25053142,Barcarena,Grande Lisboa,311,2025-03-07T13:40:00Z,25053142,Em despacho,3301,Queda de árvore,0,1,0,5,2025-03-07T13:40:00Z,Oeiras,Lisboa,Área Metropolitana De Lisboa,-9.277392,38.733987
25053167,São Domingos de Rana,Grande Lisboa,311,2025-03-07T13:53:00Z,25053167,Em despacho,3321,Dano na rede de fornecimento de eletricidade ,0,1,0,3,2025-03-07T13:53:00Z,Cascais,Lisboa,Área Metropolitana De Lisboa,-9.33557,38.72674
25053203,Miragaia e Marteleira,Oeste,311,2025-03-07T13:59:00Z,25053203,Em curso,3301,Queda de árvore,0,3,0,4,2025-03-07T13:59:00Z,Lourinhã,Lisboa,Centro,-9.262346,39.235841
25053269,Colmeias e Memória,Região de Leiria,310,2025-03-07T14:07:00Z,25053269,Em despacho,3309,Desabamento de estruturas edificadas,0,1,0,5,2025-03-07T14:07:00Z,Leiria,Leiria,Centro,-8.70875,39.800121
25053292,"São Miguel, Santa Eufémia e Rabaçal",Região de Coimbra,310,2025-03-07T14:00:00Z,25053292,Em despacho,3329,Queda de estruturas temporárias ou móveis,0,1,0,2,2025-03-07T14:00:00Z,Penela,Coimbra,Centro,-8.399036,40.025502
25053362,Alpiarça,Lezíria do Tejo,311,2025-03-07T14:22:00Z,25053362,Em resolução,3301,Queda de árvore,0,3,0,7,2025-03-07T14:22:00Z,Alpiarça,Santarém,Alentejo,-8.585043,39.248027
25053401,"Torres Novas (Santa Maria, Salvador e Santiago)",Médio Tejo,311,2025-03-07T14:25:00Z,25053401,Em resolução,3329,Queda de estruturas temporárias ou móveis,0,3,0,9,2025-03-07T14:25:00Z,Torres Novas,Santarém,Centro,-8.52448,39.465745
25053412,"Barcelos, V. Boa e V. Frescainha",Cávado,309,2025-03-07T14:25:00Z,25053412,Em despacho,3329,Queda de estruturas temporárias ou móveis,0,1,0,2,2025-03-07T14:25:00Z,Barcelos,Braga,Norte,-8.631632,41.537528
25052971,São João Das Lampas e Terrugem,Grande Lisboa,311,2025-03-07T13:15:00Z,25052971,Em despacho,3311,Queda de elementos de estruturas edificados,0,0,0,0,2025-03-07T13:15:00Z,Sintra,Lisboa,Área Metropolitana De Lisboa,-9.443239,38.84545
25053087,Rio de Mouro,Grande Lisboa,311,2025-03-07T13:39:00Z,25053087,Em despacho,3311,Queda de elementos de estruturas edificados,0,1,0,5,2025-03-07T13:39:00Z,Sintra,Lisboa,Área Metropolitana De Lisboa,-9.31194,38.78508
25053154,"S.maria, S.miguel, S.martinho, S.pedro Penaferrim",Grande Lisboa,311,2025-03-07T13:48:00Z,25053154,Em despacho,3315,Inundação de estruturas por precipitação intensa,0,1,0,5,2025-03-07T13:48:00Z,Sintra,Lisboa,Área Metropolitana De Lisboa,-9.40542,38.820035
25053189,Alfragide,Grande Lisboa,311,2025-03-07T13:49:00Z,25053189,Em despacho,3311,Queda de elementos de estruturas edificados,0,1,0,4,2025-03-07T13:49:00Z,Amadora,Lisboa,Área Metropolitana De Lisboa,-9.225704,38.738085
25053221,"Almargem do Bispo, Pêro Pinheiro e Montelavar",Grande Lisboa,311,2025-03-07T14:02:00Z,25053221,Em despacho,3313,Deslizamento de terras,0,3,0,5,2025-03-07T14:02:00Z,Sintra,Lisboa,Área Metropolitana De Lisboa,-9.279282,38.82106
25053223,"Algés, Linda-a-Velha e Cruz Quebrada-Dafundo",Grande Lisboa,311,2025-03-07T13:55:00Z,25053223,Em despacho,3311,Queda de elementos de estruturas edificados,0,3,0,8,2025-03-07T13:55:00Z,Oeiras,Lisboa,Área Metropolitana De Lisboa,-9.22967,38.696612
25053241,Bombarral e Vale Covo,Oeste,311,2025-03-07T13:55:00Z,25053241,Em resolução,3311,Queda de elementos de estruturas edificados,0,2,0,6,2025-03-07T13:55:00Z,Bombarral,Leiria,Centro,-9.171316,39.267313
25053308,Ermidas-Sado,Alentejo Litoral,312,2025-03-07T14:02:00Z,25053308,Em despacho,3301,Queda de árvore,0,1,0,2,2025-03-07T14:02:00Z,Santiago Do Cacém,Setúbal,Alentejo,-8.366897,38.010808
25053324,Louriçal,Região de Leiria,310,2025-03-07T14:12:00Z,25053324,Em despacho,3301,Queda de árvore,0,1,0,5,2025-03-07T14:12:00Z,Pombal,Leiria,Centro,-8.745623,40.007074
25053340,Falagueira-Venda Nova,Grande Lisboa,311,2025-03-07T13:56:00Z,25053340,Em despacho,3329,Queda de estruturas temporárias ou móveis,0,1,0,6,2025-03-07T13:56:00Z,Amadora,Lisboa,Área Metropolitana De Lisboa,-9.224815,38.755208
25053356,Lagos (São Sebastião e Santa Maria),Algarve,313,2025-03-07T14:10:00Z,25053356,Em conclusão,3311,Queda de elementos de estruturas edificados,0,2,0,7,2025-03-07T14:10:00Z,Lagos,Faro,Algarve,-8.668524,37.100485
25053372,"S.julião, N.s. da Anunciada e S. Maria da Graça",Península de Setúbal,311,2025-03-07T14:21:00Z,25053372,Em despacho,3301,Queda de árvore,0,1,0,5,2025-03-07T14:21:00Z,Setúbal,Setúbal,Área Metropolitana De Lisboa,-8.889983,38.529955
25052962,São João Das Lampas e Terrugem,Grande Lisboa,311,2025-03-07T13:13:00Z,25052962,Em despacho,3311,Queda de elementos de estruturas edificados,0,0,0,0,2025-03-07T13:13:00Z,Sintra,Lisboa,Área Metropolitana De Lisboa,-9.442718,38.844843
25053232,"S.maria, S.miguel, S.martinho, S.pedro Penaferrim",Grande Lisboa,311,2025-03-07T14:03:00Z,25053232,Em despacho,3301,Queda de árvore,0,0,0,0,2025-03-07T14:03:00Z,Sintra,Lisboa,Área Metropolitana De Lisboa,-9.37875,38.77769
25053283,Lousa,Grande Lisboa,311,2025-03-07T14:11:00Z,25053283,Em conclusão,3321,Dano na rede de fornecimento de eletricidade ,0,2,0,6,2025-03-07T14:11:00Z,Loures,Lisboa,Área Metropolitana De Lisboa,-9.20634,38.88935
25053397,Margem,Alto Alentejo,312,2025-03-07T14:14:00Z,25053397,Em conclusão,3301,Queda de árvore,0,1,0,1,2025-03-07T14:14:00Z,Gavião,Portalegre,Alentejo,-7.899002,39.368632
25053562,Montijo e Afonsoeiro,Península de Setúbal,311,2025-03-07T14:31:00Z,25053562,Em despacho,3321,Dano na rede de fornecimento de eletricidade ,0,1,0,4,2025-03-07T14:31:00Z,Montijo,Setúbal,Área Metropolitana De Lisboa,-8.975715,38.702323
25053587,Calvão,Região de Aveiro,310,2025-03-07T14:58:00Z,25053587,Em despacho,3321,Dano na rede de fornecimento de eletricidade ,0,1,0,2,2025-03-07T14:58:00Z,Vagos,Aveiro,Centro,-8.69278,40.48025
25053594,Santa Maria Maior e Monserrate e Meadela,Alto Minho,309,2025-03-07T14:58:00Z,25053594,Em despacho,3311,Queda de elementos de estruturas edificados,0,1,0,2,2025-03-07T14:58:00Z,Viana Do Castelo,Viana Do Castelo,Norte,-8.81652,41.703882
25053685,Maceira,Região de Leiria,310,2025-03-07T15:10:00Z,25053685,Em despacho,3301,Queda de árvore,0,1,0,2,2025-03-07T15:10:00Z,Leiria,Leiria,Centro,-8.871156,39.70103
25053712,"Alto do Seixalinho, Santo André e Verderena",Península de Setúbal,311,2025-03-07T15:10:00Z,25053712,Em despacho,3315,Inundação de estruturas por precipitação intensa,0,1,0,4,2025-03-07T15:10:00Z,Barreiro,Setúbal,Área Metropolitana De Lisboa,-9.072252,38.651508
25053036,Bombarral e Vale Covo,Oeste,311,2025-03-07T13:29:00Z,25053036,Em conclusão,3301,Queda de árvore,0,4,0,7,2025-03-07T13:29:00Z,Bombarral,Leiria,Centro,-9.142029,39.245053
25053127,Mafra,Grande Lisboa,311,2025-03-07T13:46:00Z,25053127,Em despacho,3313,Deslizamento de terras,0,0,0,0,2025-03-07T13:46:00Z,Mafra,Lisboa,Área Metropolitana De Lisboa,-9.34752,38.97559
25053270,Fernão Ferro,Península de Setúbal,311,2025-03-07T13:59:00Z,25053270,Em curso,3301,Queda de árvore,0,0,0,0,2025-03-07T13:59:00Z,Seixal,Setúbal,Área Metropolitana De Lisboa,-9.063432,38.552125
25053529,Azeitão (São Lourenço e São Simão),Península de Setúbal,311,2025-03-07T14:38:00Z,25053529,Em despacho,3301,Queda de árvore,0,1,0,5,2025-03-07T14:38:00Z,Setúbal,Setúbal,Área Metropolitana De Lisboa,-9.033171,38.51723
25053586,Lorvão,Região de Coimbra,310,2025-03-07T14:55:00Z,25053586,Em despacho,3301,Queda de árvore,0,1,0,2,2025-03-07T14:55:00Z,Penacova,Coimbra,Centro,-8.292951,40.245442
25053702,Ramada e Caneças,Grande Lisboa,311,2025-03-07T14:55:00Z,25053702,Em conclusão,3301,Queda de árvore,0,1,0,3,2025-03-07T14:55:00Z,Odivelas,Lisboa,Área Metropolitana De Lisboa,-9.224517,38.811058
25053407,Arruda Dos Vinhos,Oeste,311,2025-03-07T14:25:00Z,25053407,Em conclusão,3301,Queda de árvore,0,1,0,4,2025-03-07T14:25:00Z,Arruda Dos Vinhos,Lisboa,Centro,-9.06642,38.958353
25053425,Tornada e Salir do Porto,Oeste,311,2025-03-07T14:27:00Z,25053425,Em conclusão,3329,Queda de estruturas temporárias ou móveis,0,1,0,2,2025-03-07T14:27:00Z,Caldas Da Rainha,Leiria,Centro,-9.151736,39.435014
25053489,Póvoa de Santa Iria e Forte da Casa,Grande Lisboa,311,2025-03-07T14:04:00Z,25053489,Em conclusão,3301,Queda de árvore,0,1,0,5,2025-03-07T14:04:00Z,Vila Franca De Xira,Lisboa,Área Metropolitana De Lisboa,-9.06283,38.860199
25053491,Encarnação,Grande Lisboa,311,2025-03-07T14:25:00Z,25053491,Em despacho,3301,Queda de árvore,0,1,0,5,2025-03-07T14:25:00Z,Mafra,Lisboa,Área Metropolitana De Lisboa,-9.365289,39.029436
25053605,São Vicente do Paul e Vale de Figueira,Lezíria do Tejo,311,2025-03-07T14:56:00Z,25053605,Em resolução,3301,Queda de árvore,0,1,0,5,2025-03-07T14:56:00Z,Santarém,Santarém,Alentejo,-8.59935,39.373658
25053692,"Alto do Seixalinho, Santo André e Verderena",Península de Setúbal,311,2025-03-07T14:50:00Z,25053692,Em despacho,3311,Queda de elementos de estruturas edificados,0,1,0,4,2025-03-07T14:50:00Z,Barreiro,Setúbal,Área Metropolitana De Lisboa,-9.072252,38.651508
25053709,Marinhais,Lezíria do Tejo,311,2025-03-07T15:17:00Z,25053709,Em despacho,3301,Queda de árvore,0,2,0,8,2025-03-07T15:17:00Z,Salvaterra De Magos,Santarém,Alentejo,-8.704894,39.048061
25053400,Sacavém e Prior Velho,Grande Lisboa,311,2025-03-07T14:15:00Z,25053400,Em despacho,3301,Queda de árvore,0,1,0,4,2025-03-07T14:15:00Z,Lisboa,Lisboa,Área Metropolitana De Lisboa,-9.097627,38.792359
25053465,Fernão Ferro,Península de Setúbal,311,2025-03-07T14:37:00Z,25053465,Em despacho,3301,Queda de árvore,0,1,0,3,2025-03-07T14:37:00Z,Seixal,Setúbal,Área Metropolitana De Lisboa,-9.058636,38.55485
25053566,Miragaia e Marteleira,Oeste,311,2025-03-07T14:51:00Z,25053566,Em conclusão,3313,Deslizamento de terras,0,1,0,2,2025-03-07T14:51:00Z,Lourinhã,Lisboa,Centro,-9.275912,39.197494
25053597,Sesimbra (Castelo),Península de Setúbal,311,2025-03-07T14:57:00Z,25053597,Em despacho,3301,Queda de árvore,0,1,0,4,2025-03-07T14:57:00Z,Sesimbra,Setúbal,Área Metropolitana De Lisboa,-9.071799,38.489902
25053630,Lama de Arcos,Alto Tâmega e Barroso,309,2025-03-07T15:00:00Z,25053630,Em despacho,3301,Queda de árvore,0,1,0,4,2025-03-07T15:00:00Z,Chaves,Vila Real,Norte,-7.381964,41.832398
25053734,Campolide,Grande Lisboa,311,2025-03-07T15:05:00Z,25053734,Em curso,3301,Queda de árvore,0,1,0,5,2025-03-07T15:05:00Z,Lisboa,Lisboa,Área Metropolitana De Lisboa,-9.165804,38.731424
25053747,Esgueira,Região de Aveiro,310,2025-03-07T15:15:00Z,25053747,Em despacho,3321,Dano na rede de fornecimento de eletricidade ,0,1,0,2,2025-03-07T15:15:00Z,Aveiro,Aveiro,Centro,-8.639234,40.66049
