id,address,subregion,neighborhood,date,id.1,state,nature,nature_description,aerial_means,terrestrial_means,aquatic_means,operational,date.1,Concelho,Distrito,NUTII_DSG,longitude,latitude
25567631,"Canedo, Vale e Vila Maior",Area M. Porto,309,2025-06-23T12:20:00Z,25567631,Em conclusão,3101,Incêndio rural,0,1,0,5,2025-06-23T12:20:00Z,Santa Maria Da Feira,Aveiro,Norte,-8.448673,41.011004
25568034,Cervães,Cávado,309,2025-06-23T13:48:00Z,25568034,Em despacho,3103,Incêndio rural,0,4,0,17,2025-06-23T13:48:00Z,Vila Verde,Braga,Norte,-8.523677,41.599625
25568099,Esmoriz,Região de Aveiro,310,2025-06-23T13:53:00Z,25568099,Em resolução,3203,Detritos confinados,0,2,0,7,2025-06-23T13:53:00Z,Ovar,Aveiro,Centro,-8.637974,40.962156
25568116,Caldas de São Jorge e Pigeiros,Area M. Porto,309,2025-06-23T14:03:00Z,25568116,Em despacho,3103,Incêndio rural,0,0,0,0,2025-06-23T14:03:00Z,Santa Maria Da Feira,Aveiro,Norte,-8.484641,40.93974
25567641,Ermelo e Pardelhas,Ave,309,2025-06-23T12:29:00Z,25567641,Em despacho,3107,Consolidação de rescaldo de incêndio rural,0,1,0,5,2025-06-23T12:29:00Z,Mondim De Basto,Vila Real,Norte,-7.835997,41.35894
25567709,Agilde,Tâmega e Sousa,309,2025-06-23T12:49:00Z,25567709,Em curso,3103,Incêndio rural,2,4,0,32,2025-06-23T12:49:00Z,Celorico De Basto,Braga,Norte,-8.120197,41.374492
25568091,Amora,Península de Setúbal,311,2025-06-23T13:55:00Z,25568091,Em conclusão,3103,Incêndio rural,0,3,0,11,2025-06-23T13:55:00Z,Seixal,Setúbal,Área Metropolitana De Lisboa,-9.139143,38.634371
25567803,Fornos,Tâmega e Sousa,309,2025-06-23T12:57:00Z,25567803,Em resolução,2201,Incêndio em equipamentos ou produtos,0,1,0,5,2025-06-23T12:57:00Z,Castelo De Paiva,Aveiro,Norte,-8.255654,41.055046
25567953,Sabadim,Alto Minho,309,2025-06-23T13:31:00Z,25567953,Em curso,3103,Incêndio rural,1,3,0,15,2025-06-23T13:31:00Z,Arcos De Valdevez,Viana Do Castelo,Norte,-8.476208,41.90564
