id,address,subregion,neighborhood,date,id.1,state,nature,nature_description,aerial_means,terrestrial_means,aquatic_means,operational,date.1,Concelho,Distrito,NUTII_DSG,longitude,latitude
25330629,Nossa Senhora do Pranto,Médio Tejo,311,2025-05-05T10:14:00Z,25330629,Em despacho,3313,Deslizamento de terras,0,2,0,3,2025-05-05T10:14:00Z,Ferreira Do Zêzere,Santarém,Centro,-8.273289,39.751159
25332343,Benavente,Lezíria do Tejo,311,2025-05-05T15:25:00Z,25332343,Em curso,3301,Queda de árvore,0,1,0,3,2025-05-05T15:25:00Z,Benavente,Santarém,Alentejo,-8.787727,38.953978
25332527,"Alto do Seixalinho, Santo André e Verderena",Península de Setúbal,311,2025-05-05T15:55:00Z,25332527,Em despacho,3317,Inundação de estruturas por água canalizada,0,1,0,4,2025-05-05T15:55:00Z,Barreiro,Setúbal,Área Metropolitana De Lisboa,-9.072252,38.651508
25071496,São Manços e São Vicente do Pigeiro,Alentejo Central,312,2025-03-11T13:18:00Z,25071496,Em conclusão,1101,Cheia,0,0,0,0,2025-03-11T13:18:00Z,Évora,Évora,Alentejo,-7.713313,38.513673
25332097,Sobrado e Bairros,Tâmega e Sousa,309,2025-05-05T14:34:00Z,25332097,Em curso,3301,Queda de árvore,0,3,0,6,2025-05-05T14:34:00Z,Castelo De Paiva,Aveiro,Norte,-8.2699,41.041524
25331902,Salto,Alto Tâmega e Barroso,309,2025-05-05T14:03:00Z,25331902,Em despacho,3301,Queda de árvore,0,1,0,3,2025-05-05T14:03:00Z,Montalegre,Vila Real,Norte,-7.953108,41.639334
