id,address,subregion,neighborhood,date,id.1,state,nature,nature_description,aerial_means,terrestrial_means,aquatic_means,operational,date.1,Concelho,Distrito,NUTII_DSG,longitude,latitude
24789367,Alcanena e Vila Moreira,Médio Tejo,311,2025-01-08T07:44:00Z,24789367,Em curso,3311,Queda de elementos de estruturas edificados,0,1,0,2,2025-01-08T07:44:00Z,Alcanena,Santarém,Centro,-8.669221,39.464869
24789466,"Santa Maria da Feira, Travanca, Sanfins e Espargo",Area M. Porto,309,2025-01-08T08:06:00Z,24789466,Em despacho,3301,Queda de árvore,0,1,0,2,2025-01-08T08:06:00Z,Santa Maria Da Feira,Aveiro,Norte,-8.541509,40.922018
24789499,Antas,Cávado,309,2025-01-08T08:11:00Z,24789499,Em despacho,3301,Queda de árvore,0,1,0,3,2025-01-08T08:11:00Z,Esposende,Braga,Norte,-8.771677,41.601324
24789501,Este (São Pedro e São Mamede),Cávado,309,2025-01-08T08:19:00Z,24789501,Em despacho,3301,Queda de árvore,0,1,0,2,2025-01-08T08:19:00Z,Braga,Braga,Norte,-8.356951,41.570113
24789566,Montaria,Alto Minho,309,2025-01-08T08:38:00Z,24789566,Em despacho,3315,Inundação de estruturas por precipitação intensa,0,1,0,5,2025-01-08T08:38:00Z,Viana Do Castelo,Viana Do Castelo,Norte,-8.727952,41.803774
24789585,Santa Maria Maior e Monserrate e Meadela,Alto Minho,309,2025-01-08T08:43:00Z,24789585,Em despacho,3315,Inundação de estruturas por precipitação intensa,0,0,0,0,2025-01-08T08:43:00Z,Viana Do Castelo,Viana Do Castelo,Norte,-8.823112,41.6952
24777071,Pedrógão Grande,Região de Leiria,310,2025-01-05T13:18:00Z,24777071,Em conclusão,3309,Desabamento de estruturas edificadas,0,1,0,1,2025-01-05T13:18:00Z,Pedrógão Grande,Leiria,Centro,-8.177567,39.933038
24789344,Alcanena e Vila Moreira,Médio Tejo,311,2025-01-08T07:40:00Z,24789344,Em despacho,3311,Queda de elementos de estruturas edificados,0,1,0,2,2025-01-08T07:40:00Z,Alcanena,Santarém,Centro,-8.669221,39.464869
24789362,Alcanena e Vila Moreira,Médio Tejo,311,2025-01-08T07:46:00Z,24789362,Em curso,3311,Queda de elementos de estruturas edificados,0,1,0,2,2025-01-08T07:46:00Z,Alcanena,Santarém,Centro,-8.669221,39.464869
24789414,Moledo e Cristelo,Alto Minho,309,2025-01-08T08:03:00Z,24789414,Em conclusão,3315,Inundação de estruturas por precipitação intensa,0,1,0,3,2025-01-08T08:03:00Z,Caminha,Viana Do Castelo,Norte,-8.86279,41.84776
24789428,Alcanena e Vila Moreira,Médio Tejo,311,2025-01-08T08:01:00Z,24789428,Em despacho,3311,Queda de elementos de estruturas edificados,0,1,0,2,2025-01-08T08:01:00Z,Alcanena,Santarém,Centro,-8.667184,39.45825
24789444,Afife,Alto Minho,309,2025-01-08T08:10:00Z,24789444,Em despacho,3301,Queda de árvore,0,0,0,0,2025-01-08T08:10:00Z,Viana Do Castelo,Viana Do Castelo,Norte,-8.862576,41.77008
24789578,Santa Maria Maior e Monserrate e Meadela,Alto Minho,309,2025-01-08T08:41:00Z,24789578,Em despacho,3315,Inundação de estruturas por precipitação intensa,0,0,0,0,2025-01-08T08:41:00Z,Viana Do Castelo,Viana Do Castelo,Norte,-8.81652,41.703882
24789427,Rebordosa,Area M. Porto,309,2025-01-08T07:49:00Z,24789427,Em despacho,3329,Queda de estruturas temporárias ou móveis,0,2,0,4,2025-01-08T07:49:00Z,Paredes,Porto,Norte,-8.436025,41.21769
24789522,"Braga (Maximinos, Sé e Cividade)",Cávado,309,2025-01-08T08:30:00Z,24789522,Em despacho,3301,Queda de árvore,0,0,0,0,2025-01-08T08:30:00Z,Braga,Braga,Norte,-8.44536,41.54902
24789527,Coronado (São Romão e São Mamede),Area M. Porto,309,2025-01-08T08:30:00Z,24789527,Em despacho,3321,Dano na rede de fornecimento de eletricidade ,0,1,0,3,2025-01-08T08:30:00Z,Trofa,Porto,Norte,-8.575495,41.27176
24789545,Areosa,Alto Minho,309,2025-01-08T08:23:00Z,24789545,Em despacho,3315,Inundação de estruturas por precipitação intensa,0,0,0,0,2025-01-08T08:23:00Z,Viana Do Castelo,Viana Do Castelo,Norte,-8.841057,41.722906
24789572,"Barcelos, V. Boa e V. Frescainha",Cávado,309,2025-01-08T08:35:00Z,24789572,Em despacho,3311,Queda de elementos de estruturas edificados,0,1,0,2,2025-01-08T08:35:00Z,Barcelos,Braga,Norte,-8.631632,41.537528
24789339,Mafamude e Vilar do Paraíso,Area M. Porto,309,2025-01-08T07:32:00Z,24789339,Em despacho,3311,Queda de elementos de estruturas edificados,0,2,0,5,2025-01-08T07:32:00Z,Vila Nova De Gaia,Porto,Norte,-8.611105,41.107184
24789474,Macieira da Lixa e Caramos,Tâmega e Sousa,309,2025-01-08T08:16:00Z,24789474,Em despacho,3321,Dano na rede de fornecimento de eletricidade ,0,1,0,5,2025-01-08T08:16:00Z,Felgueiras,Porto,Norte,-8.149387,41.34853
24789523,Canelas,Area M. Porto,309,2025-01-08T08:12:00Z,24789523,Em despacho,3301,Queda de árvore,0,1,0,4,2025-01-08T08:12:00Z,Vila Nova De Gaia,Porto,Norte,-8.599603,41.079376
24789524,Areosa,Alto Minho,309,2025-01-08T08:30:00Z,24789524,Em despacho,3315,Inundação de estruturas por precipitação intensa,0,0,0,0,2025-01-08T08:30:00Z,Viana Do Castelo,Viana Do Castelo,Norte,-8.843621,41.7015
24789540,Airó,Cávado,309,2025-01-08T08:24:00Z,24789540,Em despacho,3321,Dano na rede de fornecimento de eletricidade ,0,3,0,6,2025-01-08T08:24:00Z,Barcelos,Braga,Norte,-8.558608,41.516928
