id,address,subregion,neighborhood,date,id.1,state,nature,nature_description,aerial_means,terrestrial_means,aquatic_means,operational,date.1,Concelho,Distrito,NUTII_DSG,longitude,latitude
25299986,Peniche,Oeste,311,2025-04-28T15:58:00Z,25299986,Em despacho,3321,Dano na rede de fornecimento de eletricidade ,0,1,0,1,2025-04-28T15:58:00Z,Peniche,Leiria,Centro,-9.376833,39.357166
25301542,Samora Correia,Lezíria do Tejo,311,2025-04-28T21:53:00Z,25301542,Em despacho,3317,Inundação de estruturas por água canalizada,0,1,0,3,2025-04-28T21:53:00Z,Benavente,Santarém,Alentejo,-8.868908,38.935447
25301572,Ramalde,Area M. Porto,309,2025-04-28T22:03:00Z,25301572,Em despacho,3317,Inundação de estruturas por água canalizada,0,0,0,0,2025-04-28T22:03:00Z,Porto,Porto,Norte,-8.63784,41.17182
25301765,Santo António Dos Olivais,Região de Coimbra,310,2025-04-28T22:42:00Z,25301765,Em despacho,3317,Inundação de estruturas por água canalizada,0,1,0,3,2025-04-28T22:42:00Z,Coimbra,Coimbra,Centro,-8.426807,40.217261
25071496,São Manços e São Vicente do Pigeiro,Alentejo Central,312,2025-03-11T13:18:00Z,25071496,Em conclusão,1101,Cheia,0,0,0,0,2025-03-11T13:18:00Z,Évora,Évora,Alentejo,-7.713313,38.513673
25299253,Malagueira e Horta Das Figueiras,Alentejo Central,312,2025-04-28T13:20:00Z,25299253,Em despacho,3317,Inundação de estruturas por água canalizada,0,1,0,2,2025-04-28T13:20:00Z,Évora,Évora,Alentejo,-7.917338,38.579056
25300315,Bonfim,Area M. Porto,309,2025-04-28T16:56:00Z,25300315,Em despacho,3315,Inundação de estruturas por precipitação intensa,0,0,0,0,2025-04-28T16:56:00Z,Porto,Porto,Norte,-8.59788,41.14874
25302439,Loures,Grande Lisboa,311,2025-04-29T03:20:00Z,25302439,Em curso,3301,Queda de árvore,0,0,0,0,2025-04-29T03:20:00Z,Loures,Lisboa,Área Metropolitana De Lisboa,-9.18288,38.83463
