id,address,subregion,neighborhood,date,id.1,state,nature,nature_description,aerial_means,terrestrial_means,aquatic_means,operational,date.1,Concelho,Distrito,NUTII_DSG,longitude,latitude,state_2
25763650,Milagres,Região de Leiria,310,2025-07-31T15:58:00Z,25763650,Em Resolução/Conclusão,3101,Incêndio rural,0,1,0,2,2025-07-31T15:58:00Z,Leiria,Leiria,Centro,-8.792217,39.793427,Resolução/Conclusão
25781305,Tamel (Santa Leocádia) e Vilar do Monte,Cávado,309,2025-08-03T23:17:00Z,25781305,Em Resolução/Conclusão,3103,Incêndio rural,0,4,0,11,2025-08-03T23:17:00Z,Barcelos,Braga,Norte,-8.66043,41.566023,Resolução/Conclusão
25782109,Monte e Queimadela,Ave,309,2025-08-04T07:12:00Z,25782109,Em Resolução/Conclusão,3103,Incêndio rural,0,3,0,11,2025-08-04T07:12:00Z,Fafe,Braga,Norte,-8.133707,41.507367,Resolução/Conclusão
25783763,"Lobão, Gião, Louredo e Guisande",Area M. Porto,309,2025-08-04T11:55:00Z,25783763,Em Resolução/Conclusão,3103,Incêndio rural,0,1,0,5,2025-08-04T11:55:00Z,Santa Maria Da Feira,Aveiro,Norte,-8.484747,40.9879,Resolução/Conclusão
25783827,Vale de Anta,Alto Tâmega e Barroso,309,2025-08-04T12:04:00Z,25783827,Em Resolução/Conclusão,3101,Incêndio rural,0,1,0,5,2025-08-04T12:04:00Z,Chaves,Vila Real,Norte,-7.493765,41.744487,Resolução/Conclusão
25784106,Negrelos (São Tomé),Area M. Porto,309,2025-08-04T12:50:00Z,25784106,Em Resolução/Conclusão,3103,Incêndio rural,0,7,0,20,2025-08-04T12:50:00Z,Santo Tirso,Porto,Norte,-8.406756,41.347422,Resolução/Conclusão
25784172,Lagoa,Terras de Trás-os-Montes,309,2025-08-04T13:01:00Z,25784172,Em Resolução/Conclusão,3103,Incêndio rural,0,7,0,18,2025-08-04T13:01:00Z,Macedo De Cavaleiros,Bragança,Norte,-6.771173,41.446867,Resolução/Conclusão
25784329,Vilar da Veiga,Cávado,309,2025-08-04T13:40:00Z,25784329,Em Resolução/Conclusão,3103,Incêndio rural,1,6,0,24,2025-08-04T13:40:00Z,Terras De Bouro,Braga,Norte,-8.151667,41.750973,Resolução/Conclusão
25784370,Penafiel,Tâmega e Sousa,309,2025-08-04T13:56:00Z,25784370,Em Resolução/Conclusão,3103,Incêndio rural,0,1,0,5,2025-08-04T13:56:00Z,Penafiel,Porto,Norte,-8.26109,41.21806,Resolução/Conclusão
25784449,Lustosa e Barrosas (Santo Estêvão),Tâmega e Sousa,309,2025-08-04T13:51:00Z,25784449,Em Despacho,3103,Incêndio rural,0,4,0,11,2025-08-04T13:51:00Z,Lousada,Porto,Norte,-8.311747,41.327727,Despacho
25784633,Fânzeres e São Pedro da Cova,Area M. Porto,309,2025-08-04T14:17:00Z,25784633,Em Resolução/Conclusão,3103,Incêndio rural,0,4,0,17,2025-08-04T14:17:00Z,Gondomar,Porto,Norte,-8.499642,41.136142,Resolução/Conclusão
25784674,Gondoriz,Alto Minho,309,2025-08-04T14:25:00Z,25784674,Em Despacho,3105,Incêndio rural,0,0,0,0,2025-08-04T14:25:00Z,Arcos De Valdevez,Viana Do Castelo,Norte,-8.431849,41.88074,Despacho
25784731,Sanfins Lamoso Codessos,Tâmega e Sousa,309,2025-08-04T14:33:00Z,25784731,Em Resolução/Conclusão,3103,Incêndio rural,0,1,0,5,2025-08-04T14:33:00Z,Paços De Ferreira,Porto,Norte,-8.365787,41.324646,Resolução/Conclusão
25784847,"Pena, Quintã e Vila Cova",Douro,309,2025-08-04T14:51:00Z,25784847,Em Curso,3103,Incêndio rural,1,3,0,17,2025-08-04T14:51:00Z,Vila Real,Vila Real,Norte,-7.881141,41.316864,Curso
25738747,Lindoso,Alto Minho,309,2025-07-26T21:47:00Z,25738747,Em Resolução/Conclusão,3103,Incêndio rural,0,121,0,360,2025-07-26T21:47:00Z,Ponte Da Barca,Viana Do Castelo,Norte,-8.220528,41.865272,Resolução/Conclusão
25747773,Aranhas,Beira Baixa,310,2025-07-28T16:36:00Z,25747773,Em Resolução/Conclusão,3103,Incêndio rural,0,4,0,13,2025-07-28T16:36:00Z,Penamacor,Castelo Branco,Centro,-7.14438,40.117542,Resolução/Conclusão
25752083,Alcanede,Lezíria do Tejo,311,2025-07-29T13:12:00Z,25752083,Em Resolução/Conclusão,3103,Incêndio rural,0,0,0,0,2025-07-29T13:12:00Z,Santarém,Santarém,Alentejo,-8.802682,39.405543,Resolução/Conclusão
25775263,Torgueda,Douro,309,2025-08-02T19:49:00Z,25775263,Em Resolução/Conclusão,3101,Incêndio rural,0,11,0,37,2025-08-02T19:49:00Z,Vila Real,Vila Real,Norte,-7.785983,41.274952,Resolução/Conclusão
25778337,Senhorim,Viseu Dão Lafões,310,2025-08-03T11:59:00Z,25778337,Em Resolução/Conclusão,3103,Incêndio rural,0,0,0,0,2025-08-03T11:59:00Z,Nelas,Viseu,Centro,-7.825723,40.54384,Resolução/Conclusão
25780418,Pias,Alto Minho,309,2025-08-03T19:32:00Z,25780418,Em Resolução/Conclusão,3103,Incêndio rural,0,5,0,12,2025-08-03T19:32:00Z,Monção,Viana Do Castelo,Norte,-8.529693,42.015753,Resolução/Conclusão
25780604,Rio Frio,Alto Minho,309,2025-08-03T20:13:00Z,25780604,Em Curso,3103,Incêndio rural,1,20,0,59,2025-08-03T20:13:00Z,Arcos De Valdevez,Viana Do Castelo,Norte,-8.492232,41.868325,Curso
25781822,São Gens,Ave,309,2025-08-04T03:44:00Z,25781822,Em Resolução/Conclusão,3103,Incêndio rural,0,34,0,106,2025-08-04T03:44:00Z,Fafe,Braga,Norte,-8.101607,41.44259,Resolução/Conclusão
25750701,Capela,Tâmega e Sousa,309,2025-07-29T09:26:00Z,25750701,Em Resolução/Conclusão,3103,Incêndio rural,0,9,0,32,2025-07-29T09:26:00Z,Penafiel,Porto,Norte,-8.345202,41.09353,Resolução/Conclusão
25773830,Andrães,Douro,309,2025-08-02T14:23:00Z,25773830,Em Resolução/Conclusão,3103,Incêndio rural,0,41,0,136,2025-08-02T14:23:00Z,Vila Real,Vila Real,Norte,-7.671293,41.267593,Resolução/Conclusão
25774883,Arnóia,Tâmega e Sousa,309,2025-08-02T18:20:00Z,25774883,Em Curso,3103,Incêndio rural,2,97,0,285,2025-08-02T18:20:00Z,Celorico De Basto,Braga,Norte,-7.998983,41.348727,Curso
25775734,Sequeiros e Gradiz,Viseu Dão Lafões,310,2025-08-02T21:35:00Z,25775734,Em Resolução/Conclusão,3103,Incêndio rural,0,1,0,2,2025-08-02T21:35:00Z,Aguiar Da Beira,Guarda,Centro,-7.564515,40.858278,Resolução/Conclusão
25781884,Graça,Região de Leiria,310,2025-08-04T04:33:00Z,25781884,Em Resolução/Conclusão,3101,Incêndio rural,0,1,0,2,2025-08-04T04:33:00Z,Pedrógão Grande,Leiria,Centro,-8.204434,39.895198,Resolução/Conclusão
25784127,Samora Correia,Lezíria do Tejo,311,2025-08-04T12:55:00Z,25784127,Em Resolução/Conclusão,3105,Incêndio rural,0,0,0,0,2025-08-04T12:55:00Z,Benavente,Santarém,Alentejo,-8.85177,38.922812,Resolução/Conclusão
25784310,Boelhe,Tâmega e Sousa,309,2025-08-04T13:22:00Z,25784310,Em Resolução/Conclusão,3103,Incêndio rural,0,2,0,7,2025-08-04T13:22:00Z,Penafiel,Porto,Norte,-8.240321,41.135201,Resolução/Conclusão
25783846,"Provesende, Gouvães Douro, S.cristóvão Douro",Douro,309,2025-08-04T12:08:00Z,25783846,Em Resolução/Conclusão,3103,Incêndio rural,0,4,0,17,2025-08-04T12:08:00Z,Sabrosa,Vila Real,Norte,-7.569948,41.205103,Resolução/Conclusão
25784337,"Veade, Gagos e Molares",Tâmega e Sousa,309,2025-08-04T13:36:00Z,25784337,Em Curso,3103,Incêndio rural,0,1,0,4,2025-08-04T13:36:00Z,Celorico De Basto,Braga,Norte,-7.989476,41.42279,Curso
25784427,"Perafita, Lavra e Santa Cruz do Bispo",Area M. Porto,309,2025-08-04T13:47:00Z,25784427,Em Resolução/Conclusão,3103,Incêndio rural,0,2,0,7,2025-08-04T13:47:00Z,Matosinhos,Porto,Norte,-8.697254,41.226608,Resolução/Conclusão
25784510,Beça,Alto Tâmega e Barroso,309,2025-08-04T14:02:00Z,25784510,Em Resolução/Conclusão,3103,Incêndio rural,0,6,0,19,2025-08-04T14:02:00Z,Boticas,Vila Real,Norte,-7.72943,41.689168,Resolução/Conclusão
25784558,Portela e Extremo,Alto Minho,309,2025-08-04T14:10:00Z,25784558,Em Curso,3103,Incêndio rural,0,5,0,17,2025-08-04T14:10:00Z,Arcos De Valdevez,Viana Do Castelo,Norte,-8.473775,41.956602,Curso
25784909,Parambos,Douro,309,2025-08-04T14:57:00Z,25784909,Em Despacho,3103,Incêndio rural,1,2,0,13,2025-08-04T14:57:00Z,Carrazeda De Ansiães,Bragança,Norte,-7.347115,41.232525,Despacho
25784639,Alvite,Douro,309,2025-08-04T14:19:00Z,25784639,Em Resolução/Conclusão,3103,Incêndio rural,0,6,0,24,2025-08-04T14:19:00Z,Moimenta Da Beira,Viseu,Norte,-7.710325,40.981452,Resolução/Conclusão
25784932,Vila Boa de Quires e Maureles,Tâmega e Sousa,309,2025-08-04T15:05:00Z,25784932,Em Despacho,3103,Incêndio rural,1,1,0,11,2025-08-04T15:05:00Z,Marco De Canaveses,Porto,Norte,-8.201095,41.207266,Despacho
25784957,"Pena, Quintã e Vila Cova",Douro,309,2025-08-04T15:09:00Z,25784957,Em Despacho,3103,Incêndio rural,0,0,0,0,2025-08-04T15:09:00Z,Vila Real,Vila Real,Norte,-7.818524,41.29197,Despacho
25784984,Vila Flor e Nabo,Terras de Trás-os-Montes,309,2025-08-04T15:13:00Z,25784984,Em Despacho,3103,Incêndio rural,1,11,0,49,2025-08-04T15:13:00Z,Vila Flor,Bragança,Norte,-7.153636,41.31047,Despacho
25748118,Canelas e Espiunca,Area M. Porto,309,2025-07-28T17:16:00Z,25748118,Em Resolução/Conclusão,3101,Incêndio rural,0,29,0,75,2025-07-28T17:16:00Z,Arouca,Aveiro,Norte,-8.212231,40.969918,Resolução/Conclusão
25749320,Rebordões (Santa Maria),Alto Minho,309,2025-07-28T22:47:00Z,25749320,Em Resolução/Conclusão,3103,Incêndio rural,0,2,0,6,2025-07-28T22:47:00Z,Ponte De Lima,Viana Do Castelo,Norte,-8.588365,41.729993,Resolução/Conclusão
25749641,Silva Escura e Dornelas,Região de Aveiro,310,2025-07-29T01:02:00Z,25749641,Em Resolução/Conclusão,3101,Incêndio rural,0,8,0,27,2025-07-29T01:02:00Z,Sever Do Vouga,Aveiro,Centro,-8.399623,40.769354,Resolução/Conclusão
25756006,Pinhanços,Beiras e Serra da Estrela,310,2025-07-30T09:07:00Z,25756006,Em Resolução/Conclusão,3103,Incêndio rural,0,1,0,5,2025-07-30T09:07:00Z,Seia,Guarda,Centro,-7.708132,40.473517,Resolução/Conclusão
25776263,"Pena, Quintã e Vila Cova",Douro,309,2025-08-02T23:45:00Z,25776263,Em Curso,3103,Incêndio rural,6,144,0,422,2025-08-02T23:45:00Z,Vila Real,Vila Real,Norte,-7.811902,41.317355,Curso
25779639,Senhorim,Viseu Dão Lafões,310,2025-08-03T16:28:00Z,25779639,Em Resolução/Conclusão,3103,Incêndio rural,0,2,0,6,2025-08-03T16:28:00Z,Nelas,Viseu,Centro,-7.81226,40.511713,Resolução/Conclusão
25781308,Beiral do Lima,Alto Minho,309,2025-08-03T23:18:00Z,25781308,Em Resolução/Conclusão,3103,Incêndio rural,0,4,0,11,2025-08-03T23:18:00Z,Ponte De Lima,Viana Do Castelo,Norte,-8.480692,41.758943,Resolução/Conclusão
25781592,Guarda,Beiras e Serra da Estrela,310,2025-08-04T01:10:00Z,25781592,Em Resolução/Conclusão,3103,Incêndio rural,0,1,0,5,2025-08-04T01:10:00Z,Guarda,Guarda,Centro,-7.225555,40.559305,Resolução/Conclusão
25783717,Cunha Baixa,Viseu Dão Lafões,310,2025-08-04T11:48:00Z,25783717,Em Resolução/Conclusão,3101,Incêndio rural,0,12,0,43,2025-08-04T11:48:00Z,Mangualde,Viseu,Centro,-7.764411,40.559738,Resolução/Conclusão
25784369,Freigil e Miomães,Tâmega e Sousa,309,2025-08-04T13:38:00Z,25784369,Em Resolução/Conclusão,3103,Incêndio rural,0,4,0,20,2025-08-04T13:38:00Z,Resende,Viseu,Norte,-8.015657,41.099607,Resolução/Conclusão
25784751,"São Pedro do Sul, Várzea e Baiões",Viseu Dão Lafões,310,2025-08-04T14:36:00Z,25784751,Em Resolução/Conclusão,3103,Incêndio rural,0,5,0,18,2025-08-04T14:36:00Z,São Pedro Do Sul,Viseu,Centro,-8.098667,40.75791,Resolução/Conclusão
25784785,Fregim,Tâmega e Sousa,309,2025-08-04T14:43:00Z,25784785,Em Curso,3103,Incêndio rural,1,5,0,28,2025-08-04T14:43:00Z,Amarante,Porto,Norte,-8.116883,41.27102,Curso
25784786,"S.maria, S.miguel, S.martinho, S.pedro Penaferrim",Grande Lisboa,311,2025-08-04T14:41:00Z,25784786,Em Resolução/Conclusão,3103,Incêndio rural,0,1,0,2,2025-08-04T14:41:00Z,Sintra,Lisboa,Área Metropolitana De Lisboa,-9.372157,38.813345,Resolução/Conclusão
25784837,Campos e Vila Meã,Alto Minho,309,2025-08-04T14:51:00Z,25784837,Em Resolução/Conclusão,3103,Incêndio rural,0,3,0,8,2025-08-04T14:51:00Z,Vila Nova De Cerveira,Viana Do Castelo,Norte,-8.69972,41.9678,Resolução/Conclusão
25784902,Alcanede,Lezíria do Tejo,311,2025-08-04T15:02:00Z,25784902,Em Resolução/Conclusão,3103,Incêndio rural,0,9,0,39,2025-08-04T15:02:00Z,Santarém,Santarém,Alentejo,-8.817931,39.387923,Resolução/Conclusão
25784920,Castro Daire,Viseu Dão Lafões,310,2025-08-04T15:03:00Z,25784920,Em Curso,3103,Incêndio rural,2,9,0,48,2025-08-04T15:03:00Z,Castro Daire,Viseu,Centro,-7.93895,40.91418,Curso
25784954,Torreira,Região de Aveiro,310,2025-08-04T15:08:00Z,25784954,Em Despacho,3103,Incêndio rural,0,6,0,19,2025-08-04T15:08:00Z,Murtosa,Aveiro,Centro,-8.699357,40.778174,Despacho
