id,address,subregion,neighborhood,date,id.1,state,nature,nature_description,aerial_means,terrestrial_means,aquatic_means,operational,date.1,Concelho,Distrito,NUTII_DSG,longitude,latitude
25052698,Santo António Dos Olivais,Região de Coimbra,310,2025-03-07T12:01:00Z,25052698,Em despacho,3301,Queda de árvore,0,1,0,2,2025-03-07T12:01:00Z,Coimbra,Coimbra,Centro,-8.408011,40.217307
25051479,Azambuja,Lezíria do Tejo,311,2025-03-07T08:33:00Z,25051479,Em despacho,3301,Queda de árvore,0,3,0,5,2025-03-07T08:33:00Z,Azambuja,Lisboa,Alentejo,-8.864506,39.067885
25052726,"Ovar, São João, Arada e São Vicente de Pereira Jusã",Região de Aveiro,310,2025-03-07T12:14:00Z,25052726,Em resolução,3311,Queda de elementos de estruturas edificados,0,2,0,5,2025-03-07T12:14:00Z,Ovar,Aveiro,Centro,-8.632482,40.864029
25052616,Montijo e Afonsoeiro,Península de Setúbal,311,2025-03-07T11:55:00Z,25052616,Em despacho,3301,Queda de árvore,0,1,0,5,2025-03-07T11:55:00Z,Montijo,Setúbal,Área Metropolitana De Lisboa,-8.96882,38.70678
25052809,"Algés, Linda-a-Velha e Cruz Quebrada-Dafundo",Grande Lisboa,311,2025-03-07T12:31:00Z,25052809,Em curso,3329,Queda de estruturas temporárias ou móveis,0,1,0,5,2025-03-07T12:31:00Z,Oeiras,Lisboa,Área Metropolitana De Lisboa,-9.22967,38.696612
25052238,Canidelo,Area M. Porto,309,2025-03-07T10:35:00Z,25052238,Em despacho,3311,Queda de elementos de estruturas edificados,0,1,0,3,2025-03-07T10:35:00Z,Vila Nova De Gaia,Porto,Norte,-8.643973,41.123309
25052436,Lorvão,Região de Coimbra,310,2025-03-07T11:25:00Z,25052436,Em despacho,3301,Queda de árvore,0,1,0,2,2025-03-07T11:25:00Z,Penacova,Coimbra,Centro,-8.328179,40.235482
25052556,Charneca de Caparica e Sobreda,Península de Setúbal,311,2025-03-07T11:31:00Z,25052556,Em despacho,3329,Queda de estruturas temporárias ou móveis,0,1,0,6,2025-03-07T11:31:00Z,Almada,Setúbal,Área Metropolitana De Lisboa,-9.206824,38.629265
