id,address,subregion,neighborhood,date,id.1,state,nature,nature_description,aerial_means,terrestrial_means,aquatic_means,operational,date.1,Concelho,Distrito,NUTII_DSG,longitude,latitude
25063232,Santa Maria do Castelo e Santiago e Santa Susana,Alentejo Litoral,312,2025-03-09T19:02:00Z,25063232,Em conclusão,1101,Cheia,0,0,0,0,2025-03-09T19:02:00Z,Alcácer Do Sal,Setúbal,Alentejo,-8.48167,38.29806
25127944,Colares,Grande Lisboa,311,2025-03-21T14:29:00Z,25127944,Em curso,3301,Queda de árvore,0,1,0,5,2025-03-21T14:29:00Z,Sintra,Lisboa,Área Metropolitana De Lisboa,-9.432326,38.780106
25131201,Cernache,Região de Coimbra,310,2025-03-22T08:07:00Z,25131201,Em despacho,3313,Deslizamento de terras,0,0,0,0,2025-03-22T08:07:00Z,Coimbra,Coimbra,Centro,-8.473586,40.13779
25131689,Cascais e Estoril,Grande Lisboa,311,2025-03-22T09:38:00Z,25131689,Em resolução,3301,Queda de árvore,0,1,0,4,2025-03-22T09:38:00Z,Cascais,Lisboa,Área Metropolitana De Lisboa,-9.408908,38.704814
25131805,Midões,Região de Coimbra,310,2025-03-22T10:01:00Z,25131805,Em curso,3301,Queda de árvore,0,2,0,3,2025-03-22T10:01:00Z,Tábua,Coimbra,Centro,-7.959948,40.405726
25133628,Alcanhões,Lezíria do Tejo,311,2025-03-22T15:39:00Z,25133628,Em conclusão,3301,Queda de árvore,0,0,0,0,2025-03-22T15:39:00Z,Santarém,Santarém,Alentejo,-8.648703,39.292613
25133642,Lousã e Vilarinho,Região de Coimbra,310,2025-03-22T15:32:00Z,25133642,Em despacho,3313,Deslizamento de terras,0,2,0,3,2025-03-22T15:32:00Z,Lousã,Coimbra,Centro,-8.23979,40.072591
25133693,Asseiceira,Médio Tejo,311,2025-03-22T15:52:00Z,25133693,Em despacho,3321,Dano na rede de fornecimento de eletricidade ,0,1,0,1,2025-03-22T15:52:00Z,Tomar,Santarém,Centro,-8.363374,39.523018
25133795,"Leiria, Pousos, Barreira e Cortes",Região de Leiria,310,2025-03-22T16:08:00Z,25133795,Em despacho,3329,Queda de estruturas temporárias ou móveis,0,2,0,5,2025-03-22T16:08:00Z,Leiria,Leiria,Centro,-8.802832,39.749179
25133812,Sarzedas,Beira Baixa,310,2025-03-22T16:15:00Z,25133812,Em curso,3313,Deslizamento de terras,0,3,0,6,2025-03-22T16:15:00Z,Castelo Branco,Castelo Branco,Centro,-7.689113,39.869483
25133860,Povolide,Viseu Dão Lafões,310,2025-03-22T16:10:00Z,25133860,Em conclusão,3301,Queda de árvore,0,2,0,5,2025-03-22T16:10:00Z,Viseu,Viseu,Centro,-7.797798,40.66389
25133877,Corroios,Península de Setúbal,311,2025-03-22T16:32:00Z,25133877,Em despacho,3329,Queda de estruturas temporárias ou móveis,0,1,0,3,2025-03-22T16:32:00Z,Seixal,Setúbal,Área Metropolitana De Lisboa,-9.15744,38.58142
25134010,Covas e Vila Nova de Oliveirinha,Região de Coimbra,310,2025-03-22T16:57:00Z,25134010,Em despacho,3301,Queda de árvore,0,1,0,2,2025-03-22T16:57:00Z,Tábua,Coimbra,Centro,-7.950623,40.368789
25134026,Ventosa,Oeste,311,2025-03-22T16:51:00Z,25134026,Em despacho,3313,Deslizamento de terras,0,1,0,2,2025-03-22T16:51:00Z,Torres Vedras,Lisboa,Centro,-9.297362,39.041844
25134146,Carnaxide e Queijas,Grande Lisboa,311,2025-03-22T17:22:00Z,25134146,Em despacho,3301,Queda de árvore,0,1,0,3,2025-03-22T17:22:00Z,Oeiras,Lisboa,Área Metropolitana De Lisboa,-9.25881,38.722457
25134163,Bárrio,Oeste,311,2025-03-22T17:35:00Z,25134163,Em curso,3301,Queda de árvore,0,1,0,2,2025-03-22T17:35:00Z,Alcobaça,Leiria,Centro,-9.023263,39.561262
25087162,Pedrógão,Baixo Alentejo,312,2025-03-14T17:00:00Z,25087162,Em curso,1101,Cheia,0,0,0,0,2025-03-14T17:00:00Z,Vidigueira,Beja,Alentejo,-7.630327,38.110775
25128056,Santa Maria do Castelo e Santiago e Santa Susana,Alentejo Litoral,312,2025-03-21T14:41:00Z,25128056,Em curso,1101,Cheia,0,0,0,0,2025-03-21T14:41:00Z,Alcácer Do Sal,Setúbal,Alentejo,-8.434671,38.401157
25131298,Luso,Região de Coimbra,310,2025-03-22T08:24:00Z,25131298,Em despacho,3301,Queda de árvore,0,1,0,2,2025-03-22T08:24:00Z,Mealhada,Aveiro,Centro,-8.374509,40.375881
25131407,São Romão de Neiva,Alto Minho,309,2025-03-22T08:47:00Z,25131407,Em despacho,3315,Inundação de estruturas por precipitação intensa,0,0,0,0,2025-03-22T08:47:00Z,Viana Do Castelo,Viana Do Castelo,Norte,-8.76857,41.63968
25132043,Miranda do Corvo,Região de Coimbra,310,2025-03-22T10:30:00Z,25132043,Em curso,3315,Inundação de estruturas por precipitação intensa,0,0,0,0,2025-03-22T10:30:00Z,Miranda Do Corvo,Coimbra,Centro,-8.339499,40.09407
25132586,Alenquer (Santo Estêvão e Triana),Oeste,311,2025-03-22T11:50:00Z,25132586,Em curso,3311,Queda de elementos de estruturas edificados,0,4,0,6,2025-03-22T11:50:00Z,Alenquer,Lisboa,Centro,-9.007918,39.054242
25133356,Garvão e Santa Luzia,Baixo Alentejo,312,2025-03-22T14:48:00Z,25133356,Em conclusão,3301,Queda de árvore,0,0,0,0,2025-03-22T14:48:00Z,Ourique,Beja,Alentejo,-8.364935,37.716402
25133731,Juncal,Região de Leiria,310,2025-03-22T15:54:00Z,25133731,Em despacho,3301,Queda de árvore,0,1,0,4,2025-03-22T15:54:00Z,Porto De Mós,Leiria,Centro,-8.896898,39.603593
25068300,Almeirim,Lezíria do Tejo,311,2025-03-10T20:52:00Z,25068300,Em curso,1101,Cheia,0,0,0,0,2025-03-10T20:52:00Z,Almeirim,Santarém,Alentejo,-8.635002,39.187436
25121298,Gafanhoeira (São Pedro) e Sabugueiro,Alentejo Central,312,2025-03-20T14:26:00Z,25121298,Em resolução,3301,Queda de árvore,0,0,0,0,2025-03-20T14:26:00Z,Arraiolos,Évora,Alentejo,-8.088754,38.754507
25129636,"S.maria, S.miguel, S.martinho, S.pedro Penaferrim",Grande Lisboa,311,2025-03-21T19:25:00Z,25129636,Em despacho,3301,Queda de árvore,0,1,0,5,2025-03-21T19:25:00Z,Sintra,Lisboa,Área Metropolitana De Lisboa,-9.366763,38.781718
25130479,"S.maria, S.miguel, S.martinho, S.pedro Penaferrim",Grande Lisboa,311,2025-03-21T23:50:00Z,25130479,Em curso,3301,Queda de árvore,0,1,0,5,2025-03-21T23:50:00Z,Sintra,Lisboa,Área Metropolitana De Lisboa,-9.366763,38.781718
25132058,Orvalho,Beira Baixa,310,2025-03-22T10:44:00Z,25132058,Em despacho,3311,Queda de elementos de estruturas edificados,0,1,0,2,2025-03-22T10:44:00Z,Oleiros,Castelo Branco,Centro,-7.791058,40.022607
25133112,Ourique,Baixo Alentejo,312,2025-03-22T14:03:00Z,25133112,Em conclusão,3309,Desabamento de estruturas edificadas,0,1,0,1,2025-03-22T14:03:00Z,Ourique,Beja,Alentejo,-8.235187,37.659223
25133437,Azeitão (São Lourenço e São Simão),Península de Setúbal,311,2025-03-22T14:45:00Z,25133437,Em despacho,3301,Queda de árvore,0,1,0,5,2025-03-22T14:45:00Z,Setúbal,Setúbal,Área Metropolitana De Lisboa,-9.04265,38.541479
25133741,Ceira,Região de Coimbra,310,2025-03-22T16:00:00Z,25133741,Em despacho,3301,Queda de árvore,0,0,0,0,2025-03-22T16:00:00Z,Coimbra,Coimbra,Centro,-8.355041,40.185
25059714,Torrão,Alentejo Litoral,312,2025-03-08T22:10:00Z,25059714,Em curso,1101,Cheia,0,1,0,2,2025-03-08T22:10:00Z,Alcácer Do Sal,Setúbal,Alentejo,-8.359133,38.252053
25070044,Praia do Ribatejo,Médio Tejo,311,2025-03-10T19:30:00Z,25070044,Em curso,1101,Cheia,0,0,0,0,2025-03-10T19:30:00Z,Vila Nova Da Barquinha,Santarém,Centro,-8.357309,39.485638
25071496,São Manços e São Vicente do Pigeiro,Alentejo Central,312,2025-03-11T13:18:00Z,25071496,Em curso,1101,Cheia,0,2,0,4,2025-03-11T13:18:00Z,Évora,Évora,Alentejo,-7.713313,38.513673
25130358,Grândola e Santa Margarida da Serra,Alentejo Litoral,312,2025-03-21T22:53:00Z,25130358,Em curso,3313,Deslizamento de terras,0,0,0,0,2025-03-21T22:53:00Z,Grândola,Setúbal,Alentejo,-8.621172,38.121494
25131211,"Custóias, Leça do Balio e Guifões",Area M. Porto,309,2025-03-22T07:57:00Z,25131211,Em curso,3315,Inundação de estruturas por precipitação intensa,0,14,0,24,2025-03-22T07:57:00Z,Matosinhos,Porto,Norte,-8.632716,41.208899
25131444,Cumeeira,Região de Coimbra,310,2025-03-22T08:50:00Z,25131444,Em despacho,3301,Queda de árvore,0,1,0,4,2025-03-22T08:50:00Z,Penela,Coimbra,Centro,-8.36246,39.948128
25131513,Louriçal,Região de Leiria,310,2025-03-22T08:45:00Z,25131513,Em despacho,3315,Inundação de estruturas por precipitação intensa,0,1,0,2,2025-03-22T08:45:00Z,Pombal,Leiria,Centro,-8.745623,40.007074
25131696,Matas e Cercal,Médio Tejo,311,2025-03-22T09:44:00Z,25131696,Em resolução,3311,Queda de elementos de estruturas edificados,0,3,0,5,2025-03-22T09:44:00Z,Ourém,Santarém,Centro,-8.641594,39.718476
25132347,Trouxemil e Torre de Vilela,Região de Coimbra,310,2025-03-22T11:34:00Z,25132347,Em curso,3315,Inundação de estruturas por precipitação intensa,0,2,0,3,2025-03-22T11:34:00Z,Coimbra,Coimbra,Centro,-8.452804,40.249612
25132816,Parreira e Chouto,Lezíria do Tejo,311,2025-03-22T13:03:00Z,25132816,Em conclusão,3301,Queda de árvore,0,1,0,5,2025-03-22T13:03:00Z,Chamusca,Santarém,Alentejo,-8.327738,39.256475
25133922,"S.maria, S.miguel, S.martinho, S.pedro Penaferrim",Grande Lisboa,311,2025-03-22T16:41:00Z,25133922,Em despacho,3301,Queda de árvore,0,1,0,4,2025-03-22T16:41:00Z,Sintra,Lisboa,Área Metropolitana De Lisboa,-9.38075,38.77495
25134015,Santo António Dos Olivais,Região de Coimbra,310,2025-03-22T17:00:00Z,25134015,Em despacho,3301,Queda de árvore,0,1,0,5,2025-03-22T17:00:00Z,Coimbra,Coimbra,Centro,-8.393952,40.227246
25134022,Moita,Região de Aveiro,310,2025-03-22T17:04:00Z,25134022,Em despacho,3301,Queda de árvore,0,1,0,2,2025-03-22T17:04:00Z,Anadia,Aveiro,Centro,-8.404713,40.43788
25134099,Charneca de Caparica e Sobreda,Península de Setúbal,311,2025-03-22T17:23:00Z,25134099,Em despacho,3329,Queda de estruturas temporárias ou móveis,0,1,0,6,2025-03-22T17:23:00Z,Almada,Setúbal,Área Metropolitana De Lisboa,-9.18163,38.64778
25134133,"Santa Iria de Azoia, São João da Talha e Bobadela",Grande Lisboa,311,2025-03-22T17:25:00Z,25134133,Em despacho,3329,Queda de estruturas temporárias ou móveis,0,1,0,4,2025-03-22T17:25:00Z,Loures,Lisboa,Área Metropolitana De Lisboa,-9.079846,38.840245
25133882,Seiça,Médio Tejo,311,2025-03-22T16:32:00Z,25133882,Em conclusão,3313,Deslizamento de terras,0,0,0,0,2025-03-22T16:32:00Z,Ourém,Santarém,Centro,-8.528218,39.674787
25133916,Podentes,Região de Coimbra,310,2025-03-22T16:30:00Z,25133916,Em curso,3311,Queda de elementos de estruturas edificados,0,2,0,4,2025-03-22T16:30:00Z,Penela,Coimbra,Centro,-8.436699,40.065036
25133932,Lousã e Vilarinho,Região de Coimbra,310,2025-03-22T16:36:00Z,25133932,Em despacho,3315,Inundação de estruturas por precipitação intensa,0,1,0,2,2025-03-22T16:36:00Z,Lousã,Coimbra,Centro,-8.243385,40.12032
25133957,Pessegueiro do Vouga,Região de Aveiro,310,2025-03-22T16:42:00Z,25133957,Em despacho,3313,Deslizamento de terras,0,1,0,4,2025-03-22T16:42:00Z,Sever Do Vouga,Aveiro,Centro,-8.367434,40.709991
25133966,Silveira,Oeste,311,2025-03-22T16:35:00Z,25133966,Em curso,3311,Queda de elementos de estruturas edificados,0,1,0,2,2025-03-22T16:35:00Z,Torres Vedras,Lisboa,Centro,-9.378656,39.132876
25133991,Armação de Pêra,Algarve,313,2025-03-22T16:32:00Z,25133991,Em despacho,3311,Queda de elementos de estruturas edificados,0,3,0,8,2025-03-22T16:32:00Z,Silves,Faro,Algarve,-8.367062,37.105071
25134023,"Algés, Linda-a-Velha e Cruz Quebrada-Dafundo",Grande Lisboa,311,2025-03-22T16:50:00Z,25134023,Em despacho,3301,Queda de árvore,0,1,0,5,2025-03-22T16:50:00Z,Oeiras,Lisboa,Área Metropolitana De Lisboa,-9.242367,38.700095
25134130,Alverca do Ribatejo e Sobralinho,Grande Lisboa,311,2025-03-22T17:25:00Z,25134130,Em despacho,3301,Queda de árvore,0,1,0,3,2025-03-22T17:25:00Z,Vila Franca De Xira,Lisboa,Área Metropolitana De Lisboa,-9.046012,38.896362
25133017,Manteigas (São Pedro),Beiras e Serra da Estrela,310,2025-03-22T13:44:00Z,25133017,Em curso,3313,Deslizamento de terras,0,3,0,4,2025-03-22T13:44:00Z,Manteigas,Guarda,Centro,-7.564456,40.34211
25133084,Azeitão (São Lourenço e São Simão),Península de Setúbal,311,2025-03-22T09:59:00Z,25133084,Em despacho,3301,Queda de árvore,0,1,0,4,2025-03-22T09:59:00Z,Setúbal,Setúbal,Área Metropolitana De Lisboa,-9.008871,38.513402
25133333,Carvalhal,Alentejo Litoral,312,2025-03-22T14:17:00Z,25133333,Em despacho,3301,Queda de árvore,0,2,0,6,2025-03-22T14:17:00Z,Grândola,Setúbal,Alentejo,-8.853697,38.456316
25133533,Parreira e Chouto,Lezíria do Tejo,311,2025-03-22T15:23:00Z,25133533,Em despacho,3301,Queda de árvore,0,1,0,1,2025-03-22T15:23:00Z,Chamusca,Santarém,Alentejo,-8.35511,39.25229
25133653,"Perafita, Lavra e Santa Cruz do Bispo",Area M. Porto,309,2025-03-22T15:38:00Z,25133653,Em despacho,3321,Dano na rede de fornecimento de eletricidade ,0,1,0,1,2025-03-22T15:38:00Z,Matosinhos,Porto,Norte,-8.697254,41.226608
25133719,Barcouço,Região de Coimbra,310,2025-03-22T15:51:00Z,25133719,Em resolução,3301,Queda de árvore,0,2,0,5,2025-03-22T15:51:00Z,Mealhada,Aveiro,Centro,-8.455348,40.290131
25133753,Santo António Dos Olivais,Região de Coimbra,310,2025-03-22T16:02:00Z,25133753,Em despacho,3329,Queda de estruturas temporárias ou móveis,0,0,0,0,2025-03-22T16:02:00Z,Coimbra,Coimbra,Centro,-8.426807,40.217261
25133869,Serra D'El-Rei,Oeste,311,2025-03-22T16:26:00Z,25133869,Em despacho,3301,Queda de árvore,0,1,0,2,2025-03-22T16:26:00Z,Peniche,Leiria,Centro,-9.27897,39.332052
25133870,Caldas da Rainha - Santo Onofre e Serra do Bouro,Oeste,311,2025-03-22T09:47:00Z,25133870,Em despacho,3301,Queda de árvore,0,2,0,7,2025-03-22T09:47:00Z,Caldas Da Rainha,Leiria,Centro,-9.149726,39.395205
25134167,São João Das Lampas e Terrugem,Grande Lisboa,311,2025-03-22T17:28:00Z,25134167,Em conclusão,3311,Queda de elementos de estruturas edificados,0,1,0,3,2025-03-22T17:28:00Z,Sintra,Lisboa,Área Metropolitana De Lisboa,-9.404642,38.905614
25134190,Maceira,Região de Leiria,310,2025-03-22T17:42:00Z,25134190,Em despacho,3329,Queda de estruturas temporárias ou móveis,0,1,0,3,2025-03-22T17:42:00Z,Leiria,Leiria,Centro,-8.877948,39.682073
25134189,São Martinho do Bispo e Ribeira de Frades,Região de Coimbra,310,2025-03-22T17:45:00Z,25134189,Em despacho,3315,Inundação de estruturas por precipitação intensa,0,1,0,2,2025-03-22T17:45:00Z,Coimbra,Coimbra,Centro,-8.454962,40.20908
25133903,Marinhais,Lezíria do Tejo,311,2025-03-22T16:36:00Z,25133903,Em curso,3315,Inundação de estruturas por precipitação intensa,0,0,0,0,2025-03-22T16:36:00Z,Salvaterra De Magos,Santarém,Alentejo,-8.704894,39.048061
25133951,Cascais e Estoril,Grande Lisboa,311,2025-03-22T16:42:00Z,25133951,Em despacho,3301,Queda de árvore,0,3,0,9,2025-03-22T16:42:00Z,Cascais,Lisboa,Área Metropolitana De Lisboa,-9.450724,38.716847
25134070,"Algés, Linda-a-Velha e Cruz Quebrada-Dafundo",Grande Lisboa,311,2025-03-22T17:05:00Z,25134070,Em despacho,3317,Inundação de estruturas por água canalizada,0,1,0,4,2025-03-22T17:05:00Z,Oeiras,Lisboa,Área Metropolitana De Lisboa,-9.244903,38.715384
25134102,Cernache,Região de Coimbra,310,2025-03-22T17:20:00Z,25134102,Em curso,3315,Inundação de estruturas por precipitação intensa,0,1,0,2,2025-03-22T17:20:00Z,Coimbra,Coimbra,Centro,-8.458162,40.141528
25134185,Alcaria Ruiva,Baixo Alentejo,312,2025-03-22T17:35:00Z,25134185,Em despacho,3301,Queda de árvore,0,2,0,4,2025-03-22T17:35:00Z,Mértola,Beja,Alentejo,-7.817592,37.756762
25134187,Charneca de Caparica e Sobreda,Península de Setúbal,311,2025-03-22T17:30:00Z,25134187,Em curso,3301,Queda de árvore,0,1,0,3,2025-03-22T17:30:00Z,Almada,Setúbal,Área Metropolitana De Lisboa,-9.190193,38.591584
25134201,Azueira e Sobral da Abelheira,Grande Lisboa,311,2025-03-22T17:31:00Z,25134201,Em despacho,3301,Queda de árvore,0,1,0,5,2025-03-22T17:31:00Z,Mafra,Lisboa,Área Metropolitana De Lisboa,-9.264294,38.996233
25134219,Almalaguês,Região de Coimbra,310,2025-03-22T17:45:00Z,25134219,Em despacho,3313,Deslizamento de terras,0,1,0,3,2025-03-22T17:45:00Z,Coimbra,Coimbra,Centro,-8.393658,40.150697
