id,address,subregion,neighborhood,date,id.1,state,nature,nature_description,aerial_means,terrestrial_means,aquatic_means,operational,date.1,Concelho,Distrito,NUTII_DSG,longitude,latitude,state_2
26097107,Beja (Salvador e Santa Maria da Feira),Baixo Alentejo,312,2025-10-06T15:17:00Z,26097107,Em Resolução/Conclusão,3105,Incêndio rural,0,0,0,0,2025-10-06T15:17:00Z,Beja,Beja,Alentejo,-7.865427,38.02953,Resolução/Conclusão
26097159,Tocha,Região de Coimbra,310,2025-10-06T15:29:00Z,26097159,Em Resolução/Conclusão,3105,Incêndio rural,0,5,0,19,2025-10-06T15:29:00Z,Cantanhede,Coimbra,Centro,-8.74417,40.31833,Resolução/Conclusão
26097226,Alfragide,Grande Lisboa,311,2025-10-06T15:40:00Z,26097226,Em Resolução/Conclusão,3103,Incêndio rural,0,0,0,0,2025-10-06T15:40:00Z,Amadora,Lisboa,Área Metropolitana De Lisboa,-9.232053,38.746077,Resolução/Conclusão
26097324,"Bustelo, Carneiro e Carvalho de Rei",Tâmega e Sousa,309,2025-10-06T16:00:00Z,26097324,Em Resolução/Conclusão,3105,Incêndio rural,0,1,0,5,2025-10-06T16:00:00Z,Amarante,Porto,Norte,-7.96721,41.2135,Resolução/Conclusão
26097444,Santiago e S. Simão de Litém e Albergaria Dos Doze,Região de Leiria,310,2025-10-06T16:23:00Z,26097444,Em Curso,3103,Incêndio rural,1,6,0,27,2025-10-06T16:23:00Z,Pombal,Leiria,Centro,-8.617977,39.842866,Curso
26097476,Samora Correia,Lezíria do Tejo,311,2025-10-06T16:21:00Z,26097476,Em Resolução/Conclusão,3111,Queima,0,1,0,4,2025-10-06T16:21:00Z,Benavente,Santarém,Alentejo,-8.840328,38.829023,Resolução/Conclusão
26096068,Guilhabreu,Area M. Porto,309,2025-10-06T12:18:00Z,26096068,Em Resolução/Conclusão,3101,Incêndio rural,0,1,0,5,2025-10-06T12:18:00Z,Vila Do Conde,Porto,Norte,-8.626423,41.291658,Resolução/Conclusão
26096629,Bornes de Aguiar,Alto Tâmega e Barroso,309,2025-10-06T13:58:00Z,26096629,Em Resolução/Conclusão,3105,Incêndio rural,0,4,0,13,2025-10-06T13:58:00Z,Vila Pouca De Aguiar,Vila Real,Norte,-7.610278,41.52943,Resolução/Conclusão
26096972,Mértola,Baixo Alentejo,312,2025-10-06T15:00:00Z,26096972,Em Resolução/Conclusão,3105,Incêndio rural,0,6,0,14,2025-10-06T15:00:00Z,Mértola,Beja,Alentejo,-7.686287,37.665273,Resolução/Conclusão
26097063,Samora Correia,Lezíria do Tejo,311,2025-10-06T15:12:00Z,26097063,Em Resolução/Conclusão,3105,Incêndio rural,0,3,0,15,2025-10-06T15:12:00Z,Benavente,Santarém,Alentejo,-8.855993,38.90866,Resolução/Conclusão
26097179,Linhares,Douro,309,2025-10-06T15:33:00Z,26097179,Em Resolução/Conclusão,3103,Incêndio rural,0,8,0,28,2025-10-06T15:33:00Z,Carrazeda De Ansiães,Bragança,Norte,-7.3586,41.17876,Resolução/Conclusão
26093602,Castro Daire,Viseu Dão Lafões,310,2025-10-05T22:05:00Z,26093602,Em Resolução/Conclusão,3103,Incêndio rural,2,15,0,66,2025-10-05T22:05:00Z,Castro Daire,Viseu,Centro,-7.927072,40.927072,Resolução/Conclusão
26094440,Rio de Moinhos,Tâmega e Sousa,309,2025-10-06T07:03:00Z,26094440,Em Resolução/Conclusão,3101,Incêndio rural,0,7,0,21,2025-10-06T07:03:00Z,Penafiel,Porto,Norte,-8.265447,41.119273,Resolução/Conclusão
26096362,Fronteira,Alto Alentejo,312,2025-10-06T13:07:00Z,26096362,Em Resolução/Conclusão,3105,Incêndio rural,0,5,0,14,2025-10-06T13:07:00Z,Fronteira,Portalegre,Alentejo,-7.616408,39.064327,Resolução/Conclusão
26097062,Candedo,Douro,309,2025-10-06T15:13:00Z,26097062,Em Resolução/Conclusão,3103,Incêndio rural,0,4,0,16,2025-10-06T15:13:00Z,Murça,Vila Real,Norte,-7.37386,41.339268,Resolução/Conclusão
26097128,Meinedo,Tâmega e Sousa,309,2025-10-06T15:24:00Z,26097128,Em Resolução/Conclusão,3105,Incêndio rural,0,1,0,4,2025-10-06T15:24:00Z,Lousada,Porto,Norte,-8.26255,41.250213,Resolução/Conclusão
26097248,Vila Chã (São João Baptista e Santiago),Alto Minho,309,2025-10-06T15:43:00Z,26097248,Em Curso,3105,Incêndio rural,0,2,0,7,2025-10-06T15:43:00Z,Ponte Da Barca,Viana Do Castelo,Norte,-8.321554,41.789773,Curso
26093991,Santa Comba,Beiras e Serra da Estrela,310,2025-10-06T01:09:00Z,26093991,Em Resolução/Conclusão,3103,Incêndio rural,0,6,0,15,2025-10-06T01:09:00Z,Seia,Guarda,Centro,-7.745905,40.442718,Resolução/Conclusão
26094776,Meixedo e Padornelos,Alto Tâmega e Barroso,309,2025-10-06T08:40:00Z,26094776,Em Resolução/Conclusão,3103,Incêndio rural,0,2,0,9,2025-10-06T08:40:00Z,Montalegre,Vila Real,Norte,-7.750963,41.864478,Resolução/Conclusão
26095380,Santa Maria do Castelo e Santiago e Santa Susana,Alentejo Litoral,312,2025-10-06T10:27:00Z,26095380,Em Resolução/Conclusão,3101,Incêndio rural,0,1,0,2,2025-10-06T10:27:00Z,Alcácer Do Sal,Setúbal,Alentejo,-8.350748,38.494853,Resolução/Conclusão
26096532,São Bento do Mato,Alentejo Central,312,2025-10-06T13:43:00Z,26096532,Em Resolução/Conclusão,3105,Incêndio rural,0,16,0,45,2025-10-06T13:43:00Z,Évora,Évora,Alentejo,-7.835977,38.695258,Resolução/Conclusão
26096565,Rio de Loba,Viseu Dão Lafões,310,2025-10-06T13:50:00Z,26096565,Em Resolução/Conclusão,3103,Incêndio rural,0,5,0,11,2025-10-06T13:50:00Z,Viseu,Viseu,Centro,-7.871585,40.654975,Resolução/Conclusão
26096901,"Geraz do Lima (S.maria, S.leocádia, Moreira), Deão",Alto Minho,309,2025-10-06T14:44:00Z,26096901,Em Curso,3103,Incêndio rural,9,23,0,82,2025-10-06T14:44:00Z,Viana Do Castelo,Viana Do Castelo,Norte,-8.674877,41.687823,Curso
26097167,Beduído e Veiros,Região de Aveiro,310,2025-10-06T15:32:00Z,26097167,Em Resolução/Conclusão,3103,Incêndio rural,0,2,0,7,2025-10-06T15:32:00Z,Estarreja,Aveiro,Centro,-8.598885,40.7511,Resolução/Conclusão
26097182,Monte Córdova,Area M. Porto,309,2025-10-06T15:34:00Z,26097182,Em Resolução/Conclusão,3103,Incêndio rural,0,6,0,20,2025-10-06T15:34:00Z,Santo Tirso,Porto,Norte,-8.415708,41.31674,Resolução/Conclusão
26097250,Rocas do Vouga,Região de Aveiro,310,2025-10-06T15:45:00Z,26097250,Em Curso,3101,Incêndio rural,1,13,0,49,2025-10-06T15:45:00Z,Sever Do Vouga,Aveiro,Centro,-8.349789,40.742444,Curso
26097537,Portela e Extremo,Alto Minho,309,2025-10-06T16:38:00Z,26097537,Em Resolução/Conclusão,3105,Incêndio rural,0,1,0,3,2025-10-06T16:38:00Z,Arcos De Valdevez,Viana Do Castelo,Norte,-8.449502,41.943912,Resolução/Conclusão
26097555,Poceirão e Marateca,Península de Setúbal,311,2025-10-06T16:35:00Z,26097555,Em Curso,3103,Incêndio rural,0,1,0,5,2025-10-06T16:35:00Z,Palmela,Setúbal,Área Metropolitana De Lisboa,-8.741193,38.629608,Curso
26097529,Fânzeres e São Pedro da Cova,Area M. Porto,309,2025-10-06T16:40:00Z,26097529,Em Despacho,3103,Incêndio rural,0,1,0,3,2025-10-06T16:40:00Z,Gondomar,Porto,Norte,-8.510918,41.16609,Despacho
26097570,Turcifal,Oeste,311,2025-10-06T16:30:00Z,26097570,Em Despacho,3105,Incêndio rural,0,2,0,7,2025-10-06T16:30:00Z,Torres Vedras,Lisboa,Centro,-9.262919,39.054793,Despacho
26097552,Fornos,Tâmega e Sousa,309,2025-10-06T16:43:00Z,26097552,Em Despacho,3103,Incêndio rural,0,3,0,12,2025-10-06T16:43:00Z,Castelo De Paiva,Aveiro,Norte,-8.255654,41.055046,Despacho
