id,address,subregion,neighborhood,date,id.1,state,nature,nature_description,aerial_means,terrestrial_means,aquatic_means,operational,date.1,Concelho,Distrito,NUTII_DSG,longitude,latitude,state_2
25708284,Bogas de Cima,Beiras e Serra da Estrela,310,2025-07-20T21:26:00Z,25708284,Em Curso,3103,Incêndio rural,0,11,0,49,2025-07-20T21:26:00Z,Fundão,Castelo Branco,Centro,-7.71106,40.078181,Curso
25708302,Venda Nova e Pondras,Alto Tâmega e Barroso,309,2025-07-20T21:28:00Z,25708302,Em Despacho,3103,Incêndio rural,0,2,0,10,2025-07-20T21:28:00Z,Montalegre,Vila Real,Norte,-7.979428,41.675386,Despacho
25686799,Souto Maior,Douro,309,2025-07-16T13:19:00Z,25686799,Em Resolução/Conclusão,3101,Incêndio rural,0,3,0,12,2025-07-16T13:19:00Z,Sabrosa,Vila Real,Norte,-7.57839,41.287518,Resolução/Conclusão
25706620,Forno Telheiro,Beiras e Serra da Estrela,310,2025-07-20T14:06:00Z,25706620,Em Resolução/Conclusão,3103,Incêndio rural,0,3,0,12,2025-07-20T14:06:00Z,Celorico Da Beira,Guarda,Centro,-7.400468,40.6775,Resolução/Conclusão
25708103,Caldas de São Jorge e Pigeiros,Area M. Porto,309,2025-07-20T20:41:00Z,25708103,Em Resolução/Conclusão,3103,Incêndio rural,0,1,0,5,2025-07-20T20:41:00Z,Santa Maria Da Feira,Aveiro,Norte,-8.48706,40.951914,Resolução/Conclusão
