id,address,subregion,neighborhood,date,id.1,state,nature,nature_description,aerial_means,terrestrial_means,aquatic_means,operational,date.1,Concelho,Distrito,NUTII_DSG,longitude,latitude
25469306,Viseu,Viseu Dão Lafões,310,2025-06-03T06:53:00Z,25469306,Em conclusão,2301,Incêndio em transporte rodoviário,0,1,0,5,2025-06-03T06:53:00Z,Viseu,Viseu,Centro,-7.914593,40.660418
25469190,Ramalde,Area M. Porto,309,2025-06-03T04:50:00Z,25469190,Em conclusão,2101,Incêndio em edifícios habitacionais,0,4,0,14,2025-06-03T04:50:00Z,Porto,Porto,Norte,-8.63372,41.16745
25466369,Melides,Alentejo Litoral,312,2025-06-02T13:27:00Z,25466369,Em conclusão,3103,Incêndio rural,0,2,0,3,2025-06-02T13:27:00Z,Grândola,Setúbal,Alentejo,-8.754243,38.19534
25467128,Monte Redondo e Carreira,Região de Leiria,310,2025-06-02T15:48:00Z,25467128,Em conclusão,3103,Incêndio rural,0,1,0,2,2025-06-02T15:48:00Z,Leiria,Leiria,Centro,-8.860783,39.89848
25469307,Aljezur,Algarve,313,2025-06-03T06:57:00Z,25469307,Em curso,3201,Detritos não confinados,0,1,0,5,2025-06-03T06:57:00Z,Aljezur,Faro,Algarve,-8.798547,37.29193
25469316,Conde e Gandarela,Ave,309,2025-06-03T06:49:00Z,25469316,Em resolução,2127,"Incêndio em edifícios e recintos industriais, oficinas e armazéns",0,1,0,5,2025-06-03T06:49:00Z,Guimarães,Braga,Norte,-8.339596,41.394277
