id,address,subregion,neighborhood,date,id.1,state,nature,nature_description,aerial_means,terrestrial_means,aquatic_means,operational,date.1,Concelho,Distrito,NUTII_DSG,longitude,latitude,state_2
25721619,Costa da Caparica,Península de Setúbal,311,2025-07-23T15:11:00Z,25721619,Em Resolução/Conclusão,3103,Incêndio rural,0,1,0,1,2025-07-23T15:11:00Z,Almada,Setúbal,Área Metropolitana De Lisboa,-9.21697,38.61683,Resolução/Conclusão
25725448,Ferreira do Alentejo e Canhestros,Baixo Alentejo,312,2025-07-24T11:29:00Z,25725448,Em Resolução/Conclusão,3103,Incêndio rural,0,0,0,0,2025-07-24T11:29:00Z,Ferreira Do Alentejo,Beja,Alentejo,-8.139218,38.07651,Resolução/Conclusão
25725615,Tourais e Lajes,Beiras e Serra da Estrela,310,2025-07-24T12:03:00Z,25725615,Em Resolução/Conclusão,3103,Incêndio rural,0,4,0,17,2025-07-24T12:03:00Z,Seia,Guarda,Centro,-7.784602,40.443185,Resolução/Conclusão
25726083,Girabolhos,Beiras e Serra da Estrela,310,2025-07-24T13:43:00Z,25726083,Em Resolução/Conclusão,3103,Incêndio rural,0,6,0,27,2025-07-24T13:43:00Z,Seia,Guarda,Centro,-7.74848,40.511482,Resolução/Conclusão
25726101,"Campo, S.salvador Campo, Negrelos",Area M. Porto,309,2025-07-24T13:48:00Z,25726101,Em Resolução/Conclusão,3103,Incêndio rural,0,1,0,5,2025-07-24T13:48:00Z,Santo Tirso,Porto,Norte,-8.367257,41.352752,Resolução/Conclusão
25726550,Mina de Água,Grande Lisboa,311,2025-07-24T15:05:00Z,25726550,Em Despacho,3103,Incêndio rural,0,3,0,16,2025-07-24T15:05:00Z,Amadora,Lisboa,Área Metropolitana De Lisboa,-9.24267,38.76564,Despacho
25720797,"Lavandeira, Beira Grande e Selores",Douro,309,2025-07-23T12:23:00Z,25720797,Em Resolução/Conclusão,3103,Incêndio rural,0,14,0,40,2025-07-23T12:23:00Z,Carrazeda De Ansiães,Bragança,Norte,-7.304242,41.205575,Resolução/Conclusão
25726161,Pontinha e Famões,Grande Lisboa,311,2025-07-24T13:55:00Z,25726161,Em Resolução/Conclusão,3103,Incêndio rural,0,12,0,42,2025-07-24T13:55:00Z,Odivelas,Lisboa,Área Metropolitana De Lisboa,-9.20389,38.77083,Resolução/Conclusão
25726195,Azias,Alto Minho,309,2025-07-24T14:01:00Z,25726195,Em Resolução/Conclusão,3101,Incêndio rural,0,2,0,8,2025-07-24T14:01:00Z,Ponte Da Barca,Viana Do Castelo,Norte,-8.359507,41.776642,Resolução/Conclusão
25726490,"Santa Iria de Azoia, São João da Talha e Bobadela",Grande Lisboa,311,2025-07-24T14:53:00Z,25726490,Em Curso,3103,Incêndio rural,1,6,0,26,2025-07-24T14:53:00Z,Loures,Lisboa,Área Metropolitana De Lisboa,-9.105925,38.811395,Curso
25712338,Cercal,Alentejo Litoral,312,2025-07-21T17:38:00Z,25712338,Em Resolução/Conclusão,3103,Incêndio rural,0,8,0,23,2025-07-21T17:38:00Z,Santiago Do Cacém,Setúbal,Alentejo,-8.682272,37.791582,Resolução/Conclusão
25721930,Vilar de Perdizes e Meixide,Alto Tâmega e Barroso,309,2025-07-23T16:21:00Z,25721930,Em Resolução/Conclusão,3103,Incêndio rural,3,40,0,126,2025-07-23T16:21:00Z,NA,NA,NA,-7.618655,41.886193,Resolução/Conclusão
25725056,Pedrógão Pequeno,Beira Baixa,310,2025-07-24T10:16:00Z,25725056,Em Resolução/Conclusão,3101,Incêndio rural,0,5,0,19,2025-07-24T10:16:00Z,Sertã,Castelo Branco,Centro,-8.093663,39.879797,Resolução/Conclusão
25726609,Paredes,Area M. Porto,309,2025-07-24T15:15:00Z,25726609,Em Resolução/Conclusão,3103,Incêndio rural,0,1,0,5,2025-07-24T15:15:00Z,Paredes,Porto,Norte,-8.322245,41.231353,Resolução/Conclusão
25726504,Alvarenga,Area M. Porto,309,2025-07-24T14:55:00Z,25726504,Em Resolução/Conclusão,3103,Incêndio rural,1,6,0,31,2025-07-24T14:55:00Z,Arouca,Aveiro,Norte,-8.166741,40.973575,Resolução/Conclusão
25726604,Mirandela,Terras de Trás-os-Montes,309,2025-07-24T15:18:00Z,25726604,Em Despacho,3103,Incêndio rural,0,1,0,2,2025-07-24T15:18:00Z,Mirandela,Bragança,Norte,-7.16564,41.45966,Despacho
25720932,Bouro (Santa Marta),Cávado,309,2025-07-23T12:54:00Z,25720932,Em Resolução/Conclusão,3101,Incêndio rural,0,2,0,6,2025-07-23T12:54:00Z,Amares,Braga,Norte,-8.283857,41.671897,Resolução/Conclusão
25721382,Unhais da Serra,Beiras e Serra da Estrela,310,2025-07-23T14:29:00Z,25721382,Em Resolução/Conclusão,3105,Incêndio rural,0,2,0,6,2025-07-23T14:29:00Z,Covilhã,Castelo Branco,Centro,-7.61948,40.25114,Resolução/Conclusão
25725153,Troviscal,Beira Baixa,310,2025-07-24T10:31:00Z,25725153,Em Resolução/Conclusão,3101,Incêndio rural,0,4,0,14,2025-07-24T10:31:00Z,Sertã,Castelo Branco,Centro,-8.084768,39.877972,Resolução/Conclusão
25725251,Pedrógão Pequeno,Beira Baixa,310,2025-07-24T10:52:00Z,25725251,Em Resolução/Conclusão,3101,Incêndio rural,0,46,0,170,2025-07-24T10:52:00Z,Sertã,Castelo Branco,Centro,-8.084635,39.925647,Resolução/Conclusão
25726046,Alvorninha,Oeste,311,2025-07-24T13:32:00Z,25726046,Em Resolução/Conclusão,3103,Incêndio rural,0,3,0,9,2025-07-24T13:32:00Z,Caldas Da Rainha,Leiria,Centro,-9.07811,39.40141,Resolução/Conclusão
25726330,Olaia e Paço,Médio Tejo,311,2025-07-24T14:28:00Z,25726330,Em Resolução/Conclusão,3103,Incêndio rural,4,20,0,82,2025-07-24T14:28:00Z,Torres Novas,Santarém,Centro,-8.473736,39.498428,Resolução/Conclusão
25726378,Alcochete,Península de Setúbal,311,2025-07-24T14:30:00Z,25726378,Em Despacho,3103,Incêndio rural,0,5,0,20,2025-07-24T14:30:00Z,Alcochete,Setúbal,Área Metropolitana De Lisboa,-8.962464,38.749259,Despacho
