id,address,subregion,neighborhood,date,id.1,state,nature,nature_description,aerial_means,terrestrial_means,aquatic_means,operational,date.1,Concelho,Distrito,NUTII_DSG,longitude,latitude,state_2
26197352,Nossa Senhora da Expectação,Alto Alentejo,312,2025-10-27T14:07:00Z,26197352,Em Resolução/Conclusão,3103,Incêndio rural,0,6,0,16,2025-10-27T14:07:00Z,Campo Maior,Portalegre,Alentejo,-7.061605,38.958228,Resolução/Conclusão
26197979,São Vicente do Paul e Vale de Figueira,Lezíria do Tejo,311,2025-10-27T16:08:00Z,26197979,Em Resolução/Conclusão,3103,Incêndio rural,0,3,0,9,2025-10-27T16:08:00Z,Santarém,Santarém,Alentejo,-8.61305,39.378283,Resolução/Conclusão
26197625,Branca,Lezíria do Tejo,311,2025-10-27T15:03:00Z,26197625,Em Resolução/Conclusão,3111,Queima,0,1,0,2,2025-10-27T15:03:00Z,Coruche,Santarém,Alentejo,-8.598107,38.872985,Resolução/Conclusão
26198077,Mafamude e Vilar do Paraíso,Area M. Porto,309,2025-10-27T16:24:00Z,26198077,Em Resolução/Conclusão,3103,Incêndio rural,0,1,0,5,2025-10-27T16:24:00Z,Vila Nova De Gaia,Porto,Norte,-8.626367,41.11119,Resolução/Conclusão
26198284,Alcabideche,Grande Lisboa,311,2025-10-27T17:12:00Z,26198284,Em Despacho,3105,Incêndio rural,0,0,0,0,2025-10-27T17:12:00Z,Cascais,Lisboa,Área Metropolitana De Lisboa,-9.418781,38.730714,Despacho
26198318,Outeiro,Terras de Trás-os-Montes,309,2025-10-27T17:17:00Z,26198318,Em Despacho,3103,Incêndio rural,0,1,0,2,2025-10-27T17:17:00Z,Bragança,Bragança,Norte,-6.57685,41.7025,Despacho
26198014,Vale de Santarém,Lezíria do Tejo,311,2025-10-27T16:16:00Z,26198014,Em Resolução/Conclusão,3103,Incêndio rural,0,7,0,21,2025-10-27T16:16:00Z,Santarém,Santarém,Alentejo,-8.746888,39.190555,Resolução/Conclusão
26198046,Sarzedas,Beira Baixa,310,2025-10-27T16:18:00Z,26198046,Em Resolução/Conclusão,3105,Incêndio rural,0,5,0,17,2025-10-27T16:18:00Z,Castelo Branco,Castelo Branco,Centro,-7.63941,39.871043,Resolução/Conclusão
26198145,Silveira,Oeste,311,2025-10-27T16:36:00Z,26198145,Em Despacho,3111,Queima,0,2,0,6,2025-10-27T16:36:00Z,Torres Vedras,Lisboa,Centro,-9.35964,39.12785,Despacho
26198359,Marrazes e Barosa,Região de Leiria,310,2025-10-27T17:26:00Z,26198359,Em Despacho,3103,Incêndio rural,0,0,0,0,2025-10-27T17:26:00Z,Leiria,Leiria,Centro,-8.808461,39.76863,Despacho
