id,address,subregion,neighborhood,date,id.1,state,nature,nature_description,aerial_means,terrestrial_means,aquatic_means,operational,date.1,Concelho,Distrito,NUTII_DSG,longitude,latitude
25071496,São Manços e São Vicente do Pigeiro,Alentejo Central,312,2025-03-11T13:18:00Z,25071496,Em conclusão,1101,Cheia,0,0,0,0,2025-03-11T13:18:00Z,Évora,Évora,Alentejo,-7.713313,38.513673
25202441,Serpa (Salvador e Santa Maria),Baixo Alentejo,312,2025-04-06T10:25:00Z,25202441,Em conclusão,1101,Cheia,0,0,0,0,2025-04-06T10:25:00Z,Serpa,Beja,Alentejo,-7.555783,37.88592
25266102,São João de Areias,Viseu Dão Lafões,310,2025-04-21T08:33:00Z,25266102,Em curso,3301,Queda de árvore,0,1,0,3,2025-04-21T08:33:00Z,Santa Comba Dão,Viseu,Centro,-8.068341,40.390527
25266738,Darque,Alto Minho,309,2025-04-21T10:57:00Z,25266738,Em despacho,3301,Queda de árvore,0,1,0,3,2025-04-21T10:57:00Z,Viana Do Castelo,Viana Do Castelo,Norte,-8.820152,41.687578
25266653,Ramalde,Area M. Porto,309,2025-04-21T10:41:00Z,25266653,Em despacho,3321,Dano na rede de fornecimento de eletricidade ,0,0,0,0,2025-04-21T10:41:00Z,Porto,Porto,Norte,-8.642922,41.17139
25266608,Madalena,Area M. Porto,309,2025-04-21T10:32:00Z,25266608,Em despacho,3321,Dano na rede de fornecimento de eletricidade ,0,1,0,4,2025-04-21T10:32:00Z,Vila Nova De Gaia,Porto,Norte,-8.64784,41.09725
