id,address,subregion,neighborhood,date,id.1,state,nature,nature_description,aerial_means,terrestrial_means,aquatic_means,operational,date.1,Concelho,Distrito,NUTII_DSG,longitude,latitude,state_2
25712338,Cercal,Alentejo Litoral,312,2025-07-21T17:38:00Z,25712338,Em Resolução/Conclusão,3103,Incêndio rural,0,8,0,23,2025-07-21T17:38:00Z,Santiago Do Cacém,Setúbal,Alentejo,-8.682272,37.791582,Resolução/Conclusão
25721930,Vilar de Perdizes e Meixide,Alto Tâmega e Barroso,309,2025-07-23T16:21:00Z,25721930,Em Resolução/Conclusão,3103,Incêndio rural,0,30,0,91,2025-07-23T16:21:00Z,NA,NA,NA,-7.618655,41.886193,Resolução/Conclusão
25725056,Pedrógão Pequeno,Beira Baixa,310,2025-07-24T10:16:00Z,25725056,Em Resolução/Conclusão,3101,Incêndio rural,0,2,0,10,2025-07-24T10:16:00Z,Sertã,Castelo Branco,Centro,-8.093663,39.879797,Resolução/Conclusão
25727261,Águas Santas,Area M. Porto,309,2025-07-24T17:37:00Z,25727261,Em Resolução/Conclusão,3101,Incêndio rural,0,3,0,10,2025-07-24T17:37:00Z,Maia,Porto,Norte,-8.582022,41.207062,Resolução/Conclusão
25727293,Sines,Alentejo Litoral,312,2025-07-24T17:36:00Z,25727293,Em Resolução/Conclusão,3103,Incêndio rural,0,10,0,30,2025-07-24T17:36:00Z,Sines,Setúbal,Alentejo,-8.795158,38.001902,Resolução/Conclusão
25727462,Odivelas,Grande Lisboa,311,2025-07-24T18:23:00Z,25727462,Em Resolução/Conclusão,3103,Incêndio rural,0,0,0,0,2025-07-24T18:23:00Z,Odivelas,Lisboa,Área Metropolitana De Lisboa,-9.179749,38.79451,Resolução/Conclusão
25727511,Pontinha e Famões,Grande Lisboa,311,2025-07-24T18:34:00Z,25727511,Em Resolução/Conclusão,3103,Incêndio rural,0,0,0,0,2025-07-24T18:34:00Z,Odivelas,Lisboa,Área Metropolitana De Lisboa,-9.201284,38.77734,Resolução/Conclusão
25727627,"N. S. da Vila, N. S. do Bispo e Silveiras",Alentejo Central,312,2025-07-24T19:03:00Z,25727627,Em Curso,3105,Incêndio rural,1,5,0,25,2025-07-24T19:03:00Z,Montemor-o-Novo,Évora,Alentejo,-8.158248,38.668375,Curso
25721619,Costa da Caparica,Península de Setúbal,311,2025-07-23T15:11:00Z,25721619,Em Resolução/Conclusão,3103,Incêndio rural,0,1,0,1,2025-07-23T15:11:00Z,Almada,Setúbal,Área Metropolitana De Lisboa,-9.21697,38.61683,Resolução/Conclusão
25725615,Tourais e Lajes,Beiras e Serra da Estrela,310,2025-07-24T12:03:00Z,25725615,Em Resolução/Conclusão,3103,Incêndio rural,0,1,0,5,2025-07-24T12:03:00Z,Seia,Guarda,Centro,-7.784602,40.443185,Resolução/Conclusão
25726083,Girabolhos,Beiras e Serra da Estrela,310,2025-07-24T13:43:00Z,25726083,Em Resolução/Conclusão,3103,Incêndio rural,0,2,0,7,2025-07-24T13:43:00Z,Seia,Guarda,Centro,-7.740955,40.497992000000004,Resolução/Conclusão
25726885,Pinheiro,Viseu Dão Lafões,310,2025-07-24T16:13:00Z,25726885,Em Resolução/Conclusão,3103,Incêndio rural,0,6,0,18,2025-07-24T16:13:00Z,Aguiar Da Beira,Guarda,Centro,-7.576802,40.769152,Resolução/Conclusão
25727453,Vila Boa do Bispo,Tâmega e Sousa,309,2025-07-24T18:24:00Z,25727453,Em Resolução/Conclusão,3103,Incêndio rural,0,2,0,8,2025-07-24T18:24:00Z,Marco De Canaveses,Porto,Norte,-8.1988,41.12637,Resolução/Conclusão
25720797,"Lavandeira, Beira Grande e Selores",Douro,309,2025-07-23T12:23:00Z,25720797,Em Resolução/Conclusão,3103,Incêndio rural,0,13,0,35,2025-07-23T12:23:00Z,Carrazeda De Ansiães,Bragança,Norte,-7.304242,41.205575,Resolução/Conclusão
25726161,Pontinha e Famões,Grande Lisboa,311,2025-07-24T13:55:00Z,25726161,Em Resolução/Conclusão,3103,Incêndio rural,0,3,0,9,2025-07-24T13:55:00Z,Odivelas,Lisboa,Área Metropolitana De Lisboa,-9.200787,38.777733,Resolução/Conclusão
25726490,"Santa Iria de Azoia, São João da Talha e Bobadela",Grande Lisboa,311,2025-07-24T14:53:00Z,25726490,Em Resolução/Conclusão,3103,Incêndio rural,0,0,0,0,2025-07-24T14:53:00Z,Loures,Lisboa,Área Metropolitana De Lisboa,-9.105925,38.811395,Resolução/Conclusão
25726604,Mirandela,Terras de Trás-os-Montes,309,2025-07-24T15:18:00Z,25726604,Em Resolução/Conclusão,3103,Incêndio rural,0,13,0,48,2025-07-24T15:18:00Z,Mirandela,Bragança,Norte,-7.16472,41.46139,Resolução/Conclusão
25727108,Boliqueime,Algarve,313,2025-07-24T17:04:00Z,25727108,Em Resolução/Conclusão,3103,Incêndio rural,0,3,0,8,2025-07-24T17:04:00Z,Loulé,Faro,Algarve,-8.135831,37.11877,Resolução/Conclusão
25727501,"Alhandra, São João Dos Montes e Calhandriz",Grande Lisboa,311,2025-07-24T18:31:00Z,25727501,Em Resolução/Conclusão,3103,Incêndio rural,0,0,0,0,2025-07-24T18:31:00Z,Vila Franca De Xira,Lisboa,Área Metropolitana De Lisboa,-9.018256,38.933326,Resolução/Conclusão
25727508,Moreiras,Alto Tâmega e Barroso,309,2025-07-24T18:33:00Z,25727508,Em Resolução/Conclusão,3105,Incêndio rural,0,7,0,30,2025-07-24T18:33:00Z,Chaves,Vila Real,Norte,-7.46957,41.644178,Resolução/Conclusão
25727599,Santo Antão e São Julião do Tojal,Grande Lisboa,311,2025-07-24T18:53:00Z,25727599,Em Resolução/Conclusão,3103,Incêndio rural,0,3,0,9,2025-07-24T18:53:00Z,Loures,Lisboa,Área Metropolitana De Lisboa,-9.116117,38.88138,Resolução/Conclusão
25720932,Bouro (Santa Marta),Cávado,309,2025-07-23T12:54:00Z,25720932,Em Resolução/Conclusão,3101,Incêndio rural,0,3,0,7,2025-07-23T12:54:00Z,Amares,Braga,Norte,-8.283857,41.671897,Resolução/Conclusão
25721382,Unhais da Serra,Beiras e Serra da Estrela,310,2025-07-23T14:29:00Z,25721382,Em Resolução/Conclusão,3105,Incêndio rural,0,2,0,6,2025-07-23T14:29:00Z,Covilhã,Castelo Branco,Centro,-7.61948,40.25114,Resolução/Conclusão
25725153,Troviscal,Beira Baixa,310,2025-07-24T10:31:00Z,25725153,Em Resolução/Conclusão,3101,Incêndio rural,0,1,0,5,2025-07-24T10:31:00Z,Sertã,Castelo Branco,Centro,-8.084768,39.877972,Resolução/Conclusão
25725251,Pedrógão Pequeno,Beira Baixa,310,2025-07-24T10:52:00Z,25725251,Em Resolução/Conclusão,3101,Incêndio rural,0,19,0,74,2025-07-24T10:52:00Z,Sertã,Castelo Branco,Centro,-8.084635,39.925647,Resolução/Conclusão
25726330,Olaia e Paço,Médio Tejo,311,2025-07-24T14:28:00Z,25726330,Em Resolução/Conclusão,3103,Incêndio rural,0,14,0,49,2025-07-24T14:28:00Z,Torres Novas,Santarém,Centro,-8.473945,39.510845,Resolução/Conclusão
25726378,Alcochete,Península de Setúbal,311,2025-07-24T14:30:00Z,25726378,Em Resolução/Conclusão,3103,Incêndio rural,0,0,0,0,2025-07-24T14:30:00Z,Alcochete,Setúbal,Área Metropolitana De Lisboa,-8.962464,38.749259,Resolução/Conclusão
25726662,Sabrosa,Douro,309,2025-07-24T15:28:00Z,25726662,Em Resolução/Conclusão,3103,Incêndio rural,0,2,0,7,2025-07-24T15:28:00Z,Sabrosa,Vila Real,Norte,-7.567117,41.268682,Resolução/Conclusão
25727257,Nespereira,Tâmega e Sousa,309,2025-07-24T17:40:00Z,25727257,Em Curso,3103,Incêndio rural,9,9,0,48,2025-07-24T17:40:00Z,Cinfães,Viseu,Norte,-8.173138,41.008725,Curso
25727553,Sobretâmega,Tâmega e Sousa,309,2025-07-24T18:49:00Z,25727553,Em Curso,3103,Incêndio rural,1,4,0,22,2025-07-24T18:49:00Z,Marco De Canaveses,Porto,Norte,-8.17304,41.19955,Curso
25727654,Quelfes,Algarve,313,2025-07-24T19:10:00Z,25727654,Em Despacho,3103,Incêndio rural,0,3,0,11,2025-07-24T19:10:00Z,Olhão,Faro,Algarve,-7.847638,37.03386,Despacho
25727264,Nespereira,Tâmega e Sousa,309,2025-07-24T17:38:00Z,25727264,Em Curso,3103,Incêndio rural,0,8,0,26,2025-07-24T17:38:00Z,Cinfães,Viseu,Norte,-8.172875,41.01741,Curso
25727534,Santo Estêvão,Alto Tâmega e Barroso,309,2025-07-24T18:40:00Z,25727534,Em Curso,3103,Incêndio rural,0,1,0,5,2025-07-24T18:40:00Z,Chaves,Vila Real,Norte,-7.414647,41.76247,Curso
