id,address,subregion,neighborhood,date,id.1,state,nature,nature_description,aerial_means,terrestrial_means,aquatic_means,operational,date.1,Concelho,Distrito,NUTII_DSG,longitude,latitude
25593470,Duas Igrejas,Tâmega e Sousa,309,2025-06-28T14:16:00Z,25593470,Em conclusão,3103,Incêndio rural,0,4,0,15,2025-06-28T14:16:00Z,Penafiel,Porto,Norte,-8.278005,41.170128
25597045,Cabreiro,Alto Minho,309,2025-06-29T08:42:00Z,25597045,Em despacho,3107,Consolidação de rescaldo de incêndio rural,0,1,0,5,2025-06-29T08:42:00Z,Arcos De Valdevez,Viana Do Castelo,Norte,-8.387308,41.945052
25597346,Murça,Douro,309,2025-06-29T09:40:00Z,25597346,Em despacho,2301,Incêndio em transporte rodoviário,0,0,0,0,2025-06-29T09:40:00Z,Murça,Vila Real,Norte,-7.463415,41.407036
25596757,Marinha Grande,Região de Leiria,310,2025-06-29T07:26:00Z,25596757,Em conclusão,2127,"Incêndio em edifícios e recintos industriais, oficinas e armazéns",0,2,0,7,2025-06-29T07:26:00Z,Marinha Grande,Leiria,Centro,-8.921812,39.746629
25597086,Labruja,Alto Minho,309,2025-06-29T08:51:00Z,25597086,Em despacho,3107,Consolidação de rescaldo de incêndio rural,0,1,0,5,2025-06-29T08:51:00Z,Ponte De Lima,Viana Do Castelo,Norte,-8.591233,41.835535
25597138,Cortegaça,Região de Aveiro,310,2025-06-29T08:54:00Z,25597138,Em conclusão,3107,Consolidação de rescaldo de incêndio rural,0,1,0,5,2025-06-29T08:54:00Z,Ovar,Aveiro,Centro,-8.638255,40.94137
25597205,Talhadas,Região de Aveiro,310,2025-06-29T09:17:00Z,25597205,Em curso,2301,Incêndio em transporte rodoviário,0,3,0,8,2025-06-29T09:17:00Z,Sever Do Vouga,Aveiro,Centro,-8.35486,40.66122
25596565,Silves,Algarve,313,2025-06-29T05:32:00Z,25596565,Em conclusão,3103,Incêndio rural,0,0,0,0,2025-06-29T05:32:00Z,Silves,Faro,Algarve,-8.518088,37.209803
