id,address,subregion,neighborhood,date,id.1,state,nature,nature_description,aerial_means,terrestrial_means,aquatic_means,operational,date.1,Concelho,Distrito,NUTII_DSG,longitude,latitude,state_2
25748118,Canelas e Espiunca,Area M. Porto,309,2025-07-28T17:16:00Z,25748118,Em Resolução/Conclusão,3101,Incêndio rural,0,31,0,82,2025-07-28T17:16:00Z,Arouca,Aveiro,Norte,-8.212231,40.969918,Resolução/Conclusão
25749320,Rebordões (Santa Maria),Alto Minho,309,2025-07-28T22:47:00Z,25749320,Em Resolução/Conclusão,3103,Incêndio rural,0,2,0,3,2025-07-28T22:47:00Z,Ponte De Lima,Viana Do Castelo,Norte,-8.588365,41.729993,Resolução/Conclusão
25749641,Silva Escura e Dornelas,Região de Aveiro,310,2025-07-29T01:02:00Z,25749641,Em Resolução/Conclusão,3101,Incêndio rural,0,1,0,5,2025-07-29T01:02:00Z,Sever Do Vouga,Aveiro,Centro,-8.399623,40.769354,Resolução/Conclusão
25756006,Pinhanços,Beiras e Serra da Estrela,310,2025-07-30T09:07:00Z,25756006,Em Resolução/Conclusão,3103,Incêndio rural,0,1,0,5,2025-07-30T09:07:00Z,Seia,Guarda,Centro,-7.708132,40.473517,Resolução/Conclusão
25776263,"Pena, Quintã e Vila Cova",Douro,309,2025-08-02T23:45:00Z,25776263,Em Curso,3103,Incêndio rural,0,121,0,364,2025-08-02T23:45:00Z,Vila Real,Vila Real,Norte,-7.811902,41.317355,Curso
25779639,Senhorim,Viseu Dão Lafões,310,2025-08-03T16:28:00Z,25779639,Em Resolução/Conclusão,3103,Incêndio rural,0,1,0,2,2025-08-03T16:28:00Z,Nelas,Viseu,Centro,-7.81226,40.511713,Resolução/Conclusão
25780707,Portela e Extremo,Alto Minho,309,2025-08-03T20:38:00Z,25780707,Em Resolução/Conclusão,3103,Incêndio rural,0,2,0,10,2025-08-03T20:38:00Z,Arcos De Valdevez,Viana Do Castelo,Norte,-8.470233,41.956313,Resolução/Conclusão
25781308,Beiral do Lima,Alto Minho,309,2025-08-03T23:18:00Z,25781308,Em Resolução/Conclusão,3103,Incêndio rural,0,5,0,13,2025-08-03T23:18:00Z,Ponte De Lima,Viana Do Castelo,Norte,-8.480692,41.758943,Resolução/Conclusão
25781592,Guarda,Beiras e Serra da Estrela,310,2025-08-04T01:10:00Z,25781592,Em Resolução/Conclusão,3103,Incêndio rural,0,6,0,26,2025-08-04T01:10:00Z,Guarda,Guarda,Centro,-7.225555,40.559305,Resolução/Conclusão
25763650,Milagres,Região de Leiria,310,2025-07-31T15:58:00Z,25763650,Em Resolução/Conclusão,3101,Incêndio rural,0,1,0,2,2025-07-31T15:58:00Z,Leiria,Leiria,Centro,-8.792217,39.793427,Resolução/Conclusão
25781305,Tamel (Santa Leocádia) e Vilar do Monte,Cávado,309,2025-08-03T23:17:00Z,25781305,Em Resolução/Conclusão,3103,Incêndio rural,0,4,0,14,2025-08-03T23:17:00Z,Barcelos,Braga,Norte,-8.66043,41.566023,Resolução/Conclusão
25781489,São Pedro de Sarracenos,Terras de Trás-os-Montes,309,2025-08-04T00:24:00Z,25781489,Em Resolução/Conclusão,3103,Incêndio rural,0,2,0,7,2025-08-04T00:24:00Z,Bragança,Bragança,Norte,-6.742583,41.75716,Resolução/Conclusão
25782000,Fradelos,Ave,309,2025-08-04T06:03:00Z,25782000,Em Resolução/Conclusão,3103,Incêndio rural,0,2,0,10,2025-08-04T06:03:00Z,Vila Nova De Famalicão,Braga,Norte,-8.587739,41.36615,Resolução/Conclusão
25782023,Abragão,Tâmega e Sousa,309,2025-08-04T06:21:00Z,25782023,Em Despacho,3101,Incêndio rural,0,1,0,5,2025-08-04T06:21:00Z,Penafiel,Porto,Norte,-8.2225,41.15583,Despacho
25750701,Capela,Tâmega e Sousa,309,2025-07-29T09:26:00Z,25750701,Em Resolução/Conclusão,3103,Incêndio rural,0,9,0,32,2025-07-29T09:26:00Z,Penafiel,Porto,Norte,-8.345202,41.09353,Resolução/Conclusão
25773830,Andrães,Douro,309,2025-08-02T14:23:00Z,25773830,Em Resolução/Conclusão,3103,Incêndio rural,0,38,0,128,2025-08-02T14:23:00Z,Vila Real,Vila Real,Norte,-7.671293,41.267593,Resolução/Conclusão
25774883,Arnóia,Tâmega e Sousa,309,2025-08-02T18:20:00Z,25774883,Em Curso,3103,Incêndio rural,0,105,0,322,2025-08-02T18:20:00Z,Celorico De Basto,Braga,Norte,-7.998983,41.348727,Curso
25775734,Sequeiros e Gradiz,Viseu Dão Lafões,310,2025-08-02T21:35:00Z,25775734,Em Resolução/Conclusão,3103,Incêndio rural,0,1,0,2,2025-08-02T21:35:00Z,Aguiar Da Beira,Guarda,Centro,-7.564515,40.858278,Resolução/Conclusão
25780130,Candemil e Gondar,Alto Minho,309,2025-08-03T18:28:00Z,25780130,Em Resolução/Conclusão,3103,Incêndio rural,0,3,0,9,2025-08-03T18:28:00Z,Vila Nova De Cerveira,Viana Do Castelo,Norte,-8.690697,41.925768,Resolução/Conclusão
25780584,Vale de Bouro,Tâmega e Sousa,309,2025-08-03T20:09:00Z,25780584,Em Resolução/Conclusão,3103,Incêndio rural,0,1,0,5,2025-08-03T20:09:00Z,Celorico De Basto,Braga,Norte,-8.015325,41.443095,Resolução/Conclusão
25780785,Bouçoães,Alto Tâmega e Barroso,309,2025-08-03T20:57:00Z,25780785,Em Resolução/Conclusão,3103,Incêndio rural,0,8,0,26,2025-08-03T20:57:00Z,Valpaços,Vila Real,Norte,-7.187076,41.741829,Resolução/Conclusão
25781884,Graça,Região de Leiria,310,2025-08-04T04:33:00Z,25781884,Em Resolução/Conclusão,3101,Incêndio rural,0,11,0,36,2025-08-04T04:33:00Z,Pedrógão Grande,Leiria,Centro,-8.204434,39.895198,Resolução/Conclusão
25781985,Vale de Bouro,Tâmega e Sousa,309,2025-08-04T05:54:00Z,25781985,Em Resolução/Conclusão,3103,Incêndio rural,0,1,0,4,2025-08-04T05:54:00Z,Celorico De Basto,Braga,Norte,-8.016318,41.442862,Resolução/Conclusão
25738747,Lindoso,Alto Minho,309,2025-07-26T21:47:00Z,25738747,Em Resolução/Conclusão,3103,Incêndio rural,0,123,0,352,2025-07-26T21:47:00Z,Ponte Da Barca,Viana Do Castelo,Norte,-8.220528,41.865272,Resolução/Conclusão
25747773,Aranhas,Beira Baixa,310,2025-07-28T16:36:00Z,25747773,Em Resolução/Conclusão,3103,Incêndio rural,0,2,0,7,2025-07-28T16:36:00Z,Penamacor,Castelo Branco,Centro,-7.14438,40.117542,Resolução/Conclusão
25752083,Alcanede,Lezíria do Tejo,311,2025-07-29T13:12:00Z,25752083,Em Resolução/Conclusão,3103,Incêndio rural,0,3,0,12,2025-07-29T13:12:00Z,Santarém,Santarém,Alentejo,-8.802682,39.405543,Resolução/Conclusão
25775263,Torgueda,Douro,309,2025-08-02T19:49:00Z,25775263,Em Resolução/Conclusão,3101,Incêndio rural,0,10,0,34,2025-08-02T19:49:00Z,Vila Real,Vila Real,Norte,-7.785983,41.274952,Resolução/Conclusão
25778337,Senhorim,Viseu Dão Lafões,310,2025-08-03T11:59:00Z,25778337,Em Resolução/Conclusão,3103,Incêndio rural,0,0,0,0,2025-08-03T11:59:00Z,Nelas,Viseu,Centro,-7.825723,40.54384,Resolução/Conclusão
25780418,Pias,Alto Minho,309,2025-08-03T19:32:00Z,25780418,Em Resolução/Conclusão,3103,Incêndio rural,0,4,0,8,2025-08-03T19:32:00Z,Monção,Viana Do Castelo,Norte,-8.529693,42.015753,Resolução/Conclusão
25780604,Rio Frio,Alto Minho,309,2025-08-03T20:13:00Z,25780604,Em Curso,3103,Incêndio rural,0,16,0,58,2025-08-03T20:13:00Z,Arcos De Valdevez,Viana Do Castelo,Norte,-8.492232,41.868325,Curso
25781547,Moura Morta e Vinhós,Douro,309,2025-08-04T00:50:00Z,25781547,Em Resolução/Conclusão,3103,Incêndio rural,0,2,0,7,2025-08-04T00:50:00Z,Peso Da Régua,Vila Real,Norte,-7.846943,41.195365,Resolução/Conclusão
25781822,São Gens,Ave,309,2025-08-04T03:44:00Z,25781822,Em Curso,3103,Incêndio rural,0,21,0,64,2025-08-04T03:44:00Z,Fafe,Braga,Norte,-8.101607,41.44259,Curso
