id,address,subregion,neighborhood,date,id.1,state,nature,nature_description,aerial_means,terrestrial_means,aquatic_means,operational,date.1,Concelho,Distrito,NUTII_DSG,longitude,latitude,state_2
25720797,"Lavandeira, Beira Grande e Selores",Douro,309,2025-07-23T12:23:00Z,25720797,Em Resolução/Conclusão,3103,Incêndio rural,0,7,0,23,2025-07-23T12:23:00Z,Carrazeda De Ansiães,Bragança,Norte,-7.304242,41.205575,Resolução/Conclusão
25726604,Mirandela,Terras de Trás-os-Montes,309,2025-07-24T15:18:00Z,25726604,Em Resolução/Conclusão,3103,Incêndio rural,0,12,0,43,2025-07-24T15:18:00Z,Mirandela,Bragança,Norte,-7.16472,41.46139,Resolução/Conclusão
25727819,São Manços e São Vicente do Pigeiro,Alentejo Central,312,2025-07-24T19:46:00Z,25727819,Em Resolução/Conclusão,3105,Incêndio rural,0,0,0,0,2025-07-24T19:46:00Z,Évora,Évora,Alentejo,-7.616977,38.44936,Resolução/Conclusão
25727974,Pontinha e Famões,Grande Lisboa,311,2025-07-24T20:21:00Z,25727974,Em Resolução/Conclusão,3105,Incêndio rural,0,1,0,5,2025-07-24T20:21:00Z,Odivelas,Lisboa,Área Metropolitana De Lisboa,-9.204417,38.770728,Resolução/Conclusão
25720932,Bouro (Santa Marta),Cávado,309,2025-07-23T12:54:00Z,25720932,Em Resolução/Conclusão,3101,Incêndio rural,0,3,0,7,2025-07-23T12:54:00Z,Amares,Braga,Norte,-8.283857,41.671897,Resolução/Conclusão
25721382,Unhais da Serra,Beiras e Serra da Estrela,310,2025-07-23T14:29:00Z,25721382,Em Resolução/Conclusão,3105,Incêndio rural,0,2,0,6,2025-07-23T14:29:00Z,Covilhã,Castelo Branco,Centro,-7.61948,40.25114,Resolução/Conclusão
25725153,Troviscal,Beira Baixa,310,2025-07-24T10:31:00Z,25725153,Em Resolução/Conclusão,3101,Incêndio rural,0,1,0,5,2025-07-24T10:31:00Z,Sertã,Castelo Branco,Centro,-8.084768,39.877972,Resolução/Conclusão
25725251,Pedrógão Pequeno,Beira Baixa,310,2025-07-24T10:52:00Z,25725251,Em Resolução/Conclusão,3101,Incêndio rural,0,19,0,74,2025-07-24T10:52:00Z,Sertã,Castelo Branco,Centro,-8.084635,39.925647,Resolução/Conclusão
25726330,Olaia e Paço,Médio Tejo,311,2025-07-24T14:28:00Z,25726330,Em Resolução/Conclusão,3103,Incêndio rural,0,9,0,27,2025-07-24T14:28:00Z,Torres Novas,Santarém,Centro,-8.473945,39.510845,Resolução/Conclusão
25726662,Sabrosa,Douro,309,2025-07-24T15:28:00Z,25726662,Em Resolução/Conclusão,3103,Incêndio rural,0,0,0,0,2025-07-24T15:28:00Z,Sabrosa,Vila Real,Norte,-7.567117,41.268682,Resolução/Conclusão
25727257,Nespereira,Tâmega e Sousa,309,2025-07-24T17:40:00Z,25727257,Em Curso,3103,Incêndio rural,0,23,0,78,2025-07-24T17:40:00Z,Cinfães,Viseu,Norte,-8.173138,41.008725,Curso
25727264,Nespereira,Tâmega e Sousa,309,2025-07-24T17:38:00Z,25727264,Em Resolução/Conclusão,3103,Incêndio rural,0,0,0,0,2025-07-24T17:38:00Z,Cinfães,Viseu,Norte,-8.172875,41.01741,Resolução/Conclusão
25725615,Tourais e Lajes,Beiras e Serra da Estrela,310,2025-07-24T12:03:00Z,25725615,Em Resolução/Conclusão,3103,Incêndio rural,0,1,0,5,2025-07-24T12:03:00Z,Seia,Guarda,Centro,-7.784602,40.443185,Resolução/Conclusão
25726083,Girabolhos,Beiras e Serra da Estrela,310,2025-07-24T13:43:00Z,25726083,Em Resolução/Conclusão,3103,Incêndio rural,0,2,0,7,2025-07-24T13:43:00Z,Seia,Guarda,Centro,-7.740955,40.497992000000004,Resolução/Conclusão
25726885,Pinheiro,Viseu Dão Lafões,310,2025-07-24T16:13:00Z,25726885,Em Resolução/Conclusão,3103,Incêndio rural,0,6,0,18,2025-07-24T16:13:00Z,Aguiar Da Beira,Guarda,Centro,-7.576802,40.769152,Resolução/Conclusão
25727553,Sobretâmega,Tâmega e Sousa,309,2025-07-24T18:49:00Z,25727553,Em Resolução/Conclusão,3103,Incêndio rural,0,5,0,21,2025-07-24T18:49:00Z,Marco De Canaveses,Porto,Norte,-8.17304,41.19955,Resolução/Conclusão
25727886,Albernoa e Trindade,Baixo Alentejo,312,2025-07-24T19:57:00Z,25727886,Em Resolução/Conclusão,3105,Incêndio rural,0,11,0,34,2025-07-24T19:57:00Z,Beja,Beja,Alentejo,-7.867832,37.908207,Resolução/Conclusão
25712338,Cercal,Alentejo Litoral,312,2025-07-21T17:38:00Z,25712338,Em Resolução/Conclusão,3103,Incêndio rural,0,8,0,23,2025-07-21T17:38:00Z,Santiago Do Cacém,Setúbal,Alentejo,-8.682272,37.791582,Resolução/Conclusão
25721930,Vilar de Perdizes e Meixide,Alto Tâmega e Barroso,309,2025-07-23T16:21:00Z,25721930,Em Resolução/Conclusão,3103,Incêndio rural,0,16,0,54,2025-07-23T16:21:00Z,NA,NA,NA,-7.618655,41.886193,Resolução/Conclusão
25725056,Pedrógão Pequeno,Beira Baixa,310,2025-07-24T10:16:00Z,25725056,Em Resolução/Conclusão,3101,Incêndio rural,0,1,0,5,2025-07-24T10:16:00Z,Sertã,Castelo Branco,Centro,-8.093663,39.879797,Resolução/Conclusão
25727293,Sines,Alentejo Litoral,312,2025-07-24T17:36:00Z,25727293,Em Resolução/Conclusão,3103,Incêndio rural,0,5,0,16,2025-07-24T17:36:00Z,Sines,Setúbal,Alentejo,-8.795158,38.001902,Resolução/Conclusão
25727928,Torre de Coelheiros,Alentejo Central,312,2025-07-24T20:04:00Z,25727928,Em Resolução/Conclusão,3105,Incêndio rural,0,4,0,16,2025-07-24T20:04:00Z,Évora,Évora,Alentejo,-7.788628,38.528492,Resolução/Conclusão
25728029,Andrães,Douro,309,2025-07-24T20:37:00Z,25728029,Em Resolução/Conclusão,3103,Incêndio rural,0,9,0,38,2025-07-24T20:37:00Z,Vila Real,Vila Real,Norte,-7.658764,41.24774,Resolução/Conclusão
25728165,Amora,Península de Setúbal,311,2025-07-24T21:12:00Z,25728165,Em Despacho,3103,Incêndio rural,0,1,0,5,2025-07-24T21:12:00Z,Seixal,Setúbal,Área Metropolitana De Lisboa,-9.11585,38.62665,Despacho
