id,address,subregion,neighborhood,date,id.1,state,nature,nature_description,aerial_means,terrestrial_means,aquatic_means,operational,date.1,Concelho,Distrito,NUTII_DSG,longitude,latitude
25599111,Santa Marinha,Alto Tâmega e Barroso,309,2025-06-29T16:01:00Z,25599111,Em conclusão,3103,Incêndio rural,0,8,0,23,2025-06-29T16:01:00Z,Ribeira De Pena,Vila Real,Norte,-7.7715630000000004,41.56648
25599361,Chancelaria,Médio Tejo,311,2025-06-29T16:59:00Z,25599361,Em conclusão,3101,Incêndio rural,0,31,0,98,2025-06-29T16:59:00Z,Torres Novas,Santarém,Centro,-8.54621,39.518782
25599512,Croca,Tâmega e Sousa,309,2025-06-29T17:32:00Z,25599512,Em conclusão,3101,Incêndio rural,0,3,0,12,2025-06-29T17:32:00Z,Penafiel,Porto,Norte,-8.254618,41.21005
25599677,Cantelães,Ave,309,2025-06-29T18:07:00Z,25599677,Em resolução,3101,Incêndio rural,0,1,0,3,2025-06-29T18:07:00Z,Vieira Do Minho,Braga,Norte,-8.12796,41.6532
25600313,Cortiçadas de Lavre e Lavre,Alentejo Central,312,2025-06-29T20:37:00Z,25600313,Em conclusão,3103,Incêndio rural,0,15,0,44,2025-06-29T20:37:00Z,Montemor-o-Novo,Évora,Alentejo,-8.281693,38.758998
25600813,Beirã,Alto Alentejo,312,2025-06-29T22:40:00Z,25600813,Em conclusão,3107,Consolidação de rescaldo de incêndio rural,0,1,0,5,2025-06-29T22:40:00Z,Marvão,Portalegre,Alentejo,-7.363842,39.435042
25600833,Lomba,Area M. Porto,309,2025-06-29T22:43:00Z,25600833,Em conclusão,3203,Detritos confinados,0,1,0,5,2025-06-29T22:43:00Z,Gondomar,Porto,Norte,-8.412507,41.034023
25600863,"Margaride (Santa Eulália), Várzea, Lagares, Varziela e Moure",Tâmega e Sousa,309,2025-06-29T23:06:00Z,25600863,Em resolução,3103,Incêndio rural,0,2,0,10,2025-06-29T23:06:00Z,Felgueiras,Porto,Norte,-8.190862,41.375018
25600880,Águas Santas,Area M. Porto,309,2025-06-29T23:10:00Z,25600880,Em conclusão,2101,Incêndio em edifícios habitacionais,0,2,0,9,2025-06-29T23:10:00Z,Maia,Porto,Norte,-8.587403,41.201537
25600999,Lustosa e Barrosas (Santo Estêvão),Tâmega e Sousa,309,2025-06-29T23:57:00Z,25600999,Em despacho,3105,Incêndio rural,0,0,0,0,2025-06-29T23:57:00Z,Lousada,Porto,Norte,-8.27085,41.33009
25599781,Louriçal do Campo,Beira Baixa,310,2025-06-29T18:30:00Z,25599781,Em conclusão,3103,Incêndio rural,0,0,0,0,2025-06-29T18:30:00Z,Castelo Branco,Castelo Branco,Centro,-7.525835,40.044405
25600551,"Campo, S.salvador Campo, Negrelos",Area M. Porto,309,2025-06-29T21:40:00Z,25600551,Em conclusão,3103,Incêndio rural,0,5,0,18,2025-06-29T21:40:00Z,Santo Tirso,Porto,Norte,-8.356567,41.335057
25599551,Frazão Arreigada,Tâmega e Sousa,309,2025-06-29T17:40:00Z,25599551,Em conclusão,3103,Incêndio rural,0,4,0,19,2025-06-29T17:40:00Z,Paços De Ferreira,Porto,Norte,-8.385037,41.265922
25599635,Vilarinho Dos Freires,Douro,309,2025-06-29T17:58:00Z,25599635,Em conclusão,3103,Incêndio rural,0,1,0,5,2025-06-29T17:58:00Z,Peso Da Régua,Vila Real,Norte,-7.731923,41.207728
25600307,Ventosa e Cova,Ave,309,2025-06-29T20:36:00Z,25600307,Em curso,3103,Incêndio rural,0,12,0,41,2025-06-29T20:36:00Z,Vieira Do Minho,Braga,Norte,-8.163528,41.6764
25600721,Meinedo,Tâmega e Sousa,309,2025-06-29T22:23:00Z,25600721,Em resolução,3103,Incêndio rural,0,3,0,15,2025-06-29T22:23:00Z,Lousada,Porto,Norte,-8.242363,41.251477
25599357,Alpalhão,Alto Alentejo,312,2025-06-29T16:55:00Z,25599357,Em conclusão,3103,Incêndio rural,0,13,0,40,2025-06-29T16:55:00Z,Nisa,Portalegre,Alentejo,-7.63684,39.452513
25599382,Almaceda,Beira Baixa,310,2025-06-29T17:03:00Z,25599382,Em curso,3101,Incêndio rural,0,62,0,194,2025-06-29T17:03:00Z,Castelo Branco,Castelo Branco,Centro,-7.65644,39.97
25599993,Canaviais,Alentejo Central,312,2025-06-29T19:20:00Z,25599993,Em conclusão,3103,Incêndio rural,0,0,0,0,2025-06-29T19:20:00Z,Évora,Évora,Alentejo,-7.900582,38.629787
25600311,Água Longa,Area M. Porto,309,2025-06-29T20:37:00Z,25600311,Em conclusão,3103,Incêndio rural,0,1,0,4,2025-06-29T20:37:00Z,Santo Tirso,Porto,Norte,-8.509552,41.251532
25600559,Castelo Branco,Beira Baixa,310,2025-06-29T21:39:00Z,25600559,Em conclusão,3201,Detritos não confinados,0,7,0,20,2025-06-29T21:39:00Z,Castelo Branco,Castelo Branco,Centro,-7.45806,39.78222
25600743,Albufeira e Olhos de Água,Algarve,313,2025-06-29T22:26:00Z,25600743,Em conclusão,2101,Incêndio em edifícios habitacionais,0,4,0,11,2025-06-29T22:26:00Z,Albufeira,Faro,Algarve,-8.19377,37.09241
25600893,Valdosende,Cávado,309,2025-06-29T23:05:00Z,25600893,Em conclusão,3103,Incêndio rural,0,5,0,21,2025-06-29T23:05:00Z,Terras De Bouro,Braga,Norte,-8.22761,41.666101
25600920,Cabeça Santa,Tâmega e Sousa,309,2025-06-29T23:29:00Z,25600920,Em despacho,3103,Incêndio rural,0,3,0,15,2025-06-29T23:29:00Z,Penafiel,Porto,Norte,-8.285001,41.14446
