id,address,subregion,neighborhood,date,id.1,state,nature,nature_description,aerial_means,terrestrial_means,aquatic_means,operational,date.1,Concelho,Distrito,NUTII_DSG,longitude,latitude,state_2
26156244,"Real, Ataíde e Oliveira",Tâmega e Sousa,309,2025-10-18T15:35:00Z,26156244,Em Resolução/Conclusão,3103,Incêndio rural,0,8,0,21,2025-10-18T15:35:00Z,Amarante,Porto,Norte,-8.171672,41.257368,Resolução/Conclusão
26156294,Calde,Viseu Dão Lafões,310,2025-10-18T15:50:00Z,26156294,Em Resolução/Conclusão,3101,Incêndio rural,0,2,0,10,2025-10-18T15:50:00Z,Viseu,Viseu,Centro,-7.940081,40.763201,Resolução/Conclusão
26157548,Montijo e Afonsoeiro,Península de Setúbal,311,2025-10-18T21:00:00Z,26157548,Em Resolução/Conclusão,3111,Queima,0,1,0,3,2025-10-18T21:00:00Z,Montijo,Setúbal,Área Metropolitana De Lisboa,-8.997619,38.707568,Resolução/Conclusão
26157601,Gondar e Orbacém,Alto Minho,309,2025-10-18T21:23:00Z,26157601,Em Despacho,3103,Incêndio rural,0,1,0,5,2025-10-18T21:23:00Z,Caminha,Viana Do Castelo,Norte,-8.777785,41.816966,Despacho
26156036,Vila Nova de São Bento e Vale de Vargo,Baixo Alentejo,312,2025-10-18T14:58:00Z,26156036,Em Resolução/Conclusão,3105,Incêndio rural,0,9,0,26,2025-10-18T14:58:00Z,Serpa,Beja,Alentejo,-7.379152,37.882523,Resolução/Conclusão
26156756,Monte Real e Carvide,Região de Leiria,310,2025-10-18T17:36:00Z,26156756,Em Resolução/Conclusão,3105,Incêndio rural,0,2,0,5,2025-10-18T17:36:00Z,Leiria,Leiria,Centro,-8.865167,39.827822,Resolução/Conclusão
26157440,Cabeça Santa,Tâmega e Sousa,309,2025-10-18T20:33:00Z,26157440,Em Resolução/Conclusão,3103,Incêndio rural,0,2,0,7,2025-10-18T20:33:00Z,Penafiel,Porto,Norte,-8.277547,41.128848,Resolução/Conclusão
26157509,Loureira,Cávado,309,2025-10-18T20:56:00Z,26157509,Em Resolução/Conclusão,3103,Incêndio rural,0,2,0,6,2025-10-18T20:56:00Z,Vila Verde,Braga,Norte,-8.43327,41.63609,Resolução/Conclusão
26157592,Alvarelhos e Guidões,Area M. Porto,309,2025-10-18T21:10:00Z,26157592,Em Despacho,3103,Incêndio rural,0,1,0,2,2025-10-18T21:10:00Z,Trofa,Porto,Norte,-8.609605,41.309843,Despacho
26156265,Viade de Baixo e Fervidelas,Alto Tâmega e Barroso,309,2025-10-18T15:45:00Z,26156265,Em Curso,3103,Incêndio rural,0,10,0,37,2025-10-18T15:45:00Z,Montalegre,Vila Real,Norte,-7.834732,41.773632,Curso
26156683,Tourém,Alto Tâmega e Barroso,309,2025-10-18T17:20:00Z,26156683,Em Resolução/Conclusão,3103,Incêndio rural,0,3,0,11,2025-10-18T17:20:00Z,Montalegre,Vila Real,Norte,-7.888255,41.910598,Resolução/Conclusão
26157242,Arnóia,Tâmega e Sousa,309,2025-10-18T19:38:00Z,26157242,Em Resolução/Conclusão,3103,Incêndio rural,0,1,0,5,2025-10-18T19:38:00Z,Celorico De Basto,Braga,Norte,-8.018,41.37293,Resolução/Conclusão
26157385,"Algodres, Vale de Afonsinho e Vilar de Amargo",Beiras e Serra da Estrela,310,2025-10-18T20:18:00Z,26157385,Em Curso,3103,Incêndio rural,0,8,0,30,2025-10-18T20:18:00Z,Figueira De Castelo Rodrigo,Guarda,Centro,-7.026137,40.954202,Curso
26157419,Cendufe,Alto Minho,309,2025-10-18T20:27:00Z,26157419,Em Despacho,3103,Incêndio rural,0,1,0,5,2025-10-18T20:27:00Z,Arcos De Valdevez,Viana Do Castelo,Norte,-8.495175,41.814215,Despacho
26157343,Refóios do Lima,Alto Minho,309,2025-10-18T20:06:00Z,26157343,Em Curso,3103,Incêndio rural,0,1,0,5,2025-10-18T20:06:00Z,Ponte De Lima,Viana Do Castelo,Norte,-8.524077,41.818625,Curso
26157552,Carvalhosa,Tâmega e Sousa,309,2025-10-18T21:00:00Z,26157552,Em Resolução/Conclusão,3105,Incêndio rural,0,2,0,6,2025-10-18T21:00:00Z,Paços De Ferreira,Porto,Norte,-8.365405,41.304613,Resolução/Conclusão
26157586,Montaria,Alto Minho,309,2025-10-18T21:08:00Z,26157586,Em Despacho,3103,Incêndio rural,0,1,0,5,2025-10-18T21:08:00Z,Viana Do Castelo,Viana Do Castelo,Norte,-8.727952,41.803774,Despacho
26157613,Carvalhosa,Tâmega e Sousa,309,2025-10-18T21:23:00Z,26157613,Em Despacho,3103,Incêndio rural,0,1,0,5,2025-10-18T21:23:00Z,Paços De Ferreira,Porto,Norte,-8.358801,41.300706,Despacho
