id,address,subregion,neighborhood,date,id.1,state,nature,nature_description,aerial_means,terrestrial_means,aquatic_means,operational,date.1,Concelho,Distrito,NUTII_DSG,longitude,latitude,state_2
26093991,Santa Comba,Beiras e Serra da Estrela,310,2025-10-06T01:09:00Z,26093991,Em Resolução/Conclusão,3101,Incêndio rural,0,2,0,7,2025-10-06T01:09:00Z,Seia,Guarda,Centro,-7.745905,40.442718,Resolução/Conclusão
26103307,Ferreiros de Tendais,Tâmega e Sousa,309,2025-10-07T19:40:00Z,26103307,Em Resolução/Conclusão,3103,Incêndio rural,0,4,0,17,2025-10-07T19:40:00Z,Cinfães,Viseu,Norte,-8.023815,41.032068,Resolução/Conclusão
26093602,Castro Daire,Viseu Dão Lafões,310,2025-10-05T22:05:00Z,26093602,Em Resolução/Conclusão,3103,Incêndio rural,0,0,0,0,2025-10-05T22:05:00Z,Castro Daire,Viseu,Centro,-7.9408,40.925289,Resolução/Conclusão
26103262,Marinhais,Lezíria do Tejo,311,2025-10-07T19:29:00Z,26103262,Em Resolução/Conclusão,3105,Incêndio rural,0,0,0,0,2025-10-07T19:29:00Z,Salvaterra De Magos,Santarém,Alentejo,-8.731658,39.048068,Resolução/Conclusão
26103621,"Aboim, Felgueiras, Gontim e Pedraído",Ave,309,2025-10-07T21:26:00Z,26103621,Em Resolução/Conclusão,3103,Incêndio rural,0,4,0,17,2025-10-07T21:26:00Z,Fafe,Braga,Norte,-8.102393,41.511093,Resolução/Conclusão
