id,address,subregion,neighborhood,date,id.1,state,nature,nature_description,aerial_means,terrestrial_means,aquatic_means,operational,date.1,Concelho,Distrito,NUTII_DSG,longitude,latitude,state_2
25952858,Figueira de Castelo Rodrigo,Beiras e Serra da Estrela,310,2025-09-06T16:22:00Z,25952858,Em Resolução/Conclusão,3103,Incêndio rural,0,3,0,12,2025-09-06T16:22:00Z,Figueira De Castelo Rodrigo,Guarda,Centro,-6.934648,40.906778,Resolução/Conclusão
25953169,"Algodres, Vale de Afonsinho e Vilar de Amargo",Beiras e Serra da Estrela,310,2025-09-06T17:30:00Z,25953169,Em Resolução/Conclusão,3103,Incêndio rural,0,9,0,34,2025-09-06T17:30:00Z,Figueira De Castelo Rodrigo,Guarda,Centro,-6.99142,40.943735,Resolução/Conclusão
25958113,"Amoreira da Gândara, Paredes do Bairro e Ancas",Região de Aveiro,310,2025-09-07T19:53:00Z,25958113,Em Resolução/Conclusão,3103,Incêndio rural,0,2,0,4,2025-09-07T19:53:00Z,Anadia,Aveiro,Centro,-8.52133,40.4753,Resolução/Conclusão
25958331,Ansião,Região de Leiria,310,2025-09-07T20:55:00Z,25958331,Em Resolução/Conclusão,3101,Incêndio rural,0,3,0,12,2025-09-07T20:55:00Z,Ansião,Leiria,Centro,-8.43366,39.907437,Resolução/Conclusão
25832672,Piódão,Região de Coimbra,310,2025-08-13T05:08:00Z,25832672,Em Resolução/Conclusão,3103,Incêndio rural,0,14,0,41,2025-08-13T05:08:00Z,Arganil,Coimbra,Centro,-7.81972,40.23083,Resolução/Conclusão
25840417,Lousã e Vilarinho,Região de Coimbra,310,2025-08-14T13:46:00Z,25840417,Em Resolução/Conclusão,3101,Incêndio rural,0,0,0,0,2025-08-14T13:46:00Z,Lousã,Coimbra,Centro,-8.201561,40.080016,Resolução/Conclusão
25951457,Vila Cã,Região de Leiria,310,2025-09-06T11:25:00Z,25951457,Em Resolução/Conclusão,3103,Incêndio rural,0,5,0,16,2025-09-06T11:25:00Z,Pombal,Leiria,Centro,-8.56078,39.851197,Resolução/Conclusão
25954815,Cimo de Vila da Castanheira,Alto Tâmega e Barroso,309,2025-09-07T01:36:00Z,25954815,Em Resolução/Conclusão,3103,Incêndio rural,0,6,0,24,2025-09-07T01:36:00Z,Chaves,Vila Real,Norte,-7.282853,41.800555,Resolução/Conclusão
25958357,Banho e Carvalhosa,Tâmega e Sousa,309,2025-09-07T21:10:00Z,25958357,Em Despacho,3103,Incêndio rural,0,0,0,0,2025-09-07T21:10:00Z,Marco De Canaveses,Porto,Norte,-8.16678,41.22186,Despacho
25951176,Sandomil,Beiras e Serra da Estrela,310,2025-09-06T10:29:00Z,25951176,Em Resolução/Conclusão,3103,Incêndio rural,0,32,0,116,2025-09-06T10:29:00Z,Seia,Guarda,Centro,-7.76001,40.351547,Resolução/Conclusão
25958380,"Vidago, Arcossó, Selhariz e Vilarinho Das Paranheiras",Alto Tâmega e Barroso,309,2025-09-07T21:10:00Z,25958380,Em Despacho,3103,Incêndio rural,0,4,0,17,2025-09-07T21:10:00Z,Chaves,Vila Real,Norte,-7.576033,41.663339,Despacho
