id,address,subregion,neighborhood,date,id.1,state,nature,nature_description,aerial_means,terrestrial_means,aquatic_means,operational,date.1,Concelho,Distrito,NUTII_DSG,longitude,latitude,state_2
26160929,Caranguejeira,Região de Leiria,310,2025-10-19T16:50:00Z,26160929,Em Resolução/Conclusão,3101,Incêndio rural,0,1,0,2,2025-10-19T16:50:00Z,Leiria,Leiria,Centro,-8.697637,39.726483,Resolução/Conclusão
26165861,Colos,Alentejo Litoral,312,2025-10-20T17:03:00Z,26165861,Em Curso,3103,Incêndio rural,0,1,0,4,2025-10-20T17:03:00Z,Odemira,Beja,Alentejo,-8.5642,37.77794,Curso
26165961,Mourão,Alentejo Central,312,2025-10-20T17:23:00Z,26165961,Em Curso,3103,Incêndio rural,0,4,0,16,2025-10-20T17:23:00Z,Mourão,Évora,Alentejo,-7.33709,38.345542,Curso
26166045,Penamacor,Beira Baixa,310,2025-10-20T17:47:00Z,26166045,Em Despacho,3103,Incêndio rural,1,3,0,17,2025-10-20T17:47:00Z,Penamacor,Castelo Branco,Centro,-7.268641,40.11529,Despacho
26164572,Castro Verde e Casével,Baixo Alentejo,312,2025-10-20T12:54:00Z,26164572,Em Resolução/Conclusão,3105,Incêndio rural,0,3,0,8,2025-10-20T12:54:00Z,Castro Verde,Beja,Alentejo,-8.01625,37.63235,Resolução/Conclusão
26165313,Vimieiro,Alentejo Central,312,2025-10-20T15:11:00Z,26165313,Em Resolução/Conclusão,3103,Incêndio rural,0,5,0,15,2025-10-20T15:11:00Z,Arraiolos,Évora,Alentejo,-7.904952,38.831922,Resolução/Conclusão
26165645,Basto,Ave,309,2025-10-20T16:17:00Z,26165645,Em Resolução/Conclusão,3103,Incêndio rural,0,1,0,3,2025-10-20T16:17:00Z,Cabeceiras De Basto,Braga,Norte,-7.979872,41.493353,Resolução/Conclusão
