id,address,subregion,neighborhood,date,id.1,state,nature,nature_description,aerial_means,terrestrial_means,aquatic_means,operational,date.1,Concelho,Distrito,NUTII_DSG,longitude,latitude
24844219,Almancil,Algarve,313,2025-01-20T12:16:00Z,24844219,Em curso,3301,Queda de árvore,0,1,0,2,2025-01-20T12:16:00Z,Loulé,Faro,Algarve,-8.019032,37.062147
24844496,Grândola e Santa Margarida da Serra,Alentejo Litoral,312,2025-01-20T13:15:00Z,24844496,Em despacho,3315,Inundação de estruturas por precipitação intensa,0,2,0,6,2025-01-20T13:15:00Z,Grândola,Setúbal,Alentejo,-8.5587510000000009,38.173088
24844488,Tavira (Santa Maria e Santiago),Algarve,313,2025-01-20T13:11:00Z,24844488,Em despacho,3315,Inundação de estruturas por precipitação intensa,0,1,0,2,2025-01-20T13:11:00Z,Tavira,Faro,Algarve,-7.64691,37.130442
24843781,Tavira (Santa Maria e Santiago),Algarve,313,2025-01-20T10:55:00Z,24843781,Em curso,3315,Inundação de estruturas por precipitação intensa,0,0,0,0,2025-01-20T10:55:00Z,Tavira,Faro,Algarve,-7.64691,37.130442
24843951,Alferce,Algarve,313,2025-01-20T11:34:00Z,24843951,Em despacho,3313,Deslizamento de terras,0,1,0,1,2025-01-20T11:34:00Z,Monchique,Faro,Algarve,-8.493023,37.333617
24844410,Albufeira e Olhos de Água,Algarve,313,2025-01-20T12:58:00Z,24844410,Em despacho,3315,Inundação de estruturas por precipitação intensa,0,1,0,2,2025-01-20T12:58:00Z,Albufeira,Faro,Algarve,-8.252292,37.091727
