id,address,subregion,neighborhood,date,id.1,state,nature,nature_description,aerial_means,terrestrial_means,aquatic_means,operational,date.1,Concelho,Distrito,NUTII_DSG,longitude,latitude
25469124,"Alto do Seixalinho, Santo André e Verderena",Península de Setúbal,311,2025-06-03T02:59:00Z,25469124,Em resolução,2101,Incêndio em edifícios habitacionais,0,3,0,9,2025-06-03T02:59:00Z,Barreiro,Setúbal,Área Metropolitana De Lisboa,-9.064347,38.65584
25469149,Montemor-o-Velho e Gatões,Região de Coimbra,310,2025-06-03T03:35:00Z,25469149,Em despacho,3101,Incêndio rural,0,0,0,0,2025-06-03T03:35:00Z,Montemor-o-Velho,Coimbra,Centro,-8.702858,40.215328
25466369,Melides,Alentejo Litoral,312,2025-06-02T13:27:00Z,25466369,Em conclusão,3103,Incêndio rural,0,4,0,6,2025-06-02T13:27:00Z,Grândola,Setúbal,Alentejo,-8.754243,38.19534
25467128,Monte Redondo e Carreira,Região de Leiria,310,2025-06-02T15:48:00Z,25467128,Em conclusão,3103,Incêndio rural,0,1,0,2,2025-06-02T15:48:00Z,Leiria,Leiria,Centro,-8.860783,39.89848
25468964,Macieira da Lixa e Caramos,Tâmega e Sousa,309,2025-06-03T00:35:00Z,25468964,Em conclusão,2101,Incêndio em edifícios habitacionais,0,4,0,9,2025-06-03T00:35:00Z,Felgueiras,Porto,Norte,-8.148803,41.345133
