id,address,subregion,neighborhood,date,id.1,state,nature,nature_description,aerial_means,terrestrial_means,aquatic_means,operational,date.1,Concelho,Distrito,NUTII_DSG,longitude,latitude
24872316,Praia de Mira,Região de Coimbra,310,2025-01-26T13:14:00Z,24872316,Em conclusão,3321,Dano na rede de fornecimento de eletricidade ,0,1,0,2,2025-01-26T13:14:00Z,Mira,Coimbra,Centro,-8.788778,40.475131
24872525,Paredes,Area M. Porto,309,2025-01-26T14:00:00Z,24872525,Em despacho,3301,Queda de árvore,0,1,0,2,2025-01-26T14:00:00Z,Paredes,Porto,Norte,-8.340526,41.21359
24872531,"Ovar, São João, Arada e São Vicente de Pereira Jusã",Região de Aveiro,310,2025-01-26T13:58:00Z,24872531,Em despacho,3311,Queda de elementos de estruturas edificados,0,1,0,3,2025-01-26T13:58:00Z,Ovar,Aveiro,Centro,-8.632482,40.864029
24851780,"São Miguel, Santa Eufémia e Rabaçal",Região de Coimbra,310,2025-01-21T23:25:00Z,24851780,Em curso,3315,Inundação de estruturas por precipitação intensa,0,0,0,0,2025-01-21T23:25:00Z,Penela,Coimbra,Centro,-8.399036,40.025502
24872268,Alcochete,Península de Setúbal,311,2025-01-26T12:56:00Z,24872268,Em curso,3301,Queda de árvore,0,0,0,0,2025-01-26T12:56:00Z,Alcochete,Setúbal,Área Metropolitana De Lisboa,-8.962464,38.749259
24872504,Bertiandos,Alto Minho,309,2025-01-26T13:59:00Z,24872504,Em despacho,3301,Queda de árvore,0,0,0,0,2025-01-26T13:59:00Z,Ponte De Lima,Viana Do Castelo,Norte,-8.628458,41.7591
24872311,"Seixal, Arrentela e Aldeia de Paio Pires",Península de Setúbal,311,2025-01-26T13:05:00Z,24872311,Em despacho,3329,Queda de estruturas temporárias ou móveis,0,1,0,3,2025-01-26T13:05:00Z,Seixal,Setúbal,Área Metropolitana De Lisboa,-9.104804,38.642769
24872477,Vilar de Andorinho,Area M. Porto,309,2025-01-26T13:52:00Z,24872477,Em despacho,3301,Queda de árvore,0,1,0,5,2025-01-26T13:52:00Z,Vila Nova De Gaia,Porto,Norte,-8.590219,41.10475
