id,address,subregion,neighborhood,date,id.1,state,nature,nature_description,aerial_means,terrestrial_means,aquatic_means,operational,date.1,Concelho,Distrito,NUTII_DSG,longitude,latitude
25516987,Ermelo e Pardelhas,Ave,309,2025-06-12T20:40:00Z,25516987,Em despacho,3107,Consolidação de rescaldo de incêndio rural,0,1,0,5,2025-06-12T20:40:00Z,Mondim De Basto,Vila Real,Norte,-7.842792,41.3582
25517204,Queluz e Belas,Grande Lisboa,311,2025-06-12T21:46:00Z,25517204,Em curso,2101,Incêndio em edifícios habitacionais,0,2,0,7,2025-06-12T21:46:00Z,Sintra,Lisboa,Área Metropolitana De Lisboa,-9.25804,38.76676
25516930,Charneca de Caparica e Sobreda,Península de Setúbal,311,2025-06-12T20:22:00Z,25516930,Em resolução,3103,Incêndio rural,0,2,0,10,2025-06-12T20:22:00Z,Almada,Setúbal,Área Metropolitana De Lisboa,-9.193085,38.632093
25517078,Arouca e Burgo,Area M. Porto,309,2025-06-12T21:05:00Z,25517078,Em conclusão,3101,Incêndio rural,0,1,0,5,2025-06-12T21:05:00Z,Arouca,Aveiro,Norte,-8.258965,40.920875
25517196,Vilar de Andorinho,Area M. Porto,309,2025-06-12T21:44:00Z,25517196,Em despacho,2129,Incêndio em edifícios degradados ou devolutos,0,5,0,16,2025-06-12T21:44:00Z,Vila Nova De Gaia,Porto,Norte,-8.59389,41.09593
25515902,Alcaria Ruiva,Baixo Alentejo,312,2025-06-12T16:13:00Z,25515902,Em conclusão,3105,Incêndio rural,0,1,0,5,2025-06-12T16:13:00Z,Mértola,Beja,Alentejo,-7.844582,37.786912
25516865,São João da Madeira,Area M. Porto,309,2025-06-12T19:58:00Z,25516865,Em conclusão,2115,Incêndio em edifícios hoteleiros e de restauração,0,3,0,10,2025-06-12T19:58:00Z,São João Da Madeira,Aveiro,Norte,-8.490365,40.895632
25517056,"Várzea, Aliviada e Folhada",Tâmega e Sousa,309,2025-06-12T20:56:00Z,25517056,Em conclusão,2101,Incêndio em edifícios habitacionais,0,1,0,5,2025-06-12T20:56:00Z,Marco De Canaveses,Porto,Norte,-8.111327,41.205513
