id,address,subregion,neighborhood,date,id.1,state,nature,nature_description,aerial_means,terrestrial_means,aquatic_means,operational,date.1,Concelho,Distrito,NUTII_DSG,longitude,latitude,state_2
26022995,Bordeira,Algarve,313,2025-09-21T12:21:00Z,26022995,Em Resolução/Conclusão,3103,Incêndio rural,0,7,0,22,2025-09-21T12:21:00Z,Aljezur,Faro,Algarve,-8.825374,37.23495,Resolução/Conclusão
26067837,Figueira Dos Cavaleiros,Baixo Alentejo,312,2025-09-30T13:57:00Z,26067837,Em Resolução/Conclusão,3105,Incêndio rural,0,0,0,0,2025-09-30T13:57:00Z,Ferreira Do Alentejo,Beja,Alentejo,-8.174752,38.092127,Resolução/Conclusão
26068256,Astromil,Area M. Porto,309,2025-09-30T15:26:00Z,26068256,Em Resolução/Conclusão,3103,Incêndio rural,0,4,0,17,2025-09-30T15:26:00Z,Paredes,Porto,Norte,-8.411105,41.20007,Resolução/Conclusão
26068456,Póvoa de Santa Iria e Forte da Casa,Grande Lisboa,311,2025-09-30T15:54:00Z,26068456,Em Resolução/Conclusão,3103,Incêndio rural,0,5,0,20,2025-09-30T15:54:00Z,Vila Franca De Xira,Lisboa,Área Metropolitana De Lisboa,-9.064733,38.874948,Resolução/Conclusão
26068940,Estorãos,Ave,309,2025-09-30T17:42:00Z,26068940,Em Curso,3103,Incêndio rural,1,4,0,26,2025-09-30T17:42:00Z,Fafe,Braga,Norte,-8.12883,41.49621,Curso
26069025,Estorãos,Ave,309,2025-09-30T17:55:00Z,26069025,Em Curso,3103,Incêndio rural,1,4,0,26,2025-09-30T17:55:00Z,Fafe,Braga,Norte,-8.138278,41.48263,Curso
26050704,Tortosendo,Beiras e Serra da Estrela,310,2025-09-26T23:04:00Z,26050704,Em Resolução/Conclusão,3103,Incêndio rural,0,1,0,4,2025-09-26T23:04:00Z,Covilhã,Castelo Branco,Centro,-7.521592,40.251592,Resolução/Conclusão
26068468,Tornada e Salir do Porto,Oeste,311,2025-09-30T16:03:00Z,26068468,Em Resolução/Conclusão,3111,Queima,0,3,0,12,2025-09-30T16:03:00Z,Caldas Da Rainha,Leiria,Centro,-9.15182,39.476915,Resolução/Conclusão
26069088,São Bartolomeu de Messines,Algarve,313,2025-09-30T18:09:00Z,26069088,Em Despacho,3103,Incêndio rural,0,4,0,17,2025-09-30T18:09:00Z,Silves,Faro,Algarve,-8.34306,37.20451,Despacho
25951176,Sandomil,Beiras e Serra da Estrela,310,2025-09-06T10:29:00Z,25951176,Em Resolução/Conclusão,3103,Incêndio rural,0,2,0,10,2025-09-06T10:29:00Z,Seia,Guarda,Centro,-7.76001,40.351547,Resolução/Conclusão
26068749,Ferreira do Alentejo e Canhestros,Baixo Alentejo,312,2025-09-30T16:55:00Z,26068749,Em Resolução/Conclusão,3105,Incêndio rural,0,8,0,23,2025-09-30T16:55:00Z,Ferreira Do Alentejo,Beja,Alentejo,-8.295967,38.03591,Resolução/Conclusão
26068199,"Sandim, Olival, Lever e Crestuma",Area M. Porto,309,2025-09-30T15:09:00Z,26068199,Em Resolução/Conclusão,3103,Incêndio rural,0,1,0,6,2025-09-30T15:09:00Z,Vila Nova De Gaia,Porto,Norte,-8.523002,41.073885,Resolução/Conclusão
26068660,Sousela,Tâmega e Sousa,309,2025-09-30T16:43:00Z,26068660,Em Resolução/Conclusão,3103,Incêndio rural,0,2,0,8,2025-09-30T16:43:00Z,Lousada,Porto,Norte,-8.320858,41.295662,Resolução/Conclusão
26069069,Barrô,Tâmega e Sousa,309,2025-09-30T18:07:00Z,26069069,Em Despacho,3103,Incêndio rural,1,3,0,21,2025-09-30T18:07:00Z,Resende,Viseu,Norte,-7.872335,41.127756,Despacho
26068815,Arganil,Região de Coimbra,310,2025-09-30T17:12:00Z,26068815,Em Resolução/Conclusão,3101,Incêndio rural,0,3,0,9,2025-09-30T17:12:00Z,Arganil,Coimbra,Centro,-8.07889,40.20472,Resolução/Conclusão
