id,address,subregion,neighborhood,date,id.1,state,nature,nature_description,aerial_means,terrestrial_means,aquatic_means,operational,date.1,Concelho,Distrito,NUTII_DSG,longitude,latitude
25059714,Torrão,Alentejo Litoral,312,2025-03-08T22:10:00Z,25059714,Em curso,1101,Cheia,0,1,0,2,2025-03-08T22:10:00Z,Alcácer Do Sal,Setúbal,Alentejo,-8.359133,38.252053
25070044,Praia do Ribatejo,Médio Tejo,311,2025-03-10T19:30:00Z,25070044,Em curso,1101,Cheia,0,0,0,0,2025-03-10T19:30:00Z,Vila Nova Da Barquinha,Santarém,Centro,-8.357309,39.485638
25071496,São Manços e São Vicente do Pigeiro,Alentejo Central,312,2025-03-11T13:18:00Z,25071496,Em curso,1101,Cheia,0,2,0,4,2025-03-11T13:18:00Z,Évora,Évora,Alentejo,-7.713313,38.513673
25131211,"Custóias, Leça do Balio e Guifões",Area M. Porto,309,2025-03-22T07:57:00Z,25131211,Em resolução,3315,Inundação de estruturas por precipitação intensa,0,2,0,3,2025-03-22T07:57:00Z,Matosinhos,Porto,Norte,-8.629265,41.200591
25136826,"Algés, Linda-a-Velha e Cruz Quebrada-Dafundo",Grande Lisboa,311,2025-03-23T10:51:00Z,25136826,Em curso,3301,Queda de árvore,0,1,0,5,2025-03-23T10:51:00Z,Oeiras,Lisboa,Área Metropolitana De Lisboa,-9.22967,38.696612
25136845,"Custóias, Leça do Balio e Guifões",Area M. Porto,309,2025-03-23T10:45:00Z,25136845,Em despacho,3301,Queda de árvore,0,1,0,3,2025-03-23T10:45:00Z,Matosinhos,Porto,Norte,-8.632716,41.208899
25136861,Mafra,Grande Lisboa,311,2025-03-23T11:04:00Z,25136861,Em despacho,3311,Queda de elementos de estruturas edificados,0,1,0,2,2025-03-23T11:04:00Z,Mafra,Lisboa,Área Metropolitana De Lisboa,-9.337252,38.942359
25063232,Santa Maria do Castelo e Santiago e Santa Susana,Alentejo Litoral,312,2025-03-09T19:02:00Z,25063232,Em conclusão,1101,Cheia,0,0,0,0,2025-03-09T19:02:00Z,Alcácer Do Sal,Setúbal,Alentejo,-8.48167,38.29806
25136315,"Ponte de Sor, Tramaga e Vale de Açor",Alto Alentejo,312,2025-03-23T09:00:00Z,25136315,Em curso,3315,Inundação de estruturas por precipitação intensa,0,0,0,0,2025-03-23T09:00:00Z,Ponte De Sor,Portalegre,Alentejo,-8.022157,39.244498
25136802,a Dos Cunhados e Maceira,Oeste,311,2025-03-23T10:34:00Z,25136802,Em despacho,3321,Dano na rede de fornecimento de eletricidade ,0,1,0,2,2025-03-23T10:34:00Z,Torres Vedras,Lisboa,Centro,-9.355123,39.176359
25136903,Charneca de Caparica e Sobreda,Península de Setúbal,311,2025-03-23T11:08:00Z,25136903,Em despacho,3301,Queda de árvore,0,1,0,5,2025-03-23T11:08:00Z,Almada,Setúbal,Área Metropolitana De Lisboa,-9.190193,38.591584
25137051,"S.maria, S.miguel, S.martinho, S.pedro Penaferrim",Grande Lisboa,311,2025-03-23T11:48:00Z,25137051,Em despacho,3311,Queda de elementos de estruturas edificados,0,1,0,4,2025-03-23T11:48:00Z,Sintra,Lisboa,Área Metropolitana De Lisboa,-9.387899,38.805813
25087162,Pedrógão,Baixo Alentejo,312,2025-03-14T17:00:00Z,25087162,Em curso,1101,Cheia,0,0,0,0,2025-03-14T17:00:00Z,Vidigueira,Beja,Alentejo,-7.630327,38.110775
25128056,Santa Maria do Castelo e Santiago e Santa Susana,Alentejo Litoral,312,2025-03-21T14:41:00Z,25128056,Em curso,1101,Cheia,0,0,0,0,2025-03-21T14:41:00Z,Alcácer Do Sal,Setúbal,Alentejo,-8.434671,38.401157
25136003,Lousã e Vilarinho,Região de Coimbra,310,2025-03-23T08:02:00Z,25136003,Em despacho,3301,Queda de árvore,0,1,0,2,2025-03-23T08:02:00Z,Lousã,Coimbra,Centro,-8.180017,40.090644
25136639,Guarda,Beiras e Serra da Estrela,310,2025-03-23T10:21:00Z,25136639,Em curso,3317,Inundação de estruturas por água canalizada,0,0,0,0,2025-03-23T10:21:00Z,Guarda,Guarda,Centro,-7.26398,40.54047
25136821,Budens,Algarve,313,2025-03-23T10:37:00Z,25136821,Em curso,3301,Queda de árvore,0,1,0,5,2025-03-23T10:37:00Z,Vila Do Bispo,Faro,Algarve,-8.813082,37.074005
25136848,Monchique,Algarve,313,2025-03-23T10:55:00Z,25136848,Em despacho,3301,Queda de árvore,0,1,0,2,2025-03-23T10:55:00Z,Monchique,Faro,Algarve,-8.619323,37.321451
25137014,Ericeira,Grande Lisboa,311,2025-03-23T11:35:00Z,25137014,Em curso,3311,Queda de elementos de estruturas edificados,0,1,0,5,2025-03-23T11:35:00Z,Mafra,Lisboa,Área Metropolitana De Lisboa,-9.417289,38.967626
25137021,Roliça,Oeste,311,2025-03-23T11:42:00Z,25137021,Em despacho,3301,Queda de árvore,0,1,0,2,2025-03-23T11:42:00Z,Bombarral,Leiria,Centro,-9.19011,39.284257
25137041,Santiago e S. Simão de Litém e Albergaria Dos Doze,Região de Leiria,310,2025-03-23T11:51:00Z,25137041,Em despacho,3309,Desabamento de estruturas edificadas,0,0,0,0,2025-03-23T11:51:00Z,Pombal,Leiria,Centro,-8.65591,39.85978
25137100,Lagos (São Sebastião e Santa Maria),Algarve,313,2025-03-23T11:42:00Z,25137100,Em despacho,3321,Dano na rede de fornecimento de eletricidade ,0,1,0,2,2025-03-23T11:42:00Z,Lagos,Faro,Algarve,-8.668524,37.100485
25136928,Vidigueira,Baixo Alentejo,312,2025-03-23T11:20:00Z,25136928,Em conclusão,3301,Queda de árvore,0,2,0,5,2025-03-23T11:20:00Z,Vidigueira,Beja,Alentejo,-7.75643,38.22733
25136944,Fernão Ferro,Península de Setúbal,311,2025-03-23T11:18:00Z,25136944,Em despacho,3301,Queda de árvore,0,1,0,2,2025-03-23T11:18:00Z,Seixal,Setúbal,Área Metropolitana De Lisboa,-9.115329,38.572419
25137044,Cascais e Estoril,Grande Lisboa,311,2025-03-23T11:46:00Z,25137044,Em despacho,3311,Queda de elementos de estruturas edificados,0,1,0,3,2025-03-23T11:46:00Z,Cascais,Lisboa,Área Metropolitana De Lisboa,-9.419397,38.700982
25137059,Almeirim,Lezíria do Tejo,311,2025-03-23T11:51:00Z,25137059,Em despacho,3315,Inundação de estruturas por precipitação intensa,0,1,0,3,2025-03-23T11:51:00Z,Almeirim,Santarém,Alentejo,-8.588832,39.142251
25068300,Almeirim,Lezíria do Tejo,311,2025-03-10T20:52:00Z,25068300,Em curso,1101,Cheia,0,0,0,0,2025-03-10T20:52:00Z,Almeirim,Santarém,Alentejo,-8.635002,39.187436
25121298,Gafanhoeira (São Pedro) e Sabugueiro,Alentejo Central,312,2025-03-20T14:26:00Z,25121298,Em resolução,3301,Queda de árvore,0,0,0,0,2025-03-20T14:26:00Z,Arraiolos,Évora,Alentejo,-8.088754,38.754507
25135245,Grândola e Santa Margarida da Serra,Alentejo Litoral,312,2025-03-22T22:40:00Z,25135245,Em conclusão,3313,Deslizamento de terras,0,1,0,2,2025-03-22T22:40:00Z,Grândola,Setúbal,Alentejo,-8.486669,38.134589
25135936,Penacova,Região de Coimbra,310,2025-03-23T07:35:00Z,25135936,Em despacho,3313,Deslizamento de terras,0,1,0,1,2025-03-23T07:35:00Z,Penacova,Coimbra,Centro,-8.27651,40.251768
25136077,Carvalhal,Alentejo Litoral,312,2025-03-23T08:03:00Z,25136077,Em despacho,3301,Queda de árvore,0,2,0,6,2025-03-23T08:03:00Z,Grândola,Setúbal,Alentejo,-8.859443,38.458082
25136640,"Oeiras e S. Julião da Barra, Paço de Arcos e Caxias",Grande Lisboa,311,2025-03-23T10:13:00Z,25136640,Em despacho,3301,Queda de árvore,0,2,0,4,2025-03-23T10:13:00Z,Oeiras,Lisboa,Área Metropolitana De Lisboa,-9.290593,38.696925
25136983,"Almada, Cova da Piedade, Pragal e Cacilhas",Península de Setúbal,311,2025-03-23T11:19:00Z,25136983,Em despacho,3311,Queda de elementos de estruturas edificados,0,1,0,6,2025-03-23T11:19:00Z,Almada,Setúbal,Área Metropolitana De Lisboa,-9.164498,38.675268
25137058,Colares,Grande Lisboa,311,2025-03-23T11:46:00Z,25137058,Em despacho,3321,Dano na rede de fornecimento de eletricidade ,0,1,0,4,2025-03-23T11:46:00Z,Sintra,Lisboa,Área Metropolitana De Lisboa,-9.472032,38.811183
25137074,Bucelas,Grande Lisboa,311,2025-03-23T11:53:00Z,25137074,Em despacho,3317,Inundação de estruturas por água canalizada,0,1,0,3,2025-03-23T11:53:00Z,Loures,Lisboa,Área Metropolitana De Lisboa,-9.121038,38.903857
