id,address,subregion,neighborhood,date,id.1,state,nature,nature_description,aerial_means,terrestrial_means,aquatic_means,operational,date.1,Concelho,Distrito,NUTII_DSG,longitude,latitude
25576425,Este (São Pedro e São Mamede),Cávado,309,2025-06-25T08:23:00Z,25576425,Em despacho,3107,Consolidação de rescaldo de incêndio rural,0,1,0,5,2025-06-25T08:23:00Z,Braga,Braga,Norte,-8.356951,41.570113
25576329,Albufeira e Olhos de Água,Algarve,313,2025-06-25T08:05:00Z,25576329,Em conclusão,2301,Incêndio em transporte rodoviário,0,0,0,0,2025-06-25T08:05:00Z,Albufeira,Faro,Algarve,-8.22566,37.09237
25576432,Vale de Santiago,Alentejo Litoral,312,2025-06-25T08:27:00Z,25576432,Em despacho,2301,Incêndio em transporte rodoviário,0,3,0,14,2025-06-25T08:27:00Z,Odemira,Beja,Alentejo,-8.51974,37.81499
25576243,Portimão,Algarve,313,2025-06-25T07:38:00Z,25576243,Em conclusão,2101,Incêndio em edifícios habitacionais,0,4,0,11,2025-06-25T07:38:00Z,Portimão,Faro,Algarve,-8.547685,37.13488
25576293,Aveiras de Baixo,Lezíria do Tejo,311,2025-06-25T07:56:00Z,25576293,Em despacho,3109,Gestão de combustível,0,1,0,4,2025-06-25T07:56:00Z,Azambuja,Lisboa,Alentejo,-8.826556,39.086132
25576420,Esmoriz,Região de Aveiro,310,2025-06-25T08:19:00Z,25576420,Em conclusão,2201,Incêndio em equipamentos ou produtos,0,4,0,10,2025-06-25T08:19:00Z,Ovar,Aveiro,Centro,-8.637974,40.962156
