id,address,subregion,neighborhood,date,id.1,state,nature,nature_description,aerial_means,terrestrial_means,aquatic_means,operational,date.1,Concelho,Distrito,NUTII_DSG,longitude,latitude,state_2
25599382,Almaceda,Beira Baixa,310,2025-06-29T17:03:00Z,25599382,Em Resolução/Conclusão,3101,Incêndio rural,0,18,0,56,2025-06-29T17:03:00Z,Castelo Branco,Castelo Branco,Centro,-7.645695,39.962858,Resolução/Conclusão
25612309,Portela e Extremo,Alto Minho,309,2025-07-01T23:31:00Z,25612309,Em Resolução/Conclusão,3103,Incêndio rural,0,10,0,33,2025-07-01T23:31:00Z,Arcos De Valdevez,Viana Do Castelo,Norte,-8.46703,41.947547,Resolução/Conclusão
25614308,Romariz,Area M. Porto,309,2025-07-02T11:13:00Z,25614308,Em Resolução/Conclusão,3103,Incêndio rural,0,1,0,5,2025-07-02T11:13:00Z,Santa Maria Da Feira,Aveiro,Norte,-8.46242,40.93556,Resolução/Conclusão
25614447,Foz do Sousa e Covelo,Area M. Porto,309,2025-07-02T11:37:00Z,25614447,Em Resolução/Conclusão,3103,Incêndio rural,0,5,0,17,2025-07-02T11:37:00Z,Gondomar,Porto,Norte,-8.497903,41.114843,Resolução/Conclusão
25603618,Messejana,Baixo Alentejo,312,2025-06-30T13:09:00Z,25603618,Em Resolução/Conclusão,3101,Incêndio rural,0,7,0,17,2025-06-30T13:09:00Z,Aljustrel,Beja,Alentejo,-8.169013,37.814978,Resolução/Conclusão
25605147,Vale do Côa,Beiras e Serra da Estrela,310,2025-06-30T17:42:00Z,25605147,Em Resolução/Conclusão,3103,Incêndio rural,0,4,0,14,2025-06-30T17:42:00Z,Pinhel,Guarda,Centro,-7.114995,40.946045,Resolução/Conclusão
25610143,Nossa Senhora Das Misericórdias,Médio Tejo,311,2025-07-01T15:32:00Z,25610143,Em Resolução/Conclusão,3103,Incêndio rural,0,1,0,5,2025-07-01T15:32:00Z,Ourém,Santarém,Centro,-8.600277,39.655883,Resolução/Conclusão
25614439,Castelões,Tâmega e Sousa,309,2025-07-02T11:04:00Z,25614439,Em Resolução/Conclusão,3103,Incêndio rural,0,2,0,10,2025-07-02T11:04:00Z,Penafiel,Porto,Norte,-8.226147,41.241,Resolução/Conclusão
25614641,"St.tirso, Couto (S.cristina e S.miguel) e Burgães",Area M. Porto,309,2025-07-02T12:08:00Z,25614641,Em Resolução/Conclusão,3103,Incêndio rural,0,3,0,9,2025-07-02T12:08:00Z,Santo Tirso,Porto,Norte,-8.499497,41.350898,Resolução/Conclusão
25613433,Távora e Pereiro,Douro,309,2025-07-02T09:03:00Z,25613433,Em Resolução/Conclusão,3103,Incêndio rural,0,5,0,16,2025-07-02T09:03:00Z,Tabuaço,Viseu,Norte,-7.555308,41.108568,Resolução/Conclusão
25614336,Senharei,Alto Minho,309,2025-07-02T11:17:00Z,25614336,Em Resolução/Conclusão,3103,Incêndio rural,0,1,0,2,2025-07-02T11:17:00Z,Arcos De Valdevez,Viana Do Castelo,Norte,-8.478945,41.888341,Resolução/Conclusão
25614585,Faro (Sé e São Pedro),Algarve,313,2025-07-02T12:00:00Z,25614585,Em Resolução/Conclusão,3103,Incêndio rural,0,3,0,9,2025-07-02T12:00:00Z,Faro,Faro,Algarve,-7.939748,37.033063,Resolução/Conclusão
25614652,Estômbar e Parchal,Algarve,313,2025-07-02T11:48:00Z,25614652,Em Resolução/Conclusão,3111,Queima,0,0,0,0,2025-07-02T11:48:00Z,Lagoa,Faro,Algarve,-8.517968,37.136212,Resolução/Conclusão
25614768,Almagreira,Região de Leiria,310,2025-07-02T12:25:00Z,25614768,Em Resolução/Conclusão,3105,Incêndio rural,0,1,0,5,2025-07-02T12:25:00Z,Pombal,Leiria,Centro,-8.65468,39.992203,Resolução/Conclusão
25610953,Barbacena e Vila Fernando,Alto Alentejo,312,2025-07-01T18:18:00Z,25610953,Em Resolução/Conclusão,3101,Incêndio rural,0,7,0,20,2025-07-01T18:18:00Z,Elvas,Portalegre,Alentejo,-7.318435,38.920227,Resolução/Conclusão
25611301,"Algodres, Vale de Afonsinho e Vilar de Amargo",Beiras e Serra da Estrela,310,2025-07-01T19:25:00Z,25611301,Em Resolução/Conclusão,3103,Incêndio rural,0,13,0,51,2025-07-01T19:25:00Z,Figueira De Castelo Rodrigo,Guarda,Centro,-7.002512,40.960853,Resolução/Conclusão
25612908,Portela e Extremo,Alto Minho,309,2025-07-02T07:05:00Z,25612908,Em Resolução/Conclusão,3103,Incêndio rural,0,2,0,7,2025-07-02T07:05:00Z,Arcos De Valdevez,Viana Do Castelo,Norte,-8.472543,41.953533,Resolução/Conclusão
25613041,Baguim do Monte (Rio Tinto),Area M. Porto,309,2025-07-02T07:56:00Z,25613041,Em Resolução/Conclusão,3103,Incêndio rural,0,2,0,4,2025-07-02T07:56:00Z,Gondomar,Porto,Norte,-8.526002,41.197023,Resolução/Conclusão
25614444,Estômbar e Parchal,Algarve,313,2025-07-02T11:36:00Z,25614444,Em Resolução/Conclusão,3103,Incêndio rural,0,0,0,0,2025-07-02T11:36:00Z,Lagoa,Faro,Algarve,-8.517968,37.136212,Resolução/Conclusão
25614793,Santa Joana,Região de Aveiro,310,2025-07-02T12:38:00Z,25614793,Em Curso,3101,Incêndio rural,0,3,0,12,2025-07-02T12:38:00Z,Aveiro,Aveiro,Centro,-8.595278,40.630958,Curso
25614844,Malagueira e Horta Das Figueiras,Alentejo Central,312,2025-07-02T12:48:00Z,25614844,Em Curso,3105,Incêndio rural,1,6,0,32,2025-07-02T12:48:00Z,Évora,Évora,Alentejo,-7.944997,38.534062,Curso
25614834,Alcabideche,Grande Lisboa,311,2025-07-02T12:48:00Z,25614834,Em Resolução/Conclusão,3103,Incêndio rural,1,13,0,55,2025-07-02T12:48:00Z,Cascais,Lisboa,Área Metropolitana De Lisboa,-9.450345,38.74944,Resolução/Conclusão
