id,address,subregion,neighborhood,date,id.1,state,nature,nature_description,aerial_means,terrestrial_means,aquatic_means,operational,date.1,Concelho,Distrito,NUTII_DSG,longitude,latitude
24646352,Aveiras de Baixo,Lezíria do Tejo,311,2024-12-07T07:57:00Z,24646352,Em despacho,3309,Desabamento de estruturas edificadas,0,1,0,1,2024-12-07T07:57:00Z,Azambuja,Lisboa,Alentejo,-8.869588,39.111989
24647422,Rio Tinto,Area M. Porto,309,2024-12-07T12:15:00Z,24647422,Em despacho,3311,Queda de elementos de estruturas edificados,0,1,0,4,2024-12-07T12:15:00Z,Gondomar,Porto,Norte,-8.560102,41.179302
24647447,Canidelo,Area M. Porto,309,2024-12-07T12:26:00Z,24647447,Em despacho,3311,Queda de elementos de estruturas edificados,0,1,0,1,2024-12-07T12:26:00Z,Vila Nova De Gaia,Porto,Norte,-8.646111,41.13
24647556,Pontével,Lezíria do Tejo,311,2024-12-07T12:56:00Z,24647556,Em despacho,3301,Queda de árvore,0,0,0,0,2024-12-07T12:56:00Z,Cartaxo,Santarém,Alentejo,-8.82739,39.11434
24647518,Aveiras de Baixo,Lezíria do Tejo,311,2024-12-07T12:46:00Z,24647518,Em despacho,3301,Queda de árvore,0,2,0,7,2024-12-07T12:46:00Z,Azambuja,Lisboa,Alentejo,-8.836043,39.110395
24646980,Salir,Algarve,313,2024-12-07T10:30:00Z,24646980,Em curso,3301,Queda de árvore,0,0,0,0,2024-12-07T10:30:00Z,Loulé,Faro,Algarve,-8.040653,37.240426
24647475,Cervos,Alto Tâmega e Barroso,309,2024-12-07T12:35:00Z,24647475,Em despacho,3301,Queda de árvore,0,1,0,2,2024-12-07T12:35:00Z,Montalegre,Vila Real,Norte,-7.673807,41.759206
