id,address,subregion,neighborhood,date,id.1,state,nature,nature_description,aerial_means,terrestrial_means,aquatic_means,operational,date.1,Concelho,Distrito,NUTII_DSG,longitude,latitude,state_2
26134884,"Geraz do Lima (S.maria, S.leocádia, Moreira), Deão",Alto Minho,309,2025-10-14T11:01:00Z,26134884,Em Resolução/Conclusão,3101,Incêndio rural,0,3,0,10,2025-10-14T11:01:00Z,Viana Do Castelo,Viana Do Castelo,Norte,-8.674655,41.687663,Resolução/Conclusão
26134710,Dornelas,Alto Tâmega e Barroso,309,2025-10-14T10:34:00Z,26134710,Em Resolução/Conclusão,3103,Incêndio rural,0,2,0,10,2025-10-14T10:34:00Z,Boticas,Vila Real,Norte,-7.850045,41.67118,Resolução/Conclusão
26135448,São Gens,Ave,309,2025-10-14T12:42:00Z,26135448,Em Despacho,3103,Incêndio rural,2,2,0,19,2025-10-14T12:42:00Z,Fafe,Braga,Norte,-8.10255,41.42905,Despacho
26130196,Sardoal,Médio Tejo,311,2025-10-13T11:45:00Z,26130196,Em Resolução/Conclusão,3101,Incêndio rural,0,2,0,8,2025-10-13T11:45:00Z,Sardoal,Santarém,Centro,-8.118693,39.516055,Resolução/Conclusão
26135424,Vimeiro,Oeste,311,2025-10-14T12:34:00Z,26135424,Em Despacho,3111,Queima,0,1,0,5,2025-10-14T12:34:00Z,Alcobaça,Leiria,Centro,-9.062997,39.487096,Despacho
26134702,Cambas,Beira Baixa,310,2025-10-14T10:34:00Z,26134702,Em Resolução/Conclusão,3103,Incêndio rural,0,5,0,15,2025-10-14T10:34:00Z,Oleiros,Castelo Branco,Centro,-7.859057,40.039957,Resolução/Conclusão
26135104,"Enxara do Bispo, Gradil e Vila Franca do Rosário",Grande Lisboa,311,2025-10-14T11:37:00Z,26135104,Em Resolução/Conclusão,3103,Incêndio rural,0,10,0,32,2025-10-14T11:37:00Z,Mafra,Lisboa,Área Metropolitana De Lisboa,-9.269618,38.968258,Resolução/Conclusão
26135253,Santa Margarida da Coutada,Médio Tejo,311,2025-10-14T12:06:00Z,26135253,Em Resolução/Conclusão,3103,Incêndio rural,0,6,0,20,2025-10-14T12:06:00Z,Constância,Santarém,Centro,-8.283942,39.423382,Resolução/Conclusão
