id,address,subregion,neighborhood,date,id.1,state,nature,nature_description,aerial_means,terrestrial_means,aquatic_means,operational,date.1,Concelho,Distrito,NUTII_DSG,longitude,latitude
25480095,Landeira,Alentejo Central,312,2025-06-05T10:36:00Z,25480095,Em conclusão,2301,Incêndio em transporte rodoviário,0,0,0,0,2025-06-05T10:36:00Z,Vendas Novas,Évora,Alentejo,-8.606644,38.595686
25480338,"Alpendorada, Várzea e Torrão",Tâmega e Sousa,309,2025-06-05T11:17:00Z,25480338,Em conclusão,2101,Incêndio em edifícios habitacionais,0,4,0,12,2025-06-05T11:17:00Z,Marco De Canaveses,Porto,Norte,-8.257468,41.073608
25479453,Aveiras de Baixo,Lezíria do Tejo,311,2025-06-05T08:49:00Z,25479453,Em despacho,3109,Gestão de combustível,0,1,0,2,2025-06-05T08:49:00Z,Azambuja,Lisboa,Alentejo,-8.869588,39.111989
25479771,Muxagata,Douro,309,2025-06-05T09:43:00Z,25479771,Em despacho,3109,Gestão de combustível,0,2,0,10,2025-06-05T09:43:00Z,Vila Nova De Foz Côa,Guarda,Norte,-7.168678,41.037581
25480046,Melides,Alentejo Litoral,312,2025-06-05T10:28:00Z,25480046,Em conclusão,3103,Incêndio rural,0,6,0,12,2025-06-05T10:28:00Z,Grândola,Setúbal,Alentejo,-8.735795,38.14169
25480153,Rio Tinto,Area M. Porto,309,2025-06-05T10:42:00Z,25480153,Em conclusão,2109,Incêndio em edifícios escolares,0,4,0,13,2025-06-05T10:42:00Z,Gondomar,Porto,Norte,-8.560102,41.179302
25480228,"S.julião, N.s. da Anunciada e S. Maria da Graça",Península de Setúbal,311,2025-06-05T11:01:00Z,25480228,Em conclusão,3203,Detritos confinados,0,0,0,0,2025-06-05T11:01:00Z,Setúbal,Setúbal,Área Metropolitana De Lisboa,-8.901809,38.51932
25480579,Cartaxo e Vale da Pinta,Lezíria do Tejo,311,2025-06-05T12:01:00Z,25480579,Em despacho,3103,Incêndio rural,1,3,0,18,2025-06-05T12:01:00Z,Cartaxo,Santarém,Alentejo,-8.794948,39.166481
