id,address,subregion,neighborhood,date,id.1,state,nature,nature_description,aerial_means,terrestrial_means,aquatic_means,operational,date.1,Concelho,Distrito,NUTII_DSG,longitude,latitude
24874617,Louredo e Fornelos,Douro,309,2025-01-26T22:23:00Z,24874617,Em despacho,3313,Deslizamento de terras,0,1,0,2,2025-01-26T22:23:00Z,Santa Marta De Penaguião,Vila Real,Norte,-7.812212,41.247361
24874768,Basto (São Clemente),Tâmega e Sousa,309,2025-01-26T23:16:00Z,24874768,Em despacho,3301,Queda de árvore,0,1,0,2,2025-01-26T23:16:00Z,Celorico De Basto,Braga,Norte,-8.045611,41.466161
24874800,São Miguel do Mato,Viseu Dão Lafões,310,2025-01-26T23:27:00Z,24874800,Em despacho,3301,Queda de árvore,0,1,0,4,2025-01-26T23:27:00Z,Vouzela,Viseu,Centro,-8.023922,40.725998
24874816,Fregim,Tâmega e Sousa,309,2025-01-26T23:45:00Z,24874816,Em despacho,3301,Queda de árvore,0,1,0,4,2025-01-26T23:45:00Z,Amarante,Porto,Norte,-8.106882,41.26401
24874833,Fermentões,Ave,309,2025-01-26T23:35:00Z,24874833,Em despacho,3315,Inundação de estruturas por precipitação intensa,0,1,0,2,2025-01-26T23:35:00Z,Guimarães,Braga,Norte,-8.314269,41.456141
24874428,Donai,Terras de Trás-os-Montes,309,2025-01-26T21:18:00Z,24874428,Em despacho,3315,Inundação de estruturas por precipitação intensa,0,1,0,2,2025-01-26T21:18:00Z,Bragança,Bragança,Norte,-6.805385,41.830788
24874519,"Areias, Sequeiró, Lama e Palmeira",Area M. Porto,309,2025-01-26T21:45:00Z,24874519,Em curso,3329,Queda de estruturas temporárias ou móveis,0,5,0,8,2025-01-26T21:45:00Z,Santo Tirso,Porto,Norte,-8.475731,41.362274
24874528,Serzedo e Perosinho,Area M. Porto,309,2025-01-26T21:49:00Z,24874528,Em curso,3301,Queda de árvore,0,1,0,4,2025-01-26T21:49:00Z,Vila Nova De Gaia,Porto,Norte,-8.600642,41.053381
24874564,"Sé, Santa Maria e Meixedo",Terras de Trás-os-Montes,309,2025-01-26T21:55:00Z,24874564,Em despacho,3315,Inundação de estruturas por precipitação intensa,0,1,0,2,2025-01-26T21:55:00Z,Bragança,Bragança,Norte,-6.761223,41.813164
24874630,Abraveses,Viseu Dão Lafões,310,2025-01-26T22:20:00Z,24874630,Em despacho,3315,Inundação de estruturas por precipitação intensa,0,1,0,2,2025-01-26T22:20:00Z,Viseu,Viseu,Centro,-7.94029,40.690261
24874687,"Nossa Senhora da Conceição, São Pedro e São Dinis",Douro,309,2025-01-26T22:51:00Z,24874687,Em despacho,3313,Deslizamento de terras,0,1,0,2,2025-01-26T22:51:00Z,Vila Real,Vila Real,Norte,-7.742314,41.31717
24874689,Amendoeira,Terras de Trás-os-Montes,309,2025-01-26T22:49:00Z,24874689,Em despacho,3301,Queda de árvore,0,1,0,2,2025-01-26T22:49:00Z,Macedo De Cavaleiros,Bragança,Norte,-6.992274,41.541089
24874703,Vilar de Nantes,Alto Tâmega e Barroso,309,2025-01-26T22:55:00Z,24874703,Em despacho,3315,Inundação de estruturas por precipitação intensa,0,1,0,4,2025-01-26T22:55:00Z,Chaves,Vila Real,Norte,-7.447093,41.70766
24874712,Bougado (São Martinho e Santiago),Area M. Porto,309,2025-01-26T22:50:00Z,24874712,Em curso,3301,Queda de árvore,0,3,0,6,2025-01-26T22:50:00Z,Trofa,Porto,Norte,-8.527218,41.336422
24873550,"Sé, Santa Maria e Meixedo",Terras de Trás-os-Montes,309,2025-01-26T17:46:00Z,24873550,Em curso,3315,Inundação de estruturas por precipitação intensa,0,1,0,2,2025-01-26T17:46:00Z,Bragança,Bragança,Norte,-6.761223,41.813164
24874227,Leomil,Douro,309,2025-01-26T20:35:00Z,24874227,Em resolução,3313,Deslizamento de terras,0,4,0,10,2025-01-26T20:35:00Z,Moimenta Da Beira,Viseu,Norte,-7.738242,40.958563
24874277,Fornelo e Vairão,Area M. Porto,309,2025-01-26T20:50:00Z,24874277,Em curso,3309,Desabamento de estruturas edificadas,0,2,0,4,2025-01-26T20:50:00Z,Vila Do Conde,Porto,Norte,-8.645789,41.33489
24874313,Parreira e Chouto,Lezíria do Tejo,311,2025-01-26T20:59:00Z,24874313,Em despacho,3301,Queda de árvore,0,2,0,4,2025-01-26T20:59:00Z,Chamusca,Santarém,Alentejo,-8.356501,39.193372
24874497,Salto,Alto Tâmega e Barroso,309,2025-01-26T21:40:00Z,24874497,Em despacho,3315,Inundação de estruturas por precipitação intensa,0,2,0,9,2025-01-26T21:40:00Z,Montalegre,Vila Real,Norte,-7.979477,41.654678
24874513,Loivos do Monte,Tâmega e Sousa,309,2025-01-26T21:45:00Z,24874513,Em conclusão,3301,Queda de árvore,0,2,0,6,2025-01-26T21:45:00Z,Amarante,Porto,Norte,-7.989262,41.219625
24874602,Salvaterra de Magos e Foros de Salvaterra,Lezíria do Tejo,311,2025-01-26T22:19:00Z,24874602,Em conclusão,3321,Dano na rede de fornecimento de eletricidade ,0,0,0,0,2025-01-26T22:19:00Z,Salvaterra De Magos,Santarém,Alentejo,-8.76359,39.02182
24874661,Marco,Tâmega e Sousa,309,2025-01-26T22:33:00Z,24874661,Em curso,3301,Queda de árvore,0,1,0,5,2025-01-26T22:33:00Z,Marco De Canaveses,Porto,Norte,-8.149747,41.16894
24851780,"São Miguel, Santa Eufémia e Rabaçal",Região de Coimbra,310,2025-01-21T23:25:00Z,24851780,Em curso,3315,Inundação de estruturas por precipitação intensa,0,0,0,0,2025-01-21T23:25:00Z,Penela,Coimbra,Centro,-8.399036,40.025502
24874106,Queluz e Belas,Grande Lisboa,311,2025-01-26T20:03:00Z,24874106,Em conclusão,3321,Dano na rede de fornecimento de eletricidade ,0,1,0,4,2025-01-26T20:03:00Z,Sintra,Lisboa,Área Metropolitana De Lisboa,-9.271079,38.77098
24874490,Adoufe e Vilarinho de Samardã,Douro,309,2025-01-26T21:44:00Z,24874490,Em despacho,3313,Deslizamento de terras,0,1,0,1,2025-01-26T21:44:00Z,Vila Real,Vila Real,Norte,-7.712559,41.36769
24874643,Avões,Douro,309,2025-01-26T22:30:00Z,24874643,Em conclusão,3301,Queda de árvore,0,2,0,3,2025-01-26T22:30:00Z,Lamego,Viseu,Norte,-7.836462,41.122768
24874724,São Miguel do Mato,Area M. Porto,309,2025-01-26T22:55:00Z,24874724,Em conclusão,3301,Queda de árvore,0,1,0,3,2025-01-26T22:55:00Z,Arouca,Aveiro,Norte,-8.385045,40.981894
24874743,Infantas,Ave,309,2025-01-26T23:11:00Z,24874743,Em despacho,3311,Queda de elementos de estruturas edificados,0,0,0,0,2025-01-26T23:11:00Z,Guimarães,Braga,Norte,-8.25677,41.43192
24874776,Luso,Região de Coimbra,310,2025-01-26T23:21:00Z,24874776,Em despacho,3301,Queda de árvore,0,1,0,3,2025-01-26T23:21:00Z,Mealhada,Aveiro,Centro,-8.376887,40.38218
24874753,"Oliveira de Frades, Souto de Lafões e Sejães",Viseu Dão Lafões,310,2025-01-26T22:53:00Z,24874753,Em despacho,3301,Queda de árvore,0,1,0,3,2025-01-26T22:53:00Z,Oliveira De Frades,Viseu,Centro,-8.185214,40.736334
24874769,"Sé, Santa Maria e Meixedo",Terras de Trás-os-Montes,309,2025-01-26T23:19:00Z,24874769,Em despacho,3315,Inundação de estruturas por precipitação intensa,0,0,0,0,2025-01-26T23:19:00Z,Bragança,Bragança,Norte,-6.761223,41.813164
24874789,Salto,Alto Tâmega e Barroso,309,2025-01-26T23:24:00Z,24874789,Em despacho,3313,Deslizamento de terras,0,1,0,5,2025-01-26T23:24:00Z,Montalegre,Vila Real,Norte,-7.953086,41.647437
24874796,Freixiel,Terras de Trás-os-Montes,309,2025-01-26T23:36:00Z,24874796,Em despacho,3301,Queda de árvore,0,2,0,4,2025-01-26T23:36:00Z,Vila Flor,Bragança,Norte,-7.228889,41.30833
24874805,Valadares,Viseu Dão Lafões,310,2025-01-26T23:41:00Z,24874805,Em curso,3301,Queda de árvore,0,1,0,2,2025-01-26T23:41:00Z,São Pedro Do Sul,Viseu,Centro,-8.189972,40.761545
24874830,"São Pedro do Sul, Várzea e Baiões",Viseu Dão Lafões,310,2025-01-26T23:50:00Z,24874830,Em despacho,3301,Queda de árvore,0,2,0,4,2025-01-26T23:50:00Z,São Pedro Do Sul,Viseu,Centro,-8.067856,40.756654
24874807,Vila Pouca de Aguiar,Alto Tâmega e Barroso,309,2025-01-26T23:40:00Z,24874807,Em despacho,3315,Inundação de estruturas por precipitação intensa,0,1,0,5,2025-01-26T23:40:00Z,Vila Pouca De Aguiar,Vila Real,Norte,-7.652878,41.50072
24874808,Lousã e Vilarinho,Região de Coimbra,310,2025-01-26T23:44:00Z,24874808,Em despacho,3301,Queda de árvore,0,1,0,5,2025-01-26T23:44:00Z,Lousã,Coimbra,Centro,-8.23726,40.10982
24874809,Mouçós e Lamares,Douro,309,2025-01-26T23:40:00Z,24874809,Em despacho,3315,Inundação de estruturas por precipitação intensa,0,1,0,5,2025-01-26T23:40:00Z,Vila Real,Vila Real,Norte,-7.700831,41.312728
24874810,Bonfim,Area M. Porto,309,2025-01-26T23:43:00Z,24874810,Em despacho,3315,Inundação de estruturas por precipitação intensa,0,1,0,5,2025-01-26T23:43:00Z,Porto,Porto,Norte,-8.596119,41.151713
24874824,"O. Azeméis, Riba-Ul, Ul, Macinhata Seixa, Madail",Area M. Porto,309,2025-01-26T23:33:00Z,24874824,Em despacho,3301,Queda de árvore,0,1,0,2,2025-01-26T23:33:00Z,Oliveira De Azeméis,Aveiro,Norte,-8.482939,40.836334
24874843,Arganil,Região de Coimbra,310,2025-01-26T23:42:00Z,24874843,Em despacho,3301,Queda de árvore,0,1,0,2,2025-01-26T23:42:00Z,Arganil,Coimbra,Centro,-8.049704,40.220309
24874695,Repeses e São Salvador,Viseu Dão Lafões,310,2025-01-26T22:53:00Z,24874695,Em despacho,3301,Queda de árvore,0,1,0,2,2025-01-26T22:53:00Z,Viseu,Viseu,Centro,-7.92624,40.6429
24874711,Braga (São José de São Lázaro e São João do Souto),Cávado,309,2025-01-26T23:00:00Z,24874711,Em curso,3313,Deslizamento de terras,0,1,0,2,2025-01-26T23:00:00Z,Braga,Braga,Norte,-8.418608,41.53962
24874729,Venda Nova e Pondras,Alto Tâmega e Barroso,309,2025-01-26T23:02:00Z,24874729,Em despacho,3301,Queda de árvore,0,1,0,5,2025-01-26T23:02:00Z,Montalegre,Vila Real,Norte,-7.956621,41.671752
24874763,Madalena e Samaiões,Alto Tâmega e Barroso,309,2025-01-26T23:10:00Z,24874763,Em curso,3313,Deslizamento de terras,0,0,0,0,2025-01-26T23:10:00Z,Chaves,Vila Real,Norte,-7.480642,41.716858
24874770,Fermentões,Ave,309,2025-01-26T23:15:00Z,24874770,Em curso,3301,Queda de árvore,0,0,0,0,2025-01-26T23:15:00Z,Guimarães,Braga,Norte,-8.408698,41.448258
24874772,Campos e Louredo,Ave,309,2025-01-26T23:20:00Z,24874772,Em resolução,3315,Inundação de estruturas por precipitação intensa,0,2,0,4,2025-01-26T23:20:00Z,Póvoa De Lanhoso,Braga,Norte,-8.284153,41.545055
24874797,Vilarinho,Area M. Porto,309,2025-01-26T23:24:00Z,24874797,Em conclusão,3301,Queda de árvore,0,1,0,4,2025-01-26T23:24:00Z,Santo Tirso,Porto,Norte,-8.328048,41.346427
