id,address,subregion,neighborhood,date,id.1,state,nature,nature_description,aerial_means,terrestrial_means,aquatic_means,operational,date.1,Concelho,Distrito,NUTII_DSG,longitude,latitude,state_2
26013065,Mezio e Moura Morta,Viseu Dão Lafões,310,2025-09-19T11:05:00Z,26013065,Em Resolução/Conclusão,3103,Incêndio rural,0,6,0,20,2025-09-19T11:05:00Z,Castro Daire,Viseu,Centro,-7.878187,40.98632,Resolução/Conclusão
26013919,Ervedal e Vila Franca da Beira,Região de Coimbra,310,2025-09-19T13:25:00Z,26013919,Em Resolução/Conclusão,3101,Incêndio rural,1,6,0,26,2025-09-19T13:25:00Z,Oliveira Do Hospital,Coimbra,Centro,-7.90472,40.43917,Resolução/Conclusão
26028091,Pelmá,Região de Leiria,310,2025-09-22T13:35:00Z,26028091,Em Resolução/Conclusão,3103,Incêndio rural,0,1,0,2,2025-09-22T13:35:00Z,Alvaiázere,Leiria,Centro,-8.455905,39.771273,Resolução/Conclusão
26028225,Aldeias e Mangualde da Serra,Beiras e Serra da Estrela,310,2025-09-22T14:00:00Z,26028225,Em Resolução/Conclusão,3103,Incêndio rural,0,14,0,45,2025-09-22T14:00:00Z,Gouveia,Guarda,Centro,-7.605367,40.459313,Resolução/Conclusão
26031758,Jou,Douro,309,2025-09-23T09:58:00Z,26031758,Em Resolução/Conclusão,3103,Incêndio rural,0,0,0,0,2025-09-23T09:58:00Z,Murça,Vila Real,Norte,-7.4119,41.489272,Resolução/Conclusão
26031908,Arcozelo Das Maias,Viseu Dão Lafões,310,2025-09-23T10:21:00Z,26031908,Em Resolução/Conclusão,3103,Incêndio rural,0,28,0,102,2025-09-23T10:21:00Z,Oliveira De Frades,Viseu,Centro,-8.27871,40.723646,Resolução/Conclusão
26032955,Alfândega da Fé,Terras de Trás-os-Montes,309,2025-09-23T13:30:00Z,26032955,Em Resolução/Conclusão,3103,Incêndio rural,0,12,0,39,2025-09-23T13:30:00Z,Alfândega Da Fé,Bragança,Norte,-6.965727,41.350846,Resolução/Conclusão
26033866,"Sandim, Olival, Lever e Crestuma",Area M. Porto,309,2025-09-23T15:59:00Z,26033866,Em Resolução/Conclusão,3103,Incêndio rural,0,3,0,6,2025-09-23T15:59:00Z,Vila Nova De Gaia,Porto,Norte,-8.502382,41.048753,Resolução/Conclusão
26033871,"Messegães, Valadares e Sá",Alto Minho,309,2025-09-23T16:03:00Z,26033871,Em Resolução/Conclusão,3103,Incêndio rural,0,3,0,9,2025-09-23T16:03:00Z,Monção,Viana Do Castelo,Norte,-8.354515,42.086317,Resolução/Conclusão
26033889,Castro Laboreiro e Lamas de Mouro,Alto Minho,309,2025-09-23T16:12:00Z,26033889,Em Curso,3103,Incêndio rural,1,2,0,12,2025-09-23T16:12:00Z,Melgaço,Viana Do Castelo,Norte,-8.14859,42.017023,Curso
25832672,Piódão,Região de Coimbra,310,2025-08-13T05:08:00Z,25832672,Em Resolução/Conclusão,3103,Incêndio rural,0,0,0,0,2025-08-13T05:08:00Z,Arganil,Coimbra,Centro,-7.81972,40.23083,Resolução/Conclusão
26013902,Penacova,Região de Coimbra,310,2025-09-19T13:28:00Z,26013902,Em Resolução/Conclusão,3103,Incêndio rural,0,1,0,4,2025-09-19T13:28:00Z,Penacova,Coimbra,Centro,-8.32583,40.32722,Resolução/Conclusão
26025073,Fátima,Médio Tejo,311,2025-09-21T21:01:00Z,26025073,Em Resolução/Conclusão,3103,Incêndio rural,0,1,0,5,2025-09-21T21:01:00Z,Ourém,Santarém,Centro,-8.65072,39.578831,Resolução/Conclusão
26032986,São Bartolomeu de Messines,Algarve,313,2025-09-23T13:34:00Z,26032986,Em Resolução/Conclusão,3103,Incêndio rural,0,9,0,29,2025-09-23T13:34:00Z,Silves,Faro,Algarve,-8.377982,37.362762,Resolução/Conclusão
26033195,Vila Nova de Milfontes,Alentejo Litoral,312,2025-09-23T14:01:00Z,26033195,Em Resolução/Conclusão,3103,Incêndio rural,0,15,0,45,2025-09-23T14:01:00Z,Odemira,Beja,Alentejo,-8.737267,37.75353,Resolução/Conclusão
26033461,Grijó e Sermonde,Area M. Porto,309,2025-09-23T14:54:00Z,26033461,Em Resolução/Conclusão,3103,Incêndio rural,0,2,0,8,2025-09-23T14:54:00Z,Vila Nova De Gaia,Porto,Norte,-8.57494,41.03498,Resolução/Conclusão
26033540,Vendas Novas,Alentejo Central,312,2025-09-23T15:06:00Z,26033540,Em Resolução/Conclusão,3101,Incêndio rural,0,13,0,37,2025-09-23T15:06:00Z,Vendas Novas,Évora,Alentejo,-8.40622,38.649387,Resolução/Conclusão
26033679,Gafanha da Boa Hora,Região de Aveiro,310,2025-09-23T15:32:00Z,26033679,Em Resolução/Conclusão,3101,Incêndio rural,0,9,0,29,2025-09-23T15:32:00Z,Vagos,Aveiro,Centro,-8.73386,40.5103,Resolução/Conclusão
26033738,Vila Cova à Coelheira,Viseu Dão Lafões,310,2025-09-23T15:40:00Z,26033738,Em Resolução/Conclusão,3105,Incêndio rural,0,1,0,5,2025-09-23T15:40:00Z,Vila Nova De Paiva,Viseu,Centro,-7.79632,40.878971,Resolução/Conclusão
25951176,Sandomil,Beiras e Serra da Estrela,310,2025-09-06T10:29:00Z,25951176,Em Resolução/Conclusão,3103,Incêndio rural,0,2,0,10,2025-09-06T10:29:00Z,Seia,Guarda,Centro,-7.76001,40.351547,Resolução/Conclusão
26024276,Monte Redondo e Carreira,Região de Leiria,310,2025-09-21T17:24:00Z,26024276,Em Resolução/Conclusão,3105,Incêndio rural,0,1,0,2,2025-09-21T17:24:00Z,Leiria,Leiria,Centro,-8.786287,39.874758,Resolução/Conclusão
26024592,Monte Redondo e Carreira,Região de Leiria,310,2025-09-21T18:44:00Z,26024592,Em Resolução/Conclusão,3105,Incêndio rural,0,1,0,2,2025-09-21T18:44:00Z,Leiria,Leiria,Centro,-8.85119,39.877718,Resolução/Conclusão
26027819,Santo André,Alto Tâmega e Barroso,309,2025-09-22T12:42:00Z,26027819,Em Resolução/Conclusão,3103,Incêndio rural,2,30,0,94,2025-09-22T12:42:00Z,Montalegre,Vila Real,Norte,-7.688477,41.868948,Resolução/Conclusão
26032631,Lordelo,Area M. Porto,309,2025-09-23T12:15:00Z,26032631,Em Resolução/Conclusão,3103,Incêndio rural,0,3,0,9,2025-09-23T12:15:00Z,Paredes,Porto,Norte,-8.4247,41.247832,Resolução/Conclusão
26033399,Foz do Sousa e Covelo,Area M. Porto,309,2025-09-23T14:41:00Z,26033399,Em Resolução/Conclusão,3103,Incêndio rural,0,2,0,10,2025-09-23T14:41:00Z,Gondomar,Porto,Norte,-8.482621,41.0963,Resolução/Conclusão
26033483,Boelhe,Tâmega e Sousa,309,2025-09-23T14:59:00Z,26033483,Em Resolução/Conclusão,3103,Incêndio rural,0,3,0,9,2025-09-23T14:59:00Z,Penafiel,Porto,Norte,-8.24849,41.12758,Resolução/Conclusão
26033667,Escariz (São Mamede) e Escariz (São Martinho),Cávado,309,2025-09-23T15:29:00Z,26033667,Em Resolução/Conclusão,3105,Incêndio rural,0,2,0,5,2025-09-23T15:29:00Z,Vila Verde,Braga,Norte,-8.525203,41.630053,Resolução/Conclusão
26033983,"Requeixo, Nossa Senhora de Fátima e Nariz",Região de Aveiro,310,2025-09-23T16:23:00Z,26033983,Em Curso,3101,Incêndio rural,3,30,0,103,2025-09-23T16:23:00Z,Aveiro,Aveiro,Centro,-8.576009,40.577003,Curso
26033919,Oldrões,Tâmega e Sousa,309,2025-09-23T16:16:00Z,26033919,Em Resolução/Conclusão,3103,Incêndio rural,0,4,0,14,2025-09-23T16:16:00Z,Penafiel,Porto,Norte,-8.277122,41.163915,Resolução/Conclusão
26034170,Friões,Alto Tâmega e Barroso,309,2025-09-23T17:05:00Z,26034170,Em Despacho,3103,Incêndio rural,1,4,0,24,2025-09-23T17:05:00Z,Valpaços,Vila Real,Norte,-7.424543,41.682314,Despacho
26013405,Barreiros e Cepões,Viseu Dão Lafões,310,2025-09-19T11:56:00Z,26013405,Em Resolução/Conclusão,3103,Incêndio rural,0,9,0,31,2025-09-19T11:56:00Z,Viseu,Viseu,Centro,-7.786007,40.76602,Resolução/Conclusão
26022995,Bordeira,Algarve,313,2025-09-21T12:21:00Z,26022995,Em Curso,3103,Incêndio rural,10,217,0,646,2025-09-21T12:21:00Z,Aljezur,Faro,Algarve,-8.825374,37.23495,Curso
26030653,Canelas,Tâmega e Sousa,309,2025-09-23T01:12:00Z,26030653,Em Resolução/Conclusão,3103,Incêndio rural,0,2,0,7,2025-09-23T01:12:00Z,Penafiel,Porto,Norte,-8.348435,41.077193,Resolução/Conclusão
26031486,Penude,Douro,309,2025-09-23T09:10:00Z,26031486,Em Resolução/Conclusão,3103,Incêndio rural,0,1,0,5,2025-09-23T09:10:00Z,Lamego,Viseu,Norte,-7.8658,41.071602,Resolução/Conclusão
26032791,Veiros,Alentejo Central,312,2025-09-23T12:55:00Z,26032791,Em Resolução/Conclusão,3105,Incêndio rural,0,7,0,24,2025-09-23T12:55:00Z,Estremoz,Évora,Alentejo,-7.491595,38.947008,Resolução/Conclusão
26033459,Grândola e Santa Margarida da Serra,Alentejo Litoral,312,2025-09-23T14:53:00Z,26033459,Em Resolução/Conclusão,3105,Incêndio rural,0,12,0,34,2025-09-23T14:53:00Z,Grândola,Setúbal,Alentejo,-8.54756,38.19744,Resolução/Conclusão
26033476,Águas Santas,Area M. Porto,309,2025-09-23T14:55:00Z,26033476,Em Resolução/Conclusão,3103,Incêndio rural,0,0,0,0,2025-09-23T14:55:00Z,Maia,Porto,Norte,-8.593213,41.190108,Resolução/Conclusão
26033643,"Pedreira, Rande e Sernande",Tâmega e Sousa,309,2025-09-23T15:26:00Z,26033643,Em Resolução/Conclusão,3103,Incêndio rural,0,3,0,9,2025-09-23T15:26:00Z,Felgueiras,Porto,Norte,-8.219557,41.333768,Resolução/Conclusão
26033742,Basto (São Clemente),Tâmega e Sousa,309,2025-09-23T15:47:00Z,26033742,Em Resolução/Conclusão,3103,Incêndio rural,0,1,0,5,2025-09-23T15:47:00Z,Celorico De Basto,Braga,Norte,-8.03288,41.45841,Resolução/Conclusão
26033944,Balugães,Cávado,309,2025-09-23T16:15:00Z,26033944,Em Resolução/Conclusão,3103,Incêndio rural,0,7,0,27,2025-09-23T16:15:00Z,Barcelos,Braga,Norte,-8.634918,41.651002,Resolução/Conclusão
26034146,Negrões,Alto Tâmega e Barroso,309,2025-09-23T17:01:00Z,26034146,Em Curso,3103,Incêndio rural,1,3,0,21,2025-09-23T17:01:00Z,Montalegre,Vila Real,Norte,-7.8134,41.737169,Curso
