id,address,subregion,neighborhood,date,id.1,state,nature,nature_description,aerial_means,terrestrial_means,aquatic_means,operational,date.1,Concelho,Distrito,NUTII_DSG,longitude,latitude
25241771,Macinhata do Vouga,Região de Aveiro,310,2025-04-14T21:00:00Z,25241771,Em despacho,3301,Queda de árvore,0,1,0,5,2025-04-14T21:00:00Z,Águeda,Aveiro,Centro,-8.467839,40.673723
25070044,Praia do Ribatejo,Médio Tejo,311,2025-03-10T19:30:00Z,25070044,Em curso,1101,Cheia,0,0,0,0,2025-03-10T19:30:00Z,Vila Nova Da Barquinha,Santarém,Centro,-8.357309,39.485638
25071496,São Manços e São Vicente do Pigeiro,Alentejo Central,312,2025-03-11T13:18:00Z,25071496,Em conclusão,1101,Cheia,0,0,0,0,2025-03-11T13:18:00Z,Évora,Évora,Alentejo,-7.713313,38.513673
25202441,Serpa (Salvador e Santa Maria),Baixo Alentejo,312,2025-04-06T10:25:00Z,25202441,Em conclusão,1101,Cheia,0,0,0,0,2025-04-06T10:25:00Z,Serpa,Beja,Alentejo,-7.555783,37.88592
25241730,Monchique,Algarve,313,2025-04-14T20:49:00Z,25241730,Em curso,3301,Queda de árvore,0,1,0,2,2025-04-14T20:49:00Z,Monchique,Faro,Algarve,-8.560714,37.331589
25241816,Anta e Guetim,Area M. Porto,309,2025-04-14T21:16:00Z,25241816,Em despacho,3301,Queda de árvore,0,1,0,3,2025-04-14T21:16:00Z,Espinho,Aveiro,Norte,-8.614155,41.008103
25068300,Almeirim,Lezíria do Tejo,311,2025-03-10T20:52:00Z,25068300,Em curso,1101,Cheia,0,0,0,0,2025-03-10T20:52:00Z,Almeirim,Santarém,Alentejo,-8.635002,39.187436
