id,address,subregion,neighborhood,date,id.1,state,nature,nature_description,aerial_means,terrestrial_means,aquatic_means,operational,date.1,Concelho,Distrito,NUTII_DSG,longitude,latitude
25512725,Canelas,Area M. Porto,309,2025-06-12T00:05:00Z,25512725,Em conclusão,3103,Incêndio rural,0,1,0,6,2025-06-12T00:05:00Z,Vila Nova De Gaia,Porto,Norte,-8.599603,41.079376
25508203,Ermelo e Pardelhas,Ave,309,2025-06-11T07:30:00Z,25508203,Em conclusão,3103,Incêndio rural,0,1,0,5,2025-06-11T07:30:00Z,Mondim De Basto,Vila Real,Norte,-7.842792,41.3582
25512733,Serzedo e Perosinho,Area M. Porto,309,2025-06-12T00:12:00Z,25512733,Em curso,3203,Detritos confinados,0,1,0,5,2025-06-12T00:12:00Z,Vila Nova De Gaia,Porto,Norte,-8.594742,41.064989
25512703,Muro,Area M. Porto,309,2025-06-12T00:04:00Z,25512703,Em curso,3103,Incêndio rural,0,3,0,13,2025-06-12T00:04:00Z,Trofa,Porto,Norte,-8.5878,41.29129
25512719,Alcabideche,Grande Lisboa,311,2025-06-12T00:11:00Z,25512719,Em conclusão,3103,Incêndio rural,0,3,0,12,2025-06-12T00:11:00Z,Cascais,Lisboa,Área Metropolitana De Lisboa,-9.377212,38.72232
25512726,Benedita,Oeste,311,2025-06-12T00:10:00Z,25512726,Em curso,2101,Incêndio em edifícios habitacionais,0,4,0,12,2025-06-12T00:10:00Z,Alcobaça,Leiria,Centro,-8.978683,39.435502
