id,address,subregion,neighborhood,date,id.1,state,nature,nature_description,aerial_means,terrestrial_means,aquatic_means,operational,date.1,Concelho,Distrito,NUTII_DSG,longitude,latitude,state_2
26159689,Casegas e Ourondo,Beiras e Serra da Estrela,310,2025-10-19T11:45:00Z,26159689,Em Resolução/Conclusão,3105,Incêndio rural,0,2,0,5,2025-10-19T11:45:00Z,Covilhã,Castelo Branco,Centro,-7.68118,40.146567,Resolução/Conclusão
26161558,Cardigos,Médio Tejo,311,2025-10-19T19:56:00Z,26161558,Em Despacho,3101,Incêndio rural,0,0,0,0,2025-10-19T19:56:00Z,Mação,Santarém,Centro,-8.048644,39.7226,Despacho
26161471,Pinhal Novo,Península de Setúbal,311,2025-10-19T19:26:00Z,26161471,Em Resolução/Conclusão,3103,Incêndio rural,0,2,0,6,2025-10-19T19:26:00Z,Palmela,Setúbal,Área Metropolitana De Lisboa,-8.94209,38.6232,Resolução/Conclusão
26160929,Caranguejeira,Região de Leiria,310,2025-10-19T16:50:00Z,26160929,Em Resolução/Conclusão,3101,Incêndio rural,0,10,0,41,2025-10-19T16:50:00Z,Leiria,Leiria,Centro,-8.697637,39.726483,Resolução/Conclusão
26161395,Graça,Região de Leiria,310,2025-10-19T19:04:00Z,26161395,Em Resolução/Conclusão,3111,Queima,0,2,0,7,2025-10-19T19:04:00Z,Pedrógão Grande,Leiria,Centro,-8.22687,39.90191,Resolução/Conclusão
