id,address,subregion,neighborhood,date,id.1,state,nature,nature_description,aerial_means,terrestrial_means,aquatic_means,operational,date.1,Concelho,Distrito,NUTII_DSG,longitude,latitude
24850937,"Santa Maria da Feira, Travanca, Sanfins e Espargo",Area M. Porto,309,2025-01-21T19:20:00Z,24850937,Em despacho,3315,Inundação de estruturas por precipitação intensa,0,0,0,0,2025-01-21T19:20:00Z,Santa Maria Da Feira,Aveiro,Norte,-8.558349,40.92593
24850991,"Santa Maria da Feira, Travanca, Sanfins e Espargo",Area M. Porto,309,2025-01-21T19:32:00Z,24850991,Em despacho,3315,Inundação de estruturas por precipitação intensa,0,0,0,0,2025-01-21T19:32:00Z,Santa Maria Da Feira,Aveiro,Norte,-8.53693,40.93173
24851021,"Santa Maria da Feira, Travanca, Sanfins e Espargo",Area M. Porto,309,2025-01-21T19:39:00Z,24851021,Em despacho,3315,Inundação de estruturas por precipitação intensa,0,0,0,0,2025-01-21T19:39:00Z,Santa Maria Da Feira,Aveiro,Norte,-8.57222,40.90922
24851048,São João de Ver,Area M. Porto,309,2025-01-21T19:46:00Z,24851048,Em conclusão,3315,Inundação de estruturas por precipitação intensa,0,0,0,0,2025-01-21T19:46:00Z,Santa Maria Da Feira,Aveiro,Norte,-8.548254,40.94639
24851146,Lourosa,Area M. Porto,309,2025-01-21T20:15:00Z,24851146,Em despacho,3315,Inundação de estruturas por precipitação intensa,0,0,0,0,2025-01-21T20:15:00Z,Santa Maria Da Feira,Aveiro,Norte,-8.53787,40.98959
24851391,Paramos,Area M. Porto,309,2025-01-21T21:25:00Z,24851391,Em curso,3315,Inundação de estruturas por precipitação intensa,0,3,0,7,2025-01-21T21:25:00Z,Espinho,Aveiro,Norte,-8.62854,40.97691
24850899,"Santa Maria da Feira, Travanca, Sanfins e Espargo",Area M. Porto,309,2025-01-21T19:11:00Z,24850899,Em despacho,3315,Inundação de estruturas por precipitação intensa,0,0,0,0,2025-01-21T19:11:00Z,Santa Maria Da Feira,Aveiro,Norte,-8.562675,40.92113
24851006,São João de Ver,Area M. Porto,309,2025-01-21T19:36:00Z,24851006,Em despacho,3315,Inundação de estruturas por precipitação intensa,0,0,0,0,2025-01-21T19:36:00Z,Santa Maria Da Feira,Aveiro,Norte,-8.55052,40.95168
24851056,"Santa Maria da Feira, Travanca, Sanfins e Espargo",Area M. Porto,309,2025-01-21T19:48:00Z,24851056,Em despacho,3301,Queda de árvore,0,0,0,0,2025-01-21T19:48:00Z,Santa Maria Da Feira,Aveiro,Norte,-8.57722,40.89764
24851088,"Santa Maria da Feira, Travanca, Sanfins e Espargo",Area M. Porto,309,2025-01-21T19:59:00Z,24851088,Em despacho,3315,Inundação de estruturas por precipitação intensa,0,0,0,0,2025-01-21T19:59:00Z,Santa Maria Da Feira,Aveiro,Norte,-8.58146,40.91809
24851183,Maceda,Região de Aveiro,310,2025-01-21T20:25:00Z,24851183,Em despacho,1101,Cheia,0,1,0,2,2025-01-21T20:25:00Z,Ovar,Aveiro,Centro,-8.62472,40.92642
24851281,"Aldoar, Foz do Douro e Nevogilde",Area M. Porto,309,2025-01-21T20:44:00Z,24851281,Em despacho,3311,Queda de elementos de estruturas edificados,0,1,0,3,2025-01-21T20:44:00Z,Porto,Porto,Norte,-8.672794,41.152891
24851440,Oliveira do Douro,Area M. Porto,309,2025-01-21T21:31:00Z,24851440,Em despacho,3313,Deslizamento de terras,0,2,0,5,2025-01-21T21:31:00Z,Vila Nova De Gaia,Porto,Norte,-8.585272,41.125484
24851400,Esmoriz,Região de Aveiro,310,2025-01-21T21:19:00Z,24851400,Em despacho,3315,Inundação de estruturas por precipitação intensa,0,1,0,4,2025-01-21T21:19:00Z,Ovar,Aveiro,Centro,-8.637974,40.962156
24851423,Beire,Area M. Porto,309,2025-01-21T21:32:00Z,24851423,Em despacho,3315,Inundação de estruturas por precipitação intensa,0,1,0,2,2025-01-21T21:32:00Z,Paredes,Porto,Norte,-8.31925,41.248553
24851464,Nazaré,Oeste,311,2025-01-21T21:37:00Z,24851464,Em despacho,3315,Inundação de estruturas por precipitação intensa,0,2,0,6,2025-01-21T21:37:00Z,Nazaré,Leiria,Centro,-9.062127,39.596083
24851514,Marrazes e Barosa,Região de Leiria,310,2025-01-21T21:57:00Z,24851514,Em curso,3315,Inundação de estruturas por precipitação intensa,0,1,0,2,2025-01-21T21:57:00Z,Leiria,Leiria,Centro,-8.792418,39.758245
24851541,"Ovar, São João, Arada e São Vicente de Pereira Jusã",Região de Aveiro,310,2025-01-21T22:11:00Z,24851541,Em despacho,3315,Inundação de estruturas por precipitação intensa,0,1,0,2,2025-01-21T22:11:00Z,Ovar,Aveiro,Centro,-8.632482,40.864029
24851548,Marinha Grande,Região de Leiria,310,2025-01-21T21:50:00Z,24851548,Em curso,3315,Inundação de estruturas por precipitação intensa,0,1,0,2,2025-01-21T21:50:00Z,Marinha Grande,Leiria,Centro,-8.94262,39.730274
24846892,Tavira (Santa Maria e Santiago),Algarve,313,2025-01-20T23:37:00Z,24846892,Em curso,3315,Inundação de estruturas por precipitação intensa,0,0,0,0,2025-01-20T23:37:00Z,Tavira,Faro,Algarve,-7.650217,37.141268
24850983,"Santa Maria da Feira, Travanca, Sanfins e Espargo",Area M. Porto,309,2025-01-21T19:31:00Z,24850983,Em despacho,3315,Inundação de estruturas por precipitação intensa,0,0,0,0,2025-01-21T19:31:00Z,Santa Maria Da Feira,Aveiro,Norte,-8.53669,40.93034
24851303,Ramalde,Area M. Porto,309,2025-01-21T20:31:00Z,24851303,Em conclusão,3321,Dano na rede de fornecimento de eletricidade ,0,1,0,5,2025-01-21T20:31:00Z,Porto,Porto,Norte,-8.651472,41.168297
24851419,São Paio de Oleiros,Area M. Porto,309,2025-01-21T20:50:00Z,24851419,Em despacho,3315,Inundação de estruturas por precipitação intensa,0,1,0,2,2025-01-21T20:50:00Z,Santa Maria Da Feira,Aveiro,Norte,-8.596589,40.989344
24851485,"Ovar, São João, Arada e São Vicente de Pereira Jusã",Região de Aveiro,310,2025-01-21T21:45:00Z,24851485,Em despacho,3315,Inundação de estruturas por precipitação intensa,0,1,0,4,2025-01-21T21:45:00Z,Ovar,Aveiro,Centro,-8.632482,40.864029
24851095,São João de Ver,Area M. Porto,309,2025-01-21T20:01:00Z,24851095,Em curso,3315,Inundação de estruturas por precipitação intensa,0,0,0,0,2025-01-21T20:01:00Z,Santa Maria Da Feira,Aveiro,Norte,-8.557357,40.94128
24851310,Esmoriz,Região de Aveiro,310,2025-01-21T20:49:00Z,24851310,Em despacho,3315,Inundação de estruturas por precipitação intensa,0,1,0,3,2025-01-21T20:49:00Z,Ovar,Aveiro,Centro,-8.637974,40.962156
24851396,Paços de Brandão,Area M. Porto,309,2025-01-21T21:25:00Z,24851396,Em despacho,3315,Inundação de estruturas por precipitação intensa,0,0,0,0,2025-01-21T21:25:00Z,Santa Maria Da Feira,Aveiro,Norte,-8.60598,40.97618
24851412,Paranhos,Area M. Porto,309,2025-01-21T21:31:00Z,24851412,Em despacho,3315,Inundação de estruturas por precipitação intensa,0,1,0,4,2025-01-21T21:31:00Z,Porto,Porto,Norte,-8.59325,41.16947
24851483,Corroios,Península de Setúbal,311,2025-01-21T21:47:00Z,24851483,Em despacho,3315,Inundação de estruturas por precipitação intensa,0,1,0,3,2025-01-21T21:47:00Z,Seixal,Setúbal,Área Metropolitana De Lisboa,-9.156509,38.644129
24851499,Massamá e Monte Abraão,Grande Lisboa,311,2025-01-21T21:55:00Z,24851499,Em despacho,3315,Inundação de estruturas por precipitação intensa,0,1,0,6,2025-01-21T21:55:00Z,Sintra,Lisboa,Área Metropolitana De Lisboa,-9.280008,38.753778
24851526,Idães,Tâmega e Sousa,309,2025-01-21T22:06:00Z,24851526,Em despacho,3301,Queda de árvore,0,2,0,4,2025-01-21T22:06:00Z,Felgueiras,Porto,Norte,-8.250216,41.338686
24851533,Oliveira do Douro,Area M. Porto,309,2025-01-21T21:42:00Z,24851533,Em despacho,3315,Inundação de estruturas por precipitação intensa,0,1,0,2,2025-01-21T21:42:00Z,Vila Nova De Gaia,Porto,Norte,-8.585272,41.125484
24851549,"Alto do Seixalinho, Santo André e Verderena",Península de Setúbal,311,2025-01-21T22:07:00Z,24851549,Em despacho,3315,Inundação de estruturas por precipitação intensa,0,1,0,5,2025-01-21T22:07:00Z,Barreiro,Setúbal,Área Metropolitana De Lisboa,-9.056708,38.653969
24851565,Gulpilhares e Valadares,Area M. Porto,309,2025-01-21T22:16:00Z,24851565,Em despacho,3315,Inundação de estruturas por precipitação intensa,0,1,0,2,2025-01-21T22:16:00Z,Vila Nova De Gaia,Porto,Norte,-8.637978,41.084091
24851567,Vila de Cucujães,Area M. Porto,309,2025-01-21T22:00:00Z,24851567,Em despacho,3309,Desabamento de estruturas edificadas,0,1,0,2,2025-01-21T22:00:00Z,Oliveira De Azeméis,Aveiro,Norte,-8.510356,40.871699
24851488,Soutelo de Aguiar,Alto Tâmega e Barroso,309,2025-01-21T21:42:00Z,24851488,Em despacho,3315,Inundação de estruturas por precipitação intensa,0,1,0,5,2025-01-21T21:42:00Z,Vila Pouca De Aguiar,Vila Real,Norte,-7.665087,41.468356
24851501,Marinha Grande,Região de Leiria,310,2025-01-21T21:58:00Z,24851501,Em despacho,3315,Inundação de estruturas por precipitação intensa,0,0,0,0,2025-01-21T21:58:00Z,Marinha Grande,Leiria,Centro,-8.937219,39.767238
24851521,"Alto do Seixalinho, Santo André e Verderena",Península de Setúbal,311,2025-01-21T22:06:00Z,24851521,Em despacho,3315,Inundação de estruturas por precipitação intensa,0,1,0,5,2025-01-21T22:06:00Z,Barreiro,Setúbal,Área Metropolitana De Lisboa,-9.062058,38.66074
24851536,"Alto do Seixalinho, Santo André e Verderena",Península de Setúbal,311,2025-01-21T21:59:00Z,24851536,Em despacho,3315,Inundação de estruturas por precipitação intensa,0,1,0,5,2025-01-21T21:59:00Z,Barreiro,Setúbal,Área Metropolitana De Lisboa,-9.056708,38.653969
24851538,Marinha Grande,Região de Leiria,310,2025-01-21T21:50:00Z,24851538,Em curso,3315,Inundação de estruturas por precipitação intensa,0,1,0,2,2025-01-21T21:50:00Z,Marinha Grande,Leiria,Centro,-8.958105,39.757184
24851553,Souto da Carpalhosa e Ortigosa,Região de Leiria,310,2025-01-21T22:05:00Z,24851553,Em curso,3315,Inundação de estruturas por precipitação intensa,0,1,0,3,2025-01-21T22:05:00Z,Leiria,Leiria,Centro,-8.845857,39.847992
24851585,Santa Maria Maior e Monserrate e Meadela,Alto Minho,309,2025-01-21T22:16:00Z,24851585,Em despacho,3315,Inundação de estruturas por precipitação intensa,0,2,0,4,2025-01-21T22:16:00Z,Viana Do Castelo,Viana Do Castelo,Norte,-8.81652,41.703882
24851574,"Seixal, Arrentela e Aldeia de Paio Pires",Península de Setúbal,311,2025-01-21T22:22:00Z,24851574,Em despacho,3315,Inundação de estruturas por precipitação intensa,0,1,0,3,2025-01-21T22:22:00Z,Seixal,Setúbal,Área Metropolitana De Lisboa,-9.105488,38.64302
24851583,"Seixal, Arrentela e Aldeia de Paio Pires",Península de Setúbal,311,2025-01-21T22:20:00Z,24851583,Em despacho,3315,Inundação de estruturas por precipitação intensa,0,1,0,3,2025-01-21T22:20:00Z,Seixal,Setúbal,Área Metropolitana De Lisboa,-9.105843,38.634653
24851588,"Seixal, Arrentela e Aldeia de Paio Pires",Península de Setúbal,311,2025-01-21T22:22:00Z,24851588,Em despacho,3315,Inundação de estruturas por precipitação intensa,0,1,0,4,2025-01-21T22:22:00Z,Seixal,Setúbal,Área Metropolitana De Lisboa,-9.094891,38.61109
24851480,Pataias e Martingança,Oeste,311,2025-01-21T21:41:00Z,24851480,Em conclusão,3315,Inundação de estruturas por precipitação intensa,0,2,0,5,2025-01-21T21:41:00Z,Alcobaça,Leiria,Centro,-9.005079,39.688392
24851496,Pataias e Martingança,Oeste,311,2025-01-21T21:47:00Z,24851496,Em curso,3315,Inundação de estruturas por precipitação intensa,0,2,0,7,2025-01-21T21:47:00Z,Alcobaça,Leiria,Centro,-9.005079,39.688392
24851511,"Leiria, Pousos, Barreira e Cortes",Região de Leiria,310,2025-01-21T22:00:00Z,24851511,Em curso,3315,Inundação de estruturas por precipitação intensa,0,1,0,5,2025-01-21T22:00:00Z,Leiria,Leiria,Centro,-8.802832,39.749179
24851527,Marinha Grande,Região de Leiria,310,2025-01-21T21:50:00Z,24851527,Em curso,3315,Inundação de estruturas por precipitação intensa,0,1,0,2,2025-01-21T21:50:00Z,Marinha Grande,Leiria,Centro,-8.958105,39.757184
24851544,Santa Eufémia e Boa Vista,Região de Leiria,310,2025-01-21T22:14:00Z,24851544,Em despacho,3315,Inundação de estruturas por precipitação intensa,0,0,0,0,2025-01-21T22:14:00Z,Leiria,Leiria,Centro,-8.777317,39.765535
24851561,Vieira de Leiria,Região de Leiria,310,2025-01-21T22:10:00Z,24851561,Em curso,3315,Inundação de estruturas por precipitação intensa,0,1,0,2,2025-01-21T22:10:00Z,Marinha Grande,Leiria,Centro,-8.929016,39.865463
24851580,Amora,Península de Setúbal,311,2025-01-21T22:10:00Z,24851580,Em despacho,3315,Inundação de estruturas por precipitação intensa,0,1,0,3,2025-01-21T22:10:00Z,Seixal,Setúbal,Área Metropolitana De Lisboa,-9.125264,38.627284
