id,address,subregion,neighborhood,date,id.1,state,nature,nature_description,aerial_means,terrestrial_means,aquatic_means,operational,date.1,Concelho,Distrito,NUTII_DSG,longitude,latitude,state_2
25647385,Castelo Novo,Beiras e Serra da Estrela,310,2025-07-08T15:11:00Z,25647385,Em Resolução/Conclusão,3103,Incêndio rural,0,3,0,10,2025-07-08T15:11:00Z,Fundão,Castelo Branco,Centro,-7.447838,40.023465,Resolução/Conclusão
25650962,Castedo e Cotas,Douro,309,2025-07-09T10:04:00Z,25650962,Em Resolução/Conclusão,3103,Incêndio rural,0,2,0,7,2025-07-09T10:04:00Z,Alijó,Vila Real,Norte,-7.459645,41.212807,Resolução/Conclusão
25651828,Alfena,Area M. Porto,309,2025-07-09T12:32:00Z,25651828,Em Resolução/Conclusão,3103,Incêndio rural,0,3,0,12,2025-07-09T12:32:00Z,Valongo,Porto,Norte,-8.525157,41.225625,Resolução/Conclusão
25652015,Paços de Ferreira,Tâmega e Sousa,309,2025-07-09T13:15:00Z,25652015,Em Resolução/Conclusão,3105,Incêndio rural,0,1,0,5,2025-07-09T13:15:00Z,Paços De Ferreira,Porto,Norte,-8.38098,41.25945,Resolução/Conclusão
25652447,Landal,Oeste,311,2025-07-09T14:27:00Z,25652447,Em Resolução/Conclusão,3101,Incêndio rural,2,24,0,108,2025-07-09T14:27:00Z,Caldas Da Rainha,Leiria,Centro,-9.014505,39.294287,Resolução/Conclusão
25652666,Poceirão e Marateca,Península de Setúbal,311,2025-07-09T15:12:00Z,25652666,Em Resolução/Conclusão,3105,Incêndio rural,1,5,0,21,2025-07-09T15:12:00Z,Palmela,Setúbal,Área Metropolitana De Lisboa,-8.659613,38.567917,Resolução/Conclusão
25646735,Campelo e Ovil,Tâmega e Sousa,309,2025-07-08T13:19:00Z,25646735,Em Resolução/Conclusão,3105,Incêndio rural,0,6,0,22,2025-07-08T13:19:00Z,Baião,Porto,Norte,-8.00404,41.193612,Resolução/Conclusão
25649913,Travanca,Tâmega e Sousa,309,2025-07-09T03:31:00Z,25649913,Em Resolução/Conclusão,3103,Incêndio rural,0,1,0,4,2025-07-09T03:31:00Z,Cinfães,Viseu,Norte,-8.219175,41.043948,Resolução/Conclusão
25651767,Lousã e Vilarinho,Região de Coimbra,310,2025-07-09T12:18:00Z,25651767,Em Resolução/Conclusão,3103,Incêndio rural,0,1,0,2,2025-07-09T12:18:00Z,Lousã,Coimbra,Centro,-8.24861,40.14028,Resolução/Conclusão
25652269,Beja (Salvador e Santa Maria da Feira),Baixo Alentejo,312,2025-07-09T13:57:00Z,25652269,Em Resolução/Conclusão,3103,Incêndio rural,0,1,0,5,2025-07-09T13:57:00Z,Beja,Beja,Alentejo,-7.857487,38.018587,Resolução/Conclusão
25652603,São Romão de Neiva,Alto Minho,309,2025-07-09T14:59:00Z,25652603,Em Resolução/Conclusão,3105,Incêndio rural,0,1,0,5,2025-07-09T14:59:00Z,Viana Do Castelo,Viana Do Castelo,Norte,-8.770052,41.626497,Resolução/Conclusão
25646909,Nespereira,Tâmega e Sousa,309,2025-07-08T13:53:00Z,25646909,Em Resolução/Conclusão,3103,Incêndio rural,0,40,0,131,2025-07-08T13:53:00Z,Cinfães,Viseu,Norte,-8.122663,40.996095,Resolução/Conclusão
25649968,Pussos São Pedro,Região de Leiria,310,2025-07-09T04:38:00Z,25649968,Em Resolução/Conclusão,3103,Incêndio rural,0,3,0,7,2025-07-09T04:38:00Z,Alvaiázere,Leiria,Centro,-8.334062,39.841006,Resolução/Conclusão
25651034,"Aboim, Felgueiras, Gontim e Pedraído",Ave,309,2025-07-09T10:13:00Z,25651034,Em Resolução/Conclusão,3103,Incêndio rural,0,9,0,37,2025-07-09T10:13:00Z,Fafe,Braga,Norte,-8.097062,41.504728,Resolução/Conclusão
25651854,Santo António de Monforte,Alto Tâmega e Barroso,309,2025-07-09T12:39:00Z,25651854,Em Resolução/Conclusão,3103,Incêndio rural,0,11,0,38,2025-07-09T12:39:00Z,Chaves,Vila Real,Norte,-7.38141,41.794737,Resolução/Conclusão
25651970,Lousã e Vilarinho,Região de Coimbra,310,2025-07-09T13:02:00Z,25651970,Em Resolução/Conclusão,3105,Incêndio rural,0,11,0,35,2025-07-09T13:02:00Z,Lousã,Coimbra,Centro,-8.258201,40.115269,Resolução/Conclusão
25652020,Faro (Sé e São Pedro),Algarve,313,2025-07-09T13:10:00Z,25652020,Em Resolução/Conclusão,3103,Incêndio rural,0,0,0,0,2025-07-09T13:10:00Z,Faro,Faro,Algarve,-7.942032,37.01865,Resolução/Conclusão
25652307,Lufrei,Tâmega e Sousa,309,2025-07-09T14:06:00Z,25652307,Em Resolução/Conclusão,3103,Incêndio rural,0,4,0,17,2025-07-09T14:06:00Z,Amarante,Porto,Norte,-8.060562,41.280407,Resolução/Conclusão
25652538,Landim,Ave,309,2025-07-09T14:46:00Z,25652538,Em Resolução/Conclusão,3103,Incêndio rural,0,6,0,27,2025-07-09T14:46:00Z,Vila Nova De Famalicão,Braga,Norte,-8.453057,41.392807,Resolução/Conclusão
25644630,Recezinhos (São Mamede),Tâmega e Sousa,309,2025-07-08T04:33:00Z,25644630,Em Resolução/Conclusão,3103,Incêndio rural,0,4,0,14,2025-07-08T04:33:00Z,Penafiel,Porto,Norte,-8.216673,41.2387,Resolução/Conclusão
25645409,Terena (São Pedro),Alentejo Central,312,2025-07-08T09:22:00Z,25645409,Em Resolução/Conclusão,3103,Incêndio rural,0,76,0,199,2025-07-08T09:22:00Z,Alandroal,Évora,Alentejo,-7.410956,38.623883,Resolução/Conclusão
25647106,Tortosendo,Beiras e Serra da Estrela,310,2025-07-08T14:25:00Z,25647106,Em Resolução/Conclusão,3103,Incêndio rural,0,2,0,7,2025-07-08T14:25:00Z,Covilhã,Castelo Branco,Centro,-7.508533,40.223705,Resolução/Conclusão
25649987,Pedrógão Pequeno,Beira Baixa,310,2025-07-09T05:02:00Z,25649987,Em Resolução/Conclusão,3101,Incêndio rural,0,1,0,5,2025-07-09T05:02:00Z,Sertã,Castelo Branco,Centro,-8.110455,39.900822,Resolução/Conclusão
25651516,Penafiel,Tâmega e Sousa,309,2025-07-09T11:36:00Z,25651516,Em Resolução/Conclusão,3103,Incêndio rural,0,2,0,6,2025-07-09T11:36:00Z,Penafiel,Porto,Norte,-8.263833,41.203645,Resolução/Conclusão
25652275,São João de Lourosa,Viseu Dão Lafões,310,2025-07-09T13:59:00Z,25652275,Em Resolução/Conclusão,3103,Incêndio rural,0,10,0,31,2025-07-09T13:59:00Z,Celorico Da Beira,Guarda,Centro,-7.434252,40.594713,Resolução/Conclusão
25652589,Lustosa e Barrosas (Santo Estêvão),Tâmega e Sousa,309,2025-07-09T15:00:00Z,25652589,Em Resolução/Conclusão,3103,Incêndio rural,0,1,0,5,2025-07-09T15:00:00Z,Lousada,Porto,Norte,-8.320691,41.33856,Resolução/Conclusão
25652625,Monte Redondo e Carreira,Região de Leiria,310,2025-07-09T15:03:00Z,25652625,Em Resolução/Conclusão,3101,Incêndio rural,0,3,0,12,2025-07-09T15:03:00Z,Leiria,Leiria,Centro,-8.84912,39.921913,Resolução/Conclusão
