id,address,subregion,neighborhood,date,id.1,state,nature,nature_description,aerial_means,terrestrial_means,aquatic_means,operational,date.1,Concelho,Distrito,NUTII_DSG,longitude,latitude
25063232,Santa Maria do Castelo e Santiago e Santa Susana,Alentejo Litoral,312,2025-03-09T19:02:00Z,25063232,Em curso,1101,Cheia,0,0,0,0,2025-03-09T19:02:00Z,Alcácer Do Sal,Setúbal,Alentejo,-8.48167,38.29806
25107840,Santo António Dos Olivais,Região de Coimbra,310,2025-03-19T09:27:00Z,25107840,Em despacho,3301,Queda de árvore,0,1,0,2,2025-03-19T09:27:00Z,Coimbra,Coimbra,Centro,-8.408011,40.217307
25108224,Corroios,Península de Setúbal,311,2025-03-19T10:15:00Z,25108224,Em despacho,3301,Queda de árvore,0,1,0,3,2025-03-19T10:15:00Z,Seixal,Setúbal,Área Metropolitana De Lisboa,-9.155796,38.618466
25108355,Adaúfe,Cávado,309,2025-03-19T10:56:00Z,25108355,Em despacho,3301,Queda de árvore,0,1,0,2,2025-03-19T10:56:00Z,Braga,Braga,Norte,-8.408688,41.60222
25108357,"Leiria, Pousos, Barreira e Cortes",Região de Leiria,310,2025-03-19T10:49:00Z,25108357,Em despacho,3301,Queda de árvore,0,0,0,0,2025-03-19T10:49:00Z,Leiria,Leiria,Centro,-8.798838,39.697866
25108372,São Salvador e Santa Maria,Alentejo Litoral,312,2025-03-19T10:40:00Z,25108372,Em resolução,3301,Queda de árvore,0,1,0,5,2025-03-19T10:40:00Z,Odemira,Beja,Alentejo,-8.650536,37.594321
25108492,Cascais e Estoril,Grande Lisboa,311,2025-03-19T11:12:00Z,25108492,Em despacho,3301,Queda de árvore,0,1,0,3,2025-03-19T11:12:00Z,Cascais,Lisboa,Área Metropolitana De Lisboa,-9.398759,38.70391
25059714,Torrão,Alentejo Litoral,312,2025-03-08T22:10:00Z,25059714,Em curso,1101,Cheia,0,2,0,3,2025-03-08T22:10:00Z,Alcácer Do Sal,Setúbal,Alentejo,-8.359133,38.252053
25070044,Praia do Ribatejo,Médio Tejo,311,2025-03-10T19:30:00Z,25070044,Em curso,1101,Cheia,0,0,0,0,2025-03-10T19:30:00Z,Vila Nova Da Barquinha,Santarém,Centro,-8.357309,39.485638
25071496,São Manços e São Vicente do Pigeiro,Alentejo Central,312,2025-03-11T13:18:00Z,25071496,Em curso,1101,Cheia,0,2,0,4,2025-03-11T13:18:00Z,Évora,Évora,Alentejo,-7.713313,38.513673
25096986,São Teotónio,Alentejo Litoral,312,2025-03-16T22:54:00Z,25096986,Em resolução,3309,Desabamento de estruturas edificadas,0,0,0,0,2025-03-16T22:54:00Z,Odemira,Beja,Alentejo,-8.803445,37.599856
25107663,São Teotónio,Alentejo Litoral,312,2025-03-19T08:56:00Z,25107663,Em conclusão,3301,Queda de árvore,0,3,0,7,2025-03-19T08:56:00Z,Odemira,Beja,Alentejo,-8.714387,37.581017
25107996,Arega,Região de Leiria,310,2025-03-19T09:30:00Z,25107996,Em despacho,3313,Deslizamento de terras,0,1,0,1,2025-03-19T09:30:00Z,Figueiró Dos Vinhos,Leiria,Centro,-8.329272,39.800486
25108199,Couço,Lezíria do Tejo,311,2025-03-19T10:28:00Z,25108199,Em despacho,3301,Queda de árvore,0,1,0,1,2025-03-19T10:28:00Z,Coruche,Santarém,Alentejo,-8.284298,38.990819
25108232,São Domingos de Rana,Grande Lisboa,311,2025-03-19T10:24:00Z,25108232,Em despacho,3329,Queda de estruturas temporárias ou móveis,0,1,0,5,2025-03-19T10:24:00Z,Cascais,Lisboa,Área Metropolitana De Lisboa,-9.340115,38.702729
25108524,"S.julião, N.s. da Anunciada e S. Maria da Graça",Península de Setúbal,311,2025-03-19T11:10:00Z,25108524,Em despacho,3311,Queda de elementos de estruturas edificados,0,2,0,9,2025-03-19T11:10:00Z,Setúbal,Setúbal,Área Metropolitana De Lisboa,-8.889983,38.529955
25108559,"Oeiras e S. Julião da Barra, Paço de Arcos e Caxias",Grande Lisboa,311,2025-03-19T11:22:00Z,25108559,Em despacho,3301,Queda de árvore,0,1,0,5,2025-03-19T11:22:00Z,Oeiras,Lisboa,Área Metropolitana De Lisboa,-9.310159,38.698531
25108233,Caparica e Trafaria,Península de Setúbal,311,2025-03-19T10:27:00Z,25108233,Em despacho,3311,Queda de elementos de estruturas edificados,0,1,0,4,2025-03-19T10:27:00Z,Almada,Setúbal,Área Metropolitana De Lisboa,-9.198172,38.665376
25108247,Mafra,Grande Lisboa,311,2025-03-19T10:26:00Z,25108247,Em despacho,3301,Queda de árvore,0,1,0,2,2025-03-19T10:26:00Z,Mafra,Lisboa,Área Metropolitana De Lisboa,-9.350553,38.97825
25108330,Ansião,Região de Leiria,310,2025-03-19T10:44:00Z,25108330,Em curso,3309,Desabamento de estruturas edificadas,0,2,0,6,2025-03-19T10:44:00Z,Ansião,Leiria,Centro,-8.42791,39.929967
25108332,Bonfim,Area M. Porto,309,2025-03-19T10:51:00Z,25108332,Em despacho,3329,Queda de estruturas temporárias ou móveis,0,1,0,5,2025-03-19T10:51:00Z,Porto,Porto,Norte,-8.59489,41.15569
25108550,Benfica do Ribatejo,Lezíria do Tejo,311,2025-03-19T11:29:00Z,25108550,Em despacho,3301,Queda de árvore,0,0,0,0,2025-03-19T11:29:00Z,Almeirim,Santarém,Alentejo,-8.67513,39.15265
25068300,Almeirim,Lezíria do Tejo,311,2025-03-10T20:52:00Z,25068300,Em curso,1101,Cheia,0,0,0,0,2025-03-10T20:52:00Z,Almeirim,Santarém,Alentejo,-8.635002,39.187436
25087870,Luzianes-Gare,Alentejo Litoral,312,2025-03-14T18:49:00Z,25087870,Em despacho,3313,Deslizamento de terras,0,1,0,1,2025-03-14T18:49:00Z,Odemira,Beja,Alentejo,-8.48633,37.589522
25107919,Peniche,Oeste,311,2025-03-19T09:35:00Z,25107919,Em curso,3321,Dano na rede de fornecimento de eletricidade ,0,3,0,12,2025-03-19T09:35:00Z,Peniche,Leiria,Centro,-9.376833,39.357166
25108026,São João Das Lampas e Terrugem,Grande Lisboa,311,2025-03-19T10:01:00Z,25108026,Em conclusão,3301,Queda de árvore,0,1,0,4,2025-03-19T10:01:00Z,Sintra,Lisboa,Área Metropolitana De Lisboa,-9.442718,38.844843
25108210,Amora,Península de Setúbal,311,2025-03-19T10:23:00Z,25108210,Em curso,3301,Queda de árvore,0,1,0,4,2025-03-19T10:23:00Z,Seixal,Setúbal,Área Metropolitana De Lisboa,-9.134274,38.614596
25087162,Pedrógão,Baixo Alentejo,312,2025-03-14T17:00:00Z,25087162,Em curso,1101,Cheia,0,1,0,2,2025-03-14T17:00:00Z,Vidigueira,Beja,Alentejo,-7.630327,38.110775
25108079,São João Das Lampas e Terrugem,Grande Lisboa,311,2025-03-19T09:49:00Z,25108079,Em curso,3329,Queda de estruturas temporárias ou móveis,0,1,0,2,2025-03-19T09:49:00Z,Sintra,Lisboa,Área Metropolitana De Lisboa,-9.381686,38.911266
25108118,Charneca de Caparica e Sobreda,Península de Setúbal,311,2025-03-19T10:18:00Z,25108118,Em curso,3329,Queda de estruturas temporárias ou móveis,0,3,0,8,2025-03-19T10:18:00Z,Almada,Setúbal,Área Metropolitana De Lisboa,-9.18525,38.65289
25108360,Rio de Mouro,Grande Lisboa,311,2025-03-19T10:56:00Z,25108360,Em curso,3301,Queda de árvore,0,2,0,6,2025-03-19T10:56:00Z,Sintra,Lisboa,Área Metropolitana De Lisboa,-9.34821,38.7515
25108403,Miragaia e Marteleira,Oeste,311,2025-03-19T10:35:00Z,25108403,Em despacho,3321,Dano na rede de fornecimento de eletricidade ,0,1,0,3,2025-03-19T10:35:00Z,Lourinhã,Lisboa,Centro,-9.273663,39.219518
25108428,Vila Franca de Xira,Grande Lisboa,311,2025-03-19T11:06:00Z,25108428,Em despacho,3301,Queda de árvore,0,1,0,4,2025-03-19T11:06:00Z,Vila Franca De Xira,Lisboa,Área Metropolitana De Lisboa,-8.99116,38.97205
25108444,Alvoco da Serra,Beiras e Serra da Estrela,310,2025-03-19T11:05:00Z,25108444,Em despacho,3301,Queda de árvore,0,1,0,4,2025-03-19T11:05:00Z,Seia,Guarda,Centro,-7.669138,40.295456
25108453,Marinha Grande,Região de Leiria,310,2025-03-19T10:58:00Z,25108453,Em despacho,3311,Queda de elementos de estruturas edificados,0,1,0,2,2025-03-19T10:58:00Z,Marinha Grande,Leiria,Centro,-8.958105,39.757184
25108469,Almaceda,Beira Baixa,310,2025-03-19T11:08:00Z,25108469,Em despacho,3301,Queda de árvore,0,2,0,4,2025-03-19T11:08:00Z,Castelo Branco,Castelo Branco,Centro,-7.66257,39.969022
