id,address,subregion,neighborhood,date,id.1,state,nature,nature_description,aerial_means,terrestrial_means,aquatic_means,operational,date.1,Concelho,Distrito,NUTII_DSG,longitude,latitude
24923464,Espinhosela,Terras de Trás-os-Montes,309,2025-02-06T14:20:00Z,24923464,Em despacho,3301,Queda de árvore,0,2,0,3,2025-02-06T14:20:00Z,Bragança,Bragança,Norte,-6.845617,41.865457
24877003,Malagueira e Horta Das Figueiras,Alentejo Central,312,2025-01-27T11:41:00Z,24877003,Em conclusão,3315,Inundação de estruturas por precipitação intensa,0,0,0,0,2025-01-27T11:41:00Z,Évora,Évora,Alentejo,-7.924277,38.57285
24924147,Santo António Dos Olivais,Região de Coimbra,310,2025-02-06T16:37:00Z,24924147,Em despacho,3301,Queda de árvore,0,1,0,3,2025-02-06T16:37:00Z,Coimbra,Coimbra,Centro,-8.392801,40.233553
24921947,Montalegre e Padroso,Alto Tâmega e Barroso,309,2025-02-06T09:22:00Z,24921947,Em despacho,3301,Queda de árvore,0,1,0,2,2025-02-06T09:22:00Z,Montalegre,Vila Real,Norte,-7.805737,41.826281
24924128,"S.pedro e Santiago, S.maria e S.miguel e Matacães",Oeste,311,2025-02-06T16:29:00Z,24924128,Em despacho,3321,Dano na rede de fornecimento de eletricidade ,0,1,0,2,2025-02-06T16:29:00Z,Torres Vedras,Lisboa,Centro,-9.277012,39.069067
