id,address,subregion,neighborhood,date,id.1,state,nature,nature_description,aerial_means,terrestrial_means,aquatic_means,operational,date.1,Concelho,Distrito,NUTII_DSG,longitude,latitude,state_2
25749937,Tarouquela,Tâmega e Sousa,309,2025-07-29T04:11:00Z,25749937,Em Curso,3103,Incêndio rural,0,11,0,38,2025-07-29T04:11:00Z,Cinfães,Viseu,Norte,-8.173308,41.072792,Curso
25750444,Pedrógão Grande,Região de Leiria,310,2025-07-29T08:31:00Z,25750444,Em Resolução/Conclusão,3101,Incêndio rural,0,0,0,0,2025-07-29T08:31:00Z,Pedrógão Grande,Leiria,Centro,-8.177567,39.933038,Resolução/Conclusão
25751046,Castelejo,Beiras e Serra da Estrela,310,2025-07-29T10:13:00Z,25751046,Em Resolução/Conclusão,3103,Incêndio rural,0,13,0,41,2025-07-29T10:13:00Z,Fundão,Castelo Branco,Centro,-7.604291,40.108879,Resolução/Conclusão
25751241,Molelos,Viseu Dão Lafões,310,2025-07-29T10:43:00Z,25751241,Em Resolução/Conclusão,3103,Incêndio rural,1,40,0,133,2025-07-29T10:43:00Z,Tondela,Viseu,Centro,-8.105978,40.526523,Resolução/Conclusão
25751355,"Crato e Mártires, Flor da Rosa e Vale do Peso",Alto Alentejo,312,2025-07-29T10:59:00Z,25751355,Em Resolução/Conclusão,3103,Incêndio rural,0,3,0,9,2025-07-29T10:59:00Z,Crato,Portalegre,Alentejo,-7.641857,39.351982,Resolução/Conclusão
25751848,Esperança,Alto Alentejo,312,2025-07-29T12:17:00Z,25751848,Em Resolução/Conclusão,3105,Incêndio rural,0,0,0,0,2025-07-29T12:17:00Z,Arronches,Portalegre,Alentejo,-7.169372,39.158087,Resolução/Conclusão
25751893,"Espírito Santo, Nossa Senhora da Graça e São Simão",Alto Alentejo,312,2025-07-29T12:32:00Z,25751893,Em Curso,3101,Incêndio rural,3,106,0,332,2025-07-29T12:32:00Z,Nisa,Portalegre,Alentejo,-7.634827,39.571162,Curso
25752470,"Pinheiro da Bemposta, Travanca e Palmaz",Area M. Porto,309,2025-07-29T14:14:00Z,25752470,Em Resolução/Conclusão,3103,Incêndio rural,0,2,0,7,2025-07-29T14:14:00Z,Oliveira De Azeméis,Aveiro,Norte,-8.478028,40.814169,Resolução/Conclusão
25752984,São Jorge e Ermelo,Alto Minho,309,2025-07-29T15:53:00Z,25752984,Em Resolução/Conclusão,3103,Incêndio rural,0,2,0,9,2025-07-29T15:53:00Z,Arcos De Valdevez,Viana Do Castelo,Norte,-8.371373,41.82823,Resolução/Conclusão
25753170,"Leiria, Pousos, Barreira e Cortes",Região de Leiria,310,2025-07-29T16:36:00Z,25753170,Em Resolução/Conclusão,3101,Incêndio rural,0,34,0,118,2025-07-29T16:36:00Z,Leiria,Leiria,Centro,-8.795755,39.709552,Resolução/Conclusão
25749681,Fornos de Maceira Dão,Viseu Dão Lafões,310,2025-07-29T01:19:00Z,25749681,Em Resolução/Conclusão,3103,Incêndio rural,1,22,0,76,2025-07-29T01:19:00Z,Mangualde,Viseu,Centro,-7.806963,40.617022,Resolução/Conclusão
25749831,Valdreu,Cávado,309,2025-07-29T02:54:00Z,25749831,Em Resolução/Conclusão,3103,Incêndio rural,0,1,0,4,2025-07-29T02:54:00Z,Vila Verde,Braga,Norte,-8.326492,41.720598,Resolução/Conclusão
25750701,Capela,Tâmega e Sousa,309,2025-07-29T09:26:00Z,25750701,Em Curso,3103,Incêndio rural,3,59,0,211,2025-07-29T09:26:00Z,Penafiel,Porto,Norte,-8.345202,41.09353,Curso
25752055,Lustosa e Barrosas (Santo Estêvão),Tâmega e Sousa,309,2025-07-29T13:10:00Z,25752055,Em Resolução/Conclusão,3103,Incêndio rural,0,1,0,5,2025-07-29T13:10:00Z,Lousada,Porto,Norte,-8.311118,41.329985,Resolução/Conclusão
25753039,Meinedo,Tâmega e Sousa,309,2025-07-29T16:08:00Z,25753039,Em Resolução/Conclusão,3103,Incêndio rural,0,2,0,4,2025-07-29T16:08:00Z,Lousada,Porto,Norte,-8.248048,41.255415,Resolução/Conclusão
25753057,"Manique do Intendente, V. N. de São Pedro e Maçussa",Lezíria do Tejo,311,2025-07-29T16:16:00Z,25753057,Em Resolução/Conclusão,3103,Incêndio rural,0,0,0,0,2025-07-29T16:16:00Z,Azambuja,Lisboa,Alentejo,-8.89402,39.22086,Resolução/Conclusão
25753240,Vilarinho,Area M. Porto,309,2025-07-29T16:40:00Z,25753240,Em Resolução/Conclusão,3103,Incêndio rural,0,1,0,5,2025-07-29T16:40:00Z,Santo Tirso,Porto,Norte,-8.364863,41.35079,Resolução/Conclusão
25753391,São Mamede,Região de Leiria,310,2025-07-29T17:16:00Z,25753391,Em Resolução/Conclusão,3101,Incêndio rural,0,4,0,10,2025-07-29T17:16:00Z,Batalha,Leiria,Centro,-8.729481,39.62952,Resolução/Conclusão
25753460,Abedim,Alto Minho,309,2025-07-29T17:32:00Z,25753460,Em Resolução/Conclusão,3103,Incêndio rural,0,3,0,8,2025-07-29T17:32:00Z,Monção,Viana Do Castelo,Norte,-8.498903,41.971523,Resolução/Conclusão
25753270,Fragoso,Cávado,309,2025-07-29T16:55:00Z,25753270,Em Resolução/Conclusão,3105,Incêndio rural,0,2,0,7,2025-07-29T16:55:00Z,Barcelos,Braga,Norte,-8.70318,41.61306,Resolução/Conclusão
25753413,NA,NA,0,2025-07-29T17:24:00Z,25753413,Em Resolução/Conclusão,3103,Incêndio rural,5,9,0,34,2025-07-29T17:24:00Z,NA,NA,NA,-7.174515,41.981648,Resolução/Conclusão
25753697,Alvega e Concavada,Médio Tejo,311,2025-07-29T18:28:00Z,25753697,Em Resolução/Conclusão,3103,Incêndio rural,0,8,0,28,2025-07-29T18:28:00Z,Abrantes,Santarém,Centro,-8.110042,39.45495,Resolução/Conclusão
25753770,"Canedo, Vale e Vila Maior",Area M. Porto,309,2025-07-29T18:47:00Z,25753770,Em Resolução/Conclusão,3103,Incêndio rural,0,2,0,7,2025-07-29T18:47:00Z,Santa Maria Da Feira,Aveiro,Norte,-8.47648,41.00715,Resolução/Conclusão
25753640,Parceiros e Azoia,Região de Leiria,310,2025-07-29T18:12:00Z,25753640,Em Resolução/Conclusão,3101,Incêndio rural,0,3,0,11,2025-07-29T18:12:00Z,Leiria,Leiria,Centro,-8.851415,39.71009,Resolução/Conclusão
25753877,"Almargem do Bispo, Pêro Pinheiro e Montelavar",Grande Lisboa,311,2025-07-29T19:05:00Z,25753877,Em Resolução/Conclusão,3103,Incêndio rural,0,3,0,9,2025-07-29T19:05:00Z,Sintra,Lisboa,Área Metropolitana De Lisboa,-9.335142,38.855192,Resolução/Conclusão
25753995,Poceirão e Marateca,Península de Setúbal,311,2025-07-29T19:41:00Z,25753995,Em Despacho,3103,Incêndio rural,0,1,0,5,2025-07-29T19:41:00Z,Palmela,Setúbal,Área Metropolitana De Lisboa,-8.756225,38.57022,Despacho
25747334,Aboim da Nóbrega e Gondomar,Cávado,309,2025-07-28T15:08:00Z,25747334,Em Resolução/Conclusão,3103,Incêndio rural,0,4,0,13,2025-07-28T15:08:00Z,Vila Verde,Braga,Norte,-8.38607,41.734402,Resolução/Conclusão
25748118,Canelas e Espiunca,Area M. Porto,309,2025-07-28T17:16:00Z,25748118,Em Curso,3101,Incêndio rural,5,257,0,747,2025-07-28T17:16:00Z,Arouca,Aveiro,Norte,-8.212231,40.969918,Curso
25748672,Sopo,Alto Minho,309,2025-07-28T20:07:00Z,25748672,Em Resolução/Conclusão,3103,Incêndio rural,0,2,0,8,2025-07-28T20:07:00Z,Vila Nova De Cerveira,Viana Do Castelo,Norte,-8.76152,41.888527,Resolução/Conclusão
25749320,Rebordões (Santa Maria),Alto Minho,309,2025-07-28T22:47:00Z,25749320,Em Curso,3103,Incêndio rural,1,57,0,193,2025-07-28T22:47:00Z,Ponte De Lima,Viana Do Castelo,Norte,-8.588365,41.729993,Curso
25749641,Silva Escura e Dornelas,Região de Aveiro,310,2025-07-29T01:02:00Z,25749641,Em Resolução/Conclusão,3101,Incêndio rural,1,30,0,88,2025-07-29T01:02:00Z,Sever Do Vouga,Aveiro,Centro,-8.399623,40.769354,Resolução/Conclusão
25749824,Santa Marinha do Zêzere,Tâmega e Sousa,309,2025-07-29T02:46:00Z,25749824,Em Resolução/Conclusão,3103,Incêndio rural,0,14,0,43,2025-07-29T02:46:00Z,Baião,Porto,Norte,-7.949183,41.161627,Resolução/Conclusão
25752765,São Jorge e Ermelo,Alto Minho,309,2025-07-29T15:12:00Z,25752765,Em Resolução/Conclusão,3103,Incêndio rural,0,0,0,0,2025-07-29T15:12:00Z,Arcos De Valdevez,Viana Do Castelo,Norte,-8.364287,41.826252,Resolução/Conclusão
25752981,Associação de Freguesias do Vale do Neiva,Alto Minho,309,2025-07-29T15:52:00Z,25752981,Em Resolução/Conclusão,3103,Incêndio rural,0,2,0,6,2025-07-29T15:52:00Z,Ponte De Lima,Viana Do Castelo,Norte,-8.56303,41.629977,Resolução/Conclusão
25753134,Glória,Alentejo Central,312,2025-07-29T16:26:00Z,25753134,Em Resolução/Conclusão,3105,Incêndio rural,1,20,0,60,2025-07-29T16:26:00Z,Estremoz,Évora,Alentejo,-7.5567,38.793148,Resolução/Conclusão
25753349,Bustelo,Tâmega e Sousa,309,2025-07-29T16:52:00Z,25753349,Em Resolução/Conclusão,3103,Incêndio rural,0,0,0,0,2025-07-29T16:52:00Z,Penafiel,Porto,Norte,-8.277451,41.229705,Resolução/Conclusão
25753498,Faiões,Alto Tâmega e Barroso,309,2025-07-29T17:38:00Z,25753498,Em Resolução/Conclusão,3103,Incêndio rural,0,3,0,8,2025-07-29T17:38:00Z,Chaves,Vila Real,Norte,-7.434952,41.750552,Resolução/Conclusão
25738747,Lindoso,Alto Minho,309,2025-07-26T21:47:00Z,25738747,Em Curso,3103,Incêndio rural,2,134,0,414,2025-07-26T21:47:00Z,Ponte Da Barca,Viana Do Castelo,Norte,-8.220528,41.865272,Curso
25741880,Benavila e Valongo,Alto Alentejo,312,2025-07-27T14:31:00Z,25741880,Em Resolução/Conclusão,3101,Incêndio rural,0,1,0,4,2025-07-27T14:31:00Z,Avis,Portalegre,Alentejo,-7.866293,39.19533,Resolução/Conclusão
25747773,Aranhas,Beira Baixa,310,2025-07-28T16:36:00Z,25747773,Em Curso,3103,Incêndio rural,2,130,0,388,2025-07-28T16:36:00Z,Penamacor,Castelo Branco,Centro,-7.14438,40.117542,Curso
25749611,Sameice e Santa Eulália,Beiras e Serra da Estrela,310,2025-07-29T00:44:00Z,25749611,Em Resolução/Conclusão,3103,Incêndio rural,0,4,0,17,2025-07-29T00:44:00Z,Seia,Guarda,Centro,-7.77621,40.42021,Resolução/Conclusão
25750845,Fornos,Tâmega e Sousa,309,2025-07-29T09:46:00Z,25750845,Em Curso,3103,Incêndio rural,0,13,0,49,2025-07-29T09:46:00Z,Castelo De Paiva,Aveiro,Norte,-8.247077,41.050502,Curso
25751999,Pombal,Região de Leiria,310,2025-07-29T12:53:00Z,25751999,Em Resolução/Conclusão,3101,Incêndio rural,0,7,0,21,2025-07-29T12:53:00Z,Pombal,Leiria,Centro,-8.6801,39.93227,Resolução/Conclusão
25752083,Alcanede,Lezíria do Tejo,311,2025-07-29T13:12:00Z,25752083,Em Curso,3103,Incêndio rural,5,105,0,339,2025-07-29T13:12:00Z,Santarém,Santarém,Alentejo,-8.802682,39.405543,Curso
25752299,Vale de Anta,Alto Tâmega e Barroso,309,2025-07-29T13:52:00Z,25752299,Em Resolução/Conclusão,3101,Incêndio rural,0,3,0,15,2025-07-29T13:52:00Z,Chaves,Vila Real,Norte,-7.496488,41.745175,Resolução/Conclusão
25752719,Poiares e Canelas,Douro,309,2025-07-29T15:02:00Z,25752719,Em Resolução/Conclusão,3103,Incêndio rural,0,2,0,7,2025-07-29T15:02:00Z,Peso Da Régua,Vila Real,Norte,-7.725132,41.1933,Resolução/Conclusão
25752828,Monsaraz,Alentejo Central,312,2025-07-29T15:22:00Z,25752828,Em Resolução/Conclusão,3103,Incêndio rural,0,14,0,51,2025-07-29T15:22:00Z,Reguengos De Monsaraz,Évora,Alentejo,-7.387908,38.43499,Resolução/Conclusão
25753126,Oliveira do Douro,Tâmega e Sousa,309,2025-07-29T16:26:00Z,25753126,Em Resolução/Conclusão,3103,Incêndio rural,0,1,0,5,2025-07-29T16:26:00Z,Cinfães,Viseu,Norte,-8.06658,41.08264,Resolução/Conclusão
25753666,São Cristóvão de Nogueira,Tâmega e Sousa,309,2025-07-29T18:21:00Z,25753666,Em Curso,3103,Incêndio rural,1,6,0,23,2025-07-29T18:21:00Z,Cinfães,Viseu,Norte,-8.134771,41.05519,Curso
25753769,Azambuja,Lezíria do Tejo,311,2025-07-29T18:50:00Z,25753769,Em Resolução/Conclusão,3103,Incêndio rural,0,5,0,15,2025-07-29T18:50:00Z,Azambuja,Lisboa,Alentejo,-8.892847,39.109513,Resolução/Conclusão
25753886,São Facundo e Vale Das Mós,Médio Tejo,311,2025-07-29T19:15:00Z,25753886,Em Resolução/Conclusão,3103,Incêndio rural,0,8,0,32,2025-07-29T19:15:00Z,Abrantes,Santarém,Centro,-8.10227,39.34011,Resolução/Conclusão
25753916,Escariz,Area M. Porto,309,2025-07-29T19:21:00Z,25753916,Em Resolução/Conclusão,3101,Incêndio rural,0,4,0,14,2025-07-29T19:21:00Z,Arouca,Aveiro,Norte,-8.41218,40.938614,Resolução/Conclusão
25754052,Valado Dos Frades,Oeste,311,2025-07-29T19:53:00Z,25754052,Em Despacho,3105,Incêndio rural,0,1,0,2,2025-07-29T19:53:00Z,Nazaré,Leiria,Centro,-9.041021,39.584542,Despacho
25753471,Vila Boa do Bispo,Tâmega e Sousa,309,2025-07-29T17:38:00Z,25753471,Em Resolução/Conclusão,3103,Incêndio rural,0,1,0,6,2025-07-29T17:38:00Z,Marco De Canaveses,Porto,Norte,-8.19786,41.126218,Resolução/Conclusão
25753605,Melres e Medas,Area M. Porto,309,2025-07-29T18:06:00Z,25753605,Em Resolução/Conclusão,3103,Incêndio rural,1,1,0,11,2025-07-29T18:06:00Z,Gondomar,Porto,Norte,-8.417228,41.06875,Resolução/Conclusão
