id,address,subregion,neighborhood,date,id.1,state,nature,nature_description,aerial_means,terrestrial_means,aquatic_means,operational,date.1,Concelho,Distrito,NUTII_DSG,longitude,latitude,state_2
26134710,Dornelas,Alto Tâmega e Barroso,309,2025-10-14T10:34:00Z,26134710,Em Resolução/Conclusão,3103,Incêndio rural,0,2,0,10,2025-10-14T10:34:00Z,Boticas,Vila Real,Norte,-7.850045,41.67118,Resolução/Conclusão
26135448,São Gens,Ave,309,2025-10-14T12:42:00Z,26135448,Em Resolução/Conclusão,3103,Incêndio rural,0,3,0,15,2025-10-14T12:42:00Z,Fafe,Braga,Norte,-8.108138,41.438833,Resolução/Conclusão
26135613,Calvos e Frades,Ave,309,2025-10-14T13:10:00Z,26135613,Em Resolução/Conclusão,3103,Incêndio rural,0,1,0,5,2025-10-14T13:10:00Z,Póvoa De Lanhoso,Braga,Norte,-8.247523,41.613493,Resolução/Conclusão
26135730,Carvalhal,Oeste,311,2025-10-14T13:38:00Z,26135730,Em Resolução/Conclusão,3103,Incêndio rural,0,3,0,9,2025-10-14T13:38:00Z,Bombarral,Leiria,Centro,-9.1338,39.28001,Resolução/Conclusão
26135898,São Martinho Das Moitas e Covas do Rio,Viseu Dão Lafões,310,2025-10-14T14:08:00Z,26135898,Em Resolução/Conclusão,3103,Incêndio rural,2,6,0,39,2025-10-14T14:08:00Z,São Pedro Do Sul,Viseu,Centro,-8.077023,40.924037,Resolução/Conclusão
26130196,Sardoal,Médio Tejo,311,2025-10-13T11:45:00Z,26130196,Em Resolução/Conclusão,3101,Incêndio rural,0,2,0,8,2025-10-13T11:45:00Z,Sardoal,Santarém,Centro,-8.118693,39.516055,Resolução/Conclusão
26135976,Bacelo e Senhora da Saúde,Alentejo Central,312,2025-10-14T14:19:00Z,26135976,Em Despacho,3103,Incêndio rural,0,2,0,7,2025-10-14T14:19:00Z,Évora,Évora,Alentejo,-7.912066,38.58679,Despacho
26135609,Ancede e Ribadouro,Tâmega e Sousa,309,2025-10-14T13:16:00Z,26135609,Em Resolução/Conclusão,3105,Incêndio rural,0,2,0,7,2025-10-14T13:16:00Z,Baião,Porto,Norte,-8.062392,41.108955,Resolução/Conclusão
26135768,Venda do Pinheiro e Santo Estêvão Das Galés,Grande Lisboa,311,2025-10-14T13:38:00Z,26135768,Em Resolução/Conclusão,3103,Incêndio rural,0,1,0,5,2025-10-14T13:38:00Z,Mafra,Lisboa,Área Metropolitana De Lisboa,-9.228575,38.925416,Resolução/Conclusão
26136102,São Pedro e Santa Maria e Vila Boa do Mondego,Beiras e Serra da Estrela,310,2025-10-14T14:41:00Z,26136102,Em Resolução/Conclusão,3103,Incêndio rural,0,2,0,7,2025-10-14T14:41:00Z,Celorico Da Beira,Guarda,Centro,-7.414399,40.638664,Resolução/Conclusão
26135104,"Enxara do Bispo, Gradil e Vila Franca do Rosário",Grande Lisboa,311,2025-10-14T11:37:00Z,26135104,Em Resolução/Conclusão,3103,Incêndio rural,0,7,0,21,2025-10-14T11:37:00Z,Mafra,Lisboa,Área Metropolitana De Lisboa,-9.269618,38.968258,Resolução/Conclusão
26135691,Cabanelas,Cávado,309,2025-10-14T13:30:00Z,26135691,Em Resolução/Conclusão,3111,Queima,0,2,0,7,2025-10-14T13:30:00Z,Vila Verde,Braga,Norte,-8.500427,41.595315,Resolução/Conclusão
