id,address,subregion,neighborhood,date,id.1,state,nature,nature_description,aerial_means,terrestrial_means,aquatic_means,operational,date.1,Concelho,Distrito,NUTII_DSG,longitude,latitude,state_2
25445507,Cabeça Gorda,Baixo Alentejo,312,2025-05-29T12:44:00Z,25445507,Em resolução/conclusão,3101,Incêndio rural,0,0,0,0,2025-05-29T12:44:00Z,Beja,Beja,Alentejo,-7.811333,37.900468,Em resolução/conclusão
25599361,Chancelaria,Médio Tejo,311,2025-06-29T16:59:00Z,25599361,Em resolução/conclusão,3101,Incêndio rural,0,6,0,17,2025-06-29T16:59:00Z,Torres Novas,Santarém,Centro,-8.54621,39.518782,Em resolução/conclusão
25602519,Cousso,Alto Minho,309,2025-06-30T10:04:00Z,25602519,Em resolução/conclusão,3107,Consolidação de rescaldo de incêndio rural,0,2,0,9,2025-06-30T10:04:00Z,Melgaço,Viana Do Castelo,Norte,-8.27583,42.053508,Em resolução/conclusão
25602886,Duas Igrejas,Tâmega e Sousa,309,2025-06-30T10:48:00Z,25602886,Em despacho,3107,Consolidação de rescaldo de incêndio rural,0,1,0,5,2025-06-30T10:48:00Z,Penafiel,Porto,Norte,-8.278005,41.170128,Em despacho
25603256,Ruivães e Novais,Ave,309,2025-06-30T12:01:00Z,25603256,Em resolução/conclusão,3107,Consolidação de rescaldo de incêndio rural,0,3,0,7,2025-06-30T12:01:00Z,Vila Nova De Famalicão,Braga,Norte,-8.427468,41.39519,Em resolução/conclusão
25603690,Romariz,Area M. Porto,309,2025-06-30T13:23:00Z,25603690,Em resolução/conclusão,3103,Incêndio rural,0,5,0,17,2025-06-30T13:23:00Z,Santa Maria Da Feira,Aveiro,Norte,-8.449163,40.954263,Em resolução/conclusão
25604223,Campos e Louredo,Ave,309,2025-06-30T14:53:00Z,25604223,Em despacho,3107,Consolidação de rescaldo de incêndio rural,0,1,0,5,2025-06-30T14:53:00Z,Póvoa De Lanhoso,Braga,Norte,-8.294605,41.550835,Em despacho
25604307,Ventosa e Cova,Ave,309,2025-06-30T15:06:00Z,25604307,Em despacho,3107,Consolidação de rescaldo de incêndio rural,0,1,0,5,2025-06-30T15:06:00Z,Vieira Do Minho,Braga,Norte,-8.168892,41.676273,Em despacho
25604341,Lustosa e Barrosas (Santo Estêvão),Tâmega e Sousa,309,2025-06-30T15:13:00Z,25604341,Em resolução/conclusão,3103,Incêndio rural,0,2,0,10,2025-06-30T15:13:00Z,Lousada,Porto,Norte,-8.32484,41.34255,Em resolução/conclusão
25604426,Selho (São Cristóvão),Ave,309,2025-06-30T15:26:00Z,25604426,Em curso,3103,Incêndio rural,0,5,0,21,2025-06-30T15:26:00Z,Guimarães,Braga,Norte,-8.350317,41.412065,Em curso
25604527,Orada,Alentejo Central,312,2025-06-30T15:43:00Z,25604527,Em resolução/conclusão,3103,Incêndio rural,0,8,0,27,2025-06-30T15:43:00Z,Borba,Évora,Alentejo,-7.46493,38.835928,Em resolução/conclusão
25602092,Santa Marinha,Alto Tâmega e Barroso,309,2025-06-30T08:59:00Z,25602092,Em curso,3107,Consolidação de rescaldo de incêndio rural,0,3,0,9,2025-06-30T08:59:00Z,Ribeira De Pena,Vila Real,Norte,-7.781975,41.547104,Em curso
25603747,Paços de Ferreira,Tâmega e Sousa,309,2025-06-30T13:22:00Z,25603747,Em resolução/conclusão,3107,Consolidação de rescaldo de incêndio rural,0,2,0,6,2025-06-30T13:22:00Z,Paços De Ferreira,Porto,Norte,-8.370658,41.278172,Em resolução/conclusão
25603965,Cabreiro,Alto Minho,309,2025-06-30T14:10:00Z,25603965,Em resolução/conclusão,3103,Incêndio rural,0,2,0,8,2025-06-30T14:10:00Z,Arcos De Valdevez,Viana Do Castelo,Norte,-8.385903,41.944667,Em resolução/conclusão
25604181,São João de Ver,Area M. Porto,309,2025-06-30T14:45:00Z,25604181,Em resolução/conclusão,3103,Incêndio rural,0,4,0,13,2025-06-30T14:45:00Z,Santa Maria Da Feira,Aveiro,Norte,-8.554135,40.95554,Em resolução/conclusão
25604465,Monte da Pedra,Alto Alentejo,312,2025-06-30T15:33:00Z,25604465,Em resolução/conclusão,3101,Incêndio rural,0,7,0,16,2025-06-30T15:33:00Z,Crato,Portalegre,Alentejo,-7.698517,39.329017,Em resolução/conclusão
25604516,"Silvares, Pias, Nogueira e Alvarenga",Tâmega e Sousa,309,2025-06-30T15:38:00Z,25604516,Em resolução/conclusão,3103,Incêndio rural,0,2,0,4,2025-06-30T15:38:00Z,Lousada,Porto,Norte,-8.265243,41.273413,Em resolução/conclusão
25604566,Quinchães,Ave,309,2025-06-30T15:51:00Z,25604566,Em resolução/conclusão,3103,Incêndio rural,1,2,0,16,2025-06-30T15:51:00Z,Fafe,Braga,Norte,-8.13985,41.4376,Em resolução/conclusão
25604826,"Arga (Baixo, Cima e São João)",Alto Minho,309,2025-06-30T16:38:00Z,25604826,Em despacho,3103,Incêndio rural,1,1,0,9,2025-06-30T16:38:00Z,Caminha,Viana Do Castelo,Norte,-8.719685,41.845078,Em despacho
25604699,São Joaninho,Viseu Dão Lafões,310,2025-06-30T16:16:00Z,25604699,Em resolução/conclusão,3103,Incêndio rural,1,3,0,21,2025-06-30T16:16:00Z,Santa Comba Dão,Viseu,Centro,-8.139014,40.44908,Em resolução/conclusão
25601698,Penamacor,Beira Baixa,310,2025-06-30T07:38:00Z,25601698,Em resolução/conclusão,3101,Incêndio rural,0,5,0,15,2025-06-30T07:38:00Z,Penamacor,Castelo Branco,Centro,-7.081393,40.1962,Em resolução/conclusão
25602673,Castro Verde e Casével,Baixo Alentejo,312,2025-06-30T10:26:00Z,25602673,Em resolução/conclusão,3107,Consolidação de rescaldo de incêndio rural,0,2,0,5,2025-06-30T10:26:00Z,Castro Verde,Beja,Alentejo,-8.080915,37.697259,Em resolução/conclusão
25603543,Alcoentre,Lezíria do Tejo,311,2025-06-30T12:52:00Z,25603543,Em despacho,3109,Gestão de combustível,0,1,0,3,2025-06-30T12:52:00Z,Azambuja,Lisboa,Alentejo,-8.968984,39.206794,Em despacho
25603618,Messejana,Baixo Alentejo,312,2025-06-30T13:09:00Z,25603618,Em curso,3101,Incêndio rural,5,55,0,168,2025-06-30T13:09:00Z,Aljustrel,Beja,Alentejo,-8.169013,37.814978,Em curso
25603684,Vilarinho Dos Freires,Douro,309,2025-06-30T13:15:00Z,25603684,Em despacho,3107,Consolidação de rescaldo de incêndio rural,0,3,0,8,2025-06-30T13:15:00Z,Peso Da Régua,Vila Real,Norte,-7.731495,41.205995,Em despacho
25604086,Alvarenga,Area M. Porto,309,2025-06-30T14:23:00Z,25604086,Em curso,3103,Incêndio rural,8,25,0,101,2025-06-30T14:23:00Z,Arouca,Aveiro,Norte,-8.144899,40.967288,Em curso
25604220,Campo,Viseu Dão Lafões,310,2025-06-30T14:52:00Z,25604220,Em resolução/conclusão,3107,Consolidação de rescaldo de incêndio rural,0,1,0,5,2025-06-30T14:52:00Z,Viseu,Viseu,Centro,-7.95445,40.690428,Em resolução/conclusão
25599357,Alpalhão,Alto Alentejo,312,2025-06-29T16:55:00Z,25599357,Em resolução/conclusão,3103,Incêndio rural,0,15,0,49,2025-06-29T16:55:00Z,Nisa,Portalegre,Alentejo,-7.63684,39.452513,Em resolução/conclusão
25599382,Almaceda,Beira Baixa,310,2025-06-29T17:03:00Z,25599382,Em resolução/conclusão,3101,Incêndio rural,3,51,0,159,2025-06-29T17:03:00Z,Castelo Branco,Castelo Branco,Centro,-7.65644,39.97,Em resolução/conclusão
25601904,Ermelo e Pardelhas,Ave,309,2025-06-30T08:29:00Z,25601904,Em despacho,3107,Consolidação de rescaldo de incêndio rural,0,2,0,7,2025-06-30T08:29:00Z,Mondim De Basto,Vila Real,Norte,-7.835997,41.35894,Em despacho
25602624,Lomba,Area M. Porto,309,2025-06-30T10:19:00Z,25602624,Em resolução/conclusão,3103,Incêndio rural,0,2,0,7,2025-06-30T10:19:00Z,Gondomar,Porto,Norte,-8.408252,41.034001,Em resolução/conclusão
25602783,Romarigães,Alto Minho,309,2025-06-30T10:43:00Z,25602783,Em resolução/conclusão,3101,Incêndio rural,0,2,0,5,2025-06-30T10:43:00Z,Paredes De Coura,Viana Do Castelo,Norte,-8.624152,41.847172,Em resolução/conclusão
25603801,Almodôvar e Graça Dos Padrões,Baixo Alentejo,312,2025-06-30T13:35:00Z,25603801,Em resolução/conclusão,3105,Incêndio rural,0,10,0,23,2025-06-30T13:35:00Z,Almodôvar,Beja,Alentejo,-8.121232,37.544488,Em resolução/conclusão
25604069,Galveias,Alto Alentejo,312,2025-06-30T14:26:00Z,25604069,Em resolução/conclusão,3103,Incêndio rural,0,18,0,47,2025-06-30T14:26:00Z,Ponte De Sor,Portalegre,Alentejo,-8.026567,39.117655,Em resolução/conclusão
25604246,Bustelo,Tâmega e Sousa,309,2025-06-30T14:55:00Z,25604246,Em resolução/conclusão,3103,Incêndio rural,0,5,0,20,2025-06-30T14:55:00Z,Penafiel,Porto,Norte,-8.255573,41.232038,Em resolução/conclusão
25604815,Ferreira do Alentejo e Canhestros,Baixo Alentejo,312,2025-06-30T16:36:00Z,25604815,Em despacho,3103,Incêndio rural,0,0,0,0,2025-06-30T16:36:00Z,Ferreira Do Alentejo,Beja,Alentejo,-8.346359,38.01777,Em despacho
25604845,Alvalade,Alentejo Litoral,312,2025-06-30T16:39:00Z,25604845,Em despacho,3103,Incêndio rural,0,1,0,5,2025-06-30T16:39:00Z,Santiago Do Cacém,Setúbal,Alentejo,-8.393572,37.935731,Em despacho
25604462,Penafiel,Tâmega e Sousa,309,2025-06-30T15:35:00Z,25604462,Em resolução/conclusão,3103,Incêndio rural,0,6,0,16,2025-06-30T15:35:00Z,Penafiel,Porto,Norte,-8.266104,41.21627,Em resolução/conclusão
25604703,Fronteira,Alto Alentejo,312,2025-06-30T16:13:00Z,25604703,Em curso,3105,Incêndio rural,1,11,0,44,2025-06-30T16:13:00Z,Fronteira,Portalegre,Alentejo,-7.697252,39.105406,Em curso
