id,address,subregion,neighborhood,date,id.1,state,nature,nature_description,aerial_means,terrestrial_means,aquatic_means,operational,date.1,Concelho,Distrito,NUTII_DSG,longitude,latitude,state_2
25738728,"S.julião, N.s. da Anunciada e S. Maria da Graça",Península de Setúbal,311,2025-07-26T21:46:00Z,25738728,Em Resolução/Conclusão,3103,Incêndio rural,0,1,0,2,2025-07-26T21:46:00Z,Setúbal,Setúbal,Área Metropolitana De Lisboa,-8.959452,38.515542,Resolução/Conclusão
25739895,Salvador e Santo Aleixo de Além-Tâmega,Alto Tâmega e Barroso,309,2025-07-27T06:13:00Z,25739895,Em Resolução/Conclusão,3103,Incêndio rural,0,4,0,11,2025-07-27T06:13:00Z,Ribeira De Pena,Vila Real,Norte,-7.803693,41.511558,Resolução/Conclusão
25741031,Canha,Península de Setúbal,311,2025-07-27T11:16:00Z,25741031,Em Resolução/Conclusão,3103,Incêndio rural,0,20,0,67,2025-07-27T11:16:00Z,Montijo,Setúbal,Área Metropolitana De Lisboa,-8.631311,38.768258,Resolução/Conclusão
25741084,Moimenta e Montouto,Terras de Trás-os-Montes,309,2025-07-27T11:31:00Z,25741084,Em Resolução/Conclusão,3103,Incêndio rural,0,9,0,28,2025-07-27T11:31:00Z,Vinhais,Bragança,Norte,-6.981822,41.943852,Resolução/Conclusão
25741583,Odiáxere,Algarve,313,2025-07-27T13:23:00Z,25741583,Em Resolução/Conclusão,3103,Incêndio rural,0,0,0,0,2025-07-27T13:23:00Z,Lagos,Faro,Algarve,-8.646198,37.161212,Resolução/Conclusão
25741636,Bucos,Ave,309,2025-07-27T13:39:00Z,25741636,Em Resolução/Conclusão,3103,Incêndio rural,2,14,0,55,2025-07-27T13:39:00Z,Cabeceiras De Basto,Braga,Norte,-8.01849,41.594893,Resolução/Conclusão
25741853,Santa Maria de Sardoura,Tâmega e Sousa,309,2025-07-27T14:24:00Z,25741853,Em Resolução/Conclusão,3105,Incêndio rural,0,5,0,17,2025-07-27T14:24:00Z,Castelo De Paiva,Aveiro,Norte,-8.298503,41.066205,Resolução/Conclusão
25741967,Fatela,Beiras e Serra da Estrela,310,2025-07-27T14:53:00Z,25741967,Em Despacho,3103,Incêndio rural,1,12,0,49,2025-07-27T14:53:00Z,Fundão,Castelo Branco,Centro,-7.429931,40.15838,Despacho
25741985,Assafarge e Antanhol,Região de Coimbra,310,2025-07-27T14:58:00Z,25741985,Em Resolução/Conclusão,3101,Incêndio rural,1,9,0,39,2025-07-27T14:58:00Z,Coimbra,Coimbra,Centro,-8.471196,40.166707,Resolução/Conclusão
25742019,Pinheiro,Tâmega e Sousa,309,2025-07-27T15:07:00Z,25742019,Em Despacho,3103,Incêndio rural,1,2,0,16,2025-07-27T15:07:00Z,Felgueiras,Porto,Norte,-8.14944,41.36607,Despacho
25737026,Penamacor,Beira Baixa,310,2025-07-26T15:29:00Z,25737026,Em Resolução/Conclusão,3103,Incêndio rural,0,3,0,8,2025-07-26T15:29:00Z,Penamacor,Castelo Branco,Centro,-7.164702,40.165298,Resolução/Conclusão
25737642,Aboim da Nóbrega e Gondomar,Cávado,309,2025-07-26T17:54:00Z,25737642,Em Resolução/Conclusão,3103,Incêndio rural,0,9,0,34,2025-07-26T17:54:00Z,Vila Verde,Braga,Norte,-8.38607,41.734402,Resolução/Conclusão
25738060,Sobreira Formosa e Alvito da Beira,Beira Baixa,310,2025-07-26T19:20:00Z,25738060,Em Resolução/Conclusão,3101,Incêndio rural,0,1,0,5,2025-07-26T19:20:00Z,Proença-a-Nova,Castelo Branco,Centro,-7.839395,39.778318,Resolução/Conclusão
25739123,Vale,Alto Minho,309,2025-07-26T23:23:00Z,25739123,Em Resolução/Conclusão,3103,Incêndio rural,0,4,0,16,2025-07-26T23:23:00Z,Arcos De Valdevez,Viana Do Castelo,Norte,-8.374215,41.83279,Resolução/Conclusão
25741361,Carregal do Sal,Viseu Dão Lafões,310,2025-07-27T12:34:00Z,25741361,Em Resolução/Conclusão,3103,Incêndio rural,0,0,0,0,2025-07-27T12:34:00Z,Carregal Do Sal,Viseu,Centro,-8.054787,40.423693,Resolução/Conclusão
25741525,Vela,Beiras e Serra da Estrela,310,2025-07-27T13:16:00Z,25741525,Em Resolução/Conclusão,3103,Incêndio rural,3,25,0,94,2025-07-27T13:16:00Z,Guarda,Guarda,Centro,-7.287277,40.438025,Resolução/Conclusão
25741642,Cimo de Vila da Castanheira,Alto Tâmega e Barroso,309,2025-07-27T13:36:00Z,25741642,Em Resolução/Conclusão,3103,Incêndio rural,0,3,0,12,2025-07-27T13:36:00Z,Chaves,Vila Real,Norte,-7.27483,41.809357,Resolução/Conclusão
25741760,"Caia, São Pedro e Alcáçova",Alto Alentejo,312,2025-07-27T13:59:00Z,25741760,Em Resolução/Conclusão,3105,Incêndio rural,0,3,0,9,2025-07-27T13:59:00Z,Elvas,Portalegre,Alentejo,-7.11918,38.890162,Resolução/Conclusão
25742027,Torrados e Sousa,Tâmega e Sousa,309,2025-07-27T15:15:00Z,25742027,Em Despacho,3103,Incêndio rural,0,2,0,7,2025-07-27T15:15:00Z,Felgueiras,Porto,Norte,-8.234712,41.355808,Despacho
25730832,Aveleda e Rio de Onor,Terras de Trás-os-Montes,309,2025-07-25T12:07:00Z,25730832,Em Resolução/Conclusão,3103,Incêndio rural,0,5,0,19,2025-07-25T12:07:00Z,Bragança,Bragança,Norte,-6.707873,41.891435,Resolução/Conclusão
25738747,Lindoso,Alto Minho,309,2025-07-26T21:47:00Z,25738747,Em Curso,3103,Incêndio rural,1,18,0,58,2025-07-26T21:47:00Z,Ponte Da Barca,Viana Do Castelo,Norte,-8.220528,41.865272,Curso
25739876,Andrães,Douro,309,2025-07-27T06:01:00Z,25739876,Em Resolução/Conclusão,3101,Incêndio rural,0,3,0,12,2025-07-27T06:01:00Z,Vila Real,Vila Real,Norte,-7.6663,41.243117,Resolução/Conclusão
25741169,Cota,Viseu Dão Lafões,310,2025-07-27T11:54:00Z,25741169,Em Resolução/Conclusão,3103,Incêndio rural,0,8,0,22,2025-07-27T11:54:00Z,Viseu,Viseu,Centro,-7.815572,40.816505,Resolução/Conclusão
25741846,"Custóias, Leça do Balio e Guifões",Area M. Porto,309,2025-07-27T14:24:00Z,25741846,Em Resolução/Conclusão,3103,Incêndio rural,0,5,0,17,2025-07-27T14:24:00Z,Matosinhos,Porto,Norte,-8.612769,41.20103,Resolução/Conclusão
25741880,Benavila e Valongo,Alto Alentejo,312,2025-07-27T14:31:00Z,25741880,Em Curso,3105,Incêndio rural,3,18,0,72,2025-07-27T14:31:00Z,Avis,Portalegre,Alentejo,-7.866293,39.19533,Curso
25741921,Caparica e Trafaria,Península de Setúbal,311,2025-07-27T14:40:00Z,25741921,Em Resolução/Conclusão,3103,Incêndio rural,1,5,0,27,2025-07-27T14:40:00Z,Almada,Setúbal,Área Metropolitana De Lisboa,-9.20707,38.67687,Resolução/Conclusão
25741940,"Aldeia do Bispo, Águas e Aldeia de João Pires",Beira Baixa,310,2025-07-27T14:45:00Z,25741940,Em Curso,3103,Incêndio rural,5,19,0,92,2025-07-27T14:45:00Z,Penamacor,Castelo Branco,Centro,-7.213632,40.123598,Curso
25742006,Roge,Area M. Porto,309,2025-07-27T15:03:00Z,25742006,Em Despacho,3103,Incêndio rural,1,1,0,11,2025-07-27T15:03:00Z,Vale De Cambra,Aveiro,Norte,-8.34241,40.86743,Despacho
