id,address,subregion,neighborhood,date,id.1,state,nature,nature_description,aerial_means,terrestrial_means,aquatic_means,operational,date.1,Concelho,Distrito,NUTII_DSG,longitude,latitude
25478482,Sapataria,Oeste,311,2025-06-04T22:59:00Z,25478482,Em conclusão,2101,Incêndio em edifícios habitacionais,0,4,0,11,2025-06-04T22:59:00Z,Sobral De Monte Agraço,Lisboa,Centro,-9.197237,38.988758
25478566,Braga (São Vítor),Cávado,309,2025-06-04T23:35:00Z,25478566,Em resolução,3203,Detritos confinados,0,1,0,5,2025-06-04T23:35:00Z,Braga,Braga,Norte,-8.406451,41.557726
25478625,Portimão,Algarve,313,2025-06-05T00:11:00Z,25478625,Em curso,3203,Detritos confinados,0,1,0,5,2025-06-05T00:11:00Z,Portimão,Faro,Algarve,-8.532608,37.137966
25478504,Paranhos,Area M. Porto,309,2025-06-04T23:14:00Z,25478504,Em curso,2301,Incêndio em transporte rodoviário,0,1,0,5,2025-06-04T23:14:00Z,Porto,Porto,Norte,-8.613518,41.18295
25478589,Campanhã,Area M. Porto,309,2025-06-04T23:45:00Z,25478589,Em despacho,2101,Incêndio em edifícios habitacionais,0,2,0,10,2025-06-04T23:45:00Z,Porto,Porto,Norte,-8.571543,41.154223
