id,address,subregion,neighborhood,date,id.1,state,nature,nature_description,aerial_means,terrestrial_means,aquatic_means,operational,date.1,Concelho,Distrito,NUTII_DSG,longitude,latitude,state_2
26022995,Bordeira,Algarve,313,2025-09-21T12:21:00Z,26022995,Em Resolução/Conclusão,3103,Incêndio rural,0,7,0,22,2025-09-21T12:21:00Z,Aljezur,Faro,Algarve,-8.825374,37.23495,Resolução/Conclusão
26067837,Figueira Dos Cavaleiros,Baixo Alentejo,312,2025-09-30T13:57:00Z,26067837,Em Resolução/Conclusão,3105,Incêndio rural,0,12,0,32,2025-09-30T13:57:00Z,Ferreira Do Alentejo,Beja,Alentejo,-8.174752,38.092127,Resolução/Conclusão
26068256,Astromil,Area M. Porto,309,2025-09-30T15:26:00Z,26068256,Em Resolução/Conclusão,3103,Incêndio rural,1,5,0,28,2025-09-30T15:26:00Z,Paredes,Porto,Norte,-8.411105,41.20007,Resolução/Conclusão
26068456,Póvoa de Santa Iria e Forte da Casa,Grande Lisboa,311,2025-09-30T15:54:00Z,26068456,Em Despacho,3103,Incêndio rural,0,3,0,16,2025-09-30T15:54:00Z,Vila Franca De Xira,Lisboa,Área Metropolitana De Lisboa,-9.051508,38.875602,Despacho
26068199,"Sandim, Olival, Lever e Crestuma",Area M. Porto,309,2025-09-30T15:09:00Z,26068199,Em Resolução/Conclusão,3103,Incêndio rural,0,2,0,11,2025-09-30T15:09:00Z,Vila Nova De Gaia,Porto,Norte,-8.523002,41.073885,Resolução/Conclusão
26050704,Tortosendo,Beiras e Serra da Estrela,310,2025-09-26T23:04:00Z,26050704,Em Resolução/Conclusão,3103,Incêndio rural,0,1,0,4,2025-09-26T23:04:00Z,Covilhã,Castelo Branco,Centro,-7.521592,40.251592,Resolução/Conclusão
26068018,São João Das Lampas e Terrugem,Grande Lisboa,311,2025-09-30T14:33:00Z,26068018,Em Resolução/Conclusão,3105,Incêndio rural,0,1,0,5,2025-09-30T14:33:00Z,Sintra,Lisboa,Área Metropolitana De Lisboa,-9.340913,38.852685,Resolução/Conclusão
26068468,Tornada e Salir do Porto,Oeste,311,2025-09-30T16:03:00Z,26068468,Em Despacho,3103,Incêndio rural,0,2,0,10,2025-09-30T16:03:00Z,Caldas Da Rainha,Leiria,Centro,-9.146348,39.463882,Despacho
25951176,Sandomil,Beiras e Serra da Estrela,310,2025-09-06T10:29:00Z,25951176,Em Resolução/Conclusão,3103,Incêndio rural,0,2,0,10,2025-09-06T10:29:00Z,Seia,Guarda,Centro,-7.76001,40.351547,Resolução/Conclusão
26068379,Fânzeres e São Pedro da Cova,Area M. Porto,309,2025-09-30T15:43:00Z,26068379,Em Resolução/Conclusão,3103,Incêndio rural,0,1,0,4,2025-09-30T15:43:00Z,Gondomar,Porto,Norte,-8.502452,41.155366,Resolução/Conclusão
26068481,São Pedro de Tomar,Médio Tejo,311,2025-09-30T16:07:00Z,26068481,Em Despacho,3103,Incêndio rural,1,7,0,30,2025-09-30T16:07:00Z,Tomar,Santarém,Centro,-8.361143,39.551845,Despacho
