id,address,subregion,neighborhood,date,id.1,state,nature,nature_description,aerial_means,terrestrial_means,aquatic_means,operational,date.1,Concelho,Distrito,NUTII_DSG,longitude,latitude,state_2
26022995,Bordeira,Algarve,313,2025-09-21T12:21:00Z,26022995,Em Resolução/Conclusão,3103,Incêndio rural,0,4,0,13,2025-09-21T12:21:00Z,Aljezur,Faro,Algarve,-8.825374,37.23495,Resolução/Conclusão
26082778,Argozelo,Terras de Trás-os-Montes,309,2025-10-03T14:25:00Z,26082778,Em Resolução/Conclusão,3103,Incêndio rural,0,4,0,13,2025-10-03T14:25:00Z,Vimioso,Bragança,Norte,-6.594535,41.647392,Resolução/Conclusão
26078806,"Tavares (Chãs, Várzea e Travanca)",Viseu Dão Lafões,310,2025-10-02T17:31:00Z,26078806,Em Resolução/Conclusão,3103,Incêndio rural,0,2,0,7,2025-10-02T17:31:00Z,Mangualde,Viseu,Centro,-7.638958,40.609205,Resolução/Conclusão
26084722,Monte e Queimadela,Ave,309,2025-10-03T21:44:00Z,26084722,Em Despacho,3103,Incêndio rural,0,3,0,15,2025-10-03T21:44:00Z,Fafe,Braga,Norte,-8.1387,41.53788,Despacho
26084797,Esperança e Brunhais,Ave,309,2025-10-03T22:07:00Z,26084797,Em Despacho,3103,Incêndio rural,0,3,0,15,2025-10-03T22:07:00Z,Póvoa De Lanhoso,Braga,Norte,-8.173805,41.583791,Despacho
26077823,São Cipriano e Vil de Souto,Viseu Dão Lafões,310,2025-10-02T14:18:00Z,26077823,Em Resolução/Conclusão,3103,Incêndio rural,0,1,0,2,2025-10-02T14:18:00Z,Viseu,Viseu,Centro,-7.953868,40.632302,Resolução/Conclusão
26083758,Cimo de Vila da Castanheira,Alto Tâmega e Barroso,309,2025-10-03T17:53:00Z,26083758,Em Resolução/Conclusão,3103,Incêndio rural,0,3,0,12,2025-10-03T17:53:00Z,Chaves,Vila Real,Norte,-7.283753,41.794895,Resolução/Conclusão
26083842,"Soeira, Fresulfe e Mofreita",Terras de Trás-os-Montes,309,2025-10-03T18:11:00Z,26083842,Em Resolução/Conclusão,3103,Incêndio rural,0,7,0,25,2025-10-03T18:11:00Z,Vinhais,Bragança,Norte,-6.933422,41.862003,Resolução/Conclusão
26084128,Pelariga,Região de Leiria,310,2025-10-03T19:04:00Z,26084128,Em Resolução/Conclusão,3105,Incêndio rural,0,1,0,2,2025-10-03T19:04:00Z,Pombal,Leiria,Centro,-8.62002,39.966243,Resolução/Conclusão
26084721,Albufeira e Olhos de Água,Algarve,313,2025-10-03T21:43:00Z,26084721,Em Resolução/Conclusão,3103,Incêndio rural,0,5,0,15,2025-10-03T21:43:00Z,Albufeira,Faro,Algarve,-8.278292,37.075823,Resolução/Conclusão
