id,address,subregion,neighborhood,date,id.1,state,nature,nature_description,aerial_means,terrestrial_means,aquatic_means,operational,date.1,Concelho,Distrito,NUTII_DSG,longitude,latitude,state_2
25813482,Freches e Torres,Beiras e Serra da Estrela,310,2025-08-09T16:21:00Z,25813482,Em Resolução/Conclusão,3103,Incêndio rural,0,1,0,5,2025-08-09T16:21:00Z,Trancoso,Guarda,Centro,-7.363745,40.709022,Resolução/Conclusão
25832250,Ferreira de Aves,Viseu Dão Lafões,310,2025-08-13T00:03:00Z,25832250,Em Resolução/Conclusão,3103,Incêndio rural,0,1,0,2,2025-08-13T00:03:00Z,Sátão,Viseu,Centro,-7.647793,40.79568,Resolução/Conclusão
25836309,Cinfães,Tâmega e Sousa,309,2025-08-13T18:17:00Z,25836309,Em Resolução/Conclusão,3103,Incêndio rural,0,1,0,2,2025-08-13T18:17:00Z,Cinfães,Viseu,Norte,-8.071502,41.049757,Resolução/Conclusão
25840505,Ribeira de Nisa e Carreiras,Alto Alentejo,312,2025-08-14T14:01:00Z,25840505,Em Resolução/Conclusão,3101,Incêndio rural,0,2,0,7,2025-08-14T14:01:00Z,Portalegre,Portalegre,Alentejo,-7.47009,39.374707,Resolução/Conclusão
25851721,Arnóia,Tâmega e Sousa,309,2025-08-16T14:24:00Z,25851721,Em Resolução/Conclusão,3103,Incêndio rural,0,2,0,2,2025-08-16T14:24:00Z,Celorico De Basto,Braga,Norte,-7.994469,41.369836,Resolução/Conclusão
25891313,Cervães,Cávado,309,2025-08-24T13:23:00Z,25891313,Em Resolução/Conclusão,3103,Incêndio rural,0,0,0,0,2025-08-24T13:23:00Z,Vila Verde,Braga,Norte,-8.525457,41.612832,Resolução/Conclusão
25901556,Mondim de Basto,Ave,309,2025-08-26T15:02:00Z,25901556,Em Resolução/Conclusão,3103,Incêndio rural,0,7,0,16,2025-08-26T15:02:00Z,Mondim De Basto,Vila Real,Norte,-7.960947,41.398233,Resolução/Conclusão
25902089,Safara e Santo Aleixo da Restauração,Baixo Alentejo,312,2025-08-26T16:56:00Z,25902089,Em Resolução/Conclusão,3105,Incêndio rural,0,12,0,39,2025-08-26T16:56:00Z,Moura,Beja,Alentejo,-7.236252,38.128022,Resolução/Conclusão
25902490,Moimenta e Montouto,Terras de Trás-os-Montes,309,2025-08-26T18:22:00Z,25902490,Em Resolução/Conclusão,3105,Incêndio rural,0,5,0,16,2025-08-26T18:22:00Z,Vinhais,Bragança,Norte,-6.978142,41.949653,Resolução/Conclusão
25818455,Sobral de São Miguel,Beiras e Serra da Estrela,310,2025-08-10T15:02:00Z,25818455,Em Resolução/Conclusão,3103,Incêndio rural,0,1,0,1,2025-08-10T15:02:00Z,Covilhã,Castelo Branco,Centro,-7.77307,40.200173,Resolução/Conclusão
25846480,Sabugal e Aldeia de Santo António,Beiras e Serra da Estrela,310,2025-08-15T14:41:00Z,25846480,Em Resolução/Conclusão,3103,Incêndio rural,0,11,0,33,2025-08-15T14:41:00Z,Sabugal,Guarda,Centro,-7.125037,40.34023,Resolução/Conclusão
25891770,São Martinho de Antas e Paradela de Guiães,Douro,309,2025-08-24T15:06:00Z,25891770,Em Resolução/Conclusão,3101,Incêndio rural,0,18,0,66,2025-08-24T15:06:00Z,Sabrosa,Vila Real,Norte,-7.640418,41.23664,Resolução/Conclusão
25901632,Nevogilde,Tâmega e Sousa,309,2025-08-26T15:16:00Z,25901632,Em Resolução/Conclusão,3103,Incêndio rural,0,2,0,10,2025-08-26T15:16:00Z,Lousada,Porto,Norte,-8.326735,41.26385,Resolução/Conclusão
25901832,Basto (São Clemente),Tâmega e Sousa,309,2025-08-26T15:55:00Z,25901832,Em Resolução/Conclusão,3103,Incêndio rural,0,4,0,13,2025-08-26T15:55:00Z,Celorico De Basto,Braga,Norte,-8.03586,41.462048,Resolução/Conclusão
25902532,Rio Tinto,Area M. Porto,309,2025-08-26T18:32:00Z,25902532,Em Resolução/Conclusão,3103,Incêndio rural,0,4,0,15,2025-08-26T18:32:00Z,Gondomar,Porto,Norte,-8.574164,41.18629,Resolução/Conclusão
25902567,"Lemenhe, Mouquim e Jesufrei",Ave,309,2025-08-26T18:44:00Z,25902567,Em Resolução/Conclusão,3103,Incêndio rural,0,7,0,32,2025-08-26T18:44:00Z,Vila Nova De Famalicão,Braga,Norte,-8.52203,41.44778,Resolução/Conclusão
25883011,Almofala,Viseu Dão Lafões,310,2025-08-22T17:00:00Z,25883011,Em Resolução/Conclusão,3103,Incêndio rural,0,1,0,2,2025-08-22T17:00:00Z,Castro Daire,Viseu,Centro,-7.767003,40.956183,Resolução/Conclusão
25887019,Pedrógão Grande,Região de Leiria,310,2025-08-23T14:27:00Z,25887019,Em Resolução/Conclusão,3101,Incêndio rural,0,35,0,114,2025-08-23T14:27:00Z,Pedrógão Grande,Leiria,Centro,-8.15364,39.9136,Resolução/Conclusão
25893480,Este (São Pedro e São Mamede),Cávado,309,2025-08-24T23:22:00Z,25893480,Em Resolução/Conclusão,3103,Incêndio rural,0,0,0,0,2025-08-24T23:22:00Z,Braga,Braga,Norte,-8.368823,41.555605,Resolução/Conclusão
25901811,Esperança e Brunhais,Ave,309,2025-08-26T15:55:00Z,25901811,Em Resolução/Conclusão,3103,Incêndio rural,0,8,0,34,2025-08-26T15:55:00Z,Póvoa De Lanhoso,Braga,Norte,-8.17349,41.593797,Resolução/Conclusão
25901836,Bensafrim e Barão de São João,Algarve,313,2025-08-26T15:56:00Z,25901836,Em Resolução/Conclusão,3103,Incêndio rural,0,10,0,27,2025-08-26T15:56:00Z,Lagos,Faro,Algarve,-8.720143,37.15252,Resolução/Conclusão
25902735,Albufeira e Olhos de Água,Algarve,313,2025-08-26T19:22:00Z,25902735,Em Resolução/Conclusão,3103,Incêndio rural,0,5,0,18,2025-08-26T19:22:00Z,Albufeira,Faro,Algarve,-8.230843,37.09588,Resolução/Conclusão
25902222,Correlhã,Alto Minho,309,2025-08-26T17:19:00Z,25902222,Em Resolução/Conclusão,3105,Incêndio rural,0,1,0,5,2025-08-26T17:19:00Z,Ponte De Lima,Viana Do Castelo,Norte,-8.624393,41.755615,Resolução/Conclusão
25832672,Piódão,Região de Coimbra,310,2025-08-13T05:08:00Z,25832672,Em Resolução/Conclusão,3103,Incêndio rural,0,118,0,355,2025-08-13T05:08:00Z,Arganil,Coimbra,Centro,-7.81972,40.23083,Resolução/Conclusão
25840417,Lousã e Vilarinho,Região de Coimbra,310,2025-08-14T13:46:00Z,25840417,Em Resolução/Conclusão,3101,Incêndio rural,0,6,0,16,2025-08-14T13:46:00Z,Lousã,Coimbra,Centro,-8.201561,40.080016,Resolução/Conclusão
25897250,Viade de Baixo e Fervidelas,Alto Tâmega e Barroso,309,2025-08-25T17:20:00Z,25897250,Em Resolução/Conclusão,3103,Incêndio rural,0,15,0,51,2025-08-25T17:20:00Z,Montalegre,Vila Real,Norte,-7.860477,41.725298,Resolução/Conclusão
25898107,Mondrões,Douro,309,2025-08-25T20:46:00Z,25898107,Em Resolução/Conclusão,3103,Incêndio rural,0,17,0,63,2025-08-25T20:46:00Z,Vila Real,Vila Real,Norte,-7.804065,41.318255,Resolução/Conclusão
25901717,Vale,Alto Minho,309,2025-08-26T15:32:00Z,25901717,Em Curso,3103,Incêndio rural,8,18,0,82,2025-08-26T15:32:00Z,Arcos De Valdevez,Viana Do Castelo,Norte,-8.345968,41.863728,Curso
25902194,Cabreiros e Passos (São Julião),Cávado,309,2025-08-26T17:14:00Z,25902194,Em Resolução/Conclusão,3111,Queima,0,3,0,8,2025-08-26T17:14:00Z,Braga,Braga,Norte,-8.48515,41.532048,Resolução/Conclusão
25902278,Mondrões,Douro,309,2025-08-26T17:34:00Z,25902278,Em Resolução/Conclusão,3103,Incêndio rural,0,4,0,20,2025-08-26T17:34:00Z,Vila Real,Vila Real,Norte,-7.78592,41.28857,Resolução/Conclusão
