id,address,subregion,neighborhood,date,id.1,state,nature,nature_description,aerial_means,terrestrial_means,aquatic_means,operational,date.1,Concelho,Distrito,NUTII_DSG,longitude,latitude,state_2
26369616,Guiães,Douro,309,2025-12-01T16:58:00Z,26369616,Em Resolução/Conclusão,3103,Incêndio rural,0,1,0,2,2025-12-01T16:58:00Z,Vila Nova De Foz Côa,Guarda,Norte,-7.164,40.983538,Resolução/Conclusão
26369752,Santa Maria Maior e Monserrate e Meadela,Alto Minho,309,2025-12-01T17:24:00Z,26369752,Em Resolução/Conclusão,3105,Incêndio rural,0,1,0,5,2025-12-01T17:24:00Z,Viana Do Castelo,Viana Do Castelo,Norte,-8.81652,41.703882,Resolução/Conclusão
26369512,Pendilhe,Viseu Dão Lafões,310,2025-12-01T16:31:00Z,26369512,Em Resolução/Conclusão,3103,Incêndio rural,0,1,0,2,2025-12-01T16:31:00Z,Vila Nova De Paiva,Viseu,Centro,-7.814127,40.932492,Resolução/Conclusão
26369133,Cujó,Viseu Dão Lafões,310,2025-12-01T15:02:00Z,26369133,Em Resolução/Conclusão,3103,Incêndio rural,0,2,0,5,2025-12-01T15:02:00Z,Castro Daire,Viseu,Centro,-7.834317,40.939418,Resolução/Conclusão
26369858,Chave,Area M. Porto,309,2025-12-01T17:57:00Z,26369858,Em Despacho,3103,Incêndio rural,0,0,0,0,2025-12-01T17:57:00Z,Arouca,Aveiro,Norte,-8.35098,40.89832,Despacho
