id,address,subregion,neighborhood,date,id.1,state,nature,nature_description,aerial_means,terrestrial_means,aquatic_means,operational,date.1,Concelho,Distrito,NUTII_DSG,longitude,latitude,state_2
25635960,Santo Antão e São Julião do Tojal,Grande Lisboa,311,2025-07-06T12:01:00Z,25635960,Em Resolução/Conclusão,3103,Incêndio rural,1,8,0,33,2025-07-06T12:01:00Z,Loures,Lisboa,Área Metropolitana De Lisboa,-9.123947,38.839973,Resolução/Conclusão
25635921,Tocha,Região de Coimbra,310,2025-07-06T11:53:00Z,25635921,Em Resolução/Conclusão,3103,Incêndio rural,1,7,0,36,2025-07-06T11:53:00Z,Cantanhede,Coimbra,Centro,-8.742294,40.293752,Resolução/Conclusão
25636019,Póvoa da Isenta,Lezíria do Tejo,311,2025-07-06T12:15:00Z,25636019,Em Curso,3101,Incêndio rural,1,6,0,30,2025-07-06T12:15:00Z,Santarém,Santarém,Alentejo,-8.752574,39.21079,Curso
25636068,São Domingos de Rana,Grande Lisboa,311,2025-07-06T12:22:00Z,25636068,Em Despacho,3103,Incêndio rural,0,1,0,4,2025-07-06T12:22:00Z,Cascais,Lisboa,Área Metropolitana De Lisboa,-9.338347,38.71106,Despacho
25636071,Briteiros Santo Estêvão e Donim,Ave,309,2025-07-06T12:30:00Z,25636071,Em Despacho,3105,Incêndio rural,0,2,0,10,2025-07-06T12:30:00Z,Guimarães,Braga,Norte,-8.30805,41.521391,Despacho
25610143,Nossa Senhora Das Misericórdias,Médio Tejo,311,2025-07-01T15:32:00Z,25610143,Em Resolução/Conclusão,3103,Incêndio rural,0,0,0,0,2025-07-01T15:32:00Z,Ourém,Santarém,Centro,-8.600277,39.655883,Resolução/Conclusão
25635597,Agilde,Tâmega e Sousa,309,2025-07-06T10:39:00Z,25635597,Em Resolução/Conclusão,3103,Incêndio rural,0,3,0,12,2025-07-06T10:39:00Z,Celorico De Basto,Braga,Norte,-8.110412,41.371243,Resolução/Conclusão
25636024,Castelejo,Beiras e Serra da Estrela,310,2025-07-06T12:16:00Z,25636024,Em Despacho,3103,Incêndio rural,2,14,0,61,2025-07-06T12:16:00Z,Fundão,Castelo Branco,Centro,-7.5778,40.12353,Despacho
