id,address,subregion,neighborhood,date,id.1,state,nature,nature_description,aerial_means,terrestrial_means,aquatic_means,operational,date.1,Concelho,Distrito,NUTII_DSG,longitude,latitude,state_2
25738747,Lindoso,Alto Minho,309,2025-07-26T21:47:00Z,25738747,Em Resolução/Conclusão,3103,Incêndio rural,0,39,0,103,2025-07-26T21:47:00Z,Ponte Da Barca,Viana Do Castelo,Norte,-8.220528,41.865272,Resolução/Conclusão
25747773,Aranhas,Beira Baixa,310,2025-07-28T16:36:00Z,25747773,Em Resolução/Conclusão,3103,Incêndio rural,0,4,0,12,2025-07-28T16:36:00Z,Penamacor,Castelo Branco,Centro,-7.14438,40.117542,Resolução/Conclusão
25775263,Torgueda,Douro,309,2025-08-02T19:49:00Z,25775263,Em Resolução/Conclusão,3101,Incêndio rural,0,18,0,63,2025-08-02T19:49:00Z,Vila Real,Vila Real,Norte,-7.785983,41.274952,Resolução/Conclusão
25778337,Senhorim,Viseu Dão Lafões,310,2025-08-03T11:59:00Z,25778337,Em Resolução/Conclusão,3103,Incêndio rural,0,0,0,0,2025-08-03T11:59:00Z,Nelas,Viseu,Centro,-7.825723,40.54384,Resolução/Conclusão
25780604,Rio Frio,Alto Minho,309,2025-08-03T20:13:00Z,25780604,Em Resolução/Conclusão,3103,Incêndio rural,0,3,0,5,2025-08-03T20:13:00Z,Arcos De Valdevez,Viana Do Castelo,Norte,-8.492232,41.868325,Resolução/Conclusão
25781822,São Gens,Ave,309,2025-08-04T03:44:00Z,25781822,Em Resolução/Conclusão,3103,Incêndio rural,0,0,0,0,2025-08-04T03:44:00Z,Fafe,Braga,Norte,-8.101607,41.44259,Resolução/Conclusão
25783846,"Provesende, Gouvães Douro, S.cristóvão Douro",Douro,309,2025-08-04T12:08:00Z,25783846,Em Resolução/Conclusão,3103,Incêndio rural,1,2,0,13,2025-08-04T12:08:00Z,Sabrosa,Vila Real,Norte,-7.569948,41.205103,Resolução/Conclusão
25785466,Caçarilhe e Infesta,Tâmega e Sousa,309,2025-08-04T16:48:00Z,25785466,Em Resolução/Conclusão,3103,Incêndio rural,0,14,0,35,2025-08-04T16:48:00Z,Celorico De Basto,Braga,Norte,-8.035342,41.42903,Resolução/Conclusão
25789705,Lordelo,Area M. Porto,309,2025-08-05T12:29:00Z,25789705,Em Resolução/Conclusão,3103,Incêndio rural,0,2,0,6,2025-08-05T12:29:00Z,Paredes,Porto,Norte,-8.42654,41.237853,Resolução/Conclusão
25789880,Eiras e Mei,Alto Minho,309,2025-08-05T13:00:00Z,25789880,Em Resolução/Conclusão,3103,Incêndio rural,0,0,0,0,2025-08-05T13:00:00Z,Arcos De Valdevez,Viana Do Castelo,Norte,-8.482723,41.926837,Resolução/Conclusão
25790096,"Leomil, Mido, Senouras e Aldeia Nova",Beiras e Serra da Estrela,310,2025-08-05T13:37:00Z,25790096,Em Resolução/Conclusão,3103,Incêndio rural,0,20,0,80,2025-08-05T13:37:00Z,Almeida,Guarda,Centro,-6.951735,40.680123,Resolução/Conclusão
25790253,Vilela,Area M. Porto,309,2025-08-05T13:59:00Z,25790253,Em Resolução/Conclusão,3103,Incêndio rural,0,14,0,50,2025-08-05T13:59:00Z,Paredes,Porto,Norte,-8.38389,41.233613,Resolução/Conclusão
25790473,Penafiel,Tâmega e Sousa,309,2025-08-05T14:41:00Z,25790473,Em Resolução/Conclusão,3103,Incêndio rural,0,6,0,23,2025-08-05T14:41:00Z,Penafiel,Porto,Norte,-8.255057,41.212168,Resolução/Conclusão
25790498,Lago,Cávado,309,2025-08-05T14:44:00Z,25790498,Em Resolução/Conclusão,3105,Incêndio rural,0,3,0,8,2025-08-05T14:44:00Z,Amares,Braga,Norte,-8.42007,41.613303,Resolução/Conclusão
25790564,Caranguejeira,Região de Leiria,310,2025-08-05T14:52:00Z,25790564,Em Resolução/Conclusão,3103,Incêndio rural,0,0,0,0,2025-08-05T14:52:00Z,Leiria,Leiria,Centro,-8.698895,39.719472,Resolução/Conclusão
25790616,Vale de Estrela,Beiras e Serra da Estrela,310,2025-08-05T15:03:00Z,25790616,Em Resolução/Conclusão,3103,Incêndio rural,0,4,0,16,2025-08-05T15:03:00Z,Guarda,Guarda,Centro,-7.304989,40.500154,Resolução/Conclusão
25790630,Abrantes (São Vicente e São João) e Alferrarede,Médio Tejo,311,2025-08-05T15:05:00Z,25790630,Em Resolução/Conclusão,3103,Incêndio rural,1,1,0,8,2025-08-05T15:05:00Z,Abrantes,Santarém,Centro,-8.202177,39.46442,Resolução/Conclusão
25790682,Mancelos,Tâmega e Sousa,309,2025-08-05T15:06:00Z,25790682,Em Resolução/Conclusão,3103,Incêndio rural,0,3,0,8,2025-08-05T15:06:00Z,Amarante,Porto,Norte,-8.160586,41.275715,Resolução/Conclusão
25790780,Croca,Tâmega e Sousa,309,2025-08-05T15:26:00Z,25790780,Em Resolução/Conclusão,3103,Incêndio rural,1,4,0,22,2025-08-05T15:26:00Z,Penafiel,Porto,Norte,-8.22574,41.220713,Resolução/Conclusão
25790930,Vila Verde,Douro,309,2025-08-05T15:47:00Z,25790930,Em Curso,3103,Incêndio rural,1,1,0,11,2025-08-05T15:47:00Z,Alijó,Vila Real,Norte,-7.589453,41.350974,Curso
25791084,Mouçós e Lamares,Douro,309,2025-08-05T16:17:00Z,25791084,Em Resolução/Conclusão,3103,Incêndio rural,0,7,0,25,2025-08-05T16:17:00Z,Vila Real,Vila Real,Norte,-7.719102,41.311958,Resolução/Conclusão
25763650,Milagres,Região de Leiria,310,2025-07-31T15:58:00Z,25763650,Em Resolução/Conclusão,3101,Incêndio rural,0,1,0,2,2025-07-31T15:58:00Z,Leiria,Leiria,Centro,-8.792217,39.793427,Resolução/Conclusão
25781305,Tamel (Santa Leocádia) e Vilar do Monte,Cávado,309,2025-08-03T23:17:00Z,25781305,Em Resolução/Conclusão,3103,Incêndio rural,0,3,0,12,2025-08-03T23:17:00Z,Barcelos,Braga,Norte,-8.66043,41.566023,Resolução/Conclusão
25785983,Caçarilhe e Infesta,Tâmega e Sousa,309,2025-08-04T18:22:00Z,25785983,Em Resolução/Conclusão,3103,Incêndio rural,0,11,0,32,2025-08-04T18:22:00Z,Celorico De Basto,Braga,Norte,-8.04611,41.419858,Resolução/Conclusão
25786312,Mões,Viseu Dão Lafões,310,2025-08-04T19:31:00Z,25786312,Em Resolução/Conclusão,3105,Incêndio rural,0,0,0,0,2025-08-04T19:31:00Z,Castro Daire,Viseu,Centro,-7.888317,40.866883,Resolução/Conclusão
25787021,Asseiceira,Médio Tejo,311,2025-08-04T22:10:00Z,25787021,Em Resolução/Conclusão,3101,Incêndio rural,0,1,0,5,2025-08-04T22:10:00Z,Tomar,Santarém,Centro,-8.403243,39.510193,Resolução/Conclusão
25787805,Alvora e Loureda,Alto Minho,309,2025-08-05T05:12:00Z,25787805,Em Curso,3103,Incêndio rural,2,9,0,31,2025-08-05T05:12:00Z,Arcos De Valdevez,Viana Do Castelo,Norte,-8.43456,41.95147,Curso
25790229,Galegos,Tâmega e Sousa,309,2025-08-05T13:59:00Z,25790229,Em Curso,3103,Incêndio rural,1,10,0,43,2025-08-05T13:59:00Z,Penafiel,Porto,Norte,-8.31029,41.153427,Curso
25790490,Foz do Sousa e Covelo,Area M. Porto,309,2025-08-05T14:41:00Z,25790490,Em Resolução/Conclusão,3103,Incêndio rural,0,17,0,51,2025-08-05T14:41:00Z,Gondomar,Porto,Norte,-8.505977,41.084027,Resolução/Conclusão
25773830,Andrães,Douro,309,2025-08-02T14:23:00Z,25773830,Em Resolução/Conclusão,3103,Incêndio rural,0,25,0,92,2025-08-02T14:23:00Z,Vila Real,Vila Real,Norte,-7.671293,41.267593,Resolução/Conclusão
25774883,Arnóia,Tâmega e Sousa,309,2025-08-02T18:20:00Z,25774883,Em Resolução/Conclusão,3103,Incêndio rural,0,29,0,92,2025-08-02T18:20:00Z,Celorico De Basto,Braga,Norte,-7.998983,41.348727,Resolução/Conclusão
25775734,Sequeiros e Gradiz,Viseu Dão Lafões,310,2025-08-02T21:35:00Z,25775734,Em Resolução/Conclusão,3103,Incêndio rural,0,0,0,0,2025-08-02T21:35:00Z,Aguiar Da Beira,Guarda,Centro,-7.564515,40.858278,Resolução/Conclusão
25789756,Monte Córdova,Area M. Porto,309,2025-08-05T12:36:00Z,25789756,Em Resolução/Conclusão,3103,Incêndio rural,0,2,0,7,2025-08-05T12:36:00Z,Santo Tirso,Porto,Norte,-8.40881,41.31826,Resolução/Conclusão
25789840,Alfândega da Fé,Terras de Trás-os-Montes,309,2025-08-05T12:54:00Z,25789840,Em Resolução/Conclusão,3103,Incêndio rural,0,4,0,14,2025-08-05T12:54:00Z,Alfândega Da Fé,Bragança,Norte,-6.98404,41.321162,Resolução/Conclusão
25790076,Cavez,Ave,309,2025-08-05T13:33:00Z,25790076,Em Resolução/Conclusão,3101,Incêndio rural,0,3,0,10,2025-08-05T13:33:00Z,Cabeceiras De Basto,Braga,Norte,-7.918698,41.505868,Resolução/Conclusão
25790108,Constantim e Vale de Nogueiras,Douro,309,2025-08-05T13:39:00Z,25790108,Em Resolução/Conclusão,3103,Incêndio rural,0,3,0,8,2025-08-05T13:39:00Z,Vila Real,Vila Real,Norte,-7.679541,41.282933,Resolução/Conclusão
25790242,Fajões,Area M. Porto,309,2025-08-05T13:58:00Z,25790242,Em Resolução/Conclusão,3101,Incêndio rural,0,6,0,21,2025-08-05T13:58:00Z,Oliveira De Azeméis,Aveiro,Norte,-8.415642,40.915193,Resolução/Conclusão
25790408,Fervença,Tâmega e Sousa,309,2025-08-05T14:29:00Z,25790408,Em Resolução/Conclusão,3103,Incêndio rural,0,1,0,5,2025-08-05T14:29:00Z,Celorico De Basto,Braga,Norte,-8.063402,41.365677,Resolução/Conclusão
25790858,Paredes,Area M. Porto,309,2025-08-05T15:32:00Z,25790858,Em Resolução/Conclusão,3103,Incêndio rural,0,6,0,22,2025-08-05T15:32:00Z,Paredes,Porto,Norte,-8.335322,41.2258,Resolução/Conclusão
25790940,Vilar de Mouros,Alto Minho,309,2025-08-05T15:51:00Z,25790940,Em Curso,3103,Incêndio rural,1,7,0,27,2025-08-05T15:51:00Z,Caminha,Viana Do Castelo,Norte,-8.77545,41.88827,Curso
25790777,Bouçoães,Alto Tâmega e Barroso,309,2025-08-05T15:25:00Z,25790777,Em Resolução/Conclusão,3103,Incêndio rural,0,3,0,11,2025-08-05T15:25:00Z,Valpaços,Vila Real,Norte,-7.191498,41.746863,Resolução/Conclusão
25790892,Almancil,Algarve,313,2025-08-05T15:43:00Z,25790892,Em Resolução/Conclusão,3103,Incêndio rural,0,1,0,5,2025-08-05T15:43:00Z,Loulé,Faro,Algarve,-7.974838,37.06702,Resolução/Conclusão
25791046,Rio Frio,Alto Minho,309,2025-08-05T16:10:00Z,25791046,Em Curso,3103,Incêndio rural,0,2,0,9,2025-08-05T16:10:00Z,Arcos De Valdevez,Viana Do Castelo,Norte,-8.507005,41.863488,Curso
25748118,Canelas e Espiunca,Area M. Porto,309,2025-07-28T17:16:00Z,25748118,Em Resolução/Conclusão,3101,Incêndio rural,0,7,0,25,2025-07-28T17:16:00Z,Arouca,Aveiro,Norte,-8.212231,40.969918,Resolução/Conclusão
25749320,Rebordões (Santa Maria),Alto Minho,309,2025-07-28T22:47:00Z,25749320,Em Resolução/Conclusão,3103,Incêndio rural,0,2,0,10,2025-07-28T22:47:00Z,Ponte De Lima,Viana Do Castelo,Norte,-8.588365,41.729993,Resolução/Conclusão
25776263,"Pena, Quintã e Vila Cova",Douro,309,2025-08-02T23:45:00Z,25776263,Em Curso,3103,Incêndio rural,7,208,0,602,2025-08-02T23:45:00Z,Vila Real,Vila Real,Norte,-7.811902,41.317355,Curso
25779639,Senhorim,Viseu Dão Lafões,310,2025-08-03T16:28:00Z,25779639,Em Resolução/Conclusão,3103,Incêndio rural,0,2,0,6,2025-08-03T16:28:00Z,Nelas,Viseu,Centro,-7.81226,40.511713,Resolução/Conclusão
25783717,Cunha Baixa,Viseu Dão Lafões,310,2025-08-04T11:48:00Z,25783717,Em Resolução/Conclusão,3101,Incêndio rural,0,4,0,15,2025-08-04T11:48:00Z,Mangualde,Viseu,Centro,-7.764411,40.559738,Resolução/Conclusão
25784751,"São Pedro do Sul, Várzea e Baiões",Viseu Dão Lafões,310,2025-08-04T14:36:00Z,25784751,Em Resolução/Conclusão,3103,Incêndio rural,0,2,0,5,2025-08-04T14:36:00Z,São Pedro Do Sul,Viseu,Centro,-8.098667,40.75791,Resolução/Conclusão
25784920,Castro Daire,Viseu Dão Lafões,310,2025-08-04T15:03:00Z,25784920,Em Resolução/Conclusão,3103,Incêndio rural,0,0,0,0,2025-08-04T15:03:00Z,Castro Daire,Viseu,Centro,-7.945405,40.912732,Resolução/Conclusão
25785204,Ribas,Tâmega e Sousa,309,2025-08-04T16:03:00Z,25785204,Em Resolução/Conclusão,3103,Incêndio rural,0,18,0,59,2025-08-04T16:03:00Z,Celorico De Basto,Braga,Norte,-8.022547,41.449583,Resolução/Conclusão
25787860,Faíl e Vila Chã de Sá,Viseu Dão Lafões,310,2025-08-05T05:55:00Z,25787860,Em Resolução/Conclusão,3103,Incêndio rural,0,1,0,4,2025-08-05T05:55:00Z,Viseu,Viseu,Centro,-7.987877,40.601342,Resolução/Conclusão
25790517,Grijó e Sermonde,Area M. Porto,309,2025-08-05T14:35:00Z,25790517,Em Resolução/Conclusão,3103,Incêndio rural,0,1,0,5,2025-08-05T14:35:00Z,Vila Nova De Gaia,Porto,Norte,-8.580221,41.029028,Resolução/Conclusão
25790618,Caldas de São Jorge e Pigeiros,Area M. Porto,309,2025-08-05T14:55:00Z,25790618,Em Resolução/Conclusão,3103,Incêndio rural,0,2,0,7,2025-08-05T14:55:00Z,Santa Maria Da Feira,Aveiro,Norte,-8.4993,40.956027,Resolução/Conclusão
25790635,Lavradas,Alto Minho,309,2025-08-05T15:06:00Z,25790635,Em Curso,3103,Incêndio rural,0,6,0,14,2025-08-05T15:06:00Z,Ponte Da Barca,Viana Do Castelo,Norte,-8.46494,41.783079,Curso
25790736,Charneca de Caparica e Sobreda,Península de Setúbal,311,2025-08-05T15:20:00Z,25790736,Em Resolução/Conclusão,3103,Incêndio rural,0,2,0,10,2025-08-05T15:20:00Z,Almada,Setúbal,Área Metropolitana De Lisboa,-9.190665,38.604927000000004,Resolução/Conclusão
25790871,Figueiras e Covas,Tâmega e Sousa,309,2025-08-05T15:39:00Z,25790871,Em Curso,3103,Incêndio rural,0,15,0,49,2025-08-05T15:39:00Z,Lousada,Porto,Norte,-8.327115,41.282842,Curso
25791068,Fajozes,Area M. Porto,309,2025-08-05T16:13:00Z,25791068,Em Despacho,3103,Incêndio rural,0,1,0,5,2025-08-05T16:13:00Z,Vila Do Conde,Porto,Norte,-8.70119,41.32218,Despacho
25791138,Duas Igrejas,Area M. Porto,309,2025-08-05T16:19:00Z,25791138,Em Despacho,3103,Incêndio rural,1,2,0,11,2025-08-05T16:19:00Z,Paredes,Porto,Norte,-8.376281,41.228302,Despacho
25791154,São Pedro de Veiga de Lila,Alto Tâmega e Barroso,309,2025-08-05T16:29:00Z,25791154,Em Curso,3103,Incêndio rural,1,7,0,32,2025-08-05T16:29:00Z,Valpaços,Vila Real,Norte,-7.350763,41.495147,Curso
