id,address,subregion,neighborhood,date,id.1,state,nature,nature_description,aerial_means,terrestrial_means,aquatic_means,operational,date.1,Concelho,Distrito,NUTII_DSG,longitude,latitude,state_2
25644550,Lomba,Area M. Porto,309,2025-07-08T03:03:00Z,25644550,Em Resolução/Conclusão,3103,Incêndio rural,0,4,0,14,2025-07-08T03:03:00Z,Gondomar,Porto,Norte,-8.406343,41.033605,Resolução/Conclusão
25644819,Penafiel,Tâmega e Sousa,309,2025-07-08T06:45:00Z,25644819,Em Resolução/Conclusão,3103,Incêndio rural,0,0,0,0,2025-07-08T06:45:00Z,Penafiel,Porto,Norte,-8.280964,41.200887,Resolução/Conclusão
25646540,Beja (Salvador e Santa Maria da Feira),Baixo Alentejo,312,2025-07-08T12:41:00Z,25646540,Em Resolução/Conclusão,3105,Incêndio rural,0,0,0,0,2025-07-08T12:41:00Z,Beja,Beja,Alentejo,-7.86418,38.02794,Resolução/Conclusão
25646909,Nespereira,Tâmega e Sousa,309,2025-07-08T13:53:00Z,25646909,Em Curso,3103,Incêndio rural,5,13,0,58,2025-07-08T13:53:00Z,Cinfães,Viseu,Norte,-8.122663,40.996095,Curso
25647409,"Vale (São Cosme), Telhado e Portela",Ave,309,2025-07-08T15:16:00Z,25647409,Em Resolução/Conclusão,3105,Incêndio rural,0,2,0,10,2025-07-08T15:16:00Z,Vila Nova De Famalicão,Braga,Norte,-8.467043,41.439407,Resolução/Conclusão
25646433,Poiares,Alto Minho,309,2025-07-08T12:15:00Z,25646433,Em Resolução/Conclusão,3103,Incêndio rural,0,2,0,10,2025-07-08T12:15:00Z,Ponte De Lima,Viana Do Castelo,Norte,-8.630928,41.664155,Resolução/Conclusão
25646834,Candemil e Gondar,Alto Minho,309,2025-07-08T13:37:00Z,25646834,Em Resolução/Conclusão,3103,Incêndio rural,0,8,0,27,2025-07-08T13:37:00Z,Vila Nova De Cerveira,Viana Do Castelo,Norte,-8.695768,41.93884,Resolução/Conclusão
25647051,"Ovar, São João, Arada e São Vicente de Pereira Jusã",Região de Aveiro,310,2025-07-08T14:16:00Z,25647051,Em Resolução/Conclusão,3105,Incêndio rural,0,10,0,24,2025-07-08T14:16:00Z,Ovar,Aveiro,Centro,-8.63732,40.864115,Resolução/Conclusão
25647218,Avanca,Região de Aveiro,310,2025-07-08T14:45:00Z,25647218,Em Resolução/Conclusão,3101,Incêndio rural,0,2,0,7,2025-07-08T14:45:00Z,Estarreja,Aveiro,Centro,-8.575154,40.804832,Resolução/Conclusão
25647385,Castelo Novo,Beiras e Serra da Estrela,310,2025-07-08T15:11:00Z,25647385,Em Resolução/Conclusão,3103,Incêndio rural,3,18,0,64,2025-07-08T15:11:00Z,Fundão,Castelo Branco,Centro,-7.447838,40.023465,Resolução/Conclusão
25647452,Fornelos,Tâmega e Sousa,309,2025-07-08T15:23:00Z,25647452,Em Curso,3103,Incêndio rural,3,18,0,72,2025-07-08T15:23:00Z,Arouca,Aveiro,Norte,-8.208305,41.01175,Curso
25647486,Sobrosa,Area M. Porto,309,2025-07-08T15:32:00Z,25647486,Em Resolução/Conclusão,3103,Incêndio rural,0,1,0,5,2025-07-08T15:32:00Z,Paredes,Porto,Norte,-8.359874,41.25755,Resolução/Conclusão
25647659,Astromil,Area M. Porto,309,2025-07-08T16:00:00Z,25647659,Em Resolução/Conclusão,3101,Incêndio rural,0,6,0,21,2025-07-08T16:00:00Z,Paredes,Porto,Norte,-8.417342,41.198513,Resolução/Conclusão
25647693,Pedroso e Seixezelo,Area M. Porto,309,2025-07-08T16:05:00Z,25647693,Em Resolução/Conclusão,3103,Incêndio rural,0,5,0,18,2025-07-08T16:05:00Z,Vila Nova De Gaia,Porto,Norte,-8.590616,41.08778,Resolução/Conclusão
25647709,"Canedo, Vale e Vila Maior",Area M. Porto,309,2025-07-08T16:03:00Z,25647709,Em Resolução/Conclusão,3103,Incêndio rural,0,1,0,5,2025-07-08T16:03:00Z,Santa Maria Da Feira,Aveiro,Norte,-8.468336,41.006898,Resolução/Conclusão
25647927,Cepelos,Area M. Porto,309,2025-07-08T16:47:00Z,25647927,Em Despacho,3103,Incêndio rural,1,3,0,17,2025-07-08T16:47:00Z,Vale De Cambra,Aveiro,Norte,-8.351219,40.82645,Despacho
25641154,Urra,Alto Alentejo,312,2025-07-07T12:29:00Z,25641154,Em Resolução/Conclusão,3101,Incêndio rural,0,7,0,22,2025-07-07T12:29:00Z,Portalegre,Portalegre,Alentejo,-7.46314,39.23684,Resolução/Conclusão
25644630,Recezinhos (São Mamede),Tâmega e Sousa,309,2025-07-08T04:33:00Z,25644630,Em Resolução/Conclusão,3103,Incêndio rural,0,6,0,18,2025-07-08T04:33:00Z,Penafiel,Porto,Norte,-8.216673,41.2387,Resolução/Conclusão
25644846,Castêlo da Maia,Area M. Porto,309,2025-07-08T07:09:00Z,25644846,Em Resolução/Conclusão,3101,Incêndio rural,0,2,0,4,2025-07-08T07:09:00Z,Maia,Porto,Norte,-8.639653,41.276835,Resolução/Conclusão
25645409,"N.s. Conceição, S. Brás Matos, Juromenha",Alentejo Central,312,2025-07-08T09:22:00Z,25645409,Em Curso,3103,Incêndio rural,6,92,0,282,2025-07-08T09:22:00Z,Alandroal,Évora,Alentejo,-7.4021,38.67416,Curso
25646277,Talhinhas e Bagueixe,Terras de Trás-os-Montes,309,2025-07-08T11:44:00Z,25646277,Em Resolução/Conclusão,3103,Incêndio rural,0,11,0,34,2025-07-08T11:44:00Z,Macedo De Cavaleiros,Bragança,Norte,-6.758352,41.539552,Resolução/Conclusão
25646352,São Marcos da Ataboeira,Baixo Alentejo,312,2025-07-08T11:56:00Z,25646352,Em Resolução/Conclusão,3105,Incêndio rural,0,14,0,33,2025-07-08T11:56:00Z,Castro Verde,Beja,Alentejo,-7.912954,37.747521,Resolução/Conclusão
25647045,Lamego (Almacave e Sé),Douro,309,2025-07-08T14:16:00Z,25647045,Em Resolução/Conclusão,3103,Incêndio rural,0,3,0,9,2025-07-08T14:16:00Z,Lamego,Viseu,Norte,-7.811038,41.104453,Resolução/Conclusão
25647106,Tortosendo,Beiras e Serra da Estrela,310,2025-07-08T14:25:00Z,25647106,Em Resolução/Conclusão,3103,Incêndio rural,0,27,0,89,2025-07-08T14:25:00Z,Covilhã,Castelo Branco,Centro,-7.508533,40.223705,Resolução/Conclusão
25647960,Lousã e Vilarinho,Região de Coimbra,310,2025-07-08T16:54:00Z,25647960,Em Despacho,3105,Incêndio rural,0,0,0,0,2025-07-08T16:54:00Z,Lousã,Coimbra,Centro,-8.280002,40.09246,Despacho
25647870,Branca,Região de Aveiro,310,2025-07-08T16:25:00Z,25647870,Em Curso,3103,Incêndio rural,0,2,0,7,2025-07-08T16:25:00Z,Albergaria-a-Velha,Aveiro,Centro,-8.476308,40.75037,Curso
25647921,Carvalhosa,Tâmega e Sousa,309,2025-07-08T16:40:00Z,25647921,Em Resolução/Conclusão,3105,Incêndio rural,0,1,0,5,2025-07-08T16:40:00Z,Paços De Ferreira,Porto,Norte,-8.359087,41.30491,Resolução/Conclusão
25647934,Travanca,Tâmega e Sousa,309,2025-07-08T16:50:00Z,25647934,Em Despacho,3103,Incêndio rural,1,1,0,11,2025-07-08T16:50:00Z,Cinfães,Viseu,Norte,-8.222741,41.04338,Despacho
25647206,São Pedro Fins,Area M. Porto,309,2025-07-08T14:43:00Z,25647206,Em Resolução/Conclusão,3103,Incêndio rural,0,3,0,11,2025-07-08T14:43:00Z,Maia,Porto,Norte,-8.550979,41.2361,Resolução/Conclusão
25647465,Souto,Beiras e Serra da Estrela,310,2025-07-08T15:26:00Z,25647465,Em Resolução/Conclusão,3103,Incêndio rural,0,4,0,14,2025-07-08T15:26:00Z,Sabugal,Guarda,Centro,-6.95444,40.359047,Resolução/Conclusão
25647679,Castelo Novo,Beiras e Serra da Estrela,310,2025-07-08T16:03:00Z,25647679,Em Resolução/Conclusão,3103,Incêndio rural,0,3,0,8,2025-07-08T16:03:00Z,Fundão,Castelo Branco,Centro,-7.46122,40.066678,Resolução/Conclusão
25647847,São João de Negrilhos,Baixo Alentejo,312,2025-07-08T16:18:00Z,25647847,Em Curso,3103,Incêndio rural,0,12,0,38,2025-07-08T16:18:00Z,Aljustrel,Beja,Alentejo,-8.207021,37.939602,Curso
25642652,São Teotónio,Alentejo Litoral,312,2025-07-07T17:18:00Z,25642652,Em Resolução/Conclusão,3101,Incêndio rural,0,1,0,5,2025-07-07T17:18:00Z,Odemira,Beja,Alentejo,-8.590532,37.422208,Resolução/Conclusão
25644672,Pedrógão Grande,Região de Leiria,310,2025-07-08T05:25:00Z,25644672,Em Resolução/Conclusão,3101,Incêndio rural,0,1,0,2,2025-07-08T05:25:00Z,Pedrógão Grande,Leiria,Centro,-8.177475,39.934117,Resolução/Conclusão
25644708,Vila Facaia,Região de Leiria,310,2025-07-08T05:53:00Z,25644708,Em Resolução/Conclusão,3101,Incêndio rural,0,2,0,4,2025-07-08T05:53:00Z,Pedrógão Grande,Leiria,Centro,-8.219692,39.940218,Resolução/Conclusão
25646680,Cervães,Cávado,309,2025-07-08T13:07:00Z,25646680,Em Resolução/Conclusão,3103,Incêndio rural,0,0,0,0,2025-07-08T13:07:00Z,Vila Verde,Braga,Norte,-8.523402,41.607808,Resolução/Conclusão
25646735,Campelo e Ovil,Tâmega e Sousa,309,2025-07-08T13:19:00Z,25646735,Em Curso,3105,Incêndio rural,0,7,0,28,2025-07-08T13:19:00Z,Baião,Porto,Norte,-8.00404,41.193612,Curso
25646903,Gondiães e Vilar de Cunhas,Ave,309,2025-07-08T13:53:00Z,25646903,Em Resolução/Conclusão,3103,Incêndio rural,0,11,0,39,2025-07-08T13:53:00Z,Cabeceiras De Basto,Braga,Norte,-7.859303,41.557525,Resolução/Conclusão
25646971,Branca,Região de Aveiro,310,2025-07-08T14:05:00Z,25646971,Em Resolução/Conclusão,3103,Incêndio rural,0,6,0,16,2025-07-08T14:05:00Z,Albergaria-a-Velha,Aveiro,Centro,-8.526137,40.740243,Resolução/Conclusão
25647173,Algoz e Tunes,Algarve,313,2025-07-08T14:38:00Z,25647173,Em Resolução/Conclusão,3103,Incêndio rural,0,5,0,12,2025-07-08T14:38:00Z,Silves,Faro,Algarve,-8.308955,37.159918,Resolução/Conclusão
25647439,Degracias e Pombalinho,Região de Coimbra,310,2025-07-08T15:16:00Z,25647439,Em Resolução/Conclusão,3103,Incêndio rural,0,2,0,7,2025-07-08T15:16:00Z,Soure,Coimbra,Centro,-8.527811,40.010724,Resolução/Conclusão
25647707,Vale de Anta,Alto Tâmega e Barroso,309,2025-07-08T16:07:00Z,25647707,Em Resolução/Conclusão,3103,Incêndio rural,0,5,0,22,2025-07-08T16:07:00Z,Chaves,Vila Real,Norte,-7.481552,41.75655,Resolução/Conclusão
