id,address,subregion,neighborhood,date,id.1,state,nature,nature_description,aerial_means,terrestrial_means,aquatic_means,operational,date.1,Concelho,Distrito,NUTII_DSG,longitude,latitude
25586240,Cabanelas,Cávado,309,2025-06-27T07:56:00Z,25586240,Em despacho,3107,Consolidação de rescaldo de incêndio rural,0,1,0,5,2025-06-27T07:56:00Z,Vila Verde,Braga,Norte,-8.486263,41.59424
25586290,Coronado (São Romão e São Mamede),Area M. Porto,309,2025-06-27T08:01:00Z,25586290,Em resolução,3107,Consolidação de rescaldo de incêndio rural,0,1,0,5,2025-06-27T08:01:00Z,Trofa,Porto,Norte,-8.58287,41.27891
25586060,São Gens,Ave,309,2025-06-27T06:47:00Z,25586060,Em resolução,3103,Incêndio rural,0,3,0,12,2025-06-27T06:47:00Z,Fafe,Braga,Norte,-8.112268,41.444087
25586244,Monforte,Alto Alentejo,312,2025-06-27T07:40:00Z,25586244,Em conclusão,3105,Incêndio rural,0,3,0,9,2025-06-27T07:40:00Z,Monforte,Portalegre,Alentejo,-7.421073,39.071883
25586246,Vila de Cucujães,Area M. Porto,309,2025-06-27T07:48:00Z,25586246,Em conclusão,3101,Incêndio rural,0,1,0,5,2025-06-27T07:48:00Z,Oliveira De Azeméis,Aveiro,Norte,-8.510356,40.871699
