id,address,subregion,neighborhood,date,id.1,state,nature,nature_description,aerial_means,terrestrial_means,aquatic_means,operational,date.1,Concelho,Distrito,NUTII_DSG,longitude,latitude,state_2
25712338,Cercal,Alentejo Litoral,312,2025-07-21T17:38:00Z,25712338,Em Resolução/Conclusão,3103,Incêndio rural,0,8,0,23,2025-07-21T17:38:00Z,Santiago Do Cacém,Setúbal,Alentejo,-8.682272,37.791582,Resolução/Conclusão
25721930,Vilar de Perdizes e Meixide,Alto Tâmega e Barroso,309,2025-07-23T16:21:00Z,25721930,Em Resolução/Conclusão,3103,Incêndio rural,1,41,0,126,2025-07-23T16:21:00Z,NA,NA,NA,-7.618655,41.886193,Resolução/Conclusão
25725056,Pedrógão Pequeno,Beira Baixa,310,2025-07-24T10:16:00Z,25725056,Em Resolução/Conclusão,3101,Incêndio rural,0,8,0,31,2025-07-24T10:16:00Z,Sertã,Castelo Branco,Centro,-8.109729,39.884411,Resolução/Conclusão
25721619,Costa da Caparica,Península de Setúbal,311,2025-07-23T15:11:00Z,25721619,Em Resolução/Conclusão,3103,Incêndio rural,0,2,0,6,2025-07-23T15:11:00Z,Almada,Setúbal,Área Metropolitana De Lisboa,-9.21697,38.61683,Resolução/Conclusão
25725448,Ferreira do Alentejo e Canhestros,Baixo Alentejo,312,2025-07-24T11:29:00Z,25725448,Em Resolução/Conclusão,3105,Incêndio rural,0,9,0,27,2025-07-24T11:29:00Z,Ferreira Do Alentejo,Beja,Alentejo,-8.139218,38.07651,Resolução/Conclusão
25725615,Tourais e Lajes,Beiras e Serra da Estrela,310,2025-07-24T12:03:00Z,25725615,Em Resolução/Conclusão,3103,Incêndio rural,0,6,0,24,2025-07-24T12:03:00Z,Seia,Guarda,Centro,-7.784602,40.443185,Resolução/Conclusão
25725797,Lagos (São Sebastião e Santa Maria),Algarve,313,2025-07-24T12:46:00Z,25725797,Em Resolução/Conclusão,3103,Incêndio rural,0,3,0,11,2025-07-24T12:46:00Z,Lagos,Faro,Algarve,-8.691346,37.144531,Resolução/Conclusão
25725899,Beja (Salvador e Santa Maria da Feira),Baixo Alentejo,312,2025-07-24T13:09:00Z,25725899,Em Curso,3105,Incêndio rural,0,5,0,18,2025-07-24T13:09:00Z,Beja,Beja,Alentejo,-7.86332,38.02806,Curso
25720797,"Lavandeira, Beira Grande e Selores",Douro,309,2025-07-23T12:23:00Z,25720797,Em Resolução/Conclusão,3103,Incêndio rural,0,14,0,40,2025-07-23T12:23:00Z,Carrazeda De Ansiães,Bragança,Norte,-7.304242,41.205575,Resolução/Conclusão
25724141,Guarda,Beiras e Serra da Estrela,310,2025-07-24T06:38:00Z,25724141,Em Resolução/Conclusão,3103,Incêndio rural,0,2,0,10,2025-07-24T06:38:00Z,Guarda,Guarda,Centro,-7.230727,40.539547,Resolução/Conclusão
25725461,Malpica do Tejo,Beira Baixa,310,2025-07-24T11:33:00Z,25725461,Em Resolução/Conclusão,3105,Incêndio rural,0,6,0,17,2025-07-24T11:33:00Z,Castelo Branco,Castelo Branco,Centro,-7.460712,39.705945,Resolução/Conclusão
25725872,Alverca do Ribatejo e Sobralinho,Grande Lisboa,311,2025-07-24T13:03:00Z,25725872,Em Resolução/Conclusão,3103,Incêndio rural,0,3,0,15,2025-07-24T13:03:00Z,Vila Franca De Xira,Lisboa,Área Metropolitana De Lisboa,-9.02506,38.91611,Resolução/Conclusão
25725984,Mafra,Grande Lisboa,311,2025-07-24T13:20:00Z,25725984,Em Despacho,3103,Incêndio rural,0,1,0,5,2025-07-24T13:20:00Z,Mafra,Lisboa,Área Metropolitana De Lisboa,-9.356043,38.961979,Despacho
25720932,Bouro (Santa Marta),Cávado,309,2025-07-23T12:54:00Z,25720932,Em Resolução/Conclusão,3101,Incêndio rural,0,3,0,10,2025-07-23T12:54:00Z,Amares,Braga,Norte,-8.283857,41.671897,Resolução/Conclusão
25721382,Unhais da Serra,Beiras e Serra da Estrela,310,2025-07-23T14:29:00Z,25721382,Em Resolução/Conclusão,3105,Incêndio rural,0,2,0,6,2025-07-23T14:29:00Z,Covilhã,Castelo Branco,Centro,-7.61948,40.25114,Resolução/Conclusão
25725153,Troviscal,Beira Baixa,310,2025-07-24T10:31:00Z,25725153,Em Resolução/Conclusão,3101,Incêndio rural,0,4,0,14,2025-07-24T10:31:00Z,Sertã,Castelo Branco,Centro,-8.075827,39.882598,Resolução/Conclusão
25725251,Pedrógão Pequeno,Beira Baixa,310,2025-07-24T10:52:00Z,25725251,Em Resolução/Conclusão,3101,Incêndio rural,0,44,0,162,2025-07-24T10:52:00Z,Sertã,Castelo Branco,Centro,-8.084635,39.925647,Resolução/Conclusão
25725635,"Seixal, Arrentela e Aldeia de Paio Pires",Península de Setúbal,311,2025-07-24T12:09:00Z,25725635,Em Resolução/Conclusão,3103,Incêndio rural,0,3,0,8,2025-07-24T12:09:00Z,Seixal,Setúbal,Área Metropolitana De Lisboa,-9.069093,38.603202,Resolução/Conclusão
25725646,Chancelaria,Alto Alentejo,312,2025-07-24T12:09:00Z,25725646,Em Resolução/Conclusão,3103,Incêndio rural,0,3,0,11,2025-07-24T12:09:00Z,Alter Do Chão,Portalegre,Alentejo,-7.83765,39.230818,Resolução/Conclusão
25725744,São Lourenço do Bairro,Região de Aveiro,310,2025-07-24T12:33:00Z,25725744,Em Resolução/Conclusão,3103,Incêndio rural,0,4,0,10,2025-07-24T12:33:00Z,Anadia,Aveiro,Centro,-8.467775,40.441723,Resolução/Conclusão
25725753,Casével e Vaqueiros,Lezíria do Tejo,311,2025-07-24T12:34:00Z,25725753,Em Resolução/Conclusão,3105,Incêndio rural,0,6,0,21,2025-07-24T12:34:00Z,Santarém,Santarém,Alentejo,-8.570545,39.389097,Resolução/Conclusão
