id,address,subregion,neighborhood,date,id.1,state,nature,nature_description,aerial_means,terrestrial_means,aquatic_means,operational,date.1,Concelho,Distrito,NUTII_DSG,longitude,latitude,state_2
25749681,Fornos de Maceira Dão,Viseu Dão Lafões,310,2025-07-29T01:19:00Z,25749681,Em Resolução/Conclusão,3103,Incêndio rural,0,9,0,26,2025-07-29T01:19:00Z,Mangualde,Viseu,Centro,-7.806963,40.617022,Resolução/Conclusão
25750701,Capela,Tâmega e Sousa,309,2025-07-29T09:26:00Z,25750701,Em Curso,3103,Incêndio rural,2,47,0,173,2025-07-29T09:26:00Z,Penafiel,Porto,Norte,-8.345202,41.09353,Curso
25755329,Ansião,Região de Leiria,310,2025-07-30T03:57:00Z,25755329,Em Resolução/Conclusão,3101,Incêndio rural,0,1,0,2,2025-07-30T03:57:00Z,Ansião,Leiria,Centro,-8.413872,39.930002,Resolução/Conclusão
25756818,Beça,Alto Tâmega e Barroso,309,2025-07-30T11:19:00Z,25756818,Em Resolução/Conclusão,3101,Incêndio rural,0,1,0,4,2025-07-30T11:19:00Z,Boticas,Vila Real,Norte,-7.696038,41.690308,Resolução/Conclusão
25757286,Santa Cruz do Douro e São Tomé de Covelas,Tâmega e Sousa,309,2025-07-30T12:52:00Z,25757286,Em Curso,3103,Incêndio rural,2,13,0,50,2025-07-30T12:52:00Z,Baião,Porto,Norte,-7.971262,41.122462,Curso
25757436,Rego,Tâmega e Sousa,309,2025-07-30T13:21:00Z,25757436,Em Resolução/Conclusão,3103,Incêndio rural,0,0,0,0,2025-07-30T13:21:00Z,Celorico De Basto,Braga,Norte,-8.079918,41.437935,Resolução/Conclusão
25757671,São Jorge e Ermelo,Alto Minho,309,2025-07-30T14:05:00Z,25757671,Em Resolução/Conclusão,3103,Incêndio rural,0,1,0,4,2025-07-30T14:05:00Z,Arcos De Valdevez,Viana Do Castelo,Norte,-8.382293,41.821069,Resolução/Conclusão
25757686,Chãos,Médio Tejo,311,2025-07-30T14:09:00Z,25757686,Em Resolução/Conclusão,3101,Incêndio rural,0,0,0,0,2025-07-30T14:09:00Z,Ferreira Do Zêzere,Santarém,Centro,-8.38389,39.698572,Resolução/Conclusão
25757853,São Jorge e Ermelo,Alto Minho,309,2025-07-30T14:35:00Z,25757853,Em Resolução/Conclusão,3103,Incêndio rural,0,3,0,11,2025-07-30T14:35:00Z,Arcos De Valdevez,Viana Do Castelo,Norte,-8.35418,41.81357,Resolução/Conclusão
25757971,Ninho do Açor e Sobral do Campo,Beira Baixa,310,2025-07-30T14:54:00Z,25757971,Em Resolução/Conclusão,3101,Incêndio rural,0,17,0,64,2025-07-30T14:54:00Z,Castelo Branco,Castelo Branco,Centro,-7.569988,39.996368,Resolução/Conclusão
25758203,Brinches,Baixo Alentejo,312,2025-07-30T15:40:00Z,25758203,Em Resolução/Conclusão,3105,Incêndio rural,0,8,0,21,2025-07-30T15:40:00Z,Serpa,Beja,Alentejo,-7.605583,38.033695,Resolução/Conclusão
25758271,Beiral do Lima,Alto Minho,309,2025-07-30T15:51:00Z,25758271,Em Curso,3103,Incêndio rural,0,1,0,5,2025-07-30T15:51:00Z,Ponte De Lima,Viana Do Castelo,Norte,-8.4876,41.770902,Curso
25758372,São Vicente do Paul e Vale de Figueira,Lezíria do Tejo,311,2025-07-30T16:12:00Z,25758372,Em Resolução/Conclusão,3103,Incêndio rural,0,2,0,7,2025-07-30T16:12:00Z,Santarém,Santarém,Alentejo,-8.629352,39.372135,Resolução/Conclusão
25758538,Meinedo,Tâmega e Sousa,309,2025-07-30T16:44:00Z,25758538,Em Resolução/Conclusão,3105,Incêndio rural,0,2,0,4,2025-07-30T16:44:00Z,Lousada,Porto,Norte,-8.23257,41.24848,Resolução/Conclusão
25758574,Mourão,Alentejo Central,312,2025-07-30T16:51:00Z,25758574,Em Resolução/Conclusão,3105,Incêndio rural,0,6,0,16,2025-07-30T16:51:00Z,Mourão,Évora,Alentejo,-7.33863,38.388713,Resolução/Conclusão
25758607,Oldrões,Tâmega e Sousa,309,2025-07-30T16:42:00Z,25758607,Em Resolução/Conclusão,3103,Incêndio rural,0,2,0,7,2025-07-30T16:42:00Z,Penafiel,Porto,Norte,-8.304665,41.146828,Resolução/Conclusão
25758740,"Perafita, Lavra e Santa Cruz do Bispo",Area M. Porto,309,2025-07-30T17:24:00Z,25758740,Em Despacho,3101,Incêndio rural,0,3,0,13,2025-07-30T17:24:00Z,Matosinhos,Porto,Norte,-8.70921,41.23828,Despacho
25758806,Travanca,Tâmega e Sousa,309,2025-07-30T17:40:00Z,25758806,Em Resolução/Conclusão,3103,Incêndio rural,0,1,0,5,2025-07-30T17:40:00Z,Amarante,Porto,Norte,-8.198412,41.27147,Resolução/Conclusão
25749937,Tarouquela,Tâmega e Sousa,309,2025-07-29T04:11:00Z,25749937,Em Resolução/Conclusão,3103,Incêndio rural,0,16,0,55,2025-07-29T04:11:00Z,Cinfães,Viseu,Norte,-8.173308,41.072792,Resolução/Conclusão
25751046,Castelejo,Beiras e Serra da Estrela,310,2025-07-29T10:13:00Z,25751046,Em Resolução/Conclusão,3103,Incêndio rural,0,1,0,5,2025-07-29T10:13:00Z,Fundão,Castelo Branco,Centro,-7.604291,40.108879,Resolução/Conclusão
25751241,Molelos,Viseu Dão Lafões,310,2025-07-29T10:43:00Z,25751241,Em Resolução/Conclusão,3103,Incêndio rural,0,6,0,21,2025-07-29T10:43:00Z,Tondela,Viseu,Centro,-8.09574,40.551495,Resolução/Conclusão
25751355,"Crato e Mártires, Flor da Rosa e Vale do Peso",Alto Alentejo,312,2025-07-29T10:59:00Z,25751355,Em Resolução/Conclusão,3103,Incêndio rural,0,1,0,4,2025-07-29T10:59:00Z,Crato,Portalegre,Alentejo,-7.641857,39.351982,Resolução/Conclusão
25751893,"Espírito Santo, Nossa Senhora da Graça e São Simão",Alto Alentejo,312,2025-07-29T12:32:00Z,25751893,Em Resolução/Conclusão,3101,Incêndio rural,1,76,0,240,2025-07-29T12:32:00Z,Nisa,Portalegre,Alentejo,-7.634827,39.571162,Resolução/Conclusão
25753170,"Leiria, Pousos, Barreira e Cortes",Região de Leiria,310,2025-07-29T16:36:00Z,25753170,Em Resolução/Conclusão,3101,Incêndio rural,0,1,0,2,2025-07-29T16:36:00Z,Leiria,Leiria,Centro,-8.795755,39.709552,Resolução/Conclusão
25755083,Avelar,Região de Leiria,310,2025-07-30T00:57:00Z,25755083,Em Resolução/Conclusão,3103,Incêndio rural,0,2,0,4,2025-07-30T00:57:00Z,Ansião,Leiria,Centro,-8.341278,39.93576,Resolução/Conclusão
25755669,Lordelo,Area M. Porto,309,2025-07-30T07:51:00Z,25755669,Em Resolução/Conclusão,3103,Incêndio rural,0,15,0,64,2025-07-30T07:51:00Z,Paredes,Porto,Norte,-8.419573,41.244742,Resolução/Conclusão
25757766,Calde,Viseu Dão Lafões,310,2025-07-30T14:19:00Z,25757766,Em Resolução/Conclusão,3103,Incêndio rural,0,13,0,33,2025-07-30T14:19:00Z,Viseu,Viseu,Centro,-7.898995,40.758803,Resolução/Conclusão
25757884,Sopo,Alto Minho,309,2025-07-30T14:39:00Z,25757884,Em Resolução/Conclusão,3101,Incêndio rural,0,3,0,9,2025-07-30T14:39:00Z,Vila Nova De Cerveira,Viana Do Castelo,Norte,-8.763965,41.887023,Resolução/Conclusão
25758477,Poceirão e Marateca,Península de Setúbal,311,2025-07-30T16:30:00Z,25758477,Em Resolução/Conclusão,3105,Incêndio rural,0,6,0,24,2025-07-30T16:30:00Z,Palmela,Setúbal,Área Metropolitana De Lisboa,-8.637103,38.652213,Resolução/Conclusão
25758611,Monte Real e Carvide,Região de Leiria,310,2025-07-30T17:00:00Z,25758611,Em Resolução/Conclusão,3105,Incêndio rural,0,4,0,14,2025-07-30T17:00:00Z,Leiria,Leiria,Centro,-8.864217,39.85114,Resolução/Conclusão
25758825,Algueirão-Mem Martins,Grande Lisboa,311,2025-07-30T17:27:00Z,25758825,Em Resolução/Conclusão,3105,Incêndio rural,0,4,0,17,2025-07-30T17:27:00Z,Sintra,Lisboa,Área Metropolitana De Lisboa,-9.300803,38.812933,Resolução/Conclusão
25758827,Basto,Ave,309,2025-07-30T17:49:00Z,25758827,Em Resolução/Conclusão,3103,Incêndio rural,0,5,0,21,2025-07-30T17:49:00Z,Cabeceiras De Basto,Braga,Norte,-7.972812,41.48638,Resolução/Conclusão
25758859,Modivas,Area M. Porto,309,2025-07-30T17:54:00Z,25758859,Em Despacho,3103,Incêndio rural,0,1,0,5,2025-07-30T17:54:00Z,Vila Do Conde,Porto,Norte,-8.700411,41.3012,Despacho
25748118,Canelas e Espiunca,Area M. Porto,309,2025-07-28T17:16:00Z,25748118,Em Curso,3101,Incêndio rural,2,251,0,705,2025-07-28T17:16:00Z,Arouca,Aveiro,Norte,-8.212231,40.969918,Curso
25749320,Rebordões (Santa Maria),Alto Minho,309,2025-07-28T22:47:00Z,25749320,Em Curso,3103,Incêndio rural,0,54,0,163,2025-07-28T22:47:00Z,Ponte De Lima,Viana Do Castelo,Norte,-8.588365,41.729993,Curso
25749641,Silva Escura e Dornelas,Região de Aveiro,310,2025-07-29T01:02:00Z,25749641,Em Resolução/Conclusão,3101,Incêndio rural,0,31,0,94,2025-07-29T01:02:00Z,Sever Do Vouga,Aveiro,Centro,-8.399623,40.769354,Resolução/Conclusão
25753666,São Cristóvão de Nogueira,Tâmega e Sousa,309,2025-07-29T18:21:00Z,25753666,Em Curso,3103,Incêndio rural,0,10,0,37,2025-07-29T18:21:00Z,Cinfães,Viseu,Norte,-8.134771,41.05519,Curso
25755320,Aguda,Região de Leiria,310,2025-07-30T03:51:00Z,25755320,Em Resolução/Conclusão,3101,Incêndio rural,0,1,0,2,2025-07-30T03:51:00Z,Figueiró Dos Vinhos,Leiria,Centro,-8.325572,39.927893,Resolução/Conclusão
25755571,Maceira,Beiras e Serra da Estrela,310,2025-07-30T07:20:00Z,25755571,Em Resolução/Conclusão,3103,Incêndio rural,0,1,0,5,2025-07-30T07:20:00Z,Fornos De Algodres,Guarda,Centro,-7.475667,40.697278,Resolução/Conclusão
25756006,Pinhanços,Beiras e Serra da Estrela,310,2025-07-30T09:07:00Z,25756006,Em Resolução/Conclusão,3103,Incêndio rural,1,49,0,160,2025-07-30T09:07:00Z,Seia,Guarda,Centro,-7.708132,40.473517,Resolução/Conclusão
25756459,Nespereira,Tâmega e Sousa,309,2025-07-30T10:20:00Z,25756459,Em Curso,3103,Incêndio rural,0,6,0,32,2025-07-30T10:20:00Z,Cinfães,Viseu,Norte,-8.130378,41.039695,Curso
25757361,Algueirão-Mem Martins,Grande Lisboa,311,2025-07-30T13:06:00Z,25757361,Em Resolução/Conclusão,3103,Incêndio rural,0,5,0,18,2025-07-30T13:06:00Z,Sintra,Lisboa,Área Metropolitana De Lisboa,-9.353645,38.79424,Resolução/Conclusão
25757579,Coronado (São Romão e São Mamede),Area M. Porto,309,2025-07-30T13:42:00Z,25757579,Em Resolução/Conclusão,3103,Incêndio rural,0,5,0,8,2025-07-30T13:42:00Z,Trofa,Porto,Norte,-8.570827,41.295073,Resolução/Conclusão
25738747,Lindoso,Alto Minho,309,2025-07-26T21:47:00Z,25738747,Em Curso,3103,Incêndio rural,8,141,0,439,2025-07-26T21:47:00Z,Ponte Da Barca,Viana Do Castelo,Norte,-8.220528,41.865272,Curso
25747773,Aranhas,Beira Baixa,310,2025-07-28T16:36:00Z,25747773,Em Resolução/Conclusão,3103,Incêndio rural,0,107,0,320,2025-07-28T16:36:00Z,Penamacor,Castelo Branco,Centro,-7.14438,40.117542,Resolução/Conclusão
25749611,Sameice e Santa Eulália,Beiras e Serra da Estrela,310,2025-07-29T00:44:00Z,25749611,Em Resolução/Conclusão,3103,Incêndio rural,0,1,0,5,2025-07-29T00:44:00Z,Seia,Guarda,Centro,-7.77621,40.42021,Resolução/Conclusão
25750845,Fornos,Tâmega e Sousa,309,2025-07-29T09:46:00Z,25750845,Em Resolução/Conclusão,3103,Incêndio rural,0,13,0,44,2025-07-29T09:46:00Z,Castelo De Paiva,Aveiro,Norte,-8.247077,41.050502,Resolução/Conclusão
25751999,Pombal,Região de Leiria,310,2025-07-29T12:53:00Z,25751999,Em Resolução/Conclusão,3101,Incêndio rural,0,4,0,9,2025-07-29T12:53:00Z,Pombal,Leiria,Centro,-8.6801,39.93227,Resolução/Conclusão
25752083,Alcanede,Lezíria do Tejo,311,2025-07-29T13:12:00Z,25752083,Em Curso,3103,Incêndio rural,3,70,0,223,2025-07-29T13:12:00Z,Santarém,Santarém,Alentejo,-8.802682,39.405543,Curso
25755418,"Silvares, Pias, Nogueira e Alvarenga",Tâmega e Sousa,309,2025-07-30T05:16:00Z,25755418,Em Resolução/Conclusão,3103,Incêndio rural,0,2,0,10,2025-07-30T05:16:00Z,Lousada,Porto,Norte,-8.278102,41.301833,Resolução/Conclusão
25755452,Travancas e Roriz,Alto Tâmega e Barroso,309,2025-07-30T06:01:00Z,25755452,Em Resolução/Conclusão,3103,Incêndio rural,0,2,0,9,2025-07-30T06:01:00Z,Chaves,Vila Real,Norte,-7.319995,41.815377,Resolução/Conclusão
25756620,Recarei,Area M. Porto,309,2025-07-30T10:47:00Z,25756620,Em Curso,3103,Incêndio rural,4,65,0,224,2025-07-30T10:47:00Z,Paredes,Porto,Norte,-8.416721,41.151,Curso
25757488,Antime e Silvares (São Clemente),Ave,309,2025-07-30T13:27:00Z,25757488,Em Resolução/Conclusão,3103,Incêndio rural,0,1,0,5,2025-07-30T13:27:00Z,Fafe,Braga,Norte,-8.16342,41.430679,Resolução/Conclusão
25758365,Calde,Viseu Dão Lafões,310,2025-07-30T16:09:00Z,25758365,Em Resolução/Conclusão,3103,Incêndio rural,1,6,0,23,2025-07-30T16:09:00Z,Viseu,Viseu,Centro,-7.912173,40.762867,Resolução/Conclusão
25758413,Ota,Oeste,311,2025-07-30T16:19:00Z,25758413,Em Resolução/Conclusão,3103,Incêndio rural,0,1,0,5,2025-07-30T16:19:00Z,Alenquer,Lisboa,Centro,-8.995265,39.155392,Resolução/Conclusão
25758448,São Cristóvão de Nogueira,Tâmega e Sousa,309,2025-07-30T16:26:00Z,25758448,Em Curso,3101,Incêndio rural,0,1,0,10,2025-07-30T16:26:00Z,Cinfães,Viseu,Norte,-8.12263,41.07751,Curso
25758463,"Raiva, Pedorido e Paraíso",Tâmega e Sousa,309,2025-07-30T16:33:00Z,25758463,Em Resolução/Conclusão,3103,Incêndio rural,0,0,0,0,2025-07-30T16:33:00Z,Castelo De Paiva,Aveiro,Norte,-8.292054,41.0013,Resolução/Conclusão
25758515,Gestaçô,Tâmega e Sousa,309,2025-07-30T16:38:00Z,25758515,Em Resolução/Conclusão,3103,Incêndio rural,1,1,0,11,2025-07-30T16:38:00Z,Baião,Porto,Norte,-7.93215,41.172879,Resolução/Conclusão
25758647,Moreira,Area M. Porto,309,2025-07-30T17:05:00Z,25758647,Em Despacho,3103,Incêndio rural,0,2,0,9,2025-07-30T17:05:00Z,Maia,Porto,Norte,-8.665443,41.22939,Despacho
25758732,Campo e Sobrado,Area M. Porto,309,2025-07-30T17:23:00Z,25758732,Em Despacho,3103,Incêndio rural,0,1,0,5,2025-07-30T17:23:00Z,Valongo,Porto,Norte,-8.46935,41.21752,Despacho
25757792,Algueirão-Mem Martins,Grande Lisboa,311,2025-07-30T14:19:00Z,25757792,Em Resolução/Conclusão,3105,Incêndio rural,0,18,0,53,2025-07-30T14:19:00Z,Sintra,Lisboa,Área Metropolitana De Lisboa,-9.302759,38.808498,Resolução/Conclusão
25757849,Porto Salvo,Grande Lisboa,311,2025-07-30T14:32:00Z,25757849,Em Resolução/Conclusão,3103,Incêndio rural,0,1,0,1,2025-07-30T14:32:00Z,Oeiras,Lisboa,Área Metropolitana De Lisboa,-9.30779,38.7268,Resolução/Conclusão
25757890,Milharado,Grande Lisboa,311,2025-07-30T14:41:00Z,25757890,Em Resolução/Conclusão,3103,Incêndio rural,0,9,0,31,2025-07-30T14:41:00Z,Mafra,Lisboa,Área Metropolitana De Lisboa,-9.170143,38.951171,Resolução/Conclusão
25758401,Agrela,Area M. Porto,309,2025-07-30T16:17:00Z,25758401,Em Resolução/Conclusão,3103,Incêndio rural,0,4,0,12,2025-07-30T16:17:00Z,Santo Tirso,Porto,Norte,-8.47265,41.26154,Resolução/Conclusão
25758501,Gafanha da Nazaré,Região de Aveiro,310,2025-07-30T16:34:00Z,25758501,Em Resolução/Conclusão,3105,Incêndio rural,0,5,0,19,2025-07-30T16:34:00Z,Ílhavo,Aveiro,Centro,-8.70078,40.6304,Resolução/Conclusão
25758926,Cabeceiras de Basto,Ave,309,2025-07-30T18:08:00Z,25758926,Em Resolução/Conclusão,3103,Incêndio rural,0,0,0,0,2025-07-30T18:08:00Z,Cabeceiras De Basto,Braga,Norte,-8.020499,41.559144,Resolução/Conclusão
25758813,Monchique,Algarve,313,2025-07-30T17:43:00Z,25758813,Em Resolução/Conclusão,3103,Incêndio rural,0,6,0,22,2025-07-30T17:43:00Z,Monchique,Faro,Algarve,-8.614574,37.284529,Resolução/Conclusão
25758848,Miranda,Alto Minho,309,2025-07-30T17:45:00Z,25758848,Em Despacho,3103,Incêndio rural,0,2,0,9,2025-07-30T17:45:00Z,Arcos De Valdevez,Viana Do Castelo,Norte,-8.511716,41.835944,Despacho
25758913,Vila Praia de Âncora,Alto Minho,309,2025-07-30T18:01:00Z,25758913,Em Despacho,3103,Incêndio rural,0,0,0,0,2025-07-30T18:01:00Z,Caminha,Viana Do Castelo,Norte,-8.853052,41.820795,Despacho
25758947,Serzedo e Perosinho,Area M. Porto,309,2025-07-30T18:11:00Z,25758947,Em Despacho,3101,Incêndio rural,0,0,0,0,2025-07-30T18:11:00Z,Vila Nova De Gaia,Porto,Norte,-8.612638,41.05542,Despacho
