id,address,subregion,neighborhood,date,id.1,state,nature,nature_description,aerial_means,terrestrial_means,aquatic_means,operational,date.1,Concelho,Distrito,NUTII_DSG,longitude,latitude
25574055,Coronado (São Romão e São Mamede),Area M. Porto,309,2025-06-24T16:07:00Z,25574055,Em conclusão,3101,Incêndio rural,0,1,0,5,2025-06-24T16:07:00Z,Trofa,Porto,Norte,-8.575562,41.283106
25575382,Campelo e Ovil,Tâmega e Sousa,309,2025-06-24T22:05:00Z,25575382,Em despacho,3103,Incêndio rural,0,2,0,10,2025-06-24T22:05:00Z,Baião,Porto,Norte,-8.044444,41.15667
25575374,Beja (Salvador e Santa Maria da Feira),Baixo Alentejo,312,2025-06-24T21:58:00Z,25575374,Em curso,3105,Incêndio rural,0,5,0,19,2025-06-24T21:58:00Z,Beja,Beja,Alentejo,-7.857487,38.018587
25575386,Sobreposta,Cávado,309,2025-06-24T22:04:00Z,25575386,Em despacho,3103,Incêndio rural,0,1,0,5,2025-06-24T22:04:00Z,Braga,Braga,Norte,-8.33661,41.55385
25575255,"Ovar, São João, Arada e São Vicente de Pereira Jusã",Região de Aveiro,310,2025-06-24T21:17:00Z,25575255,Em conclusão,3103,Incêndio rural,0,1,0,5,2025-06-24T21:17:00Z,Ovar,Aveiro,Centro,-8.590452,40.894257
25575068,Colares,Grande Lisboa,311,2025-06-24T20:26:00Z,25575068,Em conclusão,3111,Queima,0,1,0,2,2025-06-24T20:26:00Z,Sintra,Lisboa,Área Metropolitana De Lisboa,-9.451332,38.81232
25575353,Odivelas,Grande Lisboa,311,2025-06-24T21:45:00Z,25575353,Em conclusão,2101,Incêndio em edifícios habitacionais,0,1,0,5,2025-06-24T21:45:00Z,Odivelas,Lisboa,Área Metropolitana De Lisboa,-9.182813,38.793425
25575271,Castêlo da Maia,Area M. Porto,309,2025-06-24T21:21:00Z,25575271,Em conclusão,3105,Incêndio rural,0,1,0,5,2025-06-24T21:21:00Z,Maia,Porto,Norte,-8.614143,41.278895
25575396,Caldas da Rainha - Santo Onofre e Serra do Bouro,Oeste,311,2025-06-24T22:05:00Z,25575396,Em despacho,2101,Incêndio em edifícios habitacionais,0,4,0,11,2025-06-24T22:05:00Z,Caldas Da Rainha,Leiria,Centro,-9.148929,39.401713
