id,address,subregion,neighborhood,date,id.1,state,nature,nature_description,aerial_means,terrestrial_means,aquatic_means,operational,date.1,Concelho,Distrito,NUTII_DSG,longitude,latitude
24664033,"Santa Iria de Azoia, São João da Talha e Bobadela",Grande Lisboa,311,2024-12-11T10:54:00Z,24664033,Em despacho,3321,Dano na rede de fornecimento de eletricidade ,0,0,0,0,2024-12-11T10:54:00Z,Loures,Lisboa,Área Metropolitana De Lisboa,-9.098065,38.824783
24663972,Milharado,Grande Lisboa,311,2024-12-11T10:44:00Z,24663972,Em despacho,3317,Inundação de estruturas por água canalizada,0,1,0,5,2024-12-11T10:44:00Z,Mafra,Lisboa,Área Metropolitana De Lisboa,-9.20122,38.92912
24664157,Setúbal (São Sebastião),Península de Setúbal,311,2024-12-11T11:11:00Z,24664157,Em despacho,3317,Inundação de estruturas por água canalizada,0,1,0,5,2024-12-11T11:11:00Z,Setúbal,Setúbal,Área Metropolitana De Lisboa,-8.862337,38.527365
24663933,Moscavide e Portela,Grande Lisboa,311,2024-12-11T10:26:00Z,24663933,Em despacho,3321,Dano na rede de fornecimento de eletricidade ,0,1,0,5,2024-12-11T10:26:00Z,Loures,Lisboa,Área Metropolitana De Lisboa,-9.114803,38.78591
24663200,Reguengo e São Julião,Alto Alentejo,312,2024-12-11T07:30:00Z,24663200,Em curso,3301,Queda de árvore,0,1,0,5,2024-12-11T07:30:00Z,Portalegre,Portalegre,Alentejo,-7.400464,39.297577
