id,address,subregion,neighborhood,date,id.1,state,nature,nature_description,aerial_means,terrestrial_means,aquatic_means,operational,date.1,Concelho,Distrito,NUTII_DSG,longitude,latitude
25056097,Venda do Pinheiro e Santo Estêvão Das Galés,Grande Lisboa,311,2025-03-08T05:27:00Z,25056097,Em curso,3313,Deslizamento de terras,0,4,0,10,2025-03-08T05:27:00Z,Mafra,Lisboa,Área Metropolitana De Lisboa,-9.227598,38.920829
25056180,Santa Eulália,Alto Alentejo,312,2025-03-08T06:31:00Z,25056180,Em conclusão,3301,Queda de árvore,0,2,0,4,2025-03-08T06:31:00Z,Elvas,Portalegre,Alentejo,-7.258011,39.006562
25056181,Silvares,Beiras e Serra da Estrela,310,2025-03-08T06:43:00Z,25056181,Em despacho,3301,Queda de árvore,0,1,0,2,2025-03-08T06:43:00Z,Fundão,Castelo Branco,Centro,-7.67432,40.137481
25056297,Vila da Ponte,Douro,309,2025-03-08T07:56:00Z,25056297,Em despacho,3301,Queda de árvore,0,0,0,0,2025-03-08T07:56:00Z,Sernancelhe,Viseu,Norte,-7.51432,40.91614
25056091,"Almargem do Bispo, Pêro Pinheiro e Montelavar",Grande Lisboa,311,2025-03-08T05:25:00Z,25056091,Em resolução,3313,Deslizamento de terras,0,4,0,9,2025-03-08T05:25:00Z,Sintra,Lisboa,Área Metropolitana De Lisboa,-9.28663,38.818606
25056252,Albufeira e Olhos de Água,Algarve,313,2025-03-08T07:30:00Z,25056252,Em curso,3301,Queda de árvore,0,2,0,5,2025-03-08T07:30:00Z,Albufeira,Faro,Algarve,-8.239918,37.090838
25056302,Silves,Algarve,313,2025-03-08T08:00:00Z,25056302,Em despacho,3301,Queda de árvore,0,0,0,0,2025-03-08T08:00:00Z,Silves,Faro,Algarve,-8.37209,37.21775
25056160,Nossa Senhora da Graça do Divor,Alentejo Central,312,2025-03-08T06:32:00Z,25056160,Em despacho,3301,Queda de árvore,0,2,0,4,2025-03-08T06:32:00Z,Évora,Évora,Alentejo,-7.983694,38.653775
25056192,Poceirão e Marateca,Península de Setúbal,311,2025-03-08T06:56:00Z,25056192,Em conclusão,3301,Queda de árvore,0,1,0,2,2025-03-08T06:56:00Z,Palmela,Setúbal,Área Metropolitana De Lisboa,-8.747517,38.633484
25056283,"Amarante (São Gonçalo), Madalena, Cepelos e Gatão",Tâmega e Sousa,309,2025-03-08T07:51:00Z,25056283,Em despacho,3301,Queda de árvore,0,0,0,0,2025-03-08T07:51:00Z,Amarante,Porto,Norte,-8.08575,41.28076
25056303,Alcaide,Beiras e Serra da Estrela,310,2025-03-08T07:50:00Z,25056303,Em despacho,3301,Queda de árvore,0,2,0,6,2025-03-08T07:50:00Z,Fundão,Castelo Branco,Centro,-7.44556,40.132749
25056319,Vila Ruiva,Baixo Alentejo,312,2025-03-08T07:55:00Z,25056319,Em despacho,3301,Queda de árvore,0,1,0,2,2025-03-08T07:55:00Z,Cuba,Beja,Alentejo,-7.945736,38.246688
