id,address,subregion,neighborhood,date,id.1,state,nature,nature_description,aerial_means,terrestrial_means,aquatic_means,operational,date.1,Concelho,Distrito,NUTII_DSG,longitude,latitude,state_2
25986291,Cabana Maior,Alto Minho,309,2025-09-13T20:35:00Z,25986291,Em Despacho,3103,Incêndio rural,0,1,0,5,2025-09-13T20:35:00Z,Arcos De Valdevez,Viana Do Castelo,Norte,-8.35358,41.871546,Despacho
25832672,Piódão,Região de Coimbra,310,2025-08-13T05:08:00Z,25832672,Em Resolução/Conclusão,3103,Incêndio rural,0,0,0,0,2025-08-13T05:08:00Z,Arganil,Coimbra,Centro,-7.81972,40.23083,Resolução/Conclusão
25984495,São Salvador da Aramenha,Alto Alentejo,312,2025-09-13T13:28:00Z,25984495,Em Resolução/Conclusão,3101,Incêndio rural,0,4,0,14,2025-09-13T13:28:00Z,Marvão,Portalegre,Alentejo,-7.39094,39.36988,Resolução/Conclusão
25986265,Nossa Senhora da Expectação,Alto Alentejo,312,2025-09-13T20:31:00Z,25986265,Em Curso,3105,Incêndio rural,0,3,0,8,2025-09-13T20:31:00Z,Campo Maior,Portalegre,Alentejo,-7.071255,39.005215,Curso
25951176,Sandomil,Beiras e Serra da Estrela,310,2025-09-06T10:29:00Z,25951176,Em Resolução/Conclusão,3103,Incêndio rural,0,15,0,52,2025-09-06T10:29:00Z,Seia,Guarda,Centro,-7.76001,40.351547,Resolução/Conclusão
25981808,"Avidagos, Navalho e Pereira",Terras de Trás-os-Montes,309,2025-09-12T20:38:00Z,25981808,Em Resolução/Conclusão,3103,Incêndio rural,0,2,0,7,2025-09-12T20:38:00Z,Mirandela,Bragança,Norte,-7.264448,41.359912,Resolução/Conclusão
25986105,Alhos Vedros,Península de Setúbal,311,2025-09-13T19:50:00Z,25986105,Em Resolução/Conclusão,3103,Incêndio rural,0,3,0,15,2025-09-13T19:50:00Z,Moita,Setúbal,Área Metropolitana De Lisboa,-9.026889,38.657804,Resolução/Conclusão
25986273,Quelfes,Algarve,313,2025-09-13T20:33:00Z,25986273,Em Curso,3103,Incêndio rural,0,3,0,13,2025-09-13T20:33:00Z,Olhão,Faro,Algarve,-7.820507,37.058941,Curso
25980131,Carva e Vilares,Douro,309,2025-09-12T14:27:00Z,25980131,Em Curso,3103,Incêndio rural,0,108,0,333,2025-09-12T14:27:00Z,Murça,Vila Real,Norte,-7.55901,41.401343,Curso
25980930,Santo André Das Tojeiras,Beira Baixa,310,2025-09-12T17:08:00Z,25980930,Em Resolução/Conclusão,3101,Incêndio rural,0,21,0,67,2025-09-12T17:08:00Z,Castelo Branco,Castelo Branco,Centro,-7.72701,39.809058,Resolução/Conclusão
25984607,Vascoveiro,Beiras e Serra da Estrela,310,2025-09-13T13:54:00Z,25984607,Em Resolução/Conclusão,3103,Incêndio rural,0,1,0,4,2025-09-13T13:54:00Z,Pinhel,Guarda,Centro,-7.080513,40.72261,Resolução/Conclusão
25986047,Montijo e Afonsoeiro,Península de Setúbal,311,2025-09-13T19:30:00Z,25986047,Em Resolução/Conclusão,3103,Incêndio rural,0,3,0,9,2025-09-13T19:30:00Z,Montijo,Setúbal,Área Metropolitana De Lisboa,-8.950077,38.689328,Resolução/Conclusão
25986162,Melres e Medas,Area M. Porto,309,2025-09-13T20:08:00Z,25986162,Em Curso,3103,Incêndio rural,0,1,0,2,2025-09-13T20:08:00Z,Gondomar,Porto,Norte,-8.38295,41.07399,Curso
25986164,Nossa Senhora da Expectação,Alto Alentejo,312,2025-09-13T20:09:00Z,25986164,Em Resolução/Conclusão,3105,Incêndio rural,0,1,0,2,2025-09-13T20:09:00Z,Campo Maior,Portalegre,Alentejo,-7.07355,39.006877,Resolução/Conclusão
