id,address,subregion,neighborhood,date,id.1,state,nature,nature_description,aerial_means,terrestrial_means,aquatic_means,operational,date.1,Concelho,Distrito,NUTII_DSG,longitude,latitude
24845227,Nossa Senhora do Pranto,Médio Tejo,311,2025-01-20T15:35:00Z,24845227,Em despacho,3313,Deslizamento de terras,0,2,0,3,2025-01-20T15:35:00Z,Ferreira Do Zêzere,Santarém,Centro,-8.273289,39.751159
24845829,Pessegueiro do Vouga,Região de Aveiro,310,2025-01-20T17:35:00Z,24845829,Em despacho,3313,Deslizamento de terras,0,2,0,7,2025-01-20T17:35:00Z,Sever Do Vouga,Aveiro,Centro,-8.367434,40.709991
24845864,Ferreiras,Algarve,313,2025-01-20T17:56:00Z,24845864,Em despacho,3315,Inundação de estruturas por precipitação intensa,0,1,0,2,2025-01-20T17:56:00Z,Albufeira,Faro,Algarve,-8.236596,37.128685
24845365,"Marvila, Ribeira Santarém, S.salvador, S.nicolau",Lezíria do Tejo,311,2025-01-20T16:05:00Z,24845365,Em despacho,3301,Queda de árvore,0,1,0,2,2025-01-20T16:05:00Z,Santarém,Santarém,Alentejo,-8.678591,39.231938
24845476,Baixa da Banheira e Vale da Amoreira,Península de Setúbal,311,2025-01-20T16:18:00Z,24845476,Em curso,3329,Queda de estruturas temporárias ou móveis,0,2,0,7,2025-01-20T16:18:00Z,Moita,Setúbal,Área Metropolitana De Lisboa,-9.039116,38.657594
24845858,Barcarena,Grande Lisboa,311,2025-01-20T17:56:00Z,24845858,Em despacho,3301,Queda de árvore,0,1,0,5,2025-01-20T17:56:00Z,Oeiras,Lisboa,Área Metropolitana De Lisboa,-9.277392,38.733987
24845771,Degracias e Pombalinho,Região de Coimbra,310,2025-01-20T17:30:00Z,24845771,Em despacho,3301,Queda de árvore,0,1,0,2,2025-01-20T17:30:00Z,Soure,Coimbra,Centro,-8.527811,40.010724
24845616,Vermoil,Região de Leiria,310,2025-01-20T17:00:00Z,24845616,Em resolução,3321,Dano na rede de fornecimento de eletricidade ,0,3,0,9,2025-01-20T17:00:00Z,Pombal,Leiria,Centro,-8.688137,39.873992
