id,address,subregion,neighborhood,date,id.1,state,nature,nature_description,aerial_means,terrestrial_means,aquatic_means,operational,date.1,Concelho,Distrito,NUTII_DSG,longitude,latitude,state_2
25775263,Torgueda,Douro,309,2025-08-02T19:49:00Z,25775263,Em Resolução/Conclusão,3101,Incêndio rural,0,7,0,23,2025-08-02T19:49:00Z,Vila Real,Vila Real,Norte,-7.785983,41.274952,Resolução/Conclusão
25807426,Alvite,Douro,309,2025-08-08T14:31:00Z,25807426,Em Resolução/Conclusão,3103,Incêndio rural,0,16,0,61,2025-08-08T14:31:00Z,Moimenta Da Beira,Viseu,Norte,-7.688727,40.96613,Resolução/Conclusão
25817913,Valpedre,Tâmega e Sousa,309,2025-08-10T13:18:00Z,25817913,Em Resolução/Conclusão,3103,Incêndio rural,0,3,0,9,2025-08-10T13:18:00Z,Penafiel,Porto,Norte,-8.311582,41.144047,Resolução/Conclusão
25823188,Fornos,Tâmega e Sousa,309,2025-08-11T12:07:00Z,25823188,Em Resolução/Conclusão,3105,Incêndio rural,0,1,0,5,2025-08-11T12:07:00Z,Castelo De Paiva,Aveiro,Norte,-8.247402,41.051843,Resolução/Conclusão
25824172,Vila Boa de Quires e Maureles,Tâmega e Sousa,309,2025-08-11T15:04:00Z,25824172,Em Resolução/Conclusão,3103,Incêndio rural,0,4,0,11,2025-08-11T15:04:00Z,Marco De Canaveses,Porto,Norte,-8.209745,41.18909,Resolução/Conclusão
25826678,Landal,Oeste,311,2025-08-12T00:07:00Z,25826678,Em Resolução/Conclusão,3101,Incêndio rural,0,3,0,12,2025-08-12T00:07:00Z,Caldas Da Rainha,Leiria,Centro,-9.020722,39.295158,Resolução/Conclusão
25828988,Urra,Alto Alentejo,312,2025-08-12T12:32:00Z,25828988,Em Resolução/Conclusão,3103,Incêndio rural,0,1,0,2,2025-08-12T12:32:00Z,Portalegre,Portalegre,Alentejo,-7.461207,39.198157,Resolução/Conclusão
25829740,NA,NA,0,2025-08-12T14:44:00Z,25829740,Em Despacho,3103,Incêndio rural,0,2,0,7,2025-08-12T14:44:00Z,NA,NA,NA,-7.03798,42.004282,Despacho
25829897,"Espírito Santo, Nossa Senhora da Graça e São Simão",Alto Alentejo,312,2025-08-12T15:11:00Z,25829897,Em Resolução/Conclusão,3103,Incêndio rural,3,21,0,87,2025-08-12T15:11:00Z,Nisa,Portalegre,Alentejo,-7.676539,39.448501,Resolução/Conclusão
25829940,Montenegro,Algarve,313,2025-08-12T15:20:00Z,25829940,Em Resolução/Conclusão,3103,Incêndio rural,0,6,0,20,2025-08-12T15:20:00Z,Faro,Faro,Algarve,-7.990837,37.01176,Resolução/Conclusão
25830049,Constantim e Vale de Nogueiras,Douro,309,2025-08-12T15:41:00Z,25830049,Em Despacho,3103,Incêndio rural,1,0,0,6,2025-08-12T15:41:00Z,Vila Real,Vila Real,Norte,-7.70242,41.27976,Despacho
25830104,Abraveses,Viseu Dão Lafões,310,2025-08-12T15:50:00Z,25830104,Em Despacho,3103,Incêndio rural,0,0,0,0,2025-08-12T15:50:00Z,Viseu,Viseu,Centro,-7.94029,40.690261,Despacho
25785983,Caçarilhe e Infesta,Tâmega e Sousa,309,2025-08-04T18:22:00Z,25785983,Em Resolução/Conclusão,3103,Incêndio rural,0,4,0,9,2025-08-04T18:22:00Z,Celorico De Basto,Braga,Norte,-8.04611,41.419858,Resolução/Conclusão
25792058,Cibões e Brufe,Cávado,309,2025-08-05T19:10:00Z,25792058,Em Resolução/Conclusão,3103,Incêndio rural,0,1,0,5,2025-08-05T19:10:00Z,Terras De Bouro,Braga,Norte,-8.293932,41.764918,Resolução/Conclusão
25819818,Sobrado e Bairros,Tâmega e Sousa,309,2025-08-10T20:13:00Z,25819818,Em Resolução/Conclusão,3103,Incêndio rural,0,1,0,5,2025-08-10T20:13:00Z,Castelo De Paiva,Aveiro,Norte,-8.252268,41.018942,Resolução/Conclusão
25820422,Távora e Pereiro,Douro,309,2025-08-10T22:27:00Z,25820422,Em Curso,3103,Incêndio rural,4,79,0,243,2025-08-10T22:27:00Z,Tabuaço,Viseu,Norte,-7.55556,41.097602,Curso
25822776,Santos Evos,Viseu Dão Lafões,310,2025-08-11T11:05:00Z,25822776,Em Resolução/Conclusão,3103,Incêndio rural,0,2,0,9,2025-08-11T11:05:00Z,Viseu,Viseu,Centro,-7.810218,40.667813,Resolução/Conclusão
25826974,Salto,Alto Tâmega e Barroso,309,2025-08-12T03:35:00Z,25826974,Em Resolução/Conclusão,3103,Incêndio rural,0,1,0,5,2025-08-12T03:35:00Z,Montalegre,Vila Real,Norte,-7.97911,41.650235,Resolução/Conclusão
25827431,Alvora e Loureda,Alto Minho,309,2025-08-12T08:11:00Z,25827431,Em Resolução/Conclusão,3103,Incêndio rural,0,2,0,6,2025-08-12T08:11:00Z,Arcos De Valdevez,Viana Do Castelo,Norte,-8.443568,41.951267,Resolução/Conclusão
25828676,Arez e Amieira do Tejo,Alto Alentejo,312,2025-08-12T11:36:00Z,25828676,Em Resolução/Conclusão,3105,Incêndio rural,0,0,0,0,2025-08-12T11:36:00Z,Nisa,Portalegre,Alentejo,-7.723332,39.422823,Resolução/Conclusão
25829553,Espinho,Cávado,309,2025-08-12T14:13:00Z,25829553,Em Resolução/Conclusão,3111,Queima,0,1,0,4,2025-08-12T14:13:00Z,Braga,Braga,Norte,-8.352203,41.555792,Resolução/Conclusão
25829955,Vila Boa do Bispo,Tâmega e Sousa,309,2025-08-12T15:24:00Z,25829955,Em Resolução/Conclusão,3105,Incêndio rural,0,3,0,9,2025-08-12T15:24:00Z,Marco De Canaveses,Porto,Norte,-8.215792,41.121412,Resolução/Conclusão
25773830,Andrães,Douro,309,2025-08-02T14:23:00Z,25773830,Em Resolução/Conclusão,3103,Incêndio rural,0,0,0,0,2025-08-02T14:23:00Z,Vila Real,Vila Real,Norte,-7.671293,41.267593,Resolução/Conclusão
25774883,Arnóia,Tâmega e Sousa,309,2025-08-02T18:20:00Z,25774883,Em Resolução/Conclusão,3103,Incêndio rural,0,2,0,6,2025-08-02T18:20:00Z,Celorico De Basto,Braga,Norte,-7.998983,41.348727,Resolução/Conclusão
25804968,Alvadia,Alto Tâmega e Barroso,309,2025-08-08T07:21:00Z,25804968,Em Resolução/Conclusão,3103,Incêndio rural,0,9,0,41,2025-08-08T07:21:00Z,Ribeira De Pena,Vila Real,Norte,-7.782872,41.457452,Resolução/Conclusão
25818455,Sobral de São Miguel,Beiras e Serra da Estrela,310,2025-08-10T15:02:00Z,25818455,Em Resolução/Conclusão,3103,Incêndio rural,4,149,0,471,2025-08-10T15:02:00Z,Covilhã,Castelo Branco,Centro,-7.77307,40.200173,Resolução/Conclusão
25828482,Escalos de Cima e Lousa,Beira Baixa,310,2025-08-12T11:10:00Z,25828482,Em Resolução/Conclusão,3103,Incêndio rural,0,4,0,11,2025-08-12T11:10:00Z,Castelo Branco,Castelo Branco,Centro,-7.368352,39.919662,Resolução/Conclusão
25828880,Montalvão,Alto Alentejo,312,2025-08-12T12:13:00Z,25828880,Em Resolução/Conclusão,3103,Incêndio rural,0,2,0,9,2025-08-12T12:13:00Z,Nisa,Portalegre,Alentejo,-7.53941,39.656237,Resolução/Conclusão
25828981,"Espírito Santo, Nossa Senhora da Graça e São Simão",Alto Alentejo,312,2025-08-12T12:31:00Z,25828981,Em Resolução/Conclusão,3105,Incêndio rural,0,0,0,0,2025-08-12T12:31:00Z,Nisa,Portalegre,Alentejo,-7.653155,39.498023,Resolução/Conclusão
25829000,Escalos de Baixo e Mata,Beira Baixa,310,2025-08-12T12:36:00Z,25829000,Em Resolução/Conclusão,3103,Incêndio rural,0,8,0,23,2025-08-12T12:36:00Z,Castelo Branco,Castelo Branco,Centro,-7.3691,39.871955,Resolução/Conclusão
25829250,São João Baptista,Alto Alentejo,312,2025-08-12T13:17:00Z,25829250,Em Resolução/Conclusão,3105,Incêndio rural,0,6,0,24,2025-08-12T13:17:00Z,Campo Maior,Portalegre,Alentejo,-7.04285,39.032642,Resolução/Conclusão
25829398,Mexilhoeira Grande,Algarve,313,2025-08-12T13:48:00Z,25829398,Em Resolução/Conclusão,3103,Incêndio rural,0,3,0,5,2025-08-12T13:48:00Z,Portimão,Faro,Algarve,-8.62583,37.16639,Resolução/Conclusão
25776263,"Pena, Quintã e Vila Cova",Douro,309,2025-08-02T23:45:00Z,25776263,Em Curso,3103,Incêndio rural,5,124,0,367,2025-08-02T23:45:00Z,Vila Real,Vila Real,Norte,-7.811902,41.317355,Curso
25813482,Freches e Torres,Beiras e Serra da Estrela,310,2025-08-09T16:21:00Z,25813482,Em Curso,3103,Incêndio rural,6,193,0,578,2025-08-09T16:21:00Z,Trancoso,Guarda,Centro,-7.363745,40.709022,Curso
25824945,Povolide,Viseu Dão Lafões,310,2025-08-11T17:17:00Z,25824945,Em Resolução/Conclusão,3103,Incêndio rural,0,1,0,4,2025-08-11T17:17:00Z,Viseu,Viseu,Centro,-7.79583,40.660003,Resolução/Conclusão
25828555,Boivães,Alto Minho,309,2025-08-12T11:20:00Z,25828555,Em Resolução/Conclusão,3103,Incêndio rural,0,4,0,13,2025-08-12T11:20:00Z,Ponte Da Barca,Viana Do Castelo,Norte,-8.446513,41.757167,Resolução/Conclusão
25828875,Gáfete,Alto Alentejo,312,2025-08-12T12:06:00Z,25828875,Em Resolução/Conclusão,3101,Incêndio rural,0,0,0,0,2025-08-12T12:06:00Z,Crato,Portalegre,Alentejo,-7.683942,39.424105,Resolução/Conclusão
25829108,Perais,Beira Baixa,310,2025-08-12T12:51:00Z,25829108,Em Resolução/Conclusão,3105,Incêndio rural,0,1,0,2,2025-08-12T12:51:00Z,Vila Velha De Ródão,Castelo Branco,Centro,-7.536327,39.681998,Resolução/Conclusão
25829206,Perais,Beira Baixa,310,2025-08-12T13:01:00Z,25829206,Em Resolução/Conclusão,3103,Incêndio rural,0,1,0,2,2025-08-12T13:01:00Z,Vila Velha De Ródão,Castelo Branco,Centro,-7.512352,39.68656,Resolução/Conclusão
25829674,"Nossa Senhora do Pópulo, Coto e São Gregório",Oeste,311,2025-08-12T14:37:00Z,25829674,Em Resolução/Conclusão,3103,Incêndio rural,0,6,0,21,2025-08-12T14:37:00Z,Caldas Da Rainha,Leiria,Centro,-9.107878,39.40138,Resolução/Conclusão
25829975,Mouçós e Lamares,Douro,309,2025-08-12T15:27:00Z,25829975,Em Despacho,3103,Incêndio rural,0,0,0,0,2025-08-12T15:27:00Z,Vila Real,Vila Real,Norte,-7.693615,41.311583,Despacho
25830028,Mondim de Basto,Ave,309,2025-08-12T15:39:00Z,25830028,Em Curso,3103,Incêndio rural,1,3,0,18,2025-08-12T15:39:00Z,Mondim De Basto,Vila Real,Norte,-7.947396,41.39484,Curso
