id,address,subregion,neighborhood,date,id.1,state,nature,nature_description,aerial_means,terrestrial_means,aquatic_means,operational,date.1,Concelho,Distrito,NUTII_DSG,longitude,latitude
25436519,Paranhos,Area M. Porto,309,2025-05-27T16:33:00Z,25436519,Em despacho,3311,Queda de elementos de estruturas edificados,0,1,0,5,2025-05-27T16:33:00Z,Porto,Porto,Norte,-8.604254,41.174248
25436439,Castelo Branco,Beira Baixa,310,2025-05-27T16:18:00Z,25436439,Em curso,3321,Dano na rede de fornecimento de eletricidade ,0,2,0,7,2025-05-27T16:18:00Z,Castelo Branco,Castelo Branco,Centro,-7.49265,39.851473
25071496,São Manços e São Vicente do Pigeiro,Alentejo Central,312,2025-03-11T13:18:00Z,25071496,Em conclusão,1101,Cheia,0,0,0,0,2025-03-11T13:18:00Z,Évora,Évora,Alentejo,-7.713313,38.513673
25436330,Porto Salvo,Grande Lisboa,311,2025-05-27T15:54:00Z,25436330,Em despacho,3329,Queda de estruturas temporárias ou móveis,0,1,0,4,2025-05-27T15:54:00Z,Oeiras,Lisboa,Área Metropolitana De Lisboa,-9.305901,38.719291
25436327,Caminha (Matriz) e Vilarelho,Alto Minho,309,2025-05-27T15:50:00Z,25436327,Em curso,3317,Inundação de estruturas por água canalizada,0,1,0,2,2025-05-27T15:50:00Z,Caminha,Viana Do Castelo,Norte,-8.842095,41.872478
