id,address,subregion,neighborhood,date,id.1,state,nature,nature_description,aerial_means,terrestrial_means,aquatic_means,operational,date.1,Concelho,Distrito,NUTII_DSG,longitude,latitude,state_2
25609774,Meinedo,Tâmega e Sousa,309,2025-07-01T14:32:00Z,25609774,Em Resolução/Conclusão,3103,Incêndio rural,0,4,0,15,2025-07-01T14:32:00Z,Lousada,Porto,Norte,-8.24293,41.25225,Resolução/Conclusão
25611092,Barbacena e Vila Fernando,Alto Alentejo,312,2025-07-01T18:35:00Z,25611092,Em Resolução/Conclusão,3105,Incêndio rural,0,1,0,2,2025-07-01T18:35:00Z,Elvas,Portalegre,Alentejo,-7.30867,38.937875,Resolução/Conclusão
25611277,Pinela,Terras de Trás-os-Montes,309,2025-07-01T19:27:00Z,25611277,Em Resolução/Conclusão,3103,Incêndio rural,0,3,0,9,2025-07-01T19:27:00Z,Bragança,Bragança,Norte,-6.781113,41.671907,Resolução/Conclusão
25611445,Almendra,Douro,309,2025-07-01T19:48:00Z,25611445,Em Resolução/Conclusão,3103,Incêndio rural,0,4,0,13,2025-07-01T19:48:00Z,Vila Nova De Foz Côa,Guarda,Norte,-7.055158,40.97822,Resolução/Conclusão
25611930,Beja (Salvador e Santa Maria da Feira),Baixo Alentejo,312,2025-07-01T21:45:00Z,25611930,Em Resolução/Conclusão,3105,Incêndio rural,0,0,0,0,2025-07-01T21:45:00Z,Beja,Beja,Alentejo,-7.864283,38.028995,Resolução/Conclusão
25612262,"Oeiras e S. Julião da Barra, Paço de Arcos e Caxias",Grande Lisboa,311,2025-07-01T23:17:00Z,25612262,Em Resolução/Conclusão,3105,Incêndio rural,0,0,0,0,2025-07-01T23:17:00Z,Oeiras,Lisboa,Área Metropolitana De Lisboa,-9.273569,38.70934,Resolução/Conclusão
25612328,Fragoso,Cávado,309,2025-07-01T23:40:00Z,25612328,Em Despacho,3101,Incêndio rural,0,5,0,20,2025-07-01T23:40:00Z,Barcelos,Braga,Norte,-8.70298,41.61288,Despacho
25610953,Barbacena e Vila Fernando,Alto Alentejo,312,2025-07-01T18:18:00Z,25610953,Em Resolução/Conclusão,3101,Incêndio rural,0,31,0,101,2025-07-01T18:18:00Z,Elvas,Portalegre,Alentejo,-7.318435,38.920227,Resolução/Conclusão
25611134,NA,NA,0,2025-07-01T18:49:00Z,25611134,Em Curso,3103,Incêndio rural,1,2,0,9,2025-07-01T18:49:00Z,NA,NA,NA,-7.043042,41.965998,Curso
25611301,"Algodres, Vale de Afonsinho e Vilar de Amargo",Beiras e Serra da Estrela,310,2025-07-01T19:25:00Z,25611301,Em Resolução/Conclusão,3103,Incêndio rural,0,18,0,66,2025-07-01T19:25:00Z,Figueira De Castelo Rodrigo,Guarda,Centro,-7.002512,40.960853,Resolução/Conclusão
25612205,Romariz,Area M. Porto,309,2025-07-01T22:51:00Z,25612205,Em Resolução/Conclusão,3103,Incêndio rural,0,1,0,5,2025-07-01T22:51:00Z,Santa Maria Da Feira,Aveiro,Norte,-8.448073,40.953582,Resolução/Conclusão
25603618,Messejana,Baixo Alentejo,312,2025-06-30T13:09:00Z,25603618,Em Resolução/Conclusão,3101,Incêndio rural,0,17,0,48,2025-06-30T13:09:00Z,Aljustrel,Beja,Alentejo,-8.169013,37.814978,Resolução/Conclusão
25605147,Vale do Côa,Beiras e Serra da Estrela,310,2025-06-30T17:42:00Z,25605147,Em Resolução/Conclusão,3103,Incêndio rural,0,9,0,33,2025-06-30T17:42:00Z,Pinhel,Guarda,Centro,-7.114995,40.946045,Resolução/Conclusão
25606628,Lobão da Beira,Viseu Dão Lafões,310,2025-06-30T23:39:00Z,25606628,Em Resolução/Conclusão,3103,Incêndio rural,0,1,0,1,2025-06-30T23:39:00Z,Tondela,Viseu,Centro,-8.04042,40.571925,Resolução/Conclusão
25610143,Nossa Senhora Das Misericórdias,Médio Tejo,311,2025-07-01T15:32:00Z,25610143,Em Resolução/Conclusão,3103,Incêndio rural,0,2,0,6,2025-07-01T15:32:00Z,Ourém,Santarém,Centro,-8.600277,39.655883,Resolução/Conclusão
25612369,Almendra,Douro,309,2025-07-01T23:52:00Z,25612369,Em Despacho,3103,Incêndio rural,0,0,0,0,2025-07-01T23:52:00Z,Vila Nova De Foz Côa,Guarda,Norte,-7.019086,40.97769,Despacho
25599382,Almaceda,Beira Baixa,310,2025-06-29T17:03:00Z,25599382,Em Resolução/Conclusão,3101,Incêndio rural,0,15,0,44,2025-06-29T17:03:00Z,Castelo Branco,Castelo Branco,Centro,-7.65644,39.97,Resolução/Conclusão
25611598,Cachopo,Algarve,313,2025-07-01T20:28:00Z,25611598,Em Resolução/Conclusão,3103,Incêndio rural,0,0,0,0,2025-07-01T20:28:00Z,Tavira,Faro,Algarve,-7.861326,37.277996,Resolução/Conclusão
25611998,"Romãs, Decermilo e Vila Longa",Viseu Dão Lafões,310,2025-07-01T21:57:00Z,25611998,Em Resolução/Conclusão,3103,Incêndio rural,0,6,0,16,2025-07-01T21:57:00Z,Sátão,Viseu,Centro,-7.607143,40.74715,Resolução/Conclusão
25612075,Mancelos,Tâmega e Sousa,309,2025-07-01T22:25:00Z,25612075,Em Resolução/Conclusão,3103,Incêndio rural,0,2,0,7,2025-07-01T22:25:00Z,Amarante,Porto,Norte,-8.13884,41.27113,Resolução/Conclusão
25612184,Tresminas,Alto Tâmega e Barroso,309,2025-07-01T22:53:00Z,25612184,Em Resolução/Conclusão,3103,Incêndio rural,0,4,0,14,2025-07-01T22:53:00Z,Vila Pouca De Aguiar,Vila Real,Norte,-7.55054,41.51152,Resolução/Conclusão
25612309,Portela e Extremo,Alto Minho,309,2025-07-01T23:31:00Z,25612309,Em Despacho,3103,Incêndio rural,0,2,0,10,2025-07-01T23:31:00Z,Arcos De Valdevez,Viana Do Castelo,Norte,-8.469009,41.95541,Despacho
25612339,Portela e Extremo,Alto Minho,309,2025-07-01T23:38:00Z,25612339,Em Despacho,3103,Incêndio rural,0,2,0,7,2025-07-01T23:38:00Z,Arcos De Valdevez,Viana Do Castelo,Norte,-8.478129,41.960369,Despacho
