id,address,subregion,neighborhood,date,id.1,state,nature,nature_description,aerial_means,terrestrial_means,aquatic_means,operational,date.1,Concelho,Distrito,NUTII_DSG,longitude,latitude
25070044,Praia do Ribatejo,Médio Tejo,311,2025-03-10T19:30:00Z,25070044,Em curso,1101,Cheia,0,0,0,0,2025-03-10T19:30:00Z,Vila Nova Da Barquinha,Santarém,Centro,-8.357309,39.485638
25071496,São Manços e São Vicente do Pigeiro,Alentejo Central,312,2025-03-11T13:18:00Z,25071496,Em conclusão,1101,Cheia,0,0,0,0,2025-03-11T13:18:00Z,Évora,Évora,Alentejo,-7.713313,38.513673
25202441,Serpa (Salvador e Santa Maria),Baixo Alentejo,312,2025-04-06T10:25:00Z,25202441,Em conclusão,1101,Cheia,0,0,0,0,2025-04-06T10:25:00Z,Serpa,Beja,Alentejo,-7.555783,37.88592
25231102,São João de Loure e Frossos,Região de Aveiro,310,2025-04-12T13:10:00Z,25231102,Em despacho,3313,Deslizamento de terras,0,1,0,2,2025-04-12T13:10:00Z,Albergaria-a-Velha,Aveiro,Centro,-8.542278,40.661776
25231451,Pinhal Novo,Península de Setúbal,311,2025-04-12T14:15:00Z,25231451,Em despacho,3315,Inundação de estruturas por precipitação intensa,0,1,0,3,2025-04-12T14:15:00Z,Palmela,Setúbal,Área Metropolitana De Lisboa,-8.898349,38.639295
25231787,"Pedreira, Rande e Sernande",Tâmega e Sousa,309,2025-04-12T15:53:00Z,25231787,Em curso,3315,Inundação de estruturas por precipitação intensa,0,0,0,0,2025-04-12T15:53:00Z,Felgueiras,Porto,Norte,-8.2314,41.32795
25232053,Serpa (Salvador e Santa Maria),Baixo Alentejo,312,2025-04-12T17:06:00Z,25232053,Em despacho,3315,Inundação de estruturas por precipitação intensa,0,2,0,7,2025-04-12T17:06:00Z,Serpa,Beja,Alentejo,-7.555783,37.88592
25232103,Odivelas,Grande Lisboa,311,2025-04-12T17:14:00Z,25232103,Em despacho,3315,Inundação de estruturas por precipitação intensa,0,0,0,0,2025-04-12T17:14:00Z,Odivelas,Lisboa,Área Metropolitana De Lisboa,-9.17809,38.7917
25232105,Odivelas,Grande Lisboa,311,2025-04-12T17:14:00Z,25232105,Em despacho,3315,Inundação de estruturas por precipitação intensa,0,0,0,0,2025-04-12T17:14:00Z,Odivelas,Lisboa,Área Metropolitana De Lisboa,-9.17509,38.79105
25232137,Mões,Viseu Dão Lafões,310,2025-04-12T17:15:00Z,25232137,Em despacho,3313,Deslizamento de terras,0,1,0,2,2025-04-12T17:15:00Z,Castro Daire,Viseu,Centro,-7.893519,40.867571
25232154,Beja (Salvador e Santa Maria da Feira),Baixo Alentejo,312,2025-04-12T17:23:00Z,25232154,Em despacho,3315,Inundação de estruturas por precipitação intensa,0,0,0,0,2025-04-12T17:23:00Z,Beja,Beja,Alentejo,-7.856946,38.01516
25232172,Beja (Santiago Maior e São João Baptista),Baixo Alentejo,312,2025-04-12T17:26:00Z,25232172,Em despacho,3315,Inundação de estruturas por precipitação intensa,0,0,0,0,2025-04-12T17:26:00Z,Beja,Beja,Alentejo,-7.85649,38.00885
25232186,Póvoa de Santo Adrião e Olival Basto,Grande Lisboa,311,2025-04-12T17:28:00Z,25232186,Em despacho,3315,Inundação de estruturas por precipitação intensa,0,0,0,0,2025-04-12T17:28:00Z,Odivelas,Lisboa,Área Metropolitana De Lisboa,-9.16747,38.79079
25232205,"Camarate, Unhos e Apelação",Grande Lisboa,311,2025-04-12T17:30:00Z,25232205,Em despacho,3315,Inundação de estruturas por precipitação intensa,0,0,0,0,2025-04-12T17:30:00Z,Loures,Lisboa,Área Metropolitana De Lisboa,-9.148555,38.79548
25231379,Odivelas,Grande Lisboa,311,2025-04-12T14:21:00Z,25231379,Em despacho,3315,Inundação de estruturas por precipitação intensa,0,0,0,0,2025-04-12T14:21:00Z,Odivelas,Lisboa,Área Metropolitana De Lisboa,-9.18984,38.79405
25232097,Odivelas,Grande Lisboa,311,2025-04-12T17:13:00Z,25232097,Em despacho,3315,Inundação de estruturas por precipitação intensa,0,0,0,0,2025-04-12T17:13:00Z,Odivelas,Lisboa,Área Metropolitana De Lisboa,-9.187167,38.78304
25231090,Angeja,Região de Aveiro,310,2025-04-12T13:00:00Z,25231090,Em despacho,3313,Deslizamento de terras,0,1,0,2,2025-04-12T13:00:00Z,Albergaria-a-Velha,Aveiro,Centro,-8.56369,40.681509
25231238,Albergaria-a-Velha e Valmaior,Região de Aveiro,310,2025-04-12T13:48:00Z,25231238,Em curso,3315,Inundação de estruturas por precipitação intensa,0,1,0,1,2025-04-12T13:48:00Z,Albergaria-a-Velha,Aveiro,Centro,-8.438386,40.699019
25231831,Ramada e Caneças,Grande Lisboa,311,2025-04-12T15:58:00Z,25231831,Em despacho,3315,Inundação de estruturas por precipitação intensa,0,1,0,5,2025-04-12T15:58:00Z,Odivelas,Lisboa,Área Metropolitana De Lisboa,-9.194441,38.801427
25068300,Almeirim,Lezíria do Tejo,311,2025-03-10T20:52:00Z,25068300,Em curso,1101,Cheia,0,0,0,0,2025-03-10T20:52:00Z,Almeirim,Santarém,Alentejo,-8.635002,39.187436
25231032,Eiras e São Paulo de Frades,Região de Coimbra,310,2025-04-12T12:59:00Z,25231032,Em despacho,3315,Inundação de estruturas por precipitação intensa,0,1,0,3,2025-04-12T12:59:00Z,Coimbra,Coimbra,Centro,-8.423418,40.248789
25231439,Reguengo do Fetal,Região de Leiria,310,2025-04-12T14:34:00Z,25231439,Em despacho,3313,Deslizamento de terras,0,1,0,1,2025-04-12T14:34:00Z,Batalha,Leiria,Centro,-8.781389,39.64833
25232000,Fafe,Ave,309,2025-04-12T16:40:00Z,25232000,Em despacho,3315,Inundação de estruturas por precipitação intensa,0,1,0,2,2025-04-12T16:40:00Z,Fafe,Braga,Norte,-8.175239,41.449617
25232059,Odivelas,Grande Lisboa,311,2025-04-12T17:03:00Z,25232059,Em despacho,3315,Inundação de estruturas por precipitação intensa,0,0,0,0,2025-04-12T17:03:00Z,Odivelas,Lisboa,Área Metropolitana De Lisboa,-9.178571,38.78828
25232116,Odivelas,Grande Lisboa,311,2025-04-12T17:16:00Z,25232116,Em despacho,3315,Inundação de estruturas por precipitação intensa,0,0,0,0,2025-04-12T17:16:00Z,Odivelas,Lisboa,Área Metropolitana De Lisboa,-9.181924,38.7917
25232051,Cano,Alto Alentejo,312,2025-04-12T16:53:00Z,25232051,Em curso,3315,Inundação de estruturas por precipitação intensa,0,1,0,5,2025-04-12T16:53:00Z,Sousel,Portalegre,Alentejo,-7.760967,38.9632
25232085,Monte do Trigo,Alentejo Central,312,2025-04-12T17:10:00Z,25232085,Em despacho,3315,Inundação de estruturas por precipitação intensa,0,2,0,8,2025-04-12T17:10:00Z,Portel,Évora,Alentejo,-7.712736,38.3938
25232090,Odivelas,Grande Lisboa,311,2025-04-12T17:11:00Z,25232090,Em despacho,3315,Inundação de estruturas por precipitação intensa,0,0,0,0,2025-04-12T17:11:00Z,Odivelas,Lisboa,Área Metropolitana De Lisboa,-9.185535,38.78464
25232099,Beja (Salvador e Santa Maria da Feira),Baixo Alentejo,312,2025-04-12T17:13:00Z,25232099,Em despacho,3315,Inundação de estruturas por precipitação intensa,0,0,0,0,2025-04-12T17:13:00Z,Beja,Beja,Alentejo,-7.86047,38.02143
25232126,Odivelas,Grande Lisboa,311,2025-04-12T17:18:00Z,25232126,Em despacho,3315,Inundação de estruturas por precipitação intensa,0,0,0,0,2025-04-12T17:18:00Z,Odivelas,Lisboa,Área Metropolitana De Lisboa,-9.173133,38.79142
25232112,Odivelas,Grande Lisboa,311,2025-04-12T17:15:00Z,25232112,Em despacho,3315,Inundação de estruturas por precipitação intensa,0,0,0,0,2025-04-12T17:15:00Z,Odivelas,Lisboa,Área Metropolitana De Lisboa,-9.17335,38.79081
25232114,Beja (Santiago Maior e São João Baptista),Baixo Alentejo,312,2025-04-12T17:16:00Z,25232114,Em despacho,3315,Inundação de estruturas por precipitação intensa,0,0,0,0,2025-04-12T17:16:00Z,Beja,Beja,Alentejo,-7.86627,38.00404
25232145,Odivelas,Grande Lisboa,311,2025-04-12T17:21:00Z,25232145,Em despacho,3315,Inundação de estruturas por precipitação intensa,0,0,0,0,2025-04-12T17:21:00Z,Odivelas,Lisboa,Área Metropolitana De Lisboa,-9.17942,38.78332
25232148,Beja (Santiago Maior e São João Baptista),Baixo Alentejo,312,2025-04-12T17:22:00Z,25232148,Em despacho,3315,Inundação de estruturas por precipitação intensa,0,0,0,0,2025-04-12T17:22:00Z,Beja,Beja,Alentejo,-7.87481,38.00998
25232163,Odivelas,Grande Lisboa,311,2025-04-12T17:25:00Z,25232163,Em despacho,3315,Inundação de estruturas por precipitação intensa,0,0,0,0,2025-04-12T17:25:00Z,Odivelas,Lisboa,Área Metropolitana De Lisboa,-9.174296,38.79185
25232195,Póvoa de Santo Adrião e Olival Basto,Grande Lisboa,311,2025-04-12T17:30:00Z,25232195,Em despacho,3315,Inundação de estruturas por precipitação intensa,0,0,0,0,2025-04-12T17:30:00Z,Odivelas,Lisboa,Área Metropolitana De Lisboa,-9.15764,38.8033
25232134,Odivelas,Grande Lisboa,311,2025-04-12T17:19:00Z,25232134,Em despacho,3315,Inundação de estruturas por precipitação intensa,0,0,0,0,2025-04-12T17:19:00Z,Odivelas,Lisboa,Área Metropolitana De Lisboa,-9.17486,38.79156
25232152,Pontinha e Famões,Grande Lisboa,311,2025-04-12T17:10:00Z,25232152,Em despacho,3315,Inundação de estruturas por precipitação intensa,0,1,0,3,2025-04-12T17:10:00Z,Odivelas,Lisboa,Área Metropolitana De Lisboa,-9.200241,38.764933
25232166,"S.julião, N.s. da Anunciada e S. Maria da Graça",Península de Setúbal,311,2025-04-12T17:25:00Z,25232166,Em despacho,3301,Queda de árvore,0,1,0,5,2025-04-12T17:25:00Z,Setúbal,Setúbal,Área Metropolitana De Lisboa,-8.89772,38.52822
25232175,Odivelas,Grande Lisboa,311,2025-04-12T17:26:00Z,25232175,Em despacho,3315,Inundação de estruturas por precipitação intensa,0,0,0,0,2025-04-12T17:26:00Z,Odivelas,Lisboa,Área Metropolitana De Lisboa,-9.182813,38.793425
25232177,Odivelas,Grande Lisboa,311,2025-04-12T17:27:00Z,25232177,Em despacho,3315,Inundação de estruturas por precipitação intensa,0,0,0,0,2025-04-12T17:27:00Z,Odivelas,Lisboa,Área Metropolitana De Lisboa,-9.18183,38.79015
25232193,Mina de Água,Grande Lisboa,311,2025-04-12T17:19:00Z,25232193,Em despacho,3315,Inundação de estruturas por precipitação intensa,0,1,0,2,2025-04-12T17:19:00Z,Amadora,Lisboa,Área Metropolitana De Lisboa,-9.233981,38.763308
25232183,Fafe,Ave,309,2025-04-12T17:24:00Z,25232183,Em despacho,3315,Inundação de estruturas por precipitação intensa,0,1,0,2,2025-04-12T17:24:00Z,Fafe,Braga,Norte,-8.175239,41.449617
