id,address,subregion,neighborhood,date,id.1,state,nature,nature_description,aerial_means,terrestrial_means,aquatic_means,operational,date.1,Concelho,Distrito,NUTII_DSG,longitude,latitude,state_2
25607039,Lomba,Area M. Porto,309,2025-07-01T04:11:00Z,25607039,Em Resolução/Conclusão,3103,Incêndio rural,0,2,0,7,2025-07-01T04:11:00Z,Gondomar,Porto,Norte,-8.425045,41.031572,Resolução/Conclusão
25609582,Cervães,Cávado,309,2025-07-01T14:04:00Z,25609582,Em Resolução/Conclusão,3103,Incêndio rural,0,7,0,21,2025-07-01T14:04:00Z,Vila Verde,Braga,Norte,-8.513801,41.595037,Resolução/Conclusão
25609629,Gondoriz,Alto Minho,309,2025-07-01T14:08:00Z,25609629,Em Resolução/Conclusão,3101,Incêndio rural,0,3,0,13,2025-07-01T14:08:00Z,Arcos De Valdevez,Viana Do Castelo,Norte,-8.394378,41.884688,Resolução/Conclusão
25610030,Pedroso e Seixezelo,Area M. Porto,309,2025-07-01T15:01:00Z,25610030,Em Resolução/Conclusão,3103,Incêndio rural,0,1,0,5,2025-07-01T15:01:00Z,Vila Nova De Gaia,Porto,Norte,-8.55785,41.06333,Resolução/Conclusão
25607968,Valpaços e Sanfins,Alto Tâmega e Barroso,309,2025-07-01T09:39:00Z,25607968,Em Resolução/Conclusão,3103,Incêndio rural,0,4,0,11,2025-07-01T09:39:00Z,Valpaços,Vila Real,Norte,-7.347507,41.599547,Resolução/Conclusão
25608554,Brinches,Baixo Alentejo,312,2025-07-01T11:00:00Z,25608554,Em Resolução/Conclusão,3105,Incêndio rural,0,5,0,15,2025-07-01T11:00:00Z,Serpa,Beja,Alentejo,-7.526577,38.015208,Resolução/Conclusão
25608601,São Domingos de Ana Loura,Alentejo Central,312,2025-07-01T11:18:00Z,25608601,Em Resolução/Conclusão,3105,Incêndio rural,0,21,0,60,2025-07-01T11:18:00Z,Estremoz,Évora,Alentejo,-7.50152,38.882248,Resolução/Conclusão
25608835,Alcoutim e Pereiro,Algarve,313,2025-07-01T11:58:00Z,25608835,Em Resolução/Conclusão,3103,Incêndio rural,0,6,0,17,2025-07-01T11:58:00Z,Alcoutim,Faro,Algarve,-7.507201,37.423521,Resolução/Conclusão
25609521,Pechão,Algarve,313,2025-07-01T13:52:00Z,25609521,Em Resolução/Conclusão,3103,Incêndio rural,0,5,0,17,2025-07-01T13:52:00Z,Olhão,Faro,Algarve,-7.852913,37.046865,Resolução/Conclusão
25609724,Mourão,Alentejo Central,312,2025-07-01T14:25:00Z,25609724,Em Resolução/Conclusão,3103,Incêndio rural,0,4,0,15,2025-07-01T14:25:00Z,Mourão,Évora,Alentejo,-7.340257,38.386648,Resolução/Conclusão
25609774,Meinedo,Tâmega e Sousa,309,2025-07-01T14:32:00Z,25609774,Em Resolução/Conclusão,3103,Incêndio rural,0,3,0,13,2025-07-01T14:32:00Z,Lousada,Porto,Norte,-8.24293,41.25225,Resolução/Conclusão
25599357,Alpalhão,Alto Alentejo,312,2025-06-29T16:55:00Z,25599357,Em Resolução/Conclusão,3103,Incêndio rural,0,3,0,8,2025-06-29T16:55:00Z,Nisa,Portalegre,Alentejo,-7.63684,39.452513,Resolução/Conclusão
25599382,Almaceda,Beira Baixa,310,2025-06-29T17:03:00Z,25599382,Em Resolução/Conclusão,3101,Incêndio rural,0,38,0,107,2025-06-29T17:03:00Z,Castelo Branco,Castelo Branco,Centro,-7.65644,39.97,Resolução/Conclusão
25606759,São Miguel do Outeiro e Sabugosa,Viseu Dão Lafões,310,2025-07-01T00:26:00Z,25606759,Em Resolução/Conclusão,3101,Incêndio rural,0,1,0,1,2025-07-01T00:26:00Z,Tondela,Viseu,Centro,-8.056143,40.560622,Resolução/Conclusão
25608124,Sobrosa,Area M. Porto,309,2025-07-01T10:05:00Z,25608124,Em Resolução/Conclusão,3103,Incêndio rural,0,1,0,3,2025-07-01T10:05:00Z,Paredes,Porto,Norte,-8.359308,41.257133,Resolução/Conclusão
25608406,Pias,Baixo Alentejo,312,2025-07-01T10:36:00Z,25608406,Em Resolução/Conclusão,3105,Incêndio rural,0,5,0,14,2025-07-01T10:36:00Z,Serpa,Beja,Alentejo,-7.512387,38.016925,Resolução/Conclusão
25608967,Alvite,Douro,309,2025-07-01T12:19:00Z,25608967,Em Resolução/Conclusão,3103,Incêndio rural,0,27,0,96,2025-07-01T12:19:00Z,Moimenta Da Beira,Viseu,Norte,-7.741182,40.9536,Resolução/Conclusão
25609076,Santa Bárbara de Nexe,Algarve,313,2025-07-01T12:35:00Z,25609076,Em Resolução/Conclusão,3103,Incêndio rural,0,11,0,36,2025-07-01T12:35:00Z,Faro,Faro,Algarve,-7.974543,37.097958,Resolução/Conclusão
25609274,"Freixianda, Ribeira do Fárrio e Formigais",Médio Tejo,311,2025-07-01T13:13:00Z,25609274,Em Resolução/Conclusão,3103,Incêndio rural,0,1,0,2,2025-07-01T13:13:00Z,Ourém,Santarém,Centro,-8.461388,39.737318,Resolução/Conclusão
25603618,Messejana,Baixo Alentejo,312,2025-06-30T13:09:00Z,25603618,Em Resolução/Conclusão,3101,Incêndio rural,0,56,0,162,2025-06-30T13:09:00Z,Aljustrel,Beja,Alentejo,-8.169013,37.814978,Resolução/Conclusão
25604086,Alvarenga,Area M. Porto,309,2025-06-30T14:23:00Z,25604086,Em Resolução/Conclusão,3103,Incêndio rural,0,4,0,15,2025-06-30T14:23:00Z,Arouca,Aveiro,Norte,-8.16662,40.977807,Resolução/Conclusão
25604815,Ermidas-Sado,Alentejo Litoral,312,2025-06-30T16:36:00Z,25604815,Em Resolução/Conclusão,3103,Incêndio rural,0,5,0,8,2025-06-30T16:36:00Z,Santiago Do Cacém,Setúbal,Alentejo,-8.353481,38.015813,Resolução/Conclusão
25605147,Vale do Côa,Beiras e Serra da Estrela,310,2025-06-30T17:42:00Z,25605147,Em Resolução/Conclusão,3103,Incêndio rural,1,19,0,76,2025-06-30T17:42:00Z,Pinhel,Guarda,Centro,-7.114995,40.946045,Resolução/Conclusão
25606628,Lobão da Beira,Viseu Dão Lafões,310,2025-06-30T23:39:00Z,25606628,Em Resolução/Conclusão,3103,Incêndio rural,0,1,0,1,2025-06-30T23:39:00Z,Tondela,Viseu,Centro,-8.04042,40.571925,Resolução/Conclusão
25606803,Canas de Santa Maria,Viseu Dão Lafões,310,2025-07-01T00:36:00Z,25606803,Em Resolução/Conclusão,3101,Incêndio rural,0,2,0,3,2025-07-01T00:36:00Z,Tondela,Viseu,Centro,-8.056338,40.560735,Resolução/Conclusão
25609243,São Miguel de Vila Boa,Viseu Dão Lafões,310,2025-07-01T13:05:00Z,25609243,Em Resolução/Conclusão,3103,Incêndio rural,0,3,0,13,2025-07-01T13:05:00Z,Penalva Do Castelo,Viseu,Centro,-7.742467,40.685568,Resolução/Conclusão
25609859,Soutelo,Cávado,309,2025-07-01T14:45:00Z,25609859,Em Resolução/Conclusão,3105,Incêndio rural,0,2,0,7,2025-07-01T14:45:00Z,Vila Verde,Braga,Norte,-8.436203,41.615603,Resolução/Conclusão
25609986,Penafiel,Tâmega e Sousa,309,2025-07-01T15:05:00Z,25609986,Em Curso,3103,Incêndio rural,1,6,0,30,2025-07-01T15:05:00Z,Penafiel,Porto,Norte,-8.280964,41.200887,Curso
25610143,Nossa Senhora Das Misericórdias,Médio Tejo,311,2025-07-01T15:32:00Z,25610143,Em Despacho,3103,Incêndio rural,0,10,0,44,2025-07-01T15:32:00Z,Ourém,Santarém,Centro,-8.606151,39.651978,Despacho
25609578,Cabreiro,Alto Minho,309,2025-07-01T14:03:00Z,25609578,Em Resolução/Conclusão,3103,Incêndio rural,1,2,0,12,2025-07-01T14:03:00Z,Arcos De Valdevez,Viana Do Castelo,Norte,-8.38508,41.945438,Resolução/Conclusão
25610062,Lousã e Vilarinho,Região de Coimbra,310,2025-07-01T15:19:00Z,25610062,Em Resolução/Conclusão,3105,Incêndio rural,0,5,0,20,2025-07-01T15:19:00Z,Lousã,Coimbra,Centro,-8.250997,40.10955,Resolução/Conclusão
25610110,Ferreira do Alentejo e Canhestros,Baixo Alentejo,312,2025-07-01T15:29:00Z,25610110,Em Despacho,3103,Incêndio rural,0,1,0,5,2025-07-01T15:29:00Z,Ferreira Do Alentejo,Beja,Alentejo,-8.280955,38.01636,Despacho
