id,address,subregion,neighborhood,date,id.1,state,nature,nature_description,aerial_means,terrestrial_means,aquatic_means,operational,date.1,Concelho,Distrito,NUTII_DSG,longitude,latitude
25473979,Loures,Grande Lisboa,311,2025-06-04T03:30:00Z,25473979,Em despacho,3105,Incêndio rural,0,1,0,5,2025-06-04T03:30:00Z,Loures,Lisboa,Área Metropolitana De Lisboa,-9.188441,38.862733
25473943,Massamá e Monte Abraão,Grande Lisboa,311,2025-06-04T02:46:00Z,25473943,Em conclusão,2301,Incêndio em transporte rodoviário,0,2,0,7,2025-06-04T02:46:00Z,Sintra,Lisboa,Área Metropolitana De Lisboa,-9.296238,38.76203
25466369,Melides,Alentejo Litoral,312,2025-06-02T13:27:00Z,25466369,Em conclusão,3103,Incêndio rural,0,1,0,2,2025-06-02T13:27:00Z,Grândola,Setúbal,Alentejo,-8.754243,38.19534
25467128,Monte Redondo e Carreira,Região de Leiria,310,2025-06-02T15:48:00Z,25467128,Em conclusão,3103,Incêndio rural,0,1,0,2,2025-06-02T15:48:00Z,Leiria,Leiria,Centro,-8.860783,39.89848
25473778,Bougado (São Martinho e Santiago),Area M. Porto,309,2025-06-04T00:23:00Z,25473778,Em conclusão,2127,"Incêndio em edifícios e recintos industriais, oficinas e armazéns",0,14,0,42,2025-06-04T00:23:00Z,Trofa,Porto,Norte,-8.561468,41.334938
25473964,Loures,Grande Lisboa,311,2025-06-04T03:14:00Z,25473964,Em despacho,2201,Incêndio em equipamentos ou produtos,0,1,0,5,2025-06-04T03:14:00Z,Loures,Lisboa,Área Metropolitana De Lisboa,-9.18643,38.86013
