id,address,subregion,neighborhood,date,id.1,state,nature,nature_description,aerial_means,terrestrial_means,aquatic_means,operational,date.1,Concelho,Distrito,NUTII_DSG,longitude,latitude,state_2
25737642,Aboim da Nóbrega e Gondomar,Cávado,309,2025-07-26T17:54:00Z,25737642,Em Resolução/Conclusão,3103,Incêndio rural,0,0,0,0,2025-07-26T17:54:00Z,Vila Verde,Braga,Norte,-8.38607,41.734402,Resolução/Conclusão
25741940,"Aldeia do Bispo, Águas e Aldeia de João Pires",Beira Baixa,310,2025-07-27T14:45:00Z,25741940,Em Resolução/Conclusão,3105,Incêndio rural,0,0,0,0,2025-07-27T14:45:00Z,Penamacor,Castelo Branco,Centro,-7.213632,40.123598,Resolução/Conclusão
25742517,Anhões e Luzio,Alto Minho,309,2025-07-27T17:08:00Z,25742517,Em Resolução/Conclusão,3103,Incêndio rural,0,5,0,10,2025-07-27T17:08:00Z,Monção,Viana Do Castelo,Norte,-8.452967,41.97745,Resolução/Conclusão
25744321,Gestaçô,Tâmega e Sousa,309,2025-07-28T03:55:00Z,25744321,Em Resolução/Conclusão,3103,Incêndio rural,0,1,0,5,2025-07-28T03:55:00Z,Baião,Porto,Norte,-7.951497,41.164208,Resolução/Conclusão
25744328,Vila Facaia,Região de Leiria,310,2025-07-28T04:00:00Z,25744328,Em Resolução/Conclusão,3101,Incêndio rural,0,1,0,2,2025-07-28T04:00:00Z,Pedrógão Grande,Leiria,Centro,-8.197592,39.93944,Resolução/Conclusão
25744346,Pedrógão Grande,Região de Leiria,310,2025-07-28T04:18:00Z,25744346,Em Resolução/Conclusão,3101,Incêndio rural,0,1,0,2,2025-07-28T04:18:00Z,Pedrógão Grande,Leiria,Centro,-8.18142,39.926725,Resolução/Conclusão
25746643,Cortiçô e Vila Chã,Beiras e Serra da Estrela,310,2025-07-28T13:20:00Z,25746643,Em Resolução/Conclusão,3103,Incêndio rural,0,7,0,22,2025-07-28T13:20:00Z,Fornos De Algodres,Guarda,Centro,-7.487027,40.660237,Resolução/Conclusão
25748038,Monte Córdova,Area M. Porto,309,2025-07-28T17:36:00Z,25748038,Em Resolução/Conclusão,3103,Incêndio rural,0,12,0,48,2025-07-28T17:36:00Z,Santo Tirso,Porto,Norte,-8.428603,41.317841,Resolução/Conclusão
25748408,Capela,Tâmega e Sousa,309,2025-07-28T19:08:00Z,25748408,Em Resolução/Conclusão,3103,Incêndio rural,0,3,0,11,2025-07-28T19:08:00Z,Penafiel,Porto,Norte,-8.344532,41.093632,Resolução/Conclusão
25746615,Alvarenga,Area M. Porto,309,2025-07-28T13:15:00Z,25746615,Em Curso,3103,Incêndio rural,1,50,0,156,2025-07-28T13:15:00Z,Arouca,Aveiro,Norte,-8.1888280000000009,40.986515,Curso
25746680,São Jorge e Ermelo,Alto Minho,309,2025-07-28T13:26:00Z,25746680,Em Resolução/Conclusão,3103,Incêndio rural,0,1,0,5,2025-07-28T13:26:00Z,Arcos De Valdevez,Viana Do Castelo,Norte,-8.365038,41.827368,Resolução/Conclusão
25747334,Aboim da Nóbrega e Gondomar,Cávado,309,2025-07-28T15:08:00Z,25747334,Em Resolução/Conclusão,3103,Incêndio rural,0,6,0,24,2025-07-28T15:08:00Z,Vila Verde,Braga,Norte,-8.38607,41.734402,Resolução/Conclusão
25747936,Canelas e Espiunca,Area M. Porto,309,2025-07-28T17:16:00Z,25747936,Em Curso,3103,Incêndio rural,0,33,0,123,2025-07-28T17:16:00Z,Arouca,Aveiro,Norte,-8.219872,41.00549,Curso
25748118,Canelas e Espiunca,Area M. Porto,309,2025-07-28T17:16:00Z,25748118,Em Curso,3101,Incêndio rural,0,19,0,73,2025-07-28T17:16:00Z,Arouca,Aveiro,Norte,-8.212231,40.969918,Curso
25748470,Planalto de Monforte (Oucidres e Bobadela),Alto Tâmega e Barroso,309,2025-07-28T19:20:00Z,25748470,Em Resolução/Conclusão,3103,Incêndio rural,0,3,0,15,2025-07-28T19:20:00Z,Chaves,Vila Real,Norte,-7.311353,41.78687,Resolução/Conclusão
25748776,São Martinho do Bispo e Ribeira de Frades,Região de Coimbra,310,2025-07-28T20:29:00Z,25748776,Em Curso,3105,Incêndio rural,0,4,0,17,2025-07-28T20:29:00Z,Coimbra,Coimbra,Centro,-8.462071,40.221668,Curso
25741525,Vela,Beiras e Serra da Estrela,310,2025-07-27T13:16:00Z,25741525,Em Resolução/Conclusão,3103,Incêndio rural,0,2,0,6,2025-07-27T13:16:00Z,Guarda,Guarda,Centro,-7.287277,40.438025,Resolução/Conclusão
25746607,Poiares e Canelas,Douro,309,2025-07-28T13:17:00Z,25746607,Em Resolução/Conclusão,3103,Incêndio rural,0,1,0,5,2025-07-28T13:17:00Z,Peso Da Régua,Vila Real,Norte,-7.726097,41.192663,Resolução/Conclusão
25747108,Melides,Alentejo Litoral,312,2025-07-28T14:39:00Z,25747108,Em Resolução/Conclusão,3101,Incêndio rural,0,6,0,18,2025-07-28T14:39:00Z,Grândola,Setúbal,Alentejo,-8.752402,38.123636,Resolução/Conclusão
25747692,Miranda,Alto Minho,309,2025-07-28T16:19:00Z,25747692,Em Resolução/Conclusão,3103,Incêndio rural,0,6,0,21,2025-07-28T16:19:00Z,Arcos De Valdevez,Viana Do Castelo,Norte,-8.519067,41.822082,Resolução/Conclusão
25748378,Arca e Varzielas,Viseu Dão Lafões,310,2025-07-28T19:00:00Z,25748378,Em Resolução/Conclusão,3103,Incêndio rural,0,6,0,28,2025-07-28T19:00:00Z,Oliveira De Frades,Viseu,Centro,-8.243603,40.617383,Resolução/Conclusão
25748728,NA,NA,0,2025-07-28T20:18:00Z,25748728,Em Curso,3103,Incêndio rural,0,9,0,38,2025-07-28T20:18:00Z,Almeida,Guarda,Centro,-6.860741,40.606944,Curso
25748537,Poceirão e Marateca,Península de Setúbal,311,2025-07-28T19:35:00Z,25748537,Em Resolução/Conclusão,3105,Incêndio rural,0,0,0,0,2025-07-28T19:35:00Z,Palmela,Setúbal,Área Metropolitana De Lisboa,-8.794448,38.600165,Resolução/Conclusão
25748670,Alcanede,Lezíria do Tejo,311,2025-07-28T20:05:00Z,25748670,Em Resolução/Conclusão,3103,Incêndio rural,0,5,0,19,2025-07-28T20:05:00Z,Santarém,Santarém,Alentejo,-8.848995,39.47232,Resolução/Conclusão
25748672,Sopo,Alto Minho,309,2025-07-28T20:07:00Z,25748672,Em Curso,3103,Incêndio rural,0,10,0,35,2025-07-28T20:07:00Z,Vila Nova De Cerveira,Viana Do Castelo,Norte,-8.76152,41.888527,Curso
25748821,Côja e Barril de Alva,Região de Coimbra,310,2025-07-28T20:42:00Z,25748821,Em Resolução/Conclusão,3103,Incêndio rural,0,8,0,33,2025-07-28T20:42:00Z,Arganil,Coimbra,Centro,-7.984516,40.270441,Resolução/Conclusão
25748903,Alcanena e Vila Moreira,Médio Tejo,311,2025-07-28T21:00:00Z,25748903,Em Resolução/Conclusão,3103,Incêndio rural,0,3,0,9,2025-07-28T21:00:00Z,Alcanena,Santarém,Centro,-8.666413,39.458072,Resolução/Conclusão
25748972,Vale,Alto Minho,309,2025-07-28T21:12:00Z,25748972,Em Despacho,3103,Incêndio rural,0,1,0,5,2025-07-28T21:12:00Z,Arcos De Valdevez,Viana Do Castelo,Norte,-8.360573,41.848074,Despacho
25738747,Lindoso,Alto Minho,309,2025-07-26T21:47:00Z,25738747,Em Curso,3103,Incêndio rural,0,129,0,387,2025-07-26T21:47:00Z,Ponte Da Barca,Viana Do Castelo,Norte,-8.220528,41.865272,Curso
25741880,Benavila e Valongo,Alto Alentejo,312,2025-07-27T14:31:00Z,25741880,Em Resolução/Conclusão,3101,Incêndio rural,0,6,0,22,2025-07-27T14:31:00Z,Avis,Portalegre,Alentejo,-7.866293,39.19533,Resolução/Conclusão
25743786,Portela,Alto Minho,309,2025-07-28T00:13:00Z,25743786,Em Curso,3101,Incêndio rural,0,31,0,99,2025-07-28T00:13:00Z,Monção,Viana Do Castelo,Norte,-8.480967,41.97155,Curso
25745576,Colmeal e Vilar Torpim,Beiras e Serra da Estrela,310,2025-07-28T10:23:00Z,25745576,Em Resolução/Conclusão,3105,Incêndio rural,0,4,0,11,2025-07-28T10:23:00Z,Figueira De Castelo Rodrigo,Guarda,Centro,-6.916033,40.829685,Resolução/Conclusão
25746771,Folgosa,Douro,309,2025-07-28T13:41:00Z,25746771,Em Resolução/Conclusão,3101,Incêndio rural,0,2,0,7,2025-07-28T13:41:00Z,Armamar,Viseu,Norte,-7.649955,41.157965,Resolução/Conclusão
25747112,São Cipriano e Vil de Souto,Viseu Dão Lafões,310,2025-07-28T14:40:00Z,25747112,Em Resolução/Conclusão,3103,Incêndio rural,0,1,0,5,2025-07-28T14:40:00Z,Viseu,Viseu,Centro,-7.993068,40.643088,Resolução/Conclusão
25747714,Campo e Sobrado,Area M. Porto,309,2025-07-28T16:24:00Z,25747714,Em Resolução/Conclusão,3103,Incêndio rural,0,11,0,36,2025-07-28T16:24:00Z,Valongo,Porto,Norte,-8.46049,41.23919,Resolução/Conclusão
25747773,Aranhas,Beira Baixa,310,2025-07-28T16:36:00Z,25747773,Em Curso,3103,Incêndio rural,2,113,0,349,2025-07-28T16:36:00Z,Penamacor,Castelo Branco,Centro,-7.14438,40.117542,Curso
25748864,Lustosa e Barrosas (Santo Estêvão),Tâmega e Sousa,309,2025-07-28T20:50:00Z,25748864,Em Resolução/Conclusão,3103,Incêndio rural,0,1,0,5,2025-07-28T20:50:00Z,Lousada,Porto,Norte,-8.312062,41.329285,Resolução/Conclusão
25748950,Nossa Senhora da Expectação,Alto Alentejo,312,2025-07-28T21:00:00Z,25748950,Em Despacho,3103,Incêndio rural,0,2,0,7,2025-07-28T21:00:00Z,Campo Maior,Portalegre,Alentejo,-7.063944,39.014855,Despacho
