id,address,subregion,neighborhood,date,id.1,state,nature,nature_description,aerial_means,terrestrial_means,aquatic_means,operational,date.1,Concelho,Distrito,NUTII_DSG,longitude,latitude,state_2
25773830,Andrães,Douro,309,2025-08-02T14:23:00Z,25773830,Em Resolução/Conclusão,3103,Incêndio rural,0,0,0,0,2025-08-02T14:23:00Z,Vila Real,Vila Real,Norte,-7.671293,41.267593,Resolução/Conclusão
25774883,Arnóia,Tâmega e Sousa,309,2025-08-02T18:20:00Z,25774883,Em Resolução/Conclusão,3103,Incêndio rural,0,3,0,8,2025-08-02T18:20:00Z,Celorico De Basto,Braga,Norte,-7.998983,41.348727,Resolução/Conclusão
25804968,Alvadia,Alto Tâmega e Barroso,309,2025-08-08T07:21:00Z,25804968,Em Curso,3103,Incêndio rural,5,57,0,169,2025-08-08T07:21:00Z,Ribeira De Pena,Vila Real,Norte,-7.782872,41.457452,Curso
25814493,Cota,Viseu Dão Lafões,310,2025-08-09T20:08:00Z,25814493,Em Resolução/Conclusão,3101,Incêndio rural,0,3,0,11,2025-08-09T20:08:00Z,Viseu,Viseu,Centro,-7.80263,40.777299,Resolução/Conclusão
25816131,"Crasto, Ruivos e Grovelas",Alto Minho,309,2025-08-10T06:25:00Z,25816131,Em Resolução/Conclusão,3103,Incêndio rural,0,1,0,4,2025-08-10T06:25:00Z,Ponte Da Barca,Viana Do Castelo,Norte,-8.444038,41.763607,Resolução/Conclusão
25816415,Este (São Pedro e São Mamede),Cávado,309,2025-08-10T08:26:00Z,25816415,Em Resolução/Conclusão,3103,Incêndio rural,0,4,0,15,2025-08-10T08:26:00Z,Braga,Braga,Norte,-8.364355,41.553377,Resolução/Conclusão
25816766,Correlhã,Alto Minho,309,2025-08-10T09:37:00Z,25816766,Em Resolução/Conclusão,3105,Incêndio rural,0,0,0,0,2025-08-10T09:37:00Z,Ponte De Lima,Viana Do Castelo,Norte,-8.602917,41.76168,Resolução/Conclusão
25785983,Caçarilhe e Infesta,Tâmega e Sousa,309,2025-08-04T18:22:00Z,25785983,Em Resolução/Conclusão,3103,Incêndio rural,0,10,0,32,2025-08-04T18:22:00Z,Celorico De Basto,Braga,Norte,-8.04611,41.419858,Resolução/Conclusão
25792058,Cibões e Brufe,Cávado,309,2025-08-05T19:10:00Z,25792058,Em Resolução/Conclusão,3103,Incêndio rural,0,1,0,5,2025-08-05T19:10:00Z,Terras De Bouro,Braga,Norte,-8.293932,41.764918,Resolução/Conclusão
25816169,Abaças,Douro,309,2025-08-10T06:47:00Z,25816169,Em Resolução/Conclusão,3103,Incêndio rural,0,3,0,15,2025-08-10T06:47:00Z,Vila Real,Vila Real,Norte,-7.69322,41.20793,Resolução/Conclusão
25817055,Vila Cova da Lixa e Borba de Godim,Tâmega e Sousa,309,2025-08-10T10:25:00Z,25817055,Em Resolução/Conclusão,3103,Incêndio rural,0,2,0,6,2025-08-10T10:25:00Z,Felgueiras,Porto,Norte,-8.135862,41.319933,Resolução/Conclusão
25817078,Associação de Freguesias do Vale do Neiva,Alto Minho,309,2025-08-10T10:29:00Z,25817078,Em Resolução/Conclusão,3103,Incêndio rural,0,1,0,5,2025-08-10T10:29:00Z,Ponte De Lima,Viana Do Castelo,Norte,-8.56322,41.62858,Resolução/Conclusão
25775263,Torgueda,Douro,309,2025-08-02T19:49:00Z,25775263,Em Resolução/Conclusão,3101,Incêndio rural,0,5,0,14,2025-08-02T19:49:00Z,Vila Real,Vila Real,Norte,-7.785983,41.274952,Resolução/Conclusão
25800301,Alvão,Alto Tâmega e Barroso,309,2025-08-07T10:03:00Z,25800301,Em Resolução/Conclusão,3103,Incêndio rural,0,4,0,11,2025-08-07T10:03:00Z,Vila Pouca De Aguiar,Vila Real,Norte,-7.74157,41.466742000000004,Resolução/Conclusão
25802248,Graça,Região de Leiria,310,2025-08-07T15:30:00Z,25802248,Em Resolução/Conclusão,3101,Incêndio rural,0,1,0,2,2025-08-07T15:30:00Z,Pedrógão Grande,Leiria,Centro,-8.217915,39.911242,Resolução/Conclusão
25803707,Almofala e Escarigo,Beiras e Serra da Estrela,310,2025-08-07T20:50:00Z,25803707,Em Resolução/Conclusão,3103,Incêndio rural,0,9,0,30,2025-08-07T20:50:00Z,Figueira De Castelo Rodrigo,Guarda,Centro,-6.847203,40.887165,Resolução/Conclusão
25807426,Alvite,Douro,309,2025-08-08T14:31:00Z,25807426,Em Resolução/Conclusão,3103,Incêndio rural,2,137,0,427,2025-08-08T14:31:00Z,Moimenta Da Beira,Viseu,Norte,-7.688727,40.96613,Resolução/Conclusão
25812717,Abrunhosa-a-Velha,Viseu Dão Lafões,310,2025-08-09T12:50:00Z,25812717,Em Resolução/Conclusão,3103,Incêndio rural,0,2,0,10,2025-08-09T12:50:00Z,Mangualde,Viseu,Centro,-7.778693,40.59536,Resolução/Conclusão
25813069,Alcaide,Beiras e Serra da Estrela,310,2025-08-09T15:04:00Z,25813069,Em Resolução/Conclusão,3103,Incêndio rural,0,1,0,5,2025-08-09T15:04:00Z,Fundão,Castelo Branco,Centro,-7.436153,40.133788,Resolução/Conclusão
25815725,Bouro (Santa Marta),Cávado,309,2025-08-10T01:54:00Z,25815725,Em Resolução/Conclusão,3103,Incêndio rural,0,9,0,29,2025-08-10T01:54:00Z,Amares,Braga,Norte,-8.279715,41.69202,Resolução/Conclusão
25816150,Foz do Sousa e Covelo,Area M. Porto,309,2025-08-10T06:32:00Z,25816150,Em Resolução/Conclusão,3103,Incêndio rural,0,1,0,5,2025-08-10T06:32:00Z,Gondomar,Porto,Norte,-8.491703,41.08543,Resolução/Conclusão
25817027,Boivães,Alto Minho,309,2025-08-10T10:15:00Z,25817027,Em Resolução/Conclusão,3103,Incêndio rural,0,1,0,4,2025-08-10T10:15:00Z,Ponte Da Barca,Viana Do Castelo,Norte,-8.464643,41.75679,Resolução/Conclusão
25817093,Lagares e Figueira,Tâmega e Sousa,309,2025-08-10T10:33:00Z,25817093,Em Resolução/Conclusão,3103,Incêndio rural,0,2,0,10,2025-08-10T10:33:00Z,Penafiel,Porto,Norte,-8.363123,41.122523,Resolução/Conclusão
25817277,Lorvão,Região de Coimbra,310,2025-08-10T11:09:00Z,25817277,Em Despacho,3101,Incêndio rural,2,6,0,39,2025-08-10T11:09:00Z,Penacova,Coimbra,Centro,-8.328179,40.235482,Despacho
25776263,"Pena, Quintã e Vila Cova",Douro,309,2025-08-02T23:45:00Z,25776263,Em Curso,3103,Incêndio rural,7,63,0,224,2025-08-02T23:45:00Z,Vila Real,Vila Real,Norte,-7.811902,41.317355,Curso
25783717,Cunha Baixa,Viseu Dão Lafões,310,2025-08-04T11:48:00Z,25783717,Em Resolução/Conclusão,3101,Incêndio rural,0,1,0,2,2025-08-04T11:48:00Z,Mangualde,Viseu,Centro,-7.764411,40.559738,Resolução/Conclusão
25787860,Faíl e Vila Chã de Sá,Viseu Dão Lafões,310,2025-08-05T05:55:00Z,25787860,Em Resolução/Conclusão,3103,Incêndio rural,0,0,0,0,2025-08-05T05:55:00Z,Viseu,Viseu,Centro,-7.987877,40.601342,Resolução/Conclusão
25802450,Canas de Santa Maria,Viseu Dão Lafões,310,2025-08-07T16:14:00Z,25802450,Em Resolução/Conclusão,3103,Incêndio rural,0,1,0,2,2025-08-07T16:14:00Z,Tondela,Viseu,Centro,-8.032777,40.56017,Resolução/Conclusão
25808770,Pindo,Viseu Dão Lafões,310,2025-08-08T18:52:00Z,25808770,Em Resolução/Conclusão,3103,Incêndio rural,0,0,0,0,2025-08-08T18:52:00Z,Penalva Do Castelo,Viseu,Centro,-7.763725,40.674402,Resolução/Conclusão
25808937,Abrunhosa-a-Velha,Viseu Dão Lafões,310,2025-08-08T19:26:00Z,25808937,Em Resolução/Conclusão,3103,Incêndio rural,0,1,0,2,2025-08-08T19:26:00Z,Mangualde,Viseu,Centro,-7.647667,40.572515,Resolução/Conclusão
25813482,Freches e Torres,Beiras e Serra da Estrela,310,2025-08-09T16:21:00Z,25813482,Em Resolução/Conclusão,3103,Incêndio rural,3,103,0,317,2025-08-09T16:21:00Z,Trancoso,Guarda,Centro,-7.363745,40.709022,Resolução/Conclusão
25816189,"Sandim, Olival, Lever e Crestuma",Area M. Porto,309,2025-08-10T06:58:00Z,25816189,Em Resolução/Conclusão,3103,Incêndio rural,0,1,0,2,2025-08-10T06:58:00Z,Vila Nova De Gaia,Porto,Norte,-8.478806,41.06237,Resolução/Conclusão
25817306,Tavarede,Região de Coimbra,310,2025-08-10T11:14:00Z,25817306,Em Despacho,3101,Incêndio rural,1,0,0,6,2025-08-10T11:14:00Z,Figueira Da Foz,Coimbra,Centro,-8.83165,40.1732,Despacho
25817059,Vale,Alto Minho,309,2025-08-10T10:25:00Z,25817059,Em Curso,3103,Incêndio rural,1,1,0,11,2025-08-10T10:25:00Z,Arcos De Valdevez,Viana Do Castelo,Norte,-8.358695,41.839208,Curso
25817076,Arganil,Região de Coimbra,310,2025-08-10T10:29:00Z,25817076,Em Resolução/Conclusão,3101,Incêndio rural,0,4,0,13,2025-08-10T10:29:00Z,Arganil,Coimbra,Centro,-8.06611,40.23611,Resolução/Conclusão
