id,address,subregion,neighborhood,date,id.1,state,nature,nature_description,aerial_means,terrestrial_means,aquatic_means,operational,date.1,Concelho,Distrito,NUTII_DSG,longitude,latitude
25053087,Rio de Mouro,Grande Lisboa,311,2025-03-07T13:39:00Z,25053087,Em despacho,3311,Queda de elementos de estruturas edificados,0,1,0,5,2025-03-07T13:39:00Z,Sintra,Lisboa,Área Metropolitana De Lisboa,-9.31194,38.78508
25053154,"S.maria, S.miguel, S.martinho, S.pedro Penaferrim",Grande Lisboa,311,2025-03-07T13:48:00Z,25053154,Em despacho,3315,Inundação de estruturas por precipitação intensa,0,1,0,5,2025-03-07T13:48:00Z,Sintra,Lisboa,Área Metropolitana De Lisboa,-9.40542,38.820035
25053189,Alfragide,Grande Lisboa,311,2025-03-07T13:49:00Z,25053189,Em despacho,3311,Queda de elementos de estruturas edificados,0,1,0,4,2025-03-07T13:49:00Z,Amadora,Lisboa,Área Metropolitana De Lisboa,-9.225704,38.738085
25053221,"Almargem do Bispo, Pêro Pinheiro e Montelavar",Grande Lisboa,311,2025-03-07T14:02:00Z,25053221,Em despacho,3313,Deslizamento de terras,0,3,0,5,2025-03-07T14:02:00Z,Sintra,Lisboa,Área Metropolitana De Lisboa,-9.279282,38.82106
25053223,"Algés, Linda-a-Velha e Cruz Quebrada-Dafundo",Grande Lisboa,311,2025-03-07T13:55:00Z,25053223,Em curso,3311,Queda de elementos de estruturas edificados,0,1,0,2,2025-03-07T13:55:00Z,Oeiras,Lisboa,Área Metropolitana De Lisboa,-9.22967,38.696612
25053036,Bombarral e Vale Covo,Oeste,311,2025-03-07T13:29:00Z,25053036,Em conclusão,3301,Queda de árvore,0,4,0,7,2025-03-07T13:29:00Z,Bombarral,Leiria,Centro,-9.142029,39.245053
25053270,Fernão Ferro,Península de Setúbal,311,2025-03-07T13:59:00Z,25053270,Em curso,3301,Queda de árvore,0,0,0,0,2025-03-07T13:59:00Z,Seixal,Setúbal,Área Metropolitana De Lisboa,-9.063432,38.552125
25053727,Ansiães,Tâmega e Sousa,309,2025-03-07T15:22:00Z,25053727,Em despacho,3301,Queda de árvore,0,1,0,1,2025-03-07T15:22:00Z,Amarante,Porto,Norte,-7.96601,41.25584
25053788,Estorãos,Alto Minho,309,2025-03-07T15:27:00Z,25053788,Em curso,3301,Queda de árvore,0,1,0,2,2025-03-07T15:27:00Z,Ponte De Lima,Viana Do Castelo,Norte,-8.652805,41.784148
25053870,Parreira e Chouto,Lezíria do Tejo,311,2025-03-07T15:44:00Z,25053870,Em despacho,3301,Queda de árvore,0,2,0,4,2025-03-07T15:44:00Z,Chamusca,Santarém,Alentejo,-8.327738,39.256475
25053241,Bombarral e Vale Covo,Oeste,311,2025-03-07T13:55:00Z,25053241,Em resolução,3311,Queda de elementos de estruturas edificados,0,2,0,6,2025-03-07T13:55:00Z,Bombarral,Leiria,Centro,-9.171316,39.267313
25053308,Ermidas-Sado,Alentejo Litoral,312,2025-03-07T14:02:00Z,25053308,Em despacho,3301,Queda de árvore,0,1,0,2,2025-03-07T14:02:00Z,Santiago Do Cacém,Setúbal,Alentejo,-8.366897,38.010808
25053324,Louriçal,Região de Leiria,310,2025-03-07T14:12:00Z,25053324,Em despacho,3301,Queda de árvore,0,1,0,5,2025-03-07T14:12:00Z,Pombal,Leiria,Centro,-8.745623,40.007074
25053372,"S.julião, N.s. da Anunciada e S. Maria da Graça",Península de Setúbal,311,2025-03-07T14:21:00Z,25053372,Em despacho,3301,Queda de árvore,0,2,0,7,2025-03-07T14:21:00Z,Setúbal,Setúbal,Área Metropolitana De Lisboa,-8.889983,38.529955
25053425,Tornada e Salir do Porto,Oeste,311,2025-03-07T14:27:00Z,25053425,Em conclusão,3329,Queda de estruturas temporárias ou móveis,0,1,0,2,2025-03-07T14:27:00Z,Caldas Da Rainha,Leiria,Centro,-9.151736,39.435014
25053489,Póvoa de Santa Iria e Forte da Casa,Grande Lisboa,311,2025-03-07T14:04:00Z,25053489,Em conclusão,3301,Queda de árvore,0,1,0,5,2025-03-07T14:04:00Z,Vila Franca De Xira,Lisboa,Área Metropolitana De Lisboa,-9.06283,38.860199
25053491,Encarnação,Grande Lisboa,311,2025-03-07T14:25:00Z,25053491,Em despacho,3301,Queda de árvore,0,1,0,5,2025-03-07T14:25:00Z,Mafra,Lisboa,Área Metropolitana De Lisboa,-9.365289,39.029436
25053879,Peniche,Oeste,311,2025-03-07T15:35:00Z,25053879,Em despacho,3321,Dano na rede de fornecimento de eletricidade ,0,1,0,5,2025-03-07T15:35:00Z,Peniche,Leiria,Centro,-9.376833,39.357166
25053897,"Algés, Linda-a-Velha e Cruz Quebrada-Dafundo",Grande Lisboa,311,2025-03-07T15:45:00Z,25053897,Em despacho,3329,Queda de estruturas temporárias ou móveis,0,2,0,6,2025-03-07T15:45:00Z,Oeiras,Lisboa,Área Metropolitana De Lisboa,-9.22967,38.696612
25053911,"Freixianda, Ribeira do Fárrio e Formigais",Médio Tejo,311,2025-03-07T15:54:00Z,25053911,Em despacho,3301,Queda de árvore,0,1,0,5,2025-03-07T15:54:00Z,Ourém,Santarém,Centro,-8.49722,39.764053
25053400,Sacavém e Prior Velho,Grande Lisboa,311,2025-03-07T14:15:00Z,25053400,Em despacho,3301,Queda de árvore,0,1,0,4,2025-03-07T14:15:00Z,Lisboa,Lisboa,Área Metropolitana De Lisboa,-9.097627,38.792359
25053465,Fernão Ferro,Península de Setúbal,311,2025-03-07T14:37:00Z,25053465,Em despacho,3301,Queda de árvore,0,1,0,3,2025-03-07T14:37:00Z,Seixal,Setúbal,Área Metropolitana De Lisboa,-9.058636,38.55485
25053566,Miragaia e Marteleira,Oeste,311,2025-03-07T14:51:00Z,25053566,Em conclusão,3313,Deslizamento de terras,0,1,0,2,2025-03-07T14:51:00Z,Lourinhã,Lisboa,Centro,-9.275912,39.197494
25053734,Campolide,Grande Lisboa,311,2025-03-07T15:05:00Z,25053734,Em curso,3301,Queda de árvore,0,1,0,5,2025-03-07T15:05:00Z,Lisboa,Lisboa,Área Metropolitana De Lisboa,-9.165804,38.731424
25053747,Esgueira,Região de Aveiro,310,2025-03-07T15:15:00Z,25053747,Em curso,3321,Dano na rede de fornecimento de eletricidade ,0,1,0,2,2025-03-07T15:15:00Z,Aveiro,Aveiro,Centro,-8.639234,40.66049
25053797,Loureiro,Area M. Porto,309,2025-03-07T15:08:00Z,25053797,Em despacho,3301,Queda de árvore,0,1,0,2,2025-03-07T15:08:00Z,Oliveira De Azeméis,Aveiro,Norte,-8.52728,40.811025
25053801,Azeitão (São Lourenço e São Simão),Península de Setúbal,311,2025-03-07T15:31:00Z,25053801,Em despacho,3301,Queda de árvore,0,1,0,5,2025-03-07T15:31:00Z,Setúbal,Setúbal,Área Metropolitana De Lisboa,-9.033171,38.51723
25053605,São Vicente do Paul e Vale de Figueira,Lezíria do Tejo,311,2025-03-07T14:56:00Z,25053605,Em conclusão,3301,Queda de árvore,0,1,0,5,2025-03-07T14:56:00Z,Santarém,Santarém,Alentejo,-8.59935,39.373658
25053692,"Alto do Seixalinho, Santo André e Verderena",Península de Setúbal,311,2025-03-07T14:50:00Z,25053692,Em despacho,3311,Queda de elementos de estruturas edificados,0,1,0,4,2025-03-07T14:50:00Z,Barreiro,Setúbal,Área Metropolitana De Lisboa,-9.072252,38.651508
25053709,Marinhais,Lezíria do Tejo,311,2025-03-07T15:17:00Z,25053709,Em resolução,3301,Queda de árvore,0,2,0,8,2025-03-07T15:17:00Z,Salvaterra De Magos,Santarém,Alentejo,-8.700473,39.048435
25053758,Rio de Couros e Casal Dos Bernardos,Médio Tejo,311,2025-03-07T15:23:00Z,25053758,Em despacho,3301,Queda de árvore,0,1,0,4,2025-03-07T15:23:00Z,Ourém,Santarém,Centro,-8.470545,39.704028
25053776,Campanhã,Area M. Porto,309,2025-03-07T15:21:00Z,25053776,Em despacho,3329,Queda de estruturas temporárias ou móveis,0,1,0,5,2025-03-07T15:21:00Z,Porto,Porto,Norte,-8.58392,41.16637
25053873,Buarcos,Região de Coimbra,310,2025-03-07T15:42:00Z,25053873,Em despacho,3321,Dano na rede de fornecimento de eletricidade ,0,1,0,6,2025-03-07T15:42:00Z,Figueira Da Foz,Coimbra,Centro,-8.880897,40.168384
25053889,Santa Catarina da Serra e Chainça,Região de Leiria,310,2025-03-07T15:44:00Z,25053889,Em despacho,3301,Queda de árvore,0,1,0,5,2025-03-07T15:44:00Z,Leiria,Leiria,Centro,-8.698656,39.708305
25053890,São Miguel do Rio Torto e Rossio Ao Sul do Tejo,Médio Tejo,311,2025-03-07T15:48:00Z,25053890,Em despacho,3301,Queda de árvore,0,1,0,2,2025-03-07T15:48:00Z,Abrantes,Santarém,Centro,-8.183039,39.423261
25053908,"S.maria, S.miguel, S.martinho, S.pedro Penaferrim",Grande Lisboa,311,2025-03-07T15:48:00Z,25053908,Em despacho,3301,Queda de árvore,0,1,0,4,2025-03-07T15:48:00Z,Sintra,Lisboa,Área Metropolitana De Lisboa,-9.380105,38.790996
25053142,Barcarena,Grande Lisboa,311,2025-03-07T13:40:00Z,25053142,Em despacho,3301,Queda de árvore,0,1,0,5,2025-03-07T13:40:00Z,Oeiras,Lisboa,Área Metropolitana De Lisboa,-9.277392,38.733987
25053167,São Domingos de Rana,Grande Lisboa,311,2025-03-07T13:53:00Z,25053167,Em despacho,3321,Dano na rede de fornecimento de eletricidade ,0,1,0,3,2025-03-07T13:53:00Z,Cascais,Lisboa,Área Metropolitana De Lisboa,-9.33557,38.72674
25053203,Miragaia e Marteleira,Oeste,311,2025-03-07T13:59:00Z,25053203,Em curso,3301,Queda de árvore,0,3,0,4,2025-03-07T13:59:00Z,Lourinhã,Lisboa,Centro,-9.262346,39.235841
25053269,Colmeias e Memória,Região de Leiria,310,2025-03-07T14:07:00Z,25053269,Em despacho,3309,Desabamento de estruturas edificadas,0,1,0,5,2025-03-07T14:07:00Z,Leiria,Leiria,Centro,-8.70875,39.800121
25053362,Alpiarça,Lezíria do Tejo,311,2025-03-07T14:22:00Z,25053362,Em resolução,3301,Queda de árvore,0,3,0,7,2025-03-07T14:22:00Z,Alpiarça,Santarém,Alentejo,-8.585043,39.248027
25053401,"Torres Novas (Santa Maria, Salvador e Santiago)",Médio Tejo,311,2025-03-07T14:25:00Z,25053401,Em conclusão,3329,Queda de estruturas temporárias ou móveis,0,3,0,9,2025-03-07T14:25:00Z,Torres Novas,Santarém,Centro,-8.523762,39.465527
25053412,"Barcelos, V. Boa e V. Frescainha",Cávado,309,2025-03-07T14:25:00Z,25053412,Em despacho,3329,Queda de estruturas temporárias ou móveis,0,1,0,2,2025-03-07T14:25:00Z,Barcelos,Braga,Norte,-8.631632,41.537528
25053814,Almeirim,Lezíria do Tejo,311,2025-03-07T15:34:00Z,25053814,Em conclusão,3301,Queda de árvore,0,1,0,3,2025-03-07T15:34:00Z,Almeirim,Santarém,Alentejo,-8.634635,39.204557
25053881,Benedita,Oeste,311,2025-03-07T15:30:00Z,25053881,Em despacho,3321,Dano na rede de fornecimento de eletricidade ,0,3,0,6,2025-03-07T15:30:00Z,Alcobaça,Leiria,Centro,-8.979714,39.424686
25053562,Montijo e Afonsoeiro,Península de Setúbal,311,2025-03-07T14:31:00Z,25053562,Em despacho,3321,Dano na rede de fornecimento de eletricidade ,0,1,0,4,2025-03-07T14:31:00Z,Montijo,Setúbal,Área Metropolitana De Lisboa,-8.975715,38.702323
25053587,Calvão,Região de Aveiro,310,2025-03-07T14:58:00Z,25053587,Em despacho,3321,Dano na rede de fornecimento de eletricidade ,0,1,0,2,2025-03-07T14:58:00Z,Vagos,Aveiro,Centro,-8.69278,40.48025
25053594,Santa Maria Maior e Monserrate e Meadela,Alto Minho,309,2025-03-07T14:58:00Z,25053594,Em despacho,3311,Queda de elementos de estruturas edificados,0,1,0,2,2025-03-07T14:58:00Z,Viana Do Castelo,Viana Do Castelo,Norte,-8.81652,41.703882
25053712,"Alto do Seixalinho, Santo André e Verderena",Península de Setúbal,311,2025-03-07T15:10:00Z,25053712,Em despacho,3315,Inundação de estruturas por precipitação intensa,0,1,0,4,2025-03-07T15:10:00Z,Barreiro,Setúbal,Área Metropolitana De Lisboa,-9.072252,38.651508
25053787,Alhos Vedros,Península de Setúbal,311,2025-03-07T15:28:00Z,25053787,Em despacho,3309,Desabamento de estruturas edificadas,0,1,0,4,2025-03-07T15:28:00Z,Moita,Setúbal,Área Metropolitana De Lisboa,-9.026889,38.657804
25053812,"S.julião, N.s. da Anunciada e S. Maria da Graça",Península de Setúbal,311,2025-03-07T15:29:00Z,25053812,Em despacho,3301,Queda de árvore,0,1,0,4,2025-03-07T15:29:00Z,Setúbal,Setúbal,Área Metropolitana De Lisboa,-8.889983,38.529955
