id,address,subregion,neighborhood,date,id.1,state,nature,nature_description,aerial_means,terrestrial_means,aquatic_means,operational,date.1,Concelho,Distrito,NUTII_DSG,longitude,latitude,state_2
26013405,Barreiros e Cepões,Viseu Dão Lafões,310,2025-09-19T11:56:00Z,26013405,Em Resolução/Conclusão,3103,Incêndio rural,0,10,0,37,2025-09-19T11:56:00Z,Viseu,Viseu,Centro,-7.786007,40.76602,Resolução/Conclusão
26022995,Bordeira,Algarve,313,2025-09-21T12:21:00Z,26022995,Em Curso,3103,Incêndio rural,3,151,0,433,2025-09-21T12:21:00Z,Aljezur,Faro,Algarve,-8.825374,37.23495,Curso
26023264,Arnóia,Tâmega e Sousa,309,2025-09-21T13:33:00Z,26023264,Em Resolução/Conclusão,3103,Incêndio rural,0,6,0,20,2025-09-21T13:33:00Z,Celorico De Basto,Braga,Norte,-8.002693,41.357533,Resolução/Conclusão
26024451,Rossas,Ave,309,2025-09-21T18:09:00Z,26024451,Em Curso,3101,Incêndio rural,2,5,0,32,2025-09-21T18:09:00Z,Vieira Do Minho,Braga,Norte,-8.059448,41.578123,Curso
25951176,Sandomil,Beiras e Serra da Estrela,310,2025-09-06T10:29:00Z,25951176,Em Resolução/Conclusão,3103,Incêndio rural,0,2,0,10,2025-09-06T10:29:00Z,Seia,Guarda,Centro,-7.76001,40.351547,Resolução/Conclusão
26020631,"Tavares (Chãs, Várzea e Travanca)",Viseu Dão Lafões,310,2025-09-20T21:15:00Z,26020631,Em Resolução/Conclusão,3103,Incêndio rural,0,1,0,5,2025-09-20T21:15:00Z,Mangualde,Viseu,Centro,-7.639468,40.609133,Resolução/Conclusão
26023742,Nadadouro,Oeste,311,2025-09-21T15:07:00Z,26023742,Em Resolução/Conclusão,3101,Incêndio rural,0,2,0,7,2025-09-21T15:07:00Z,Caldas Da Rainha,Leiria,Centro,-9.192847,39.414958,Resolução/Conclusão
26023772,Rossas,Ave,309,2025-09-21T15:12:00Z,26023772,Em Curso,3103,Incêndio rural,4,14,0,51,2025-09-21T15:12:00Z,Vieira Do Minho,Braga,Norte,-8.091527,41.58864,Curso
26023993,Castro Marim,Algarve,313,2025-09-21T16:04:00Z,26023993,Em Resolução/Conclusão,3103,Incêndio rural,0,8,0,25,2025-09-21T16:04:00Z,Vila Real De Santo António,Faro,Algarve,-7.535302,37.24853,Resolução/Conclusão
26024173,Vidigueira,Baixo Alentejo,312,2025-09-21T16:58:00Z,26024173,Em Resolução/Conclusão,3105,Incêndio rural,0,10,0,28,2025-09-21T16:58:00Z,Vidigueira,Beja,Alentejo,-7.79022,38.212229,Resolução/Conclusão
26024276,Monte Redondo e Carreira,Região de Leiria,310,2025-09-21T17:24:00Z,26024276,Em Resolução/Conclusão,3105,Incêndio rural,0,3,0,8,2025-09-21T17:24:00Z,Leiria,Leiria,Centro,-8.786287,39.874758,Resolução/Conclusão
26024592,Monte Redondo e Carreira,Região de Leiria,310,2025-09-21T18:44:00Z,26024592,Em Curso,3105,Incêndio rural,1,10,0,43,2025-09-21T18:44:00Z,Leiria,Leiria,Centro,-8.851886,39.865967,Curso
25832672,Piódão,Região de Coimbra,310,2025-08-13T05:08:00Z,25832672,Em Resolução/Conclusão,3103,Incêndio rural,0,0,0,0,2025-08-13T05:08:00Z,Arganil,Coimbra,Centro,-7.81972,40.23083,Resolução/Conclusão
26013902,Penacova,Região de Coimbra,310,2025-09-19T13:28:00Z,26013902,Em Resolução/Conclusão,3103,Incêndio rural,0,5,0,14,2025-09-19T13:28:00Z,Penacova,Coimbra,Centro,-8.32583,40.32722,Resolução/Conclusão
26016785,Gralhas,Alto Tâmega e Barroso,309,2025-09-20T01:20:00Z,26016785,Em Resolução/Conclusão,3103,Incêndio rural,1,36,0,135,2025-09-20T01:20:00Z,Montalegre,Vila Real,Norte,-7.720897,41.880163,Resolução/Conclusão
26019877,Guardão,Viseu Dão Lafões,310,2025-09-20T17:50:00Z,26019877,Em Resolução/Conclusão,3103,Incêndio rural,0,5,0,21,2025-09-20T17:50:00Z,Tondela,Viseu,Centro,-8.148484,40.610274,Resolução/Conclusão
26024055,Belinho e Mar,Cávado,309,2025-09-21T16:22:00Z,26024055,Em Resolução/Conclusão,3103,Incêndio rural,0,2,0,7,2025-09-21T16:22:00Z,Esposende,Braga,Norte,-8.760998,41.584353,Resolução/Conclusão
26024064,Cimo de Vila da Castanheira,Alto Tâmega e Barroso,309,2025-09-21T16:22:00Z,26024064,Em Resolução/Conclusão,3103,Incêndio rural,0,5,0,18,2025-09-21T16:22:00Z,Chaves,Vila Real,Norte,-7.294467,41.810837,Resolução/Conclusão
26024505,"Alto do Seixalinho, Santo André e Verderena",Península de Setúbal,311,2025-09-21T18:22:00Z,26024505,Em Resolução/Conclusão,3103,Incêndio rural,1,7,0,26,2025-09-21T18:22:00Z,Barreiro,Setúbal,Área Metropolitana De Lisboa,-9.06798,38.65674,Resolução/Conclusão
26003298,Barreiros e Cepões,Viseu Dão Lafões,310,2025-09-17T12:05:00Z,26003298,Em Resolução/Conclusão,3101,Incêndio rural,0,1,0,2,2025-09-17T12:05:00Z,Viseu,Viseu,Centro,-7.825281,40.745844,Resolução/Conclusão
26013065,Mezio e Moura Morta,Viseu Dão Lafões,310,2025-09-19T11:05:00Z,26013065,Em Resolução/Conclusão,3103,Incêndio rural,0,31,0,152,2025-09-19T11:05:00Z,Castro Daire,Viseu,Centro,-7.878187,40.98632,Resolução/Conclusão
26013919,Ervedal e Vila Franca da Beira,Região de Coimbra,310,2025-09-19T13:25:00Z,26013919,Em Resolução/Conclusão,3103,Incêndio rural,0,23,0,76,2025-09-19T13:25:00Z,Oliveira Do Hospital,Coimbra,Centro,-7.90472,40.43917,Resolução/Conclusão
26022857,NA,NA,0,2025-09-21T08:20:00Z,26022857,Em Resolução/Conclusão,3103,Incêndio rural,0,5,0,15,2025-09-21T08:20:00Z,NA,NA,NA,-8.10654,41.86587,Resolução/Conclusão
26024381,Faro (Sé e São Pedro),Algarve,313,2025-09-21T17:50:00Z,26024381,Em Curso,3103,Incêndio rural,2,20,0,66,2025-09-21T17:50:00Z,Faro,Faro,Algarve,-7.942032,37.01865,Curso
26024465,Praia do Ribatejo,Médio Tejo,311,2025-09-21T18:14:00Z,26024465,Em Resolução/Conclusão,3103,Incêndio rural,0,2,0,7,2025-09-21T18:14:00Z,Vila Nova Da Barquinha,Santarém,Centro,-8.353177,39.466898,Resolução/Conclusão
