id,address,subregion,neighborhood,date,id.1,state,nature,nature_description,aerial_means,terrestrial_means,aquatic_means,operational,date.1,Concelho,Distrito,NUTII_DSG,longitude,latitude,state_2
25773830,Andrães,Douro,309,2025-08-02T14:23:00Z,25773830,Em Resolução/Conclusão,3103,Incêndio rural,0,15,0,55,2025-08-02T14:23:00Z,Vila Real,Vila Real,Norte,-7.671293,41.267593,Resolução/Conclusão
25774883,Arnóia,Tâmega e Sousa,309,2025-08-02T18:20:00Z,25774883,Em Resolução/Conclusão,3103,Incêndio rural,0,14,0,45,2025-08-02T18:20:00Z,Celorico De Basto,Braga,Norte,-7.998983,41.348727,Resolução/Conclusão
25793436,Vila Velha de Ródão,Beira Baixa,310,2025-08-06T02:41:00Z,25793436,Em Resolução/Conclusão,3103,Incêndio rural,0,3,0,8,2025-08-06T02:41:00Z,Vila Velha De Ródão,Castelo Branco,Centro,-7.683468,39.646462,Resolução/Conclusão
25794472,Boelhe,Tâmega e Sousa,309,2025-08-06T09:45:00Z,25794472,Em Curso,3103,Incêndio rural,1,23,0,74,2025-08-06T09:45:00Z,Penafiel,Porto,Norte,-8.251117,41.129577,Curso
25796976,Figueiras e Covas,Tâmega e Sousa,309,2025-08-06T16:28:00Z,25796976,Em Resolução/Conclusão,3103,Incêndio rural,0,1,0,1,2025-08-06T16:28:00Z,Lousada,Porto,Norte,-8.32847,41.274,Resolução/Conclusão
25797043,Penafiel,Tâmega e Sousa,309,2025-08-06T16:41:00Z,25797043,Em Resolução/Conclusão,3103,Incêndio rural,0,3,0,13,2025-08-06T16:41:00Z,Penafiel,Porto,Norte,-8.254173,41.212238,Resolução/Conclusão
25797179,Espadanedo,Tâmega e Sousa,309,2025-08-06T17:02:00Z,25797179,Em Resolução/Conclusão,3105,Incêndio rural,0,1,0,5,2025-08-06T17:02:00Z,Cinfães,Viseu,Norte,-8.191446,41.085713,Resolução/Conclusão
25797244,São Miguel de Poiares,Região de Coimbra,310,2025-08-06T17:13:00Z,25797244,Em Resolução/Conclusão,3105,Incêndio rural,0,1,0,2,2025-08-06T17:13:00Z,Vila Nova De Poiares,Coimbra,Centro,-8.19419,40.20231,Resolução/Conclusão
25797260,Branca,Região de Aveiro,310,2025-08-06T17:17:00Z,25797260,Em Resolução/Conclusão,3101,Incêndio rural,0,4,0,17,2025-08-06T17:17:00Z,Albergaria-a-Velha,Aveiro,Centro,-8.474942,40.753318,Resolução/Conclusão
25797395,Bustelo,Tâmega e Sousa,309,2025-08-06T17:30:00Z,25797395,Em Resolução/Conclusão,3103,Incêndio rural,1,1,0,11,2025-08-06T17:30:00Z,Penafiel,Porto,Norte,-8.27554,41.227027,Resolução/Conclusão
25797512,Santa Maria da Devesa,Alto Alentejo,312,2025-08-06T18:11:00Z,25797512,Em Despacho,3103,Incêndio rural,0,8,0,34,2025-08-06T18:11:00Z,Castelo De Vide,Portalegre,Alentejo,-7.42701,39.41736,Despacho
25738747,Lindoso,Alto Minho,309,2025-07-26T21:47:00Z,25738747,Em Resolução/Conclusão,3103,Incêndio rural,0,18,0,64,2025-07-26T21:47:00Z,Ponte Da Barca,Viana Do Castelo,Norte,-8.220528,41.865272,Resolução/Conclusão
25747773,Aranhas,Beira Baixa,310,2025-07-28T16:36:00Z,25747773,Em Resolução/Conclusão,3103,Incêndio rural,0,3,0,10,2025-07-28T16:36:00Z,Penamacor,Castelo Branco,Centro,-7.14438,40.117542,Resolução/Conclusão
25775263,Torgueda,Douro,309,2025-08-02T19:49:00Z,25775263,Em Resolução/Conclusão,3101,Incêndio rural,0,8,0,23,2025-08-02T19:49:00Z,Vila Real,Vila Real,Norte,-7.785983,41.274952,Resolução/Conclusão
25785466,Caçarilhe e Infesta,Tâmega e Sousa,309,2025-08-04T16:48:00Z,25785466,Em Resolução/Conclusão,3103,Incêndio rural,0,1,0,19,2025-08-04T16:48:00Z,Celorico De Basto,Braga,Norte,-8.035342,41.42903,Resolução/Conclusão
25790096,"Leomil, Mido, Senouras e Aldeia Nova",Beiras e Serra da Estrela,310,2025-08-05T13:37:00Z,25790096,Em Resolução/Conclusão,3103,Incêndio rural,0,4,0,14,2025-08-05T13:37:00Z,Almeida,Guarda,Centro,-6.951735,40.680123,Resolução/Conclusão
25791761,Santa Cruz do Douro e São Tomé de Covelas,Tâmega e Sousa,309,2025-08-05T18:32:00Z,25791761,Em Resolução/Conclusão,3103,Incêndio rural,1,0,0,1,2025-08-05T18:32:00Z,Baião,Porto,Norte,-7.998456,41.123167,Resolução/Conclusão
25793572,Real,Tâmega e Sousa,309,2025-08-06T04:31:00Z,25793572,Em Resolução/Conclusão,3103,Incêndio rural,0,2,0,10,2025-08-06T04:31:00Z,Castelo De Paiva,Aveiro,Norte,-8.293568,40.988583,Resolução/Conclusão
25794306,Beduído e Veiros,Região de Aveiro,310,2025-08-06T09:17:00Z,25794306,Em Curso,3103,Incêndio rural,0,0,0,0,2025-08-06T09:17:00Z,Estarreja,Aveiro,Centro,-8.595205,40.75977,Curso
25794617,Lustosa e Barrosas (Santo Estêvão),Tâmega e Sousa,309,2025-08-06T10:07:00Z,25794617,Em Resolução/Conclusão,3103,Incêndio rural,0,5,0,15,2025-08-06T10:07:00Z,Lousada,Porto,Norte,-8.302258,41.341468,Resolução/Conclusão
25763650,Milagres,Região de Leiria,310,2025-07-31T15:58:00Z,25763650,Em Resolução/Conclusão,3101,Incêndio rural,0,1,0,2,2025-07-31T15:58:00Z,Leiria,Leiria,Centro,-8.792217,39.793427,Resolução/Conclusão
25785983,Caçarilhe e Infesta,Tâmega e Sousa,309,2025-08-04T18:22:00Z,25785983,Em Resolução/Conclusão,3103,Incêndio rural,0,107,0,329,2025-08-04T18:22:00Z,Celorico De Basto,Braga,Norte,-8.04611,41.419858,Resolução/Conclusão
25790229,Galegos,Tâmega e Sousa,309,2025-08-05T13:59:00Z,25790229,Em Resolução/Conclusão,3103,Incêndio rural,0,18,0,55,2025-08-05T13:59:00Z,Penafiel,Porto,Norte,-8.31029,41.153427,Resolução/Conclusão
25792058,Cibões e Brufe,Cávado,309,2025-08-05T19:10:00Z,25792058,Em Resolução/Conclusão,3103,Incêndio rural,0,2,0,6,2025-08-05T19:10:00Z,Terras De Bouro,Braga,Norte,-8.293932,41.764918,Resolução/Conclusão
25794457,"Provesende, Gouvães Douro, S.cristóvão Douro",Douro,309,2025-08-06T09:43:00Z,25794457,Em Resolução/Conclusão,3103,Incêndio rural,0,3,0,12,2025-08-06T09:43:00Z,Sabrosa,Vila Real,Norte,-7.569235,41.20573,Resolução/Conclusão
25796063,Póvoa de Midões,Região de Coimbra,310,2025-08-06T13:53:00Z,25796063,Em Resolução/Conclusão,3103,Incêndio rural,0,7,0,25,2025-08-06T13:53:00Z,Tábua,Coimbra,Centro,-7.98111,40.38889,Resolução/Conclusão
25796239,Eiras e Mei,Alto Minho,309,2025-08-06T14:18:00Z,25796239,Em Curso,3103,Incêndio rural,0,9,0,30,2025-08-06T14:18:00Z,Arcos De Valdevez,Viana Do Castelo,Norte,-8.480352,41.924652,Curso
25796580,Vila Boa de Quires e Maureles,Tâmega e Sousa,309,2025-08-06T15:05:00Z,25796580,Em Curso,3103,Incêndio rural,2,9,0,33,2025-08-06T15:05:00Z,Marco De Canaveses,Porto,Norte,-8.2103,41.191717,Curso
25797191,Alfândega da Fé,Terras de Trás-os-Montes,309,2025-08-06T17:05:00Z,25797191,Em Resolução/Conclusão,3105,Incêndio rural,0,6,0,24,2025-08-06T17:05:00Z,Alfândega Da Fé,Bragança,Norte,-6.95611,41.35972,Resolução/Conclusão
25748118,Canelas e Espiunca,Area M. Porto,309,2025-07-28T17:16:00Z,25748118,Em Resolução/Conclusão,3101,Incêndio rural,0,4,0,12,2025-07-28T17:16:00Z,Arouca,Aveiro,Norte,-8.212231,40.969918,Resolução/Conclusão
25749320,Rebordões (Santa Maria),Alto Minho,309,2025-07-28T22:47:00Z,25749320,Em Resolução/Conclusão,3103,Incêndio rural,0,1,0,5,2025-07-28T22:47:00Z,Ponte De Lima,Viana Do Castelo,Norte,-8.588365,41.729993,Resolução/Conclusão
25776263,"Pena, Quintã e Vila Cova",Douro,309,2025-08-02T23:45:00Z,25776263,Em Resolução/Conclusão,3103,Incêndio rural,6,167,0,500,2025-08-02T23:45:00Z,Vila Real,Vila Real,Norte,-7.811902,41.317355,Resolução/Conclusão
25779639,Senhorim,Viseu Dão Lafões,310,2025-08-03T16:28:00Z,25779639,Em Resolução/Conclusão,3103,Incêndio rural,0,1,0,4,2025-08-03T16:28:00Z,Nelas,Viseu,Centro,-7.81226,40.511713,Resolução/Conclusão
25783717,Cunha Baixa,Viseu Dão Lafões,310,2025-08-04T11:48:00Z,25783717,Em Resolução/Conclusão,3101,Incêndio rural,0,1,0,2,2025-08-04T11:48:00Z,Mangualde,Viseu,Centro,-7.764411,40.559738,Resolução/Conclusão
25785204,Ribas,Tâmega e Sousa,309,2025-08-04T16:03:00Z,25785204,Em Resolução/Conclusão,3103,Incêndio rural,0,4,0,9,2025-08-04T16:03:00Z,Celorico De Basto,Braga,Norte,-8.022547,41.449583,Resolução/Conclusão
25787860,Faíl e Vila Chã de Sá,Viseu Dão Lafões,310,2025-08-05T05:55:00Z,25787860,Em Resolução/Conclusão,3103,Incêndio rural,0,1,0,5,2025-08-05T05:55:00Z,Viseu,Viseu,Centro,-7.987877,40.601342,Resolução/Conclusão
25793141,Beiral do Lima,Alto Minho,309,2025-08-05T23:55:00Z,25793141,Em Resolução/Conclusão,3103,Incêndio rural,0,2,0,7,2025-08-05T23:55:00Z,Ponte De Lima,Viana Do Castelo,Norte,-8.482547,41.757582,Resolução/Conclusão
25793511,Pedrógão Pequeno,Beira Baixa,310,2025-08-06T03:42:00Z,25793511,Em Resolução/Conclusão,3101,Incêndio rural,0,1,0,2,2025-08-06T03:42:00Z,Sertã,Castelo Branco,Centro,-8.110183,39.900423,Resolução/Conclusão
25795348,Rio Frio,Alto Minho,309,2025-08-06T11:50:00Z,25795348,Em Resolução/Conclusão,3103,Incêndio rural,0,3,0,9,2025-08-06T11:50:00Z,Arcos De Valdevez,Viana Do Castelo,Norte,-8.507973,41.860385,Resolução/Conclusão
25797440,Constantim e Vale de Nogueiras,Douro,309,2025-08-06T17:53:00Z,25797440,Em Resolução/Conclusão,3103,Incêndio rural,1,6,0,32,2025-08-06T17:53:00Z,Vila Real,Vila Real,Norte,-7.67913,41.29136,Resolução/Conclusão
25797490,Rio de Mouro,Grande Lisboa,311,2025-08-06T17:58:00Z,25797490,Em Resolução/Conclusão,3105,Incêndio rural,0,3,0,15,2025-08-06T17:58:00Z,Sintra,Lisboa,Área Metropolitana De Lisboa,-9.344491,38.75763,Resolução/Conclusão
25797526,Oliveira do Douro,Tâmega e Sousa,309,2025-08-06T18:11:00Z,25797526,Em Despacho,3103,Incêndio rural,0,3,0,15,2025-08-06T18:11:00Z,Cinfães,Viseu,Norte,-8.06798,41.08574,Despacho
25797574,Cervos,Alto Tâmega e Barroso,309,2025-08-06T18:18:00Z,25797574,Em Despacho,3103,Incêndio rural,0,1,0,5,2025-08-06T18:18:00Z,Montalegre,Vila Real,Norte,-7.673807,41.759206,Despacho
25795667,Pias,Alto Minho,309,2025-08-06T12:51:00Z,25795667,Em Resolução/Conclusão,3103,Incêndio rural,0,5,0,15,2025-08-06T12:51:00Z,Monção,Viana Do Castelo,Norte,-8.526247,42.018312,Resolução/Conclusão
25796218,Alquerubim,Região de Aveiro,310,2025-08-06T14:14:00Z,25796218,Em Resolução/Conclusão,3103,Incêndio rural,0,4,0,9,2025-08-06T14:14:00Z,Albergaria-a-Velha,Aveiro,Centro,-8.51182,40.62527,Resolução/Conclusão
25796634,Várzea Dos Cavaleiros,Beira Baixa,310,2025-08-06T15:20:00Z,25796634,Em Resolução/Conclusão,3103,Incêndio rural,4,66,0,241,2025-08-06T15:20:00Z,Sertã,Castelo Branco,Centro,-8.002361,39.78527,Resolução/Conclusão
25796852,Fernão Ferro,Península de Setúbal,311,2025-08-06T16:01:00Z,25796852,Em Resolução/Conclusão,3103,Incêndio rural,0,0,0,0,2025-08-06T16:01:00Z,Seixal,Setúbal,Área Metropolitana De Lisboa,-9.059462,38.54958,Resolução/Conclusão
25796969,Vila Chã do Marão,Tâmega e Sousa,309,2025-08-06T16:27:00Z,25796969,Em Resolução/Conclusão,3105,Incêndio rural,0,2,0,10,2025-08-06T16:27:00Z,Amarante,Porto,Norte,-8.036463,41.287092,Resolução/Conclusão
25797255,Caldas de Vizela (São Miguel e São João),Ave,309,2025-08-06T17:09:00Z,25797255,Em Despacho,3105,Incêndio rural,0,1,0,5,2025-08-06T17:09:00Z,Vizela,Braga,Norte,-8.29097,41.380172,Despacho
25797318,Samora Correia,Lezíria do Tejo,311,2025-08-06T17:31:00Z,25797318,Em Resolução/Conclusão,3103,Incêndio rural,0,5,0,19,2025-08-06T17:31:00Z,Benavente,Santarém,Alentejo,-8.75456,38.84542,Resolução/Conclusão
