id,address,subregion,neighborhood,date,id.1,state,nature,nature_description,aerial_means,terrestrial_means,aquatic_means,operational,date.1,Concelho,Distrito,NUTII_DSG,longitude,latitude,state_2
25711397,Vale da Pedra,Lezíria do Tejo,311,2025-07-21T14:16:00Z,25711397,Em Resolução/Conclusão,3103,Incêndio rural,0,5,0,12,2025-07-21T14:16:00Z,Cartaxo,Santarém,Alentejo,-8.783137,39.110872,Resolução/Conclusão
25713421,Pechão,Algarve,313,2025-07-21T22:02:00Z,25713421,Em Resolução/Conclusão,3103,Incêndio rural,0,1,0,1,2025-07-21T22:02:00Z,Olhão,Faro,Algarve,-7.85203,37.042365,Resolução/Conclusão
25708284,Bogas de Cima,Beiras e Serra da Estrela,310,2025-07-20T21:26:00Z,25708284,Em Resolução/Conclusão,3103,Incêndio rural,0,1,0,5,2025-07-20T21:26:00Z,Fundão,Castelo Branco,Centro,-7.707703,40.064562,Resolução/Conclusão
25713352,Ferreira do Alentejo e Canhestros,Baixo Alentejo,312,2025-07-21T21:41:00Z,25713352,Em Resolução/Conclusão,3105,Incêndio rural,0,0,0,0,2025-07-21T21:41:00Z,Ferreira Do Alentejo,Beja,Alentejo,-8.339778,38.035552,Resolução/Conclusão
25712338,Cercal,Alentejo Litoral,312,2025-07-21T17:38:00Z,25712338,Em Resolução/Conclusão,3103,Incêndio rural,0,25,0,65,2025-07-21T17:38:00Z,Santiago Do Cacém,Setúbal,Alentejo,-8.682272,37.791582,Resolução/Conclusão
25713724,Laranjeiro e Feijó,Península de Setúbal,311,2025-07-21T23:55:00Z,25713724,Em Resolução/Conclusão,3103,Incêndio rural,0,4,0,20,2025-07-21T23:55:00Z,Almada,Setúbal,Área Metropolitana De Lisboa,-9.162848,38.663868,Resolução/Conclusão
25713740,Almancil,Algarve,313,2025-07-22T00:09:00Z,25713740,Em Resolução/Conclusão,3103,Incêndio rural,0,5,0,17,2025-07-22T00:09:00Z,Loulé,Faro,Algarve,-8.052091,37.080047,Resolução/Conclusão
25713792,Queluz e Belas,Grande Lisboa,311,2025-07-22T00:43:00Z,25713792,Em Despacho,3103,Incêndio rural,0,0,0,0,2025-07-22T00:43:00Z,Sintra,Lisboa,Área Metropolitana De Lisboa,-9.29265,38.81311,Despacho
