id,address,subregion,neighborhood,date,id.1,state,nature,nature_description,aerial_means,terrestrial_means,aquatic_means,operational,date.1,Concelho,Distrito,NUTII_DSG,longitude,latitude,state_2
26083758,Cimo de Vila da Castanheira,Alto Tâmega e Barroso,309,2025-10-03T17:53:00Z,26083758,Em Resolução/Conclusão,3103,Incêndio rural,0,3,0,12,2025-10-03T17:53:00Z,Chaves,Vila Real,Norte,-7.283753,41.794895,Resolução/Conclusão
26083842,"Soeira, Fresulfe e Mofreita",Terras de Trás-os-Montes,309,2025-10-03T18:11:00Z,26083842,Em Resolução/Conclusão,3103,Incêndio rural,0,7,0,25,2025-10-03T18:11:00Z,Vinhais,Bragança,Norte,-6.933422,41.862003,Resolução/Conclusão
26078806,"Tavares (Chãs, Várzea e Travanca)",Viseu Dão Lafões,310,2025-10-02T17:31:00Z,26078806,Em Resolução/Conclusão,3103,Incêndio rural,0,2,0,7,2025-10-02T17:31:00Z,Mangualde,Viseu,Centro,-7.638958,40.609205,Resolução/Conclusão
26084722,Monte e Queimadela,Ave,309,2025-10-03T21:44:00Z,26084722,Em Resolução/Conclusão,3103,Incêndio rural,0,2,0,10,2025-10-03T21:44:00Z,Fafe,Braga,Norte,-8.15367,41.534385,Resolução/Conclusão
26084797,Travassos,Ave,309,2025-10-03T22:07:00Z,26084797,Em Resolução/Conclusão,3103,Incêndio rural,0,4,0,17,2025-10-03T22:07:00Z,Póvoa De Lanhoso,Braga,Norte,-8.196288,41.580703,Resolução/Conclusão
26022995,Bordeira,Algarve,313,2025-09-21T12:21:00Z,26022995,Em Resolução/Conclusão,3103,Incêndio rural,0,4,0,13,2025-09-21T12:21:00Z,Aljezur,Faro,Algarve,-8.825374,37.23495,Resolução/Conclusão
26077823,São Cipriano e Vil de Souto,Viseu Dão Lafões,310,2025-10-02T14:18:00Z,26077823,Em Resolução/Conclusão,3103,Incêndio rural,0,1,0,2,2025-10-02T14:18:00Z,Viseu,Viseu,Centro,-7.953868,40.632302,Resolução/Conclusão
