id,address,subregion,neighborhood,date,id.1,state,nature,nature_description,aerial_means,terrestrial_means,aquatic_means,operational,date.1,Concelho,Distrito,NUTII_DSG,longitude,latitude,state_2
26093023,Castro Daire,Viseu Dão Lafões,310,2025-10-05T19:06:00Z,26093023,Em Resolução/Conclusão,3103,Incêndio rural,0,0,0,0,2025-10-05T19:06:00Z,Castro Daire,Viseu,Centro,-7.9408,40.925289,Resolução/Conclusão
26093991,Santa Comba,Beiras e Serra da Estrela,310,2025-10-06T01:09:00Z,26093991,Em Resolução/Conclusão,3103,Incêndio rural,0,6,0,15,2025-10-06T01:09:00Z,Seia,Guarda,Centro,-7.745905,40.442718,Resolução/Conclusão
26094776,Meixedo e Padornelos,Alto Tâmega e Barroso,309,2025-10-06T08:40:00Z,26094776,Em Resolução/Conclusão,3103,Incêndio rural,0,5,0,16,2025-10-06T08:40:00Z,Montalegre,Vila Real,Norte,-7.750963,41.864478,Resolução/Conclusão
26095380,Santa Maria do Castelo e Santiago e Santa Susana,Alentejo Litoral,312,2025-10-06T10:27:00Z,26095380,Em Resolução/Conclusão,3103,Incêndio rural,0,7,0,26,2025-10-06T10:27:00Z,Alcácer Do Sal,Setúbal,Alentejo,-8.351625,38.497755,Resolução/Conclusão
26095478,Frazão Arreigada,Tâmega e Sousa,309,2025-10-06T10:37:00Z,26095478,Em Resolução/Conclusão,3105,Incêndio rural,0,1,0,3,2025-10-06T10:37:00Z,Paços De Ferreira,Porto,Norte,-8.397378,41.267572,Resolução/Conclusão
26095609,"Enxara do Bispo, Gradil e Vila Franca do Rosário",Grande Lisboa,311,2025-10-06T11:02:00Z,26095609,Em Despacho,3103,Incêndio rural,0,1,0,5,2025-10-06T11:02:00Z,Mafra,Lisboa,Área Metropolitana De Lisboa,-9.213742,38.99014,Despacho
26095321,Nossa Senhora da Expectação,Alto Alentejo,312,2025-10-06T10:06:00Z,26095321,Em Curso,3105,Incêndio rural,0,7,0,22,2025-10-06T10:06:00Z,Campo Maior,Portalegre,Alentejo,-6.962463,39.019298,Curso
26093602,Castro Daire,Viseu Dão Lafões,310,2025-10-05T22:05:00Z,26093602,Em Resolução/Conclusão,3103,Incêndio rural,0,16,0,55,2025-10-05T22:05:00Z,Castro Daire,Viseu,Centro,-7.927072,40.927072,Resolução/Conclusão
26094440,Rio de Moinhos,Tâmega e Sousa,309,2025-10-06T07:03:00Z,26094440,Em Curso,3101,Incêndio rural,0,8,0,30,2025-10-06T07:03:00Z,Penafiel,Porto,Norte,-8.265447,41.119273,Curso
