id,address,subregion,neighborhood,date,id.1,state,nature,nature_description,aerial_means,terrestrial_means,aquatic_means,operational,date.1,Concelho,Distrito,NUTII_DSG,longitude,latitude,state_2
25980131,Carva e Vilares,Douro,309,2025-09-12T14:27:00Z,25980131,Em Resolução/Conclusão,3103,Incêndio rural,0,64,0,204,2025-09-12T14:27:00Z,Murça,Vila Real,Norte,-7.55901,41.401343,Resolução/Conclusão
25980930,Santo André Das Tojeiras,Beira Baixa,310,2025-09-12T17:08:00Z,25980930,Em Resolução/Conclusão,3101,Incêndio rural,0,1,0,5,2025-09-12T17:08:00Z,Castelo Branco,Castelo Branco,Centro,-7.72701,39.809058,Resolução/Conclusão
25994117,Fortios,Alto Alentejo,312,2025-09-15T14:38:00Z,25994117,Em Resolução/Conclusão,3103,Incêndio rural,0,24,0,88,2025-09-15T14:38:00Z,Portalegre,Portalegre,Alentejo,-7.470015,39.279328,Resolução/Conclusão
25995973,Vilar de Perdizes e Meixide,Alto Tâmega e Barroso,309,2025-09-15T21:30:00Z,25995973,Em Despacho,3103,Incêndio rural,0,1,0,5,2025-09-15T21:30:00Z,Montalegre,Vila Real,Norte,-7.63445,41.85059,Despacho
25951176,Sandomil,Beiras e Serra da Estrela,310,2025-09-06T10:29:00Z,25951176,Em Resolução/Conclusão,3103,Incêndio rural,0,3,0,15,2025-09-06T10:29:00Z,Seia,Guarda,Centro,-7.76001,40.351547,Resolução/Conclusão
25989064,Vila de Rei,Beira Baixa,310,2025-09-14T13:32:00Z,25989064,Em Resolução/Conclusão,3101,Incêndio rural,0,6,0,21,2025-09-14T13:32:00Z,Vila De Rei,Castelo Branco,Centro,-8.152412,39.660802,Resolução/Conclusão
25993557,Silvares,Beiras e Serra da Estrela,310,2025-09-15T12:43:00Z,25993557,Em Resolução/Conclusão,3103,Incêndio rural,0,0,0,0,2025-09-15T12:43:00Z,Covilhã,Castelo Branco,Centro,-7.675428,40.138862,Resolução/Conclusão
25995548,Santa Valha,Alto Tâmega e Barroso,309,2025-09-15T19:36:00Z,25995548,Em Curso,3103,Incêndio rural,0,11,0,44,2025-09-15T19:36:00Z,Valpaços,Vila Real,Norte,-7.273432,41.726015,Curso
25995782,Chã,Alto Tâmega e Barroso,309,2025-09-15T20:36:00Z,25995782,Em Resolução/Conclusão,3103,Incêndio rural,0,2,0,6,2025-09-15T20:36:00Z,Montalegre,Vila Real,Norte,-7.807108,41.788452,Resolução/Conclusão
25993263,Quirás e Pinheiro Novo,Terras de Trás-os-Montes,309,2025-09-15T11:48:00Z,25993263,Em Resolução/Conclusão,3103,Incêndio rural,0,8,0,24,2025-09-15T11:48:00Z,Vinhais,Bragança,Norte,-7.145422,41.911408,Resolução/Conclusão
25994897,Rebordãos,Terras de Trás-os-Montes,309,2025-09-15T17:09:00Z,25994897,Em Resolução/Conclusão,3105,Incêndio rural,0,7,0,23,2025-09-15T17:09:00Z,Bragança,Bragança,Norte,-6.799973,41.743396,Resolução/Conclusão
25995885,Albufeira e Olhos de Água,Algarve,313,2025-09-15T21:06:00Z,25995885,Em Resolução/Conclusão,3103,Incêndio rural,0,1,0,5,2025-09-15T21:06:00Z,Albufeira,Faro,Algarve,-8.246567,37.100008,Resolução/Conclusão
25832672,Piódão,Região de Coimbra,310,2025-08-13T05:08:00Z,25832672,Em Resolução/Conclusão,3103,Incêndio rural,0,0,0,0,2025-08-13T05:08:00Z,Arganil,Coimbra,Centro,-7.81972,40.23083,Resolução/Conclusão
25989850,Povolide,Viseu Dão Lafões,310,2025-09-14T16:49:00Z,25989850,Em Resolução/Conclusão,3103,Incêndio rural,0,1,0,1,2025-09-14T16:49:00Z,Viseu,Viseu,Centro,-7.785413,40.67811,Resolução/Conclusão
25993337,Folhadela,Douro,309,2025-09-15T12:03:00Z,25993337,Em Resolução/Conclusão,3103,Incêndio rural,0,2,0,7,2025-09-15T12:03:00Z,Vila Real,Vila Real,Norte,-7.727857,41.272708,Resolução/Conclusão
25993973,Santo André,Alto Tâmega e Barroso,309,2025-09-15T14:14:00Z,25993973,Em Resolução/Conclusão,3103,Incêndio rural,0,4,0,15,2025-09-15T14:14:00Z,Montalegre,Vila Real,Norte,-7.692303,41.87752,Resolução/Conclusão
25994448,Alfarela de Jales,Alto Tâmega e Barroso,309,2025-09-15T15:40:00Z,25994448,Em Resolução/Conclusão,3103,Incêndio rural,0,1,0,5,2025-09-15T15:40:00Z,NA,NA,NA,-7.561222,41.95311,Resolução/Conclusão
25995575,Candemil,Tâmega e Sousa,309,2025-09-15T19:47:00Z,25995575,Em Resolução/Conclusão,3103,Incêndio rural,0,1,0,5,2025-09-15T19:47:00Z,Amarante,Porto,Norte,-7.976315,41.250933,Resolução/Conclusão
