id,address,subregion,neighborhood,date,id.1,state,nature,nature_description,aerial_means,terrestrial_means,aquatic_means,operational,date.1,Concelho,Distrito,NUTII_DSG,longitude,latitude,state_2
25729093,Vila de Cucujães,Area M. Porto,309,2025-07-25T04:57:00Z,25729093,Em Resolução/Conclusão,3103,Incêndio rural,0,2,0,10,2025-07-25T04:57:00Z,Oliveira De Azeméis,Aveiro,Norte,-8.495097,40.865157,Resolução/Conclusão
25729159,Vila Facaia,Região de Leiria,310,2025-07-25T05:56:00Z,25729159,Em Resolução/Conclusão,3103,Incêndio rural,0,1,0,2,2025-07-25T05:56:00Z,Pedrógão Grande,Leiria,Centro,-8.207428,39.928542,Resolução/Conclusão
25730461,Dardavaz,Viseu Dão Lafões,310,2025-07-25T11:01:00Z,25730461,Em Resolução/Conclusão,3105,Incêndio rural,0,2,0,4,2025-07-25T11:01:00Z,Tondela,Viseu,Centro,-8.1306,40.464718,Resolução/Conclusão
25730731,Alcoentre,Lezíria do Tejo,311,2025-07-25T11:49:00Z,25730731,Em Resolução/Conclusão,3103,Incêndio rural,0,3,0,6,2025-07-25T11:49:00Z,Azambuja,Lisboa,Alentejo,-8.94417,39.18556,Resolução/Conclusão
25731214,Armamar,Douro,309,2025-07-25T13:25:00Z,25731214,Em Resolução/Conclusão,3103,Incêndio rural,0,2,0,6,2025-07-25T13:25:00Z,Armamar,Viseu,Norte,-7.673572,41.089408,Resolução/Conclusão
25731431,Portela e Extremo,Alto Minho,309,2025-07-25T14:00:00Z,25731431,Em Resolução/Conclusão,3103,Incêndio rural,1,8,0,39,2025-07-25T14:00:00Z,Arcos De Valdevez,Viana Do Castelo,Norte,-8.462649,41.957455,Resolução/Conclusão
25731632,Santa Maria Maior e Monserrate e Meadela,Alto Minho,309,2025-07-25T14:37:00Z,25731632,Em Curso,3103,Incêndio rural,0,2,0,10,2025-07-25T14:37:00Z,Viana Do Castelo,Viana Do Castelo,Norte,-8.79671,41.71419,Curso
25712338,Cercal,Alentejo Litoral,312,2025-07-21T17:38:00Z,25712338,Em Resolução/Conclusão,3103,Incêndio rural,0,7,0,18,2025-07-21T17:38:00Z,Santiago Do Cacém,Setúbal,Alentejo,-8.682272,37.791582,Resolução/Conclusão
25725056,Pedrógão Pequeno,Beira Baixa,310,2025-07-24T10:16:00Z,25725056,Em Resolução/Conclusão,3101,Incêndio rural,0,1,0,5,2025-07-24T10:16:00Z,Sertã,Castelo Branco,Centro,-8.093663,39.879797,Resolução/Conclusão
25728500,Vila Fernando,Beiras e Serra da Estrela,310,2025-07-24T22:48:00Z,25728500,Em Resolução/Conclusão,3103,Incêndio rural,0,5,0,17,2025-07-24T22:48:00Z,Guarda,Guarda,Centro,-7.165667,40.491237,Resolução/Conclusão
25729082,São Jorge e Ermelo,Alto Minho,309,2025-07-25T04:45:00Z,25729082,Em Resolução/Conclusão,3101,Incêndio rural,0,13,0,42,2025-07-25T04:45:00Z,Arcos De Valdevez,Viana Do Castelo,Norte,-8.356835,41.818005,Resolução/Conclusão
25729185,Pedrógão Grande,Região de Leiria,310,2025-07-25T06:14:00Z,25729185,Em Resolução/Conclusão,3101,Incêndio rural,0,1,0,2,2025-07-25T06:14:00Z,Pedrógão Grande,Leiria,Centro,-8.17945,39.916067,Resolução/Conclusão
25729252,Vila Facaia,Região de Leiria,310,2025-07-25T07:06:00Z,25729252,Em Resolução/Conclusão,3103,Incêndio rural,0,2,0,4,2025-07-25T07:06:00Z,Pedrógão Grande,Leiria,Centro,-8.240883,39.95543,Resolução/Conclusão
25730552,"Torres Novas (Santa Maria, Salvador e Santiago)",Médio Tejo,311,2025-07-25T11:16:00Z,25730552,Em Resolução/Conclusão,3103,Incêndio rural,0,4,0,10,2025-07-25T11:16:00Z,Torres Novas,Santarém,Centro,-8.536497,39.475753,Resolução/Conclusão
25725153,Troviscal,Beira Baixa,310,2025-07-24T10:31:00Z,25725153,Em Resolução/Conclusão,3101,Incêndio rural,0,1,0,5,2025-07-24T10:31:00Z,Sertã,Castelo Branco,Centro,-8.084768,39.877972,Resolução/Conclusão
25725251,Pedrógão Pequeno,Beira Baixa,310,2025-07-24T10:52:00Z,25725251,Em Resolução/Conclusão,3101,Incêndio rural,0,8,0,28,2025-07-24T10:52:00Z,Sertã,Castelo Branco,Centro,-8.084635,39.925647,Resolução/Conclusão
25727257,Santiago de Piães,Tâmega e Sousa,309,2025-07-24T17:40:00Z,25727257,Em Resolução/Conclusão,3103,Incêndio rural,0,31,0,98,2025-07-24T17:40:00Z,Cinfães,Viseu,Norte,-8.173138,41.025392,Resolução/Conclusão
25730056,Santiago de Piães,Tâmega e Sousa,309,2025-07-25T10:05:00Z,25730056,Em Resolução/Conclusão,3103,Incêndio rural,0,6,0,24,2025-07-25T10:05:00Z,Cinfães,Viseu,Norte,-8.167988,41.04848,Resolução/Conclusão
25730517,Sul,Viseu Dão Lafões,310,2025-07-25T11:11:00Z,25730517,Em Resolução/Conclusão,3103,Incêndio rural,0,9,0,25,2025-07-25T11:11:00Z,São Pedro Do Sul,Viseu,Centro,-8.04597,40.846068,Resolução/Conclusão
25730790,Ferreira,Tâmega e Sousa,309,2025-07-25T11:59:00Z,25730790,Em Resolução/Conclusão,3105,Incêndio rural,0,3,0,8,2025-07-25T11:59:00Z,Paços De Ferreira,Porto,Norte,-8.360058,41.270515,Resolução/Conclusão
25730869,Estremoz (Santa Maria e Santo André),Alentejo Central,312,2025-07-25T12:11:00Z,25730869,Em Resolução/Conclusão,3105,Incêndio rural,0,1,0,5,2025-07-25T12:11:00Z,Estremoz,Évora,Alentejo,-7.572005,38.836512,Resolução/Conclusão
25731094,Cabril,Alto Tâmega e Barroso,309,2025-07-25T12:59:00Z,25731094,Em Resolução/Conclusão,3103,Incêndio rural,0,4,0,13,2025-07-25T12:59:00Z,Montalegre,Vila Real,Norte,-8.092118,41.701348,Resolução/Conclusão
25731117,Pedrógão Grande,Região de Leiria,310,2025-07-25T13:03:00Z,25731117,Em Resolução/Conclusão,3101,Incêndio rural,0,3,0,6,2025-07-25T13:03:00Z,Pedrógão Grande,Leiria,Centro,-8.14383,39.97515,Resolução/Conclusão
25728646,Vila Fernando,Beiras e Serra da Estrela,310,2025-07-24T23:39:00Z,25728646,Em Resolução/Conclusão,3103,Incêndio rural,0,5,0,21,2025-07-24T23:39:00Z,Guarda,Guarda,Centro,-7.135077,40.484042,Resolução/Conclusão
25728989,Valadares,Tâmega e Sousa,309,2025-07-25T03:08:00Z,25728989,Em Resolução/Conclusão,3103,Incêndio rural,0,6,0,22,2025-07-25T03:08:00Z,Baião,Porto,Norte,-7.944105,41.158087,Resolução/Conclusão
25729105,"Pinheiro da Bemposta, Travanca e Palmaz",Area M. Porto,309,2025-07-25T05:08:00Z,25729105,Em Resolução/Conclusão,3101,Incêndio rural,0,2,0,7,2025-07-25T05:08:00Z,Oliveira De Azeméis,Aveiro,Norte,-8.47228,40.805608,Resolução/Conclusão
25729514,Azias,Alto Minho,309,2025-07-25T08:28:00Z,25729514,Em Resolução/Conclusão,3103,Incêndio rural,0,1,0,4,2025-07-25T08:28:00Z,Ponte Da Barca,Viana Do Castelo,Norte,-8.35944,41.773635,Resolução/Conclusão
25730132,Santa Clara,Grande Lisboa,311,2025-07-25T10:16:00Z,25730132,Em Resolução/Conclusão,3103,Incêndio rural,0,4,0,15,2025-07-25T10:16:00Z,Lisboa,Lisboa,Área Metropolitana De Lisboa,-9.149887,38.783817,Resolução/Conclusão
25730439,Romeira e Várzea,Lezíria do Tejo,311,2025-07-25T11:01:00Z,25730439,Em Resolução/Conclusão,3103,Incêndio rural,0,1,0,2,2025-07-25T11:01:00Z,Santarém,Santarém,Alentejo,-8.72631,39.26376,Resolução/Conclusão
25730832,Aveleda e Rio de Onor,Terras de Trás-os-Montes,309,2025-07-25T12:07:00Z,25730832,Em Curso,3103,Incêndio rural,9,50,0,162,2025-07-25T12:07:00Z,Bragança,Bragança,Norte,-6.707873,41.891435,Curso
25731423,Gondomil e Safins,Alto Minho,309,2025-07-25T14:01:00Z,25731423,Em Resolução/Conclusão,3103,Incêndio rural,0,3,0,8,2025-07-25T14:01:00Z,Valença,Viana Do Castelo,Norte,-8.565634,42.019205,Resolução/Conclusão
25731457,"S.julião, N.s. da Anunciada e S. Maria da Graça",Península de Setúbal,311,2025-07-25T14:08:00Z,25731457,Em Resolução/Conclusão,3103,Incêndio rural,0,3,0,12,2025-07-25T14:08:00Z,Setúbal,Setúbal,Área Metropolitana De Lisboa,-8.886082,38.537928,Resolução/Conclusão
25731625,Rendufe,Cávado,309,2025-07-25T14:36:00Z,25731625,Em Resolução/Conclusão,3105,Incêndio rural,0,3,0,10,2025-07-25T14:36:00Z,Amares,Braga,Norte,-8.40779,41.62862,Resolução/Conclusão
25731692,Monte Córdova,Area M. Porto,309,2025-07-25T14:44:00Z,25731692,Em Despacho,3103,Incêndio rural,1,1,0,11,2025-07-25T14:44:00Z,Santo Tirso,Porto,Norte,-8.446047,41.318509,Despacho
25731293,Gondoriz,Alto Minho,309,2025-07-25T13:42:00Z,25731293,Em Resolução/Conclusão,3103,Incêndio rural,0,0,0,0,2025-07-25T13:42:00Z,Arcos De Valdevez,Viana Do Castelo,Norte,-8.39249,41.88596,Resolução/Conclusão
25731429,São Cipriano,Tâmega e Sousa,309,2025-07-25T14:03:00Z,25731429,Em Resolução/Conclusão,3103,Incêndio rural,1,5,0,28,2025-07-25T14:03:00Z,Resende,Viseu,Norte,-7.982646,41.05512,Resolução/Conclusão
25731584,Carnaxide e Queijas,Grande Lisboa,311,2025-07-25T14:27:00Z,25731584,Em Resolução/Conclusão,3103,Incêndio rural,0,3,0,15,2025-07-25T14:27:00Z,Oeiras,Lisboa,Área Metropolitana De Lisboa,-9.213948,38.72274,Resolução/Conclusão
25731659,Alcanede,Lezíria do Tejo,311,2025-07-25T14:41:00Z,25731659,Em Resolução/Conclusão,3103,Incêndio rural,0,5,0,22,2025-07-25T14:41:00Z,Santarém,Santarém,Alentejo,-8.852025,39.43005,Resolução/Conclusão
25731451,Couço,Lezíria do Tejo,311,2025-07-25T14:08:00Z,25731451,Em Resolução/Conclusão,3103,Incêndio rural,1,10,0,37,2025-07-25T14:08:00Z,Coruche,Santarém,Alentejo,-8.315117,38.979428,Resolução/Conclusão
25731478,Passô,Douro,309,2025-07-25T14:09:00Z,25731478,Em Resolução/Conclusão,3103,Incêndio rural,1,9,0,41,2025-07-25T14:09:00Z,Moimenta Da Beira,Viseu,Norte,-7.718256,41.011149,Resolução/Conclusão
25731635,Sever do Vouga,Região de Aveiro,310,2025-07-25T14:36:00Z,25731635,Em Resolução/Conclusão,3101,Incêndio rural,0,6,0,19,2025-07-25T14:36:00Z,Sever Do Vouga,Aveiro,Centro,-8.384089,40.733369,Resolução/Conclusão
25731721,Alcochete,Península de Setúbal,311,2025-07-25T14:52:00Z,25731721,Em Despacho,3103,Incêndio rural,0,2,0,7,2025-07-25T14:52:00Z,Alcochete,Setúbal,Área Metropolitana De Lisboa,-8.92975,38.74635,Despacho
25731728,Alvarenga,Area M. Porto,309,2025-07-25T14:46:00Z,25731728,Em Despacho,3103,Incêndio rural,1,4,0,21,2025-07-25T14:46:00Z,Arouca,Aveiro,Norte,-8.144899,40.967288,Despacho
