id,address,subregion,neighborhood,date,id.1,state,nature,nature_description,aerial_means,terrestrial_means,aquatic_means,operational,date.1,Concelho,Distrito,NUTII_DSG,longitude,latitude
24866996,Caparica e Trafaria,Península de Setúbal,311,2025-01-25T08:29:00Z,24866996,Em despacho,3301,Queda de árvore,0,1,0,5,2025-01-25T08:29:00Z,Almada,Setúbal,Área Metropolitana De Lisboa,-9.210835,38.667061
24867330,Areias e Pias,Médio Tejo,311,2025-01-25T09:57:00Z,24867330,Em curso,3309,Desabamento de estruturas edificadas,0,6,0,11,2025-01-25T09:57:00Z,Ferreira Do Zêzere,Santarém,Centro,-8.361843,39.763499
24851780,"São Miguel, Santa Eufémia e Rabaçal",Região de Coimbra,310,2025-01-21T23:25:00Z,24851780,Em curso,3315,Inundação de estruturas por precipitação intensa,0,0,0,0,2025-01-21T23:25:00Z,Penela,Coimbra,Centro,-8.399036,40.025502
24868040,Albufeira e Olhos de Água,Algarve,313,2025-01-25T12:22:00Z,24868040,Em despacho,3309,Desabamento de estruturas edificadas,0,1,0,3,2025-01-25T12:22:00Z,Albufeira,Faro,Algarve,-8.252292,37.091727
24867560,Loulé (São Clemente),Algarve,313,2025-01-25T10:19:00Z,24867560,Em conclusão,3309,Desabamento de estruturas edificadas,0,1,0,2,2025-01-25T10:19:00Z,Loulé,Faro,Algarve,-8.018267,37.137687
24867603,"Almargem do Bispo, Pêro Pinheiro e Montelavar",Grande Lisboa,311,2025-01-25T10:50:00Z,24867603,Em conclusão,3313,Deslizamento de terras,0,2,0,5,2025-01-25T10:50:00Z,Sintra,Lisboa,Área Metropolitana De Lisboa,-9.25628,38.86846
