id,address,subregion,neighborhood,date,id.1,state,nature,nature_description,aerial_means,terrestrial_means,aquatic_means,operational,date.1,Concelho,Distrito,NUTII_DSG,longitude,latitude
25053308,Ermidas-Sado,Alentejo Litoral,312,2025-03-07T14:02:00Z,25053308,Em despacho,3301,Queda de árvore,0,1,0,2,2025-03-07T14:02:00Z,Santiago Do Cacém,Setúbal,Alentejo,-8.366897,38.010808
25053740,Palhais e Coina,Península de Setúbal,311,2025-03-07T15:18:00Z,25053740,Em despacho,3329,Queda de estruturas temporárias ou móveis,0,1,0,4,2025-03-07T15:18:00Z,Barreiro,Setúbal,Área Metropolitana De Lisboa,-9.043332,38.595522
25054009,Moita,Península de Setúbal,311,2025-03-07T16:05:00Z,25054009,Em despacho,3321,Dano na rede de fornecimento de eletricidade ,0,0,0,0,2025-03-07T16:05:00Z,Moita,Setúbal,Área Metropolitana De Lisboa,-8.985364,38.643702
25054474,Chamusca e Pinheiro Grande,Lezíria do Tejo,311,2025-03-07T17:48:00Z,25054474,Em despacho,3301,Queda de árvore,0,1,0,2,2025-03-07T17:48:00Z,Chamusca,Santarém,Alentejo,-8.490477,39.362372
25054627,"São Miguel, Santa Eufémia e Rabaçal",Região de Coimbra,310,2025-03-07T18:15:00Z,25054627,Em despacho,3301,Queda de árvore,0,1,0,2,2025-03-07T18:15:00Z,Penela,Coimbra,Centro,-8.387644,40.016599
25054809,Lagos (São Sebastião e Santa Maria),Algarve,313,2025-03-07T18:58:00Z,25054809,Em conclusão,3301,Queda de árvore,0,1,0,5,2025-03-07T18:58:00Z,Lagos,Faro,Algarve,-8.668524,37.100485
25054828,Alcantarilha e Pêra,Algarve,313,2025-03-07T18:45:00Z,25054828,Em conclusão,3329,Queda de estruturas temporárias ou móveis,0,1,0,4,2025-03-07T18:45:00Z,Silves,Faro,Algarve,-8.352626,37.169974
25053712,"Alto do Seixalinho, Santo André e Verderena",Península de Setúbal,311,2025-03-07T15:10:00Z,25053712,Em despacho,3315,Inundação de estruturas por precipitação intensa,0,1,0,4,2025-03-07T15:10:00Z,Barreiro,Setúbal,Área Metropolitana De Lisboa,-9.072252,38.651508
25054005,Almeirim,Lezíria do Tejo,311,2025-03-07T16:10:00Z,25054005,Em despacho,3315,Inundação de estruturas por precipitação intensa,0,1,0,2,2025-03-07T16:10:00Z,Almeirim,Santarém,Alentejo,-8.588832,39.142251
25054689,Beduído e Veiros,Região de Aveiro,310,2025-03-07T18:37:00Z,25054689,Em conclusão,3301,Queda de árvore,0,1,0,2,2025-03-07T18:37:00Z,Estarreja,Aveiro,Centro,-8.520735,40.77042
25054707,Sameiro,Beiras e Serra da Estrela,310,2025-03-07T18:42:00Z,25054707,Em despacho,3301,Queda de árvore,0,1,0,2,2025-03-07T18:42:00Z,Manteigas,Guarda,Centro,-7.47862,40.40939
25054723,"Enxara do Bispo, Gradil e Vila Franca do Rosário",Grande Lisboa,311,2025-03-07T18:30:00Z,25054723,Em curso,3313,Deslizamento de terras,0,1,0,5,2025-03-07T18:30:00Z,Mafra,Lisboa,Área Metropolitana De Lisboa,-9.256159,38.992708
25054805,Quinta do Anjo,Península de Setúbal,311,2025-03-07T18:39:00Z,25054805,Em despacho,3301,Queda de árvore,0,1,0,2,2025-03-07T18:39:00Z,Palmela,Setúbal,Área Metropolitana De Lisboa,-8.968323,38.56095
25054500,"São Miguel, Santa Eufémia e Rabaçal",Região de Coimbra,310,2025-03-07T17:45:00Z,25054500,Em despacho,3301,Queda de árvore,0,1,0,5,2025-03-07T17:45:00Z,Penela,Coimbra,Centro,-8.408451,40.036287
25054684,Sangalhos,Região de Aveiro,310,2025-03-07T18:30:00Z,25054684,Em conclusão,3321,Dano na rede de fornecimento de eletricidade ,0,1,0,3,2025-03-07T18:30:00Z,Anadia,Aveiro,Centro,-8.478739,40.494487
25054768,Pinheiro,Viseu Dão Lafões,310,2025-03-07T18:59:00Z,25054768,Em despacho,3321,Dano na rede de fornecimento de eletricidade ,0,2,0,3,2025-03-07T18:59:00Z,Castro Daire,Viseu,Centro,-7.97709,40.92461
25054345,"Seixal, Arrentela e Aldeia de Paio Pires",Península de Setúbal,311,2025-03-07T17:20:00Z,25054345,Em despacho,3311,Queda de elementos de estruturas edificados,0,1,0,2,2025-03-07T17:20:00Z,Seixal,Setúbal,Área Metropolitana De Lisboa,-9.10304,38.6186
25054388,"Sé Nova, Santa Cruz, Almedina e São Bartolomeu",Região de Coimbra,310,2025-03-07T17:29:00Z,25054388,Em despacho,3311,Queda de elementos de estruturas edificados,0,2,0,5,2025-03-07T17:29:00Z,Coimbra,Coimbra,Centro,-8.45395,40.243305
25054640,Azinhal,Algarve,313,2025-03-07T18:21:00Z,25054640,Em conclusão,3301,Queda de árvore,0,1,0,4,2025-03-07T18:21:00Z,Castro Marim,Faro,Algarve,-7.579513,37.268006
25054772,Guarda,Beiras e Serra da Estrela,310,2025-03-07T18:57:00Z,25054772,Em despacho,3301,Queda de árvore,0,1,0,2,2025-03-07T18:57:00Z,Guarda,Guarda,Centro,-7.260869,40.536751
25054831,Pussos São Pedro,Região de Leiria,310,2025-03-07T19:12:00Z,25054831,Em resolução,3309,Desabamento de estruturas edificadas,0,2,0,4,2025-03-07T19:12:00Z,Alvaiázere,Leiria,Centro,-8.361981,39.804929
25054849,Sul,Viseu Dão Lafões,310,2025-03-07T19:15:00Z,25054849,Em conclusão,3313,Deslizamento de terras,0,1,0,3,2025-03-07T19:15:00Z,São Pedro Do Sul,Viseu,Centro,-8.057282,40.804759
25054864,Benfica do Ribatejo,Lezíria do Tejo,311,2025-03-07T19:19:00Z,25054864,Em resolução,3301,Queda de árvore,0,3,0,8,2025-03-07T19:19:00Z,Almeirim,Santarém,Alentejo,-8.655771,39.122153
