id,address,subregion,neighborhood,date,id.1,state,nature,nature_description,aerial_means,terrestrial_means,aquatic_means,operational,date.1,Concelho,Distrito,NUTII_DSG,longitude,latitude,state_2
25610143,Nossa Senhora Das Misericórdias,Médio Tejo,311,2025-07-01T15:32:00Z,25610143,Em Resolução/Conclusão,3103,Incêndio rural,0,1,0,5,2025-07-01T15:32:00Z,Ourém,Santarém,Centro,-8.600277,39.655883,Resolução/Conclusão
25620464,Cativelos,Beiras e Serra da Estrela,310,2025-07-03T13:45:00Z,25620464,Em Resolução/Conclusão,3103,Incêndio rural,0,2,0,6,2025-07-03T13:45:00Z,Gouveia,Guarda,Centro,-7.704635,40.546025,Resolução/Conclusão
25620664,Côja e Barril de Alva,Região de Coimbra,310,2025-07-03T14:22:00Z,25620664,Em Resolução/Conclusão,3101,Incêndio rural,0,3,0,11,2025-07-03T14:22:00Z,Arganil,Coimbra,Centro,-7.95667,40.2725,Resolução/Conclusão
25627000,Aião,Tâmega e Sousa,309,2025-07-04T16:45:00Z,25627000,Em Resolução/Conclusão,3103,Incêndio rural,4,8,0,32,2025-07-04T16:45:00Z,Felgueiras,Porto,Norte,-8.204774,41.300006,Resolução/Conclusão
25627734,"Achete, Azoia de Baixo e Póvoa de Santarém",Lezíria do Tejo,311,2025-07-04T19:05:00Z,25627734,Em Resolução/Conclusão,3103,Incêndio rural,0,5,0,19,2025-07-04T19:05:00Z,Santarém,Santarém,Alentejo,-8.69028,39.35445,Resolução/Conclusão
25627791,Laranjeiro e Feijó,Península de Setúbal,311,2025-07-04T19:15:00Z,25627791,Em Resolução/Conclusão,3103,Incêndio rural,0,2,0,10,2025-07-04T19:15:00Z,Almada,Setúbal,Área Metropolitana De Lisboa,-9.1664,38.65977,Resolução/Conclusão
25627868,Barcarena,Grande Lisboa,311,2025-07-04T19:34:00Z,25627868,Em Despacho,3103,Incêndio rural,0,1,0,5,2025-07-04T19:34:00Z,Oeiras,Lisboa,Área Metropolitana De Lisboa,-9.295698,38.74125,Despacho
25627329,Oliveira do Hospital e São Paio de Gramaços,Região de Coimbra,310,2025-07-04T17:47:00Z,25627329,Em Resolução/Conclusão,3101,Incêndio rural,0,20,0,81,2025-07-04T17:47:00Z,Oliveira Do Hospital,Coimbra,Centro,-7.854151,40.350587,Resolução/Conclusão
25627680,Beja (Salvador e Santa Maria da Feira),Baixo Alentejo,312,2025-07-04T18:53:00Z,25627680,Em Resolução/Conclusão,3105,Incêndio rural,0,0,0,0,2025-07-04T18:53:00Z,Beja,Beja,Alentejo,-7.867235,38.027632,Resolução/Conclusão
25599382,Almaceda,Beira Baixa,310,2025-06-29T17:03:00Z,25599382,Em Resolução/Conclusão,3101,Incêndio rural,0,5,0,16,2025-06-29T17:03:00Z,Castelo Branco,Castelo Branco,Centro,-7.645695,39.962858,Resolução/Conclusão
25622185,Fornos,Tâmega e Sousa,309,2025-07-03T19:19:00Z,25622185,Em Resolução/Conclusão,3103,Incêndio rural,0,2,0,10,2025-07-03T19:19:00Z,Castelo De Paiva,Aveiro,Norte,-8.242889,41.047999,Resolução/Conclusão
25622580,Ribeira do Neiva,Cávado,309,2025-07-03T20:50:00Z,25622580,Em Resolução/Conclusão,3103,Incêndio rural,0,14,0,45,2025-07-03T20:50:00Z,Vila Verde,Braga,Norte,-8.51215,41.728757,Resolução/Conclusão
25625784,São Miguel do Rio Torto e Rossio Ao Sul do Tejo,Médio Tejo,311,2025-07-04T13:10:00Z,25625784,Em Resolução/Conclusão,3103,Incêndio rural,0,0,0,0,2025-07-04T13:10:00Z,Abrantes,Santarém,Centro,-8.193168,39.43591,Resolução/Conclusão
25625983,Vilarinho,Area M. Porto,309,2025-07-04T13:45:00Z,25625983,Em Resolução/Conclusão,3103,Incêndio rural,0,32,0,97,2025-07-04T13:45:00Z,Santo Tirso,Porto,Norte,-8.325352,41.343782,Resolução/Conclusão
25626301,Mouriscas,Médio Tejo,311,2025-07-04T14:41:00Z,25626301,Em Resolução/Conclusão,3103,Incêndio rural,0,22,0,74,2025-07-04T14:41:00Z,Abrantes,Santarém,Centro,-8.117058,39.496395,Resolução/Conclusão
25626751,Arrifana,Area M. Porto,309,2025-07-04T15:31:00Z,25626751,Em Resolução/Conclusão,3103,Incêndio rural,0,1,0,4,2025-07-04T15:31:00Z,Santa Maria Da Feira,Aveiro,Norte,-8.495162,40.913169,Resolução/Conclusão
25627288,"Silvares, Pias, Nogueira e Alvarenga",Tâmega e Sousa,309,2025-07-04T17:16:00Z,25627288,Em Resolução/Conclusão,3103,Incêndio rural,0,3,0,10,2025-07-04T17:16:00Z,Lousada,Porto,Norte,-8.262878,41.274868,Resolução/Conclusão
25627590,Correlhã,Alto Minho,309,2025-07-04T18:36:00Z,25627590,Em Resolução/Conclusão,3101,Incêndio rural,0,2,0,4,2025-07-04T18:36:00Z,Ponte De Lima,Viana Do Castelo,Norte,-8.610418,41.754607,Resolução/Conclusão
25627922,Águeda e Borralha,Região de Aveiro,310,2025-07-04T19:44:00Z,25627922,Em Despacho,3105,Incêndio rural,0,1,0,5,2025-07-04T19:44:00Z,Águeda,Aveiro,Centro,-8.416662,40.574294,Despacho
