id,address,subregion,neighborhood,date,id.1,state,nature,nature_description,aerial_means,terrestrial_means,aquatic_means,operational,date.1,Concelho,Distrito,NUTII_DSG,longitude,latitude
24888293,Pernes,Lezíria do Tejo,311,2025-01-29T16:41:00Z,24888293,Em curso,3301,Queda de árvore,0,0,0,0,2025-01-29T16:41:00Z,Santarém,Santarém,Alentejo,-8.658865,39.381547
24877003,Malagueira e Horta Das Figueiras,Alentejo Central,312,2025-01-27T11:41:00Z,24877003,Em conclusão,3315,Inundação de estruturas por precipitação intensa,0,0,0,0,2025-01-27T11:41:00Z,Évora,Évora,Alentejo,-7.924277,38.57285
24979844,Vimeiro,Oeste,311,2025-02-19T08:00:00Z,24979844,Em despacho,3301,Queda de árvore,0,1,0,2,2025-02-19T08:00:00Z,Alcobaça,Leiria,Centro,-9.020121,39.497339
24981707,Santa Maria Maior e Monserrate e Meadela,Alto Minho,309,2025-02-19T14:00:00Z,24981707,Em conclusão,3311,Queda de elementos de estruturas edificados,0,0,0,0,2025-02-19T14:00:00Z,Viana Do Castelo,Viana Do Castelo,Norte,-8.826973,41.693958
24980976,Salvador e Santo Aleixo de Além-Tâmega,Alto Tâmega e Barroso,309,2025-02-19T11:34:00Z,24980976,Em despacho,3301,Queda de árvore,0,1,0,2,2025-02-19T11:34:00Z,Ribeira De Pena,Vila Real,Norte,-7.821538,41.544516
24982060,Benavente,Lezíria do Tejo,311,2025-02-19T15:04:00Z,24982060,Em despacho,3301,Queda de árvore,0,1,0,5,2025-02-19T15:04:00Z,Benavente,Santarém,Alentejo,-8.804753,38.980872
