id,address,subregion,neighborhood,date,id.1,state,nature,nature_description,aerial_means,terrestrial_means,aquatic_means,operational,date.1,Concelho,Distrito,NUTII_DSG,longitude,latitude
25520907,Serpa (Salvador e Santa Maria),Baixo Alentejo,312,2025-06-13T16:44:00Z,25520907,Em conclusão,3105,Incêndio rural,0,10,0,32,2025-06-13T16:44:00Z,Serpa,Beja,Alentejo,-7.59766,37.935948
25521627,Costa da Caparica,Península de Setúbal,311,2025-06-13T19:39:00Z,25521627,Em conclusão,3103,Incêndio rural,0,4,0,17,2025-06-13T19:39:00Z,Almada,Setúbal,Área Metropolitana De Lisboa,-9.229655,38.644237
25521065,Couto de Baixo e Couto de Cima,Viseu Dão Lafões,310,2025-06-13T17:18:00Z,25521065,Em conclusão,3101,Incêndio rural,0,4,0,17,2025-06-13T17:18:00Z,Viseu,Viseu,Centro,-8.004938,40.699787
25521098,Trancoso (São Pedro e Santa Maria) e Souto Maior,Beiras e Serra da Estrela,310,2025-06-13T17:25:00Z,25521098,Em despacho,3203,Detritos confinados,0,1,0,5,2025-06-13T17:25:00Z,Trancoso,Guarda,Centro,-7.349001,40.772412
25521641,Alcabideche,Grande Lisboa,311,2025-06-13T19:43:00Z,25521641,Em resolução,2125,"Incêndio em edifícios prisionais, militares, ou de força de segurança",0,3,0,6,2025-06-13T19:43:00Z,Cascais,Lisboa,Área Metropolitana De Lisboa,-9.3838,38.7552
25521674,Estremoz (Santa Maria e Santo André),Alentejo Central,312,2025-06-13T19:40:00Z,25521674,Em conclusão,3105,Incêndio rural,0,2,0,7,2025-06-13T19:40:00Z,Estremoz,Évora,Alentejo,-7.578923,38.851318
25521691,Amora,Península de Setúbal,311,2025-06-13T19:50:00Z,25521691,Em resolução,3103,Incêndio rural,0,1,0,5,2025-06-13T19:50:00Z,Seixal,Setúbal,Área Metropolitana De Lisboa,-9.112843,38.642702
25521376,Campanhã,Area M. Porto,309,2025-06-13T18:39:00Z,25521376,Em curso,3103,Incêndio rural,0,3,0,12,2025-06-13T18:39:00Z,Porto,Porto,Norte,-8.57558,41.17631
25521801,Alcochete,Península de Setúbal,311,2025-06-13T20:22:00Z,25521801,Em despacho,3103,Incêndio rural,0,2,0,10,2025-06-13T20:22:00Z,Alcochete,Setúbal,Área Metropolitana De Lisboa,-8.858334,38.71222
