id,address,subregion,neighborhood,date,id.1,state,nature,nature_description,aerial_means,terrestrial_means,aquatic_means,operational,date.1,Concelho,Distrito,NUTII_DSG,longitude,latitude,state_2
25646735,Campelo e Ovil,Tâmega e Sousa,309,2025-07-08T13:19:00Z,25646735,Em Resolução/Conclusão,3105,Incêndio rural,0,6,0,22,2025-07-08T13:19:00Z,Baião,Porto,Norte,-8.00404,41.193612,Resolução/Conclusão
25649913,Travanca,Tâmega e Sousa,309,2025-07-09T03:31:00Z,25649913,Em Resolução/Conclusão,3103,Incêndio rural,0,1,0,4,2025-07-09T03:31:00Z,Cinfães,Viseu,Norte,-8.219175,41.043948,Resolução/Conclusão
25651676,"St.tirso, Couto (S.cristina e S.miguel) e Burgães",Area M. Porto,309,2025-07-09T11:55:00Z,25651676,Em Resolução/Conclusão,3103,Incêndio rural,0,1,0,5,2025-07-09T11:55:00Z,Santo Tirso,Porto,Norte,-8.473671,41.348144,Resolução/Conclusão
25651767,Lousã e Vilarinho,Região de Coimbra,310,2025-07-09T12:18:00Z,25651767,Em Resolução/Conclusão,3103,Incêndio rural,0,4,0,12,2025-07-09T12:18:00Z,Lousã,Coimbra,Centro,-8.24861,40.14028,Resolução/Conclusão
25647385,Castelo Novo,Beiras e Serra da Estrela,310,2025-07-08T15:11:00Z,25647385,Em Resolução/Conclusão,3103,Incêndio rural,0,3,0,10,2025-07-08T15:11:00Z,Fundão,Castelo Branco,Centro,-7.447838,40.023465,Resolução/Conclusão
25650058,"Gondifelos, Cavalões e Outiz",Ave,309,2025-07-09T06:18:00Z,25650058,Em Resolução/Conclusão,3103,Incêndio rural,0,2,0,6,2025-07-09T06:18:00Z,Vila Nova De Famalicão,Braga,Norte,-8.622123,41.410867,Resolução/Conclusão
25650962,Castedo e Cotas,Douro,309,2025-07-09T10:04:00Z,25650962,Em Resolução/Conclusão,3103,Incêndio rural,0,6,0,23,2025-07-09T10:04:00Z,Alijó,Vila Real,Norte,-7.459645,41.212807,Resolução/Conclusão
25651096,Rio de Moinhos,Tâmega e Sousa,309,2025-07-09T10:23:00Z,25651096,Em Resolução/Conclusão,3105,Incêndio rural,0,2,0,10,2025-07-09T10:23:00Z,Penafiel,Porto,Norte,-8.259413,41.110698,Resolução/Conclusão
25651179,Gançaria,Lezíria do Tejo,311,2025-07-09T10:39:00Z,25651179,Em Resolução/Conclusão,3101,Incêndio rural,0,11,0,38,2025-07-09T10:39:00Z,Santarém,Santarém,Alentejo,-8.888905,39.403696,Resolução/Conclusão
25651461,"Perafita, Lavra e Santa Cruz do Bispo",Area M. Porto,309,2025-07-09T11:20:00Z,25651461,Em Resolução/Conclusão,3103,Incêndio rural,0,2,0,6,2025-07-09T11:20:00Z,Matosinhos,Porto,Norte,-8.661887,41.218985000000004,Resolução/Conclusão
25646909,Nespereira,Tâmega e Sousa,309,2025-07-08T13:53:00Z,25646909,Em Resolução/Conclusão,3103,Incêndio rural,2,41,0,140,2025-07-08T13:53:00Z,Cinfães,Viseu,Norte,-8.122663,40.996095,Resolução/Conclusão
25649968,Pussos São Pedro,Região de Leiria,310,2025-07-09T04:38:00Z,25649968,Em Resolução/Conclusão,3103,Incêndio rural,0,3,0,7,2025-07-09T04:38:00Z,Alvaiázere,Leiria,Centro,-8.334062,39.841006,Resolução/Conclusão
25651034,"Aboim, Felgueiras, Gontim e Pedraído",Ave,309,2025-07-09T10:13:00Z,25651034,Em Resolução/Conclusão,3103,Incêndio rural,0,8,0,32,2025-07-09T10:13:00Z,Fafe,Braga,Norte,-8.097062,41.504728,Resolução/Conclusão
25651405,Romariz,Area M. Porto,309,2025-07-09T11:11:00Z,25651405,Em Resolução/Conclusão,3103,Incêndio rural,0,3,0,14,2025-07-09T11:11:00Z,Santa Maria Da Feira,Aveiro,Norte,-8.449343,40.953633,Resolução/Conclusão
25651454,Vila Cova da Lixa e Borba de Godim,Tâmega e Sousa,309,2025-07-09T11:18:00Z,25651454,Em Resolução/Conclusão,3105,Incêndio rural,0,3,0,12,2025-07-09T11:18:00Z,Felgueiras,Porto,Norte,-8.15583,41.325238,Resolução/Conclusão
25651854,Santo António de Monforte,Alto Tâmega e Barroso,309,2025-07-09T12:39:00Z,25651854,Em Despacho,3103,Incêndio rural,2,1,0,12,2025-07-09T12:39:00Z,Chaves,Vila Real,Norte,-7.38068,41.78826,Despacho
25651815,Paredes,Area M. Porto,309,2025-07-09T12:25:00Z,25651815,Em Resolução/Conclusão,3103,Incêndio rural,0,1,0,5,2025-07-09T12:25:00Z,Paredes,Porto,Norte,-8.371893,41.200742,Resolução/Conclusão
25651828,Alfena,Area M. Porto,309,2025-07-09T12:32:00Z,25651828,Em Despacho,3101,Incêndio rural,1,2,0,16,2025-07-09T12:32:00Z,Valongo,Porto,Norte,-8.52487,41.22558,Despacho
25651830,Samora Correia,Lezíria do Tejo,311,2025-07-09T12:32:00Z,25651830,Em Resolução/Conclusão,3105,Incêndio rural,0,2,0,7,2025-07-09T12:32:00Z,Benavente,Santarém,Alentejo,-8.884275,38.916977,Resolução/Conclusão
25651831,Sendim,Tâmega e Sousa,309,2025-07-09T12:32:00Z,25651831,Em Resolução/Conclusão,3101,Incêndio rural,0,1,0,5,2025-07-09T12:32:00Z,Felgueiras,Porto,Norte,-8.171407,41.38973,Resolução/Conclusão
25644630,Recezinhos (São Mamede),Tâmega e Sousa,309,2025-07-08T04:33:00Z,25644630,Em Resolução/Conclusão,3103,Incêndio rural,0,4,0,14,2025-07-08T04:33:00Z,Penafiel,Porto,Norte,-8.216673,41.2387,Resolução/Conclusão
25645409,Terena (São Pedro),Alentejo Central,312,2025-07-08T09:22:00Z,25645409,Em Resolução/Conclusão,3103,Incêndio rural,0,93,0,255,2025-07-08T09:22:00Z,Alandroal,Évora,Alentejo,-7.410956,38.623883,Resolução/Conclusão
25647106,Tortosendo,Beiras e Serra da Estrela,310,2025-07-08T14:25:00Z,25647106,Em Resolução/Conclusão,3103,Incêndio rural,0,7,0,23,2025-07-08T14:25:00Z,Covilhã,Castelo Branco,Centro,-7.508533,40.223705,Resolução/Conclusão
25649987,Pedrógão Pequeno,Beira Baixa,310,2025-07-09T05:02:00Z,25649987,Em Resolução/Conclusão,3101,Incêndio rural,0,1,0,5,2025-07-09T05:02:00Z,Sertã,Castelo Branco,Centro,-8.110455,39.900822,Resolução/Conclusão
25651516,Penafiel,Tâmega e Sousa,309,2025-07-09T11:36:00Z,25651516,Em Resolução/Conclusão,3103,Incêndio rural,0,2,0,6,2025-07-09T11:36:00Z,Penafiel,Porto,Norte,-8.263833,41.203645,Resolução/Conclusão
