id,address,subregion,neighborhood,date,id.1,state,nature,nature_description,aerial_means,terrestrial_means,aquatic_means,operational,date.1,Concelho,Distrito,NUTII_DSG,longitude,latitude
25493974,Costa da Caparica,Península de Setúbal,311,2025-06-08T05:32:00Z,25493974,Em resolução,3107,Consolidação de rescaldo de incêndio rural,0,5,0,15,2025-06-08T05:32:00Z,Almada,Setúbal,Área Metropolitana De Lisboa,-9.20088,38.58186
25494321,Laranjeiro e Feijó,Península de Setúbal,311,2025-06-08T08:20:00Z,25494321,Em conclusão,3103,Incêndio rural,0,2,0,6,2025-06-08T08:20:00Z,Almada,Setúbal,Área Metropolitana De Lisboa,-9.168602,38.659975
25494145,Alhos Vedros,Península de Setúbal,311,2025-06-08T07:29:00Z,25494145,Em conclusão,3105,Incêndio rural,0,2,0,7,2025-06-08T07:29:00Z,Moita,Setúbal,Área Metropolitana De Lisboa,-9.007328,38.65525
25493327,Garvão e Santa Luzia,Baixo Alentejo,312,2025-06-07T23:02:00Z,25493327,Em conclusão,3105,Incêndio rural,0,1,0,5,2025-06-07T23:02:00Z,Ourique,Beja,Alentejo,-8.394977,37.741793
25494565,Águas Santas,Area M. Porto,309,2025-06-08T08:46:00Z,25494565,Em conclusão,3201,Detritos não confinados,0,1,0,4,2025-06-08T08:46:00Z,Maia,Porto,Norte,-8.583827,41.208201
