id,address,subregion,neighborhood,date,id.1,state,nature,nature_description,aerial_means,terrestrial_means,aquatic_means,operational,date.1,Concelho,Distrito,NUTII_DSG,longitude,latitude
25553154,Pedrógão,Baixo Alentejo,312,2025-06-20T12:23:00Z,25553154,Em conclusão,3103,Incêndio rural,0,8,0,20,2025-06-20T12:23:00Z,Vidigueira,Beja,Alentejo,-7.549947,38.179912
25557532,Ruivães e Novais,Ave,309,2025-06-21T09:40:00Z,25557532,Em curso,3107,Consolidação de rescaldo de incêndio rural,0,1,0,2,2025-06-21T09:40:00Z,Vila Nova De Famalicão,Braga,Norte,-8.426976,41.394524
25558159,Faro (Sé e São Pedro),Algarve,313,2025-06-21T11:55:00Z,25558159,Em conclusão,3103,Incêndio rural,0,0,0,0,2025-06-21T11:55:00Z,Faro,Faro,Algarve,-7.909439,37.020395
25558620,Lindoso,Alto Minho,309,2025-06-21T13:47:00Z,25558620,Em curso,3103,Incêndio rural,0,1,0,5,2025-06-21T13:47:00Z,Ponte Da Barca,Viana Do Castelo,Norte,-8.242045,41.861187
25558652,Canelas e Fermelã,Região de Aveiro,310,2025-06-21T13:58:00Z,25558652,Em despacho,3103,Incêndio rural,1,1,0,10,2025-06-21T13:58:00Z,Estarreja,Aveiro,Centro,-8.554375,40.704956
25557573,Sabadim,Alto Minho,309,2025-06-21T09:49:00Z,25557573,Em conclusão,3101,Incêndio rural,0,0,0,0,2025-06-21T09:49:00Z,Arcos De Valdevez,Viana Do Castelo,Norte,-8.461803,41.907022
25558391,Lomba,Area M. Porto,309,2025-06-21T12:52:00Z,25558391,Em conclusão,3103,Incêndio rural,0,2,0,7,2025-06-21T12:52:00Z,Gondomar,Porto,Norte,-8.425652,41.03171
25558524,Sacavém e Prior Velho,Grande Lisboa,311,2025-06-21T13:24:00Z,25558524,Em curso,3103,Incêndio rural,0,3,0,9,2025-06-21T13:24:00Z,Loures,Lisboa,Área Metropolitana De Lisboa,-9.126385,38.791217
25558642,Válega,Região de Aveiro,310,2025-06-21T13:57:00Z,25558642,Em despacho,3101,Incêndio rural,1,0,0,6,2025-06-21T13:57:00Z,Ovar,Aveiro,Centro,-8.555833,40.845
25558076,Prado (São Miguel),Cávado,309,2025-06-21T11:20:00Z,25558076,Em despacho,3107,Consolidação de rescaldo de incêndio rural,0,2,0,7,2025-06-21T11:20:00Z,Vila Verde,Braga,Norte,-8.441303,41.70796
25558628,Mirandela,Terras de Trás-os-Montes,309,2025-06-21T13:45:00Z,25558628,Em conclusão,3103,Incêndio rural,0,2,0,7,2025-06-21T13:45:00Z,Mirandela,Bragança,Norte,-7.170474,41.484193
25554773,Cativelos,Beiras e Serra da Estrela,310,2025-06-20T17:46:00Z,25554773,Em conclusão,3103,Incêndio rural,0,3,0,10,2025-06-20T17:46:00Z,Gouveia,Guarda,Centro,-7.702992,40.53306
25557696,Ceivães e Badim,Alto Minho,309,2025-06-21T10:14:00Z,25557696,Em conclusão,3107,Consolidação de rescaldo de incêndio rural,0,0,0,0,2025-06-21T10:14:00Z,Monção,Viana Do Castelo,Norte,-8.375898,42.074248
25557715,Alferce,Algarve,313,2025-06-21T10:17:00Z,25557715,Em conclusão,3103,Incêndio rural,0,0,0,0,2025-06-21T10:17:00Z,Monchique,Faro,Algarve,-8.483698,37.269673
25558216,Figueira Dos Cavaleiros,Baixo Alentejo,312,2025-06-21T12:06:00Z,25558216,Em conclusão,3105,Incêndio rural,0,5,0,11,2025-06-21T12:06:00Z,Ferreira Do Alentejo,Beja,Alentejo,-8.20599,38.0819
25558332,Loures,Grande Lisboa,311,2025-06-21T12:34:00Z,25558332,Em conclusão,3103,Incêndio rural,0,5,0,15,2025-06-21T12:34:00Z,Loures,Lisboa,Área Metropolitana De Lisboa,-9.160139,38.839673
25558349,Benavila e Valongo,Alto Alentejo,312,2025-06-21T12:39:00Z,25558349,Em curso,3105,Incêndio rural,5,31,0,108,2025-06-21T12:39:00Z,Avis,Portalegre,Alentejo,-7.917383,39.142285
25558534,Pias,Baixo Alentejo,312,2025-06-21T13:27:00Z,25558534,Em conclusão,3105,Incêndio rural,0,8,0,29,2025-06-21T13:27:00Z,Serpa,Beja,Alentejo,-7.480553,38.023433
