id,address,subregion,neighborhood,date,id.1,state,nature,nature_description,aerial_means,terrestrial_means,aquatic_means,operational,date.1,Concelho,Distrito,NUTII_DSG,longitude,latitude,state_2
25832672,Piódão,Região de Coimbra,310,2025-08-13T05:08:00Z,25832672,Em Resolução/Conclusão,3103,Incêndio rural,0,13,0,36,2025-08-13T05:08:00Z,Arganil,Coimbra,Centro,-7.81972,40.23083,Resolução/Conclusão
25981564,Nossa Senhora da Conceição e São Bartolomeu,Alentejo Central,312,2025-09-12T19:39:00Z,25981564,Em Curso,3103,Incêndio rural,0,5,0,19,2025-09-12T19:39:00Z,Vila Viçosa,Évora,Alentejo,-7.409111,38.75284,Curso
25952858,Figueira de Castelo Rodrigo,Beiras e Serra da Estrela,310,2025-09-06T16:22:00Z,25952858,Em Resolução/Conclusão,3103,Incêndio rural,0,2,0,7,2025-09-06T16:22:00Z,Figueira De Castelo Rodrigo,Guarda,Centro,-6.934648,40.906778,Resolução/Conclusão
25980034,Medelim,Beira Baixa,310,2025-09-12T14:12:00Z,25980034,Em Resolução/Conclusão,3105,Incêndio rural,0,0,0,0,2025-09-12T14:12:00Z,Idanha-a-Nova,Castelo Branco,Centro,-7.18952,40.048882,Resolução/Conclusão
25981018,Foz do Arelho,Oeste,311,2025-09-12T17:27:00Z,25981018,Em Resolução/Conclusão,3103,Incêndio rural,0,2,0,10,2025-09-12T17:27:00Z,Caldas Da Rainha,Leiria,Centro,-9.206552,39.449831,Resolução/Conclusão
25951176,Sandomil,Beiras e Serra da Estrela,310,2025-09-06T10:29:00Z,25951176,Em Resolução/Conclusão,3103,Incêndio rural,0,17,0,59,2025-09-06T10:29:00Z,Seia,Guarda,Centro,-7.76001,40.351547,Resolução/Conclusão
25980003,Chavães,Douro,309,2025-09-12T14:05:00Z,25980003,Em Resolução/Conclusão,3103,Incêndio rural,0,6,0,19,2025-09-12T14:05:00Z,Tabuaço,Viseu,Norte,-7.553368,41.096233,Resolução/Conclusão
25981547,Beja (Salvador e Santa Maria da Feira),Baixo Alentejo,312,2025-09-12T19:35:00Z,25981547,Em Despacho,3105,Incêndio rural,0,5,0,18,2025-09-12T19:35:00Z,Beja,Beja,Alentejo,-7.857487,38.018587,Despacho
25980131,Carva e Vilares,Douro,309,2025-09-12T14:27:00Z,25980131,Em Curso,3103,Incêndio rural,1,63,0,226,2025-09-12T14:27:00Z,Murça,Vila Real,Norte,-7.55901,41.401343,Curso
25980930,Santo André Das Tojeiras,Beira Baixa,310,2025-09-12T17:08:00Z,25980930,Em Curso,3101,Incêndio rural,1,51,0,166,2025-09-12T17:08:00Z,Castelo Branco,Castelo Branco,Centro,-7.72701,39.809058,Curso
25981432,Poceirão e Marateca,Península de Setúbal,311,2025-09-12T19:02:00Z,25981432,Em Despacho,3103,Incêndio rural,0,1,0,5,2025-09-12T19:02:00Z,Palmela,Setúbal,Área Metropolitana De Lisboa,-8.741193,38.629608,Despacho
25981548,Campo e Sobrado,Area M. Porto,309,2025-09-12T19:36:00Z,25981548,Em Despacho,3103,Incêndio rural,0,0,0,0,2025-09-12T19:36:00Z,Valongo,Porto,Norte,-8.46353,41.18297,Despacho
