id,address,subregion,neighborhood,date,id.1,state,nature,nature_description,aerial_means,terrestrial_means,aquatic_means,operational,date.1,Concelho,Distrito,NUTII_DSG,longitude,latitude,state_2
25935557,Caldas da Rainha - Santo Onofre e Serra do Bouro,Oeste,311,2025-09-02T23:12:00Z,25935557,Em Resolução/Conclusão,3103,Incêndio rural,0,4,0,14,2025-09-02T23:12:00Z,Caldas Da Rainha,Leiria,Centro,-9.14107,39.39746,Resolução/Conclusão
25935623,Marrazes e Barosa,Região de Leiria,310,2025-09-02T23:41:00Z,25935623,Em Resolução/Conclusão,3101,Incêndio rural,0,4,0,14,2025-09-02T23:41:00Z,Leiria,Leiria,Centro,-8.794769,39.760033,Resolução/Conclusão
25935630,Vendas Novas,Alentejo Central,312,2025-09-02T23:42:00Z,25935630,Em Resolução/Conclusão,3103,Incêndio rural,0,4,0,11,2025-09-02T23:42:00Z,Vendas Novas,Évora,Alentejo,-8.431663,38.699577,Resolução/Conclusão
25832672,Piódão,Região de Coimbra,310,2025-08-13T05:08:00Z,25832672,Em Resolução/Conclusão,3103,Incêndio rural,0,16,0,42,2025-08-13T05:08:00Z,Arganil,Coimbra,Centro,-7.81972,40.23083,Resolução/Conclusão
25840417,Lousã e Vilarinho,Região de Coimbra,310,2025-08-14T13:46:00Z,25840417,Em Resolução/Conclusão,3101,Incêndio rural,0,1,0,1,2025-08-14T13:46:00Z,Lousã,Coimbra,Centro,-8.201561,40.080016,Resolução/Conclusão
25928777,Ourique,Baixo Alentejo,312,2025-09-01T13:29:00Z,25928777,Em Curso,3105,Incêndio rural,0,0,0,0,2025-09-01T13:29:00Z,Ourique,Beja,Alentejo,-8.227973,37.635525,Curso
25935529,Vermoil,Região de Leiria,310,2025-09-02T22:56:00Z,25935529,Em Resolução/Conclusão,3103,Incêndio rural,0,12,0,43,2025-09-02T22:56:00Z,Pombal,Leiria,Centro,-8.677468,39.830893,Resolução/Conclusão
