id,address,subregion,neighborhood,date,id.1,state,nature,nature_description,aerial_means,terrestrial_means,aquatic_means,operational,date.1,Concelho,Distrito,NUTII_DSG,longitude,latitude
24795524,Canelas,Area M. Porto,309,2025-01-09T12:18:00Z,24795524,Em despacho,3321,Dano na rede de fornecimento de eletricidade ,0,1,0,4,2025-01-09T12:18:00Z,Vila Nova De Gaia,Porto,Norte,-8.600638,41.079331
24795744,Mafamude e Vilar do Paraíso,Area M. Porto,309,2025-01-09T11:55:00Z,24795744,Em despacho,3311,Queda de elementos de estruturas edificados,0,1,0,3,2025-01-09T11:55:00Z,Vila Nova De Gaia,Porto,Norte,-8.611105,41.107184
24795599,"Alto do Seixalinho, Santo André e Verderena",Península de Setúbal,311,2025-01-09T12:14:00Z,24795599,Em despacho,3317,Inundação de estruturas por água canalizada,0,1,0,3,2025-01-09T12:14:00Z,Barreiro,Setúbal,Área Metropolitana De Lisboa,-9.065968,38.6593
24794350,Amor,Região de Leiria,310,2025-01-09T08:39:00Z,24794350,Em despacho,3321,Dano na rede de fornecimento de eletricidade ,0,1,0,1,2025-01-09T08:39:00Z,Leiria,Leiria,Centro,-8.880606,39.80632
24794459,Alcanena e Vila Moreira,Médio Tejo,311,2025-01-09T09:04:00Z,24794459,Em despacho,3311,Queda de elementos de estruturas edificados,0,3,0,7,2025-01-09T09:04:00Z,Alcanena,Santarém,Centro,-8.666413,39.458072
