id,address,subregion,neighborhood,date,id.1,state,nature,nature_description,aerial_means,terrestrial_means,aquatic_means,operational,date.1,Concelho,Distrito,NUTII_DSG,longitude,latitude,state_2
25641335,"Crato e Mártires, Flor da Rosa e Vale do Peso",Alto Alentejo,312,2025-07-07T13:08:00Z,25641335,Em Resolução/Conclusão,3103,Incêndio rural,0,1,0,2,2025-07-07T13:08:00Z,Crato,Portalegre,Alentejo,-7.605477,39.258982,Resolução/Conclusão
25641383,Mafra,Grande Lisboa,311,2025-07-07T13:13:00Z,25641383,Em Resolução/Conclusão,3101,Incêndio rural,0,16,0,52,2025-07-07T13:13:00Z,Mafra,Lisboa,Área Metropolitana De Lisboa,-9.325207,38.929228,Resolução/Conclusão
25641484,Serpa (Salvador e Santa Maria),Baixo Alentejo,312,2025-07-07T13:29:00Z,25641484,Em Resolução/Conclusão,3105,Incêndio rural,0,1,0,5,2025-07-07T13:29:00Z,Serpa,Beja,Alentejo,-7.53462,37.895487,Resolução/Conclusão
25641520,"Nossa Senhora da Conceição, São Pedro e São Dinis",Douro,309,2025-07-07T13:40:00Z,25641520,Em Resolução/Conclusão,3103,Incêndio rural,0,3,0,8,2025-07-07T13:40:00Z,Vila Real,Vila Real,Norte,-7.734417,41.307712,Resolução/Conclusão
25641584,Cidade da Maia,Area M. Porto,309,2025-07-07T13:52:00Z,25641584,Em Resolução/Conclusão,3103,Incêndio rural,0,1,0,4,2025-07-07T13:52:00Z,Maia,Porto,Norte,-8.599655,41.23267,Resolução/Conclusão
25641687,Cidade da Maia,Area M. Porto,309,2025-07-07T14:12:00Z,25641687,Em Resolução/Conclusão,3103,Incêndio rural,0,2,0,5,2025-07-07T14:12:00Z,Maia,Porto,Norte,-8.633167,41.233675,Resolução/Conclusão
25641870,"Crato e Mártires, Flor da Rosa e Vale do Peso",Alto Alentejo,312,2025-07-07T14:40:00Z,25641870,Em Resolução/Conclusão,3105,Incêndio rural,0,8,0,28,2025-07-07T14:40:00Z,Crato,Portalegre,Alentejo,-7.57582,39.248888,Resolução/Conclusão
25641968,Cervães,Cávado,309,2025-07-07T15:01:00Z,25641968,Em Resolução/Conclusão,3103,Incêndio rural,1,5,0,23,2025-07-07T15:01:00Z,Vila Verde,Braga,Norte,-8.513801,41.595037,Resolução/Conclusão
25642019,Aves,Area M. Porto,309,2025-07-07T15:08:00Z,25642019,Em Resolução/Conclusão,3103,Incêndio rural,0,1,0,5,2025-07-07T15:08:00Z,Santo Tirso,Porto,Norte,-8.406798,41.357327,Resolução/Conclusão
25642088,Castêlo da Maia,Area M. Porto,309,2025-07-07T15:14:00Z,25642088,Em Curso,3101,Incêndio rural,0,5,0,18,2025-07-07T15:14:00Z,Maia,Porto,Norte,-8.637152,41.27438,Curso
25640886,Póvoa do Concelho,Beiras e Serra da Estrela,310,2025-07-07T11:39:00Z,25640886,Em Resolução/Conclusão,3103,Incêndio rural,0,4,0,14,2025-07-07T11:39:00Z,Trancoso,Guarda,Centro,-7.265382,40.770737,Resolução/Conclusão
25641081,"Crato e Mártires, Flor da Rosa e Vale do Peso",Alto Alentejo,312,2025-07-07T12:10:00Z,25641081,Em Resolução/Conclusão,3103,Incêndio rural,0,3,0,12,2025-07-07T12:10:00Z,Crato,Portalegre,Alentejo,-7.651358,39.265818,Resolução/Conclusão
25641154,Urra,Alto Alentejo,312,2025-07-07T12:29:00Z,25641154,Em Resolução/Conclusão,3105,Incêndio rural,0,20,0,63,2025-07-07T12:29:00Z,Portalegre,Portalegre,Alentejo,-7.46314,39.23684,Resolução/Conclusão
25641606,Alfeizerão,Oeste,311,2025-07-07T13:53:00Z,25641606,Em Resolução/Conclusão,3111,Queima,0,1,0,5,2025-07-07T13:53:00Z,Alcobaça,Leiria,Centro,-9.110786,39.496611,Resolução/Conclusão
25641624,Figueiró da Serra e Freixo da Serra,Beiras e Serra da Estrela,310,2025-07-07T13:59:00Z,25641624,Em Resolução/Conclusão,3103,Incêndio rural,0,4,0,13,2025-07-07T13:59:00Z,Gouveia,Guarda,Centro,-7.501097,40.53297,Resolução/Conclusão
25640258,Andrães,Douro,309,2025-07-07T10:02:00Z,25640258,Em Resolução/Conclusão,3103,Incêndio rural,0,7,0,19,2025-07-07T10:02:00Z,Vila Real,Vila Real,Norte,-7.719448,41.248428,Resolução/Conclusão
25641261,"Crato e Mártires, Flor da Rosa e Vale do Peso",Alto Alentejo,312,2025-07-07T12:51:00Z,25641261,Em Resolução/Conclusão,3105,Incêndio rural,0,5,0,22,2025-07-07T12:51:00Z,Crato,Portalegre,Alentejo,-7.558015,39.310169,Resolução/Conclusão
25642026,Caíde de Rei,Tâmega e Sousa,309,2025-07-07T15:01:00Z,25642026,Em Resolução/Conclusão,3103,Incêndio rural,0,1,0,5,2025-07-07T15:01:00Z,Lousada,Porto,Norte,-8.223831,41.266677,Resolução/Conclusão
25636341,Navió e Vitorino Dos Piães,Alto Minho,309,2025-07-06T13:36:00Z,25636341,Em Resolução/Conclusão,3103,Incêndio rural,0,21,0,63,2025-07-06T13:36:00Z,Ponte De Lima,Viana Do Castelo,Norte,-8.636015,41.674557,Resolução/Conclusão
25636995,Graça,Região de Leiria,310,2025-07-06T16:00:00Z,25636995,Em Resolução/Conclusão,3101,Incêndio rural,0,1,0,2,2025-07-06T16:00:00Z,Pedrógão Grande,Leiria,Centro,-8.220789,39.883478,Resolução/Conclusão
25637334,São Miguel de Acha,Beira Baixa,310,2025-07-06T17:22:00Z,25637334,Em Resolução/Conclusão,3105,Incêndio rural,0,3,0,14,2025-07-06T17:22:00Z,Idanha-a-Nova,Castelo Branco,Centro,-7.277732,39.997078,Resolução/Conclusão
25640880,Loureira,Cávado,309,2025-07-07T11:39:00Z,25640880,Em Resolução/Conclusão,3103,Incêndio rural,0,6,0,23,2025-07-07T11:39:00Z,Vila Verde,Braga,Norte,-8.42475,41.626072,Resolução/Conclusão
25641053,Água Longa,Area M. Porto,309,2025-07-07T12:10:00Z,25641053,Em Resolução/Conclusão,3103,Incêndio rural,0,1,0,5,2025-07-07T12:10:00Z,Santo Tirso,Porto,Norte,-8.50936,41.251045,Resolução/Conclusão
25641716,Cartaxo e Vale da Pinta,Lezíria do Tejo,311,2025-07-07T14:17:00Z,25641716,Em Resolução/Conclusão,3103,Incêndio rural,0,6,0,21,2025-07-07T14:17:00Z,Cartaxo,Santarém,Alentejo,-8.78647,39.150655,Resolução/Conclusão
25641805,Cimo de Vila da Castanheira,Alto Tâmega e Barroso,309,2025-07-07T14:29:00Z,25641805,Em Resolução/Conclusão,3103,Incêndio rural,0,2,0,9,2025-07-07T14:29:00Z,Chaves,Vila Real,Norte,-7.254943,41.792873,Resolução/Conclusão
25641948,Figueira Dos Cavaleiros,Baixo Alentejo,312,2025-07-07T14:53:00Z,25641948,Em Curso,3105,Incêndio rural,0,5,0,16,2025-07-07T14:53:00Z,Ferreira Do Alentejo,Beja,Alentejo,-8.234905,38.078518,Curso
25642125,Recarei,Area M. Porto,309,2025-07-07T15:28:00Z,25642125,Em Despacho,3103,Incêndio rural,0,1,0,5,2025-07-07T15:28:00Z,Paredes,Porto,Norte,-8.429257,41.155999,Despacho
25642015,Lomba,Area M. Porto,309,2025-07-07T15:09:00Z,25642015,Em Curso,3103,Incêndio rural,1,4,0,26,2025-07-07T15:09:00Z,Gondomar,Porto,Norte,-8.42681,41.03273,Curso
