id,address,subregion,neighborhood,date,id.1,state,nature,nature_description,aerial_means,terrestrial_means,aquatic_means,operational,date.1,Concelho,Distrito,NUTII_DSG,longitude,latitude,state_2
25813482,Freches e Torres,Beiras e Serra da Estrela,310,2025-08-09T16:21:00Z,25813482,Em Resolução/Conclusão,3103,Incêndio rural,0,12,0,41,2025-08-09T16:21:00Z,Trancoso,Guarda,Centro,-7.363745,40.709022,Resolução/Conclusão
25832250,Ferreira de Aves,Viseu Dão Lafões,310,2025-08-13T00:03:00Z,25832250,Em Resolução/Conclusão,3103,Incêndio rural,0,19,0,58,2025-08-13T00:03:00Z,Sátão,Viseu,Centro,-7.647793,40.79568,Resolução/Conclusão
25836309,Cinfães,Tâmega e Sousa,309,2025-08-13T18:17:00Z,25836309,Em Resolução/Conclusão,3103,Incêndio rural,0,2,0,7,2025-08-13T18:17:00Z,Cinfães,Viseu,Norte,-8.071502,41.049757,Resolução/Conclusão
25840505,Ribeira de Nisa e Carreiras,Alto Alentejo,312,2025-08-14T14:01:00Z,25840505,Em Resolução/Conclusão,3101,Incêndio rural,0,3,0,9,2025-08-14T14:01:00Z,Portalegre,Portalegre,Alentejo,-7.47009,39.374707,Resolução/Conclusão
25851721,Arnóia,Tâmega e Sousa,309,2025-08-16T14:24:00Z,25851721,Em Resolução/Conclusão,3103,Incêndio rural,0,9,0,33,2025-08-16T14:24:00Z,Celorico De Basto,Braga,Norte,-7.994469,41.369836,Resolução/Conclusão
25860828,Vilar de Perdizes e Meixide,Alto Tâmega e Barroso,309,2025-08-18T10:25:00Z,25860828,Em Curso,3103,Incêndio rural,6,131,0,419,2025-08-18T10:25:00Z,NA,NA,NA,-7.63634,41.880008,Curso
25867995,Lomba,Area M. Porto,309,2025-08-19T16:36:00Z,25867995,Em Resolução/Conclusão,3103,Incêndio rural,0,4,0,14,2025-08-19T16:36:00Z,Gondomar,Porto,Norte,-8.41085,41.05968,Resolução/Conclusão
25868316,"Espírito Santo, Nossa Senhora da Graça e São Simão",Alto Alentejo,312,2025-08-19T17:52:00Z,25868316,Em Resolução/Conclusão,3101,Incêndio rural,0,12,0,44,2025-08-19T17:52:00Z,Nisa,Portalegre,Alentejo,-7.710377,39.493737,Resolução/Conclusão
25872060,"Canedo, Vale e Vila Maior",Area M. Porto,309,2025-08-20T13:48:00Z,25872060,Em Resolução/Conclusão,3103,Incêndio rural,0,2,0,7,2025-08-20T13:48:00Z,Santa Maria Da Feira,Aveiro,Norte,-8.47346,41.045335,Resolução/Conclusão
25872444,"Canedo, Vale e Vila Maior",Area M. Porto,309,2025-08-20T15:02:00Z,25872444,Em Resolução/Conclusão,3103,Incêndio rural,0,5,0,17,2025-08-20T15:02:00Z,Santa Maria Da Feira,Aveiro,Norte,-8.493852,41.007257,Resolução/Conclusão
25872459,Arões (Santa Cristina),Ave,309,2025-08-20T15:06:00Z,25872459,Em Curso,3103,Incêndio rural,0,2,0,8,2025-08-20T15:06:00Z,Fafe,Braga,Norte,-8.237992,41.44276,Curso
25872625,Sobradelo da Goma,Ave,309,2025-08-20T15:38:00Z,25872625,Em Resolução/Conclusão,3103,Incêndio rural,0,2,0,7,2025-08-20T15:38:00Z,Póvoa De Lanhoso,Braga,Norte,-8.171297,41.573972,Resolução/Conclusão
25872712,Recarei,Area M. Porto,309,2025-08-20T15:56:00Z,25872712,Em Resolução/Conclusão,3103,Incêndio rural,0,2,0,10,2025-08-20T15:56:00Z,Paredes,Porto,Norte,-8.414515,41.14662,Resolução/Conclusão
25872728,Lagoa e Carvoeiro,Algarve,313,2025-08-20T15:59:00Z,25872728,Em Resolução/Conclusão,3103,Incêndio rural,0,1,0,1,2025-08-20T15:59:00Z,Lagoa,Faro,Algarve,-8.460614,37.146297,Resolução/Conclusão
25872809,Canedo,Alto Tâmega e Barroso,309,2025-08-20T16:15:00Z,25872809,Em Resolução/Conclusão,3103,Incêndio rural,0,2,0,10,2025-08-20T16:15:00Z,Ribeira De Pena,Vila Real,Norte,-7.7483,41.566804,Resolução/Conclusão
25872892,Santa Clara,Grande Lisboa,311,2025-08-20T16:34:00Z,25872892,Em Despacho,3103,Incêndio rural,0,1,0,5,2025-08-20T16:34:00Z,Lisboa,Lisboa,Área Metropolitana De Lisboa,-9.154945,38.79107,Despacho
25845171,Pêra do Moço,Beiras e Serra da Estrela,310,2025-08-15T10:44:00Z,25845171,Em Resolução/Conclusão,3103,Incêndio rural,0,2,0,9,2025-08-15T10:44:00Z,Guarda,Guarda,Centro,-7.20956,40.61267,Resolução/Conclusão
25846016,Poiares,Douro,309,2025-08-15T13:17:00Z,25846016,Em Resolução/Conclusão,3103,Incêndio rural,0,30,0,82,2025-08-15T13:17:00Z,Freixo De Espada à Cinta,Bragança,Norte,-6.843393,41.075787,Resolução/Conclusão
25847211,Campelo,Região de Leiria,310,2025-08-15T17:01:00Z,25847211,Em Resolução/Conclusão,3101,Incêndio rural,0,7,0,26,2025-08-15T17:01:00Z,Figueiró Dos Vinhos,Leiria,Centro,-8.258518,39.952923,Resolução/Conclusão
25861685,Santa Catarina da Serra e Chainça,Região de Leiria,310,2025-08-18T13:03:00Z,25861685,Em Resolução/Conclusão,3103,Incêndio rural,0,2,0,6,2025-08-18T13:03:00Z,Leiria,Leiria,Centro,-8.698656,39.708305,Resolução/Conclusão
25866858,"Pena, Quintã e Vila Cova",Douro,309,2025-08-19T12:52:00Z,25866858,Em Resolução/Conclusão,3103,Incêndio rural,0,7,0,20,2025-08-19T12:52:00Z,Vila Real,Vila Real,Norte,-7.819168,41.2897,Resolução/Conclusão
25872413,Cinco Vilas e Reigada,Beiras e Serra da Estrela,310,2025-08-20T14:58:00Z,25872413,Em Curso,3103,Incêndio rural,9,21,0,106,2025-08-20T14:58:00Z,Figueira De Castelo Rodrigo,Guarda,Centro,-6.95815,40.775573,Curso
25872563,Guilhabreu,Area M. Porto,309,2025-08-20T15:25:00Z,25872563,Em Resolução/Conclusão,3103,Incêndio rural,0,2,0,10,2025-08-20T15:25:00Z,Vila Do Conde,Porto,Norte,-8.629362,41.294052,Resolução/Conclusão
25872599,Vila Franca de Xira,Grande Lisboa,311,2025-08-20T15:33:00Z,25872599,Em Resolução/Conclusão,3105,Incêndio rural,0,2,0,7,2025-08-20T15:33:00Z,Vila Franca De Xira,Lisboa,Área Metropolitana De Lisboa,-8.981592,38.975128,Resolução/Conclusão
25872615,Rossas,Ave,309,2025-08-20T15:37:00Z,25872615,Em Despacho,3103,Incêndio rural,1,8,0,40,2025-08-20T15:37:00Z,Vieira Do Minho,Braga,Norte,-8.121045,41.593452,Despacho
25872758,Duas Igrejas,Area M. Porto,309,2025-08-20T15:58:00Z,25872758,Em Resolução/Conclusão,3103,Incêndio rural,0,2,0,7,2025-08-20T15:58:00Z,Paredes,Porto,Norte,-8.370135,41.222777,Resolução/Conclusão
25818455,Sobral de São Miguel,Beiras e Serra da Estrela,310,2025-08-10T15:02:00Z,25818455,Em Resolução/Conclusão,3103,Incêndio rural,0,1,0,1,2025-08-10T15:02:00Z,Covilhã,Castelo Branco,Centro,-7.77307,40.200173,Resolução/Conclusão
25846480,Sabugal e Aldeia de Santo António,Beiras e Serra da Estrela,310,2025-08-15T14:41:00Z,25846480,Em Curso,3103,Incêndio rural,1,114,0,427,2025-08-15T14:41:00Z,Sabugal,Guarda,Centro,-7.125037,40.34023,Curso
25852580,São João de Tarouca,Douro,309,2025-08-16T17:00:00Z,25852580,Em Resolução/Conclusão,3103,Incêndio rural,0,19,0,64,2025-08-16T17:00:00Z,Tarouca,Viseu,Norte,-7.760748,40.986773,Resolução/Conclusão
25867021,Carrazeda de Ansiães,Douro,309,2025-08-19T13:27:00Z,25867021,Em Resolução/Conclusão,3103,Incêndio rural,0,27,0,87,2025-08-19T13:27:00Z,Carrazeda De Ansiães,Bragança,Norte,-7.28399,41.211137,Resolução/Conclusão
25868208,Vila da Ponte,Douro,309,2025-08-19T17:29:00Z,25868208,Em Resolução/Conclusão,3103,Incêndio rural,0,0,0,0,2025-08-19T17:29:00Z,Sernancelhe,Viseu,Norte,-7.51704,40.917505,Resolução/Conclusão
25868589,Proença-a-Nova e Peral,Beira Baixa,310,2025-08-19T19:06:00Z,25868589,Em Resolução/Conclusão,3101,Incêndio rural,0,10,0,37,2025-08-19T19:06:00Z,Proença-a-Nova,Castelo Branco,Centro,-7.90942,39.713548,Resolução/Conclusão
25868876,Louredo e Fornelos,Douro,309,2025-08-19T20:10:00Z,25868876,Em Resolução/Conclusão,3103,Incêndio rural,0,3,0,12,2025-08-19T20:10:00Z,Santa Marta De Penaguião,Vila Real,Norte,-7.825263,41.239325,Resolução/Conclusão
25871015,Caldas de São Jorge e Pigeiros,Area M. Porto,309,2025-08-20T10:30:00Z,25871015,Em Resolução/Conclusão,3101,Incêndio rural,0,1,0,5,2025-08-20T10:30:00Z,Santa Maria Da Feira,Aveiro,Norte,-8.4982780000000009,40.95582,Resolução/Conclusão
25871265,Vimieiro,Alentejo Central,312,2025-08-20T11:12:00Z,25871265,Em Resolução/Conclusão,3101,Incêndio rural,0,10,0,27,2025-08-20T11:12:00Z,Arraiolos,Évora,Alentejo,-7.916822,38.890937,Resolução/Conclusão
25871365,Vera Cruz,Alentejo Central,312,2025-08-20T11:28:00Z,25871365,Em Resolução/Conclusão,3103,Incêndio rural,0,31,0,94,2025-08-20T11:28:00Z,Portel,Évora,Alentejo,-7.726097,38.235628,Resolução/Conclusão
25871500,Sertã,Beira Baixa,310,2025-08-20T11:52:00Z,25871500,Em Resolução/Conclusão,3101,Incêndio rural,0,10,0,32,2025-08-20T11:52:00Z,Sertã,Castelo Branco,Centro,-8.044303,39.850257,Resolução/Conclusão
25872165,Lomar e Arcos,Cávado,309,2025-08-20T14:08:00Z,25872165,Em Resolução/Conclusão,3103,Incêndio rural,0,1,0,4,2025-08-20T14:08:00Z,Braga,Braga,Norte,-8.437857,41.51682,Resolução/Conclusão
25872234,Ventosa e Cova,Ave,309,2025-08-20T14:24:00Z,25872234,Em Resolução/Conclusão,3103,Incêndio rural,0,3,0,15,2025-08-20T14:24:00Z,Vieira Do Minho,Braga,Norte,-8.170833,41.668058,Resolução/Conclusão
25872335,Alvite,Douro,309,2025-08-20T14:38:00Z,25872335,Em Resolução/Conclusão,3103,Incêndio rural,0,3,0,9,2025-08-20T14:38:00Z,Moimenta Da Beira,Viseu,Norte,-7.71847,40.976933,Resolução/Conclusão
25872669,Constantim e Vale de Nogueiras,Douro,309,2025-08-20T15:47:00Z,25872669,Em Resolução/Conclusão,3103,Incêndio rural,1,4,0,26,2025-08-20T15:47:00Z,Vila Real,Vila Real,Norte,-7.68343,41.28449,Resolução/Conclusão
25872720,Lagares e Figueira,Tâmega e Sousa,309,2025-08-20T15:59:00Z,25872720,Em Curso,3103,Incêndio rural,0,10,0,36,2025-08-20T15:59:00Z,Penafiel,Porto,Norte,-8.333503,41.126387,Curso
25832672,Piódão,Região de Coimbra,310,2025-08-13T05:08:00Z,25832672,Em Curso,3103,Incêndio rural,12,532,0,1589,2025-08-13T05:08:00Z,Arganil,Coimbra,Centro,-7.81972,40.23083,Curso
25840417,Lousã e Vilarinho,Região de Coimbra,310,2025-08-14T13:46:00Z,25840417,Em Resolução/Conclusão,3101,Incêndio rural,0,21,0,60,2025-08-14T13:46:00Z,Lousã,Coimbra,Centro,-8.201561,40.080016,Resolução/Conclusão
25857322,"Barcel, Marmelos e Valverde da Gestosa",Terras de Trás-os-Montes,309,2025-08-17T15:53:00Z,25857322,Em Resolução/Conclusão,3103,Incêndio rural,1,91,0,254,2025-08-17T15:53:00Z,Mirandela,Bragança,Norte,-7.209414,41.409479,Resolução/Conclusão
25859212,Moimenta,Cávado,309,2025-08-17T23:49:00Z,25859212,Em Resolução/Conclusão,3103,Incêndio rural,0,3,0,13,2025-08-17T23:49:00Z,Terras De Bouro,Braga,Norte,-8.303262,41.711533,Resolução/Conclusão
25869388,Armil,Ave,309,2025-08-19T22:29:00Z,25869388,Em Curso,3103,Incêndio rural,2,12,0,53,2025-08-19T22:29:00Z,Fafe,Braga,Norte,-8.180218,41.423148,Curso
25869865,Monchique,Algarve,313,2025-08-20T02:38:00Z,25869865,Em Resolução/Conclusão,3103,Incêndio rural,0,1,0,2,2025-08-20T02:38:00Z,Monchique,Faro,Algarve,-8.573545,37.31644,Resolução/Conclusão
25871337,Trigaches e São Brissos,Baixo Alentejo,312,2025-08-20T11:19:00Z,25871337,Em Resolução/Conclusão,3101,Incêndio rural,0,1,0,2,2025-08-20T11:19:00Z,Beja,Beja,Alentejo,-7.91426,38.069137,Resolução/Conclusão
25871803,Babe,Terras de Trás-os-Montes,309,2025-08-20T12:57:00Z,25871803,Em Resolução/Conclusão,3105,Incêndio rural,0,2,0,7,2025-08-20T12:57:00Z,Bragança,Bragança,Norte,-6.629258,41.81887,Resolução/Conclusão
25872005,Árvore,Area M. Porto,309,2025-08-20T13:37:00Z,25872005,Em Resolução/Conclusão,3103,Incêndio rural,0,1,0,5,2025-08-20T13:37:00Z,Vila Do Conde,Porto,Norte,-8.72523,41.343398,Resolução/Conclusão
25872014,Escudeiros e Penso (Santo Estêvão e São Vicente),Cávado,309,2025-08-20T13:43:00Z,25872014,Em Resolução/Conclusão,3103,Incêndio rural,0,13,0,35,2025-08-20T13:43:00Z,Braga,Braga,Norte,-8.426738,41.47378,Resolução/Conclusão
25872437,Alfena,Area M. Porto,309,2025-08-20T15:02:00Z,25872437,Em Curso,3103,Incêndio rural,2,28,0,112,2025-08-20T15:02:00Z,Valongo,Porto,Norte,-8.53516,41.21854,Curso
25872830,Seara,Alto Minho,309,2025-08-20T16:22:00Z,25872830,Em Resolução/Conclusão,3103,Incêndio rural,0,2,0,9,2025-08-20T16:22:00Z,Ponte De Lima,Viana Do Castelo,Norte,-8.59626,41.73437,Resolução/Conclusão
25872832,Lustosa e Barrosas (Santo Estêvão),Tâmega e Sousa,309,2025-08-20T16:25:00Z,25872832,Em Despacho,3103,Incêndio rural,0,2,0,10,2025-08-20T16:25:00Z,Lousada,Porto,Norte,-8.32603,41.33417,Despacho
