id,address,subregion,neighborhood,date,id.1,state,nature,nature_description,aerial_means,terrestrial_means,aquatic_means,operational,date.1,Concelho,Distrito,NUTII_DSG,longitude,latitude,state_2
25636293,Croca,Tâmega e Sousa,309,2025-07-06T13:23:00Z,25636293,Em Resolução/Conclusão,3103,Incêndio rural,0,1,0,5,2025-07-06T13:23:00Z,Penafiel,Porto,Norte,-8.230017,41.216223,Resolução/Conclusão
25636341,Navió e Vitorino Dos Piães,Alto Minho,309,2025-07-06T13:36:00Z,25636341,Em Curso,3103,Incêndio rural,3,11,0,44,2025-07-06T13:36:00Z,Ponte De Lima,Viana Do Castelo,Norte,-8.636015,41.674557,Curso
25636457,Alcochete,Península de Setúbal,311,2025-07-06T14:02:00Z,25636457,Em Resolução/Conclusão,3105,Incêndio rural,0,2,0,10,2025-07-06T14:02:00Z,Alcochete,Setúbal,Área Metropolitana De Lisboa,-8.913645,38.728117,Resolução/Conclusão
25636247,Ventosa e Cova,Ave,309,2025-07-06T13:13:00Z,25636247,Em Resolução/Conclusão,3103,Incêndio rural,0,3,0,12,2025-07-06T13:13:00Z,Vieira Do Minho,Braga,Norte,-8.165258,41.677738,Resolução/Conclusão
25636279,Carreira e Refojos de Riba de Ave,Area M. Porto,309,2025-07-06T13:20:00Z,25636279,Em Resolução/Conclusão,3105,Incêndio rural,0,3,0,9,2025-07-06T13:20:00Z,Santo Tirso,Porto,Norte,-8.469523,41.30392,Resolução/Conclusão
25636528,Mire de Tibães,Cávado,309,2025-07-06T14:18:00Z,25636528,Em Curso,3103,Incêndio rural,0,4,0,15,2025-07-06T14:18:00Z,Braga,Braga,Norte,-8.47308,41.55881,Curso
25635597,Agilde,Tâmega e Sousa,309,2025-07-06T10:39:00Z,25635597,Em Resolução/Conclusão,3103,Incêndio rural,0,3,0,12,2025-07-06T10:39:00Z,Celorico De Basto,Braga,Norte,-8.110412,41.371243,Resolução/Conclusão
25636249,Selho (São Jorge),Ave,309,2025-07-06T13:18:00Z,25636249,Em Resolução/Conclusão,3105,Incêndio rural,0,1,0,5,2025-07-06T13:18:00Z,Guimarães,Braga,Norte,-8.355797,41.42959,Resolução/Conclusão
25636351,Frazão Arreigada,Tâmega e Sousa,309,2025-07-06T13:38:00Z,25636351,Em Resolução/Conclusão,3103,Incêndio rural,0,3,0,12,2025-07-06T13:38:00Z,Paços De Ferreira,Porto,Norte,-8.404627,41.2445,Resolução/Conclusão
25636440,Lomba,Area M. Porto,309,2025-07-06T13:52:00Z,25636440,Em Resolução/Conclusão,3101,Incêndio rural,1,6,0,31,2025-07-06T13:52:00Z,Gondomar,Porto,Norte,-8.408252,41.034001,Resolução/Conclusão
25636203,Maxial e Monte Redondo,Oeste,311,2025-07-06T13:01:00Z,25636203,Em Resolução/Conclusão,3101,Incêndio rural,0,1,0,2,2025-07-06T13:01:00Z,Torres Vedras,Lisboa,Centro,-9.16694,39.1525,Resolução/Conclusão
25636336,Cambres,Douro,309,2025-07-06T13:22:00Z,25636336,Em Resolução/Conclusão,3103,Incêndio rural,0,1,0,5,2025-07-06T13:22:00Z,Lamego,Viseu,Norte,-7.791595,41.157698,Resolução/Conclusão
25636621,"Alhandra, São João Dos Montes e Calhandriz",Grande Lisboa,311,2025-07-06T14:30:00Z,25636621,Em Despacho,3103,Incêndio rural,0,3,0,16,2025-07-06T14:30:00Z,Vila Franca De Xira,Lisboa,Área Metropolitana De Lisboa,-9.04048,38.9566,Despacho
25636515,"Esqueiros, Nevogilde e Travassós",Cávado,309,2025-07-06T14:11:00Z,25636515,Em Curso,3103,Incêndio rural,2,11,0,53,2025-07-06T14:11:00Z,Vila Verde,Braga,Norte,-8.460355,41.663657,Curso
25636540,Beduído e Veiros,Região de Aveiro,310,2025-07-06T14:17:00Z,25636540,Em Resolução/Conclusão,3103,Incêndio rural,1,5,0,22,2025-07-06T14:17:00Z,Estarreja,Aveiro,Centro,-8.595585,40.774923,Resolução/Conclusão
25636608,Vilarinho,Area M. Porto,309,2025-07-06T14:25:00Z,25636608,Em Despacho,3103,Incêndio rural,0,1,0,5,2025-07-06T14:25:00Z,Santo Tirso,Porto,Norte,-8.331512,41.357482,Despacho
25636610,Lavradas,Alto Minho,309,2025-07-06T14:34:00Z,25636610,Em Resolução/Conclusão,3103,Incêndio rural,0,3,0,11,2025-07-06T14:34:00Z,Ponte Da Barca,Viana Do Castelo,Norte,-8.46884,41.795082,Resolução/Conclusão
