id,address,subregion,neighborhood,date,id.1,state,nature,nature_description,aerial_means,terrestrial_means,aquatic_means,operational,date.1,Concelho,Distrito,NUTII_DSG,longitude,latitude,state_2
25729093,Vila de Cucujães,Area M. Porto,309,2025-07-25T04:57:00Z,25729093,Em Resolução/Conclusão,3103,Incêndio rural,0,2,0,10,2025-07-25T04:57:00Z,Oliveira De Azeméis,Aveiro,Norte,-8.495097,40.865157,Resolução/Conclusão
25729159,Vila Facaia,Região de Leiria,310,2025-07-25T05:56:00Z,25729159,Em Resolução/Conclusão,3103,Incêndio rural,0,1,0,2,2025-07-25T05:56:00Z,Pedrógão Grande,Leiria,Centro,-8.207428,39.928542,Resolução/Conclusão
25731431,Portela e Extremo,Alto Minho,309,2025-07-25T14:00:00Z,25731431,Em Resolução/Conclusão,3103,Incêndio rural,0,6,0,26,2025-07-25T14:00:00Z,Arcos De Valdevez,Viana Do Castelo,Norte,-8.462649,41.957455,Resolução/Conclusão
25731632,Santa Maria Maior e Monserrate e Meadela,Alto Minho,309,2025-07-25T14:37:00Z,25731632,Em Resolução/Conclusão,3103,Incêndio rural,0,2,0,9,2025-07-25T14:37:00Z,Viana Do Castelo,Viana Do Castelo,Norte,-8.797155,41.714103,Resolução/Conclusão
25731898,Sobrosa,Area M. Porto,309,2025-07-25T15:21:00Z,25731898,Em Resolução/Conclusão,3103,Incêndio rural,0,2,0,7,2025-07-25T15:21:00Z,Paredes,Porto,Norte,-8.352393,41.249863,Resolução/Conclusão
25732048,Silvares,Ave,309,2025-07-25T15:56:00Z,25732048,Em Resolução/Conclusão,3103,Incêndio rural,0,3,0,15,2025-07-25T15:56:00Z,Guimarães,Braga,Norte,-8.326055,41.44842,Resolução/Conclusão
25732100,Vila Chã (São João Baptista e Santiago),Alto Minho,309,2025-07-25T16:02:00Z,25732100,Em Resolução/Conclusão,3103,Incêndio rural,0,4,0,18,2025-07-25T16:02:00Z,Ponte Da Barca,Viana Do Castelo,Norte,-8.337765,41.812287,Resolução/Conclusão
25732131,Santa Clara e Castelo Viegas,Região de Coimbra,310,2025-07-25T16:09:00Z,25732131,Em Resolução/Conclusão,3101,Incêndio rural,0,6,0,24,2025-07-25T16:09:00Z,Coimbra,Coimbra,Centro,-8.416909,40.163984,Resolução/Conclusão
25732215,Ázere e Covelo,Região de Coimbra,310,2025-07-25T16:22:00Z,25732215,Em Resolução/Conclusão,3101,Incêndio rural,0,14,0,49,2025-07-25T16:22:00Z,Santa Comba Dão,Viseu,Centro,-8.10111,40.35611,Resolução/Conclusão
25732351,"S.pedro e Santiago, S.maria e S.miguel e Matacães",Oeste,311,2025-07-25T16:43:00Z,25732351,Em Resolução/Conclusão,3103,Incêndio rural,0,2,0,7,2025-07-25T16:43:00Z,Torres Vedras,Lisboa,Centro,-9.28719,39.092073,Resolução/Conclusão
25712338,Cercal,Alentejo Litoral,312,2025-07-21T17:38:00Z,25712338,Em Resolução/Conclusão,3103,Incêndio rural,0,7,0,18,2025-07-21T17:38:00Z,Santiago Do Cacém,Setúbal,Alentejo,-8.682272,37.791582,Resolução/Conclusão
25725056,Pedrógão Pequeno,Beira Baixa,310,2025-07-24T10:16:00Z,25725056,Em Resolução/Conclusão,3101,Incêndio rural,0,1,0,5,2025-07-24T10:16:00Z,Sertã,Castelo Branco,Centro,-8.093663,39.879797,Resolução/Conclusão
25728500,Vila Fernando,Beiras e Serra da Estrela,310,2025-07-24T22:48:00Z,25728500,Em Resolução/Conclusão,3103,Incêndio rural,0,4,0,15,2025-07-24T22:48:00Z,Guarda,Guarda,Centro,-7.165667,40.491237,Resolução/Conclusão
25729082,São Jorge e Ermelo,Alto Minho,309,2025-07-25T04:45:00Z,25729082,Em Curso,3101,Incêndio rural,5,20,0,77,2025-07-25T04:45:00Z,Arcos De Valdevez,Viana Do Castelo,Norte,-8.356835,41.818005,Curso
25729185,Pedrógão Grande,Região de Leiria,310,2025-07-25T06:14:00Z,25729185,Em Resolução/Conclusão,3101,Incêndio rural,0,1,0,2,2025-07-25T06:14:00Z,Pedrógão Grande,Leiria,Centro,-8.17945,39.916067,Resolução/Conclusão
25729252,Vila Facaia,Região de Leiria,310,2025-07-25T07:06:00Z,25729252,Em Resolução/Conclusão,3103,Incêndio rural,0,2,0,4,2025-07-25T07:06:00Z,Pedrógão Grande,Leiria,Centro,-8.240883,39.95543,Resolução/Conclusão
25731423,Gondomil e Safins,Alto Minho,309,2025-07-25T14:01:00Z,25731423,Em Resolução/Conclusão,3103,Incêndio rural,0,2,0,4,2025-07-25T14:01:00Z,Valença,Viana Do Castelo,Norte,-8.565634,42.019205,Resolução/Conclusão
25725153,Troviscal,Beira Baixa,310,2025-07-24T10:31:00Z,25725153,Em Resolução/Conclusão,3101,Incêndio rural,0,1,0,5,2025-07-24T10:31:00Z,Sertã,Castelo Branco,Centro,-8.084768,39.877972,Resolução/Conclusão
25725251,Pedrógão Pequeno,Beira Baixa,310,2025-07-24T10:52:00Z,25725251,Em Resolução/Conclusão,3101,Incêndio rural,0,8,0,28,2025-07-24T10:52:00Z,Sertã,Castelo Branco,Centro,-8.084635,39.925647,Resolução/Conclusão
25727257,Santiago de Piães,Tâmega e Sousa,309,2025-07-24T17:40:00Z,25727257,Em Resolução/Conclusão,3103,Incêndio rural,0,30,0,99,2025-07-24T17:40:00Z,Cinfães,Viseu,Norte,-8.173138,41.025392,Resolução/Conclusão
25730056,Santiago de Piães,Tâmega e Sousa,309,2025-07-25T10:05:00Z,25730056,Em Resolução/Conclusão,3103,Incêndio rural,0,5,0,19,2025-07-25T10:05:00Z,Cinfães,Viseu,Norte,-8.167988,41.04848,Resolução/Conclusão
25730517,Sul,Viseu Dão Lafões,310,2025-07-25T11:11:00Z,25730517,Em Resolução/Conclusão,3103,Incêndio rural,0,7,0,18,2025-07-25T11:11:00Z,São Pedro Do Sul,Viseu,Centro,-8.04597,40.846068,Resolução/Conclusão
25730790,Ferreira,Tâmega e Sousa,309,2025-07-25T11:59:00Z,25730790,Em Resolução/Conclusão,3105,Incêndio rural,0,1,0,2,2025-07-25T11:59:00Z,Paços De Ferreira,Porto,Norte,-8.360058,41.270515,Resolução/Conclusão
25731094,Cabril,Alto Tâmega e Barroso,309,2025-07-25T12:59:00Z,25731094,Em Resolução/Conclusão,3103,Incêndio rural,0,3,0,11,2025-07-25T12:59:00Z,Montalegre,Vila Real,Norte,-8.092118,41.701348,Resolução/Conclusão
25731117,Pedrógão Grande,Região de Leiria,310,2025-07-25T13:03:00Z,25731117,Em Resolução/Conclusão,3101,Incêndio rural,0,3,0,6,2025-07-25T13:03:00Z,Pedrógão Grande,Leiria,Centro,-8.14383,39.97515,Resolução/Conclusão
25731721,Alcochete,Península de Setúbal,311,2025-07-25T14:52:00Z,25731721,Em Resolução/Conclusão,3103,Incêndio rural,0,4,0,11,2025-07-25T14:52:00Z,Alcochete,Setúbal,Área Metropolitana De Lisboa,-8.92975,38.74635,Resolução/Conclusão
25728646,Vila Fernando,Beiras e Serra da Estrela,310,2025-07-24T23:39:00Z,25728646,Em Resolução/Conclusão,3103,Incêndio rural,0,6,0,23,2025-07-24T23:39:00Z,Guarda,Guarda,Centro,-7.135077,40.484042,Resolução/Conclusão
25728989,Valadares,Tâmega e Sousa,309,2025-07-25T03:08:00Z,25728989,Em Resolução/Conclusão,3103,Incêndio rural,0,5,0,17,2025-07-25T03:08:00Z,Baião,Porto,Norte,-7.944105,41.158087,Resolução/Conclusão
25729105,"Pinheiro da Bemposta, Travanca e Palmaz",Area M. Porto,309,2025-07-25T05:08:00Z,25729105,Em Resolução/Conclusão,3101,Incêndio rural,0,2,0,7,2025-07-25T05:08:00Z,Oliveira De Azeméis,Aveiro,Norte,-8.47228,40.805608,Resolução/Conclusão
25729514,Azias,Alto Minho,309,2025-07-25T08:28:00Z,25729514,Em Resolução/Conclusão,3103,Incêndio rural,0,1,0,4,2025-07-25T08:28:00Z,Ponte Da Barca,Viana Do Castelo,Norte,-8.35944,41.773635,Resolução/Conclusão
25730832,Aveleda e Rio de Onor,Terras de Trás-os-Montes,309,2025-07-25T12:07:00Z,25730832,Em Curso,3103,Incêndio rural,7,67,0,206,2025-07-25T12:07:00Z,Bragança,Bragança,Norte,-6.707873,41.891435,Curso
25731429,São Cipriano,Tâmega e Sousa,309,2025-07-25T14:03:00Z,25731429,Em Resolução/Conclusão,3103,Incêndio rural,0,4,0,17,2025-07-25T14:03:00Z,Resende,Viseu,Norte,-7.982646,41.05512,Resolução/Conclusão
25731659,Alcanede,Lezíria do Tejo,311,2025-07-25T14:41:00Z,25731659,Em Resolução/Conclusão,3103,Incêndio rural,0,1,0,5,2025-07-25T14:41:00Z,Santarém,Santarém,Alentejo,-8.851548,39.388938,Resolução/Conclusão
25731870,Quinta do Anjo,Península de Setúbal,311,2025-07-25T15:19:00Z,25731870,Em Resolução/Conclusão,3103,Incêndio rural,0,0,0,0,2025-07-25T15:19:00Z,Palmela,Setúbal,Área Metropolitana De Lisboa,-8.937062,38.601925,Resolução/Conclusão
25732013,Laranjeiro e Feijó,Península de Setúbal,311,2025-07-25T15:46:00Z,25732013,Em Resolução/Conclusão,3103,Incêndio rural,0,1,0,5,2025-07-25T15:46:00Z,Almada,Setúbal,Área Metropolitana De Lisboa,-9.16567,38.66287,Resolução/Conclusão
25732097,Pavia,Alentejo Central,312,2025-07-25T16:02:00Z,25732097,Em Resolução/Conclusão,3103,Incêndio rural,0,6,0,20,2025-07-25T16:02:00Z,Mora,Évora,Alentejo,-8.020912,38.895243,Resolução/Conclusão
25732222,Souto Maior,Douro,309,2025-07-25T16:24:00Z,25732222,Em Resolução/Conclusão,3103,Incêndio rural,1,3,0,21,2025-07-25T16:24:00Z,Sabrosa,Vila Real,Norte,-7.57926,41.29395,Resolução/Conclusão
25731756,Pensalvos e Parada de Monteiros,Alto Tâmega e Barroso,309,2025-07-25T14:57:00Z,25731756,Em Resolução/Conclusão,3103,Incêndio rural,0,1,0,4,2025-07-25T14:57:00Z,Vila Pouca De Aguiar,Vila Real,Norte,-7.677917,41.53875,Resolução/Conclusão
25731728,Alvarenga,Area M. Porto,309,2025-07-25T14:46:00Z,25731728,Em Resolução/Conclusão,3103,Incêndio rural,0,4,0,13,2025-07-25T14:46:00Z,Arouca,Aveiro,Norte,-8.144899,40.967288,Resolução/Conclusão
25731805,Poiares e Canelas,Douro,309,2025-07-25T15:10:00Z,25731805,Em Resolução/Conclusão,3103,Incêndio rural,0,10,0,37,2025-07-25T15:10:00Z,Peso Da Régua,Vila Real,Norte,-7.726247,41.192565,Resolução/Conclusão
25731880,"Almada, Cova da Piedade, Pragal e Cacilhas",Península de Setúbal,311,2025-07-25T15:20:00Z,25731880,Em Resolução/Conclusão,3103,Incêndio rural,0,4,0,19,2025-07-25T15:20:00Z,Almada,Setúbal,Área Metropolitana De Lisboa,-9.1543,38.67041,Resolução/Conclusão
25731955,Briteiros Santo Estêvão e Donim,Ave,309,2025-07-25T15:36:00Z,25731955,Em Resolução/Conclusão,3103,Incêndio rural,0,5,0,22,2025-07-25T15:36:00Z,Guimarães,Braga,Norte,-8.30805,41.521391,Resolução/Conclusão
25732012,Santa Maria de Emeres,Alto Tâmega e Barroso,309,2025-07-25T15:45:00Z,25732012,Em Resolução/Conclusão,3103,Incêndio rural,0,3,0,12,2025-07-25T15:45:00Z,Valpaços,Vila Real,Norte,-7.383938,41.521872,Resolução/Conclusão
25732121,Águas Santas,Area M. Porto,309,2025-07-25T16:07:00Z,25732121,Em Resolução/Conclusão,3103,Incêndio rural,0,3,0,11,2025-07-25T16:07:00Z,Maia,Porto,Norte,-8.585018,41.193878,Resolução/Conclusão
25732314,Albernoa e Trindade,Baixo Alentejo,312,2025-07-25T16:38:00Z,25732314,Em Resolução/Conclusão,3105,Incêndio rural,0,11,0,33,2025-07-25T16:38:00Z,Beja,Beja,Alentejo,-7.869855,37.910075,Resolução/Conclusão
25732323,"Ponte de Sor, Tramaga e Vale de Açor",Alto Alentejo,312,2025-07-25T16:40:00Z,25732323,Em Resolução/Conclusão,3103,Incêndio rural,0,5,0,13,2025-07-25T16:40:00Z,Ponte De Sor,Portalegre,Alentejo,-8.06343,39.19384,Resolução/Conclusão
