id,address,subregion,neighborhood,date,id.1,state,nature,nature_description,aerial_means,terrestrial_means,aquatic_means,operational,date.1,Concelho,Distrito,NUTII_DSG,longitude,latitude
24851780,"São Miguel, Santa Eufémia e Rabaçal",Região de Coimbra,310,2025-01-21T23:25:00Z,24851780,Em curso,3315,Inundação de estruturas por precipitação intensa,0,0,0,0,2025-01-21T23:25:00Z,Penela,Coimbra,Centro,-8.399036,40.025502
24895748,Beco,Médio Tejo,311,2025-01-31T09:52:00Z,24895748,Em despacho,3313,Deslizamento de terras,0,2,0,2,2025-01-31T09:52:00Z,Ferreira Do Zêzere,Santarém,Centro,-8.275501,39.771744
24897302,Sesimbra (Castelo),Península de Setúbal,311,2025-01-31T14:45:00Z,24897302,Em despacho,3301,Queda de árvore,0,1,0,4,2025-01-31T14:45:00Z,Sesimbra,Setúbal,Área Metropolitana De Lisboa,-9.179861,38.512406
24897452,"Mealhada, Ventosa do Bairro e Antes",Região de Coimbra,310,2025-01-31T15:14:00Z,24897452,Em despacho,3315,Inundação de estruturas por precipitação intensa,0,1,0,2,2025-01-31T15:14:00Z,Mealhada,Aveiro,Centro,-8.458111,40.375676
24897576,Tavira (Santa Maria e Santiago),Algarve,313,2025-01-31T15:21:00Z,24897576,Em conclusão,3315,Inundação de estruturas por precipitação intensa,0,1,0,2,2025-01-31T15:21:00Z,Tavira,Faro,Algarve,-7.684024,37.134193
24897009,Palmela,Península de Setúbal,311,2025-01-31T13:49:00Z,24897009,Em curso,3301,Queda de árvore,0,1,0,2,2025-01-31T13:49:00Z,Palmela,Setúbal,Área Metropolitana De Lisboa,-8.872455,38.582082
24897162,Santa Cruz/Trindade e Sanjurge,Alto Tâmega e Barroso,309,2025-01-31T12:12:00Z,24897162,Em despacho,3301,Queda de árvore,0,1,0,3,2025-01-31T12:12:00Z,Chaves,Vila Real,Norte,-7.512531,41.774656
24877003,Malagueira e Horta Das Figueiras,Alentejo Central,312,2025-01-27T11:41:00Z,24877003,Em conclusão,3315,Inundação de estruturas por precipitação intensa,0,0,0,0,2025-01-27T11:41:00Z,Évora,Évora,Alentejo,-7.924277,38.57285
