id,address,subregion,neighborhood,date,id.1,state,nature,nature_description,aerial_means,terrestrial_means,aquatic_means,operational,date.1,Concelho,Distrito,NUTII_DSG,longitude,latitude
25063232,Santa Maria do Castelo e Santiago e Santa Susana,Alentejo Litoral,312,2025-03-09T19:02:00Z,25063232,Em conclusão,1101,Cheia,0,0,0,0,2025-03-09T19:02:00Z,Alcácer Do Sal,Setúbal,Alentejo,-8.48167,38.29806
25127944,Colares,Grande Lisboa,311,2025-03-21T14:29:00Z,25127944,Em curso,3301,Queda de árvore,0,1,0,5,2025-03-21T14:29:00Z,Sintra,Lisboa,Área Metropolitana De Lisboa,-9.432326,38.780106
25133628,Alcanhões,Lezíria do Tejo,311,2025-03-22T15:39:00Z,25133628,Em conclusão,3301,Queda de árvore,0,0,0,0,2025-03-22T15:39:00Z,Santarém,Santarém,Alentejo,-8.648703,39.292613
25133642,Lousã e Vilarinho,Região de Coimbra,310,2025-03-22T15:32:00Z,25133642,Em despacho,3313,Deslizamento de terras,0,2,0,3,2025-03-22T15:32:00Z,Lousã,Coimbra,Centro,-8.23979,40.072591
25133812,Sarzedas,Beira Baixa,310,2025-03-22T16:15:00Z,25133812,Em conclusão,3313,Deslizamento de terras,0,3,0,6,2025-03-22T16:15:00Z,Castelo Branco,Castelo Branco,Centro,-7.689113,39.869483
25134146,Carnaxide e Queijas,Grande Lisboa,311,2025-03-22T17:22:00Z,25134146,Em despacho,3301,Queda de árvore,0,1,0,3,2025-03-22T17:22:00Z,Oeiras,Lisboa,Área Metropolitana De Lisboa,-9.25881,38.722457
25134163,Bárrio,Oeste,311,2025-03-22T17:35:00Z,25134163,Em conclusão,3301,Queda de árvore,0,1,0,2,2025-03-22T17:35:00Z,Alcobaça,Leiria,Centro,-8.99903,39.527565
25134280,Eiras e São Paulo de Frades,Região de Coimbra,310,2025-03-22T18:00:00Z,25134280,Em despacho,3313,Deslizamento de terras,0,1,0,3,2025-03-22T18:00:00Z,Coimbra,Coimbra,Centro,-8.384643,40.251582
25134396,Cascais e Estoril,Grande Lisboa,311,2025-03-22T18:35:00Z,25134396,Em curso,3301,Queda de árvore,0,2,0,3,2025-03-22T18:35:00Z,Cascais,Lisboa,Área Metropolitana De Lisboa,-9.38142,38.71536
25134478,Pampilhosa da Serra,Região de Coimbra,310,2025-03-22T18:50:00Z,25134478,Em despacho,3301,Queda de árvore,0,1,0,2,2025-03-22T18:50:00Z,Pampilhosa Da Serra,Coimbra,Centro,-7.973746,40.045515
25134511,"Nossa Senhora do Pópulo, Coto e São Gregório",Oeste,311,2025-03-22T18:54:00Z,25134511,Em conclusão,3311,Queda de elementos de estruturas edificados,0,1,0,2,2025-03-22T18:54:00Z,Caldas Da Rainha,Leiria,Centro,-9.138819,39.404597
25068300,Almeirim,Lezíria do Tejo,311,2025-03-10T20:52:00Z,25068300,Em curso,1101,Cheia,0,0,0,0,2025-03-10T20:52:00Z,Almeirim,Santarém,Alentejo,-8.635002,39.187436
25121298,Gafanhoeira (São Pedro) e Sabugueiro,Alentejo Central,312,2025-03-20T14:26:00Z,25121298,Em resolução,3301,Queda de árvore,0,0,0,0,2025-03-20T14:26:00Z,Arraiolos,Évora,Alentejo,-8.088754,38.754507
25129636,"S.maria, S.miguel, S.martinho, S.pedro Penaferrim",Grande Lisboa,311,2025-03-21T19:25:00Z,25129636,Em despacho,3301,Queda de árvore,0,1,0,5,2025-03-21T19:25:00Z,Sintra,Lisboa,Área Metropolitana De Lisboa,-9.366763,38.781718
25132058,Orvalho,Beira Baixa,310,2025-03-22T10:44:00Z,25132058,Em despacho,3311,Queda de elementos de estruturas edificados,0,1,0,2,2025-03-22T10:44:00Z,Oleiros,Castelo Branco,Centro,-7.791058,40.022607
25133437,Azeitão (São Lourenço e São Simão),Península de Setúbal,311,2025-03-22T14:45:00Z,25133437,Em despacho,3301,Queda de árvore,0,1,0,5,2025-03-22T14:45:00Z,Setúbal,Setúbal,Área Metropolitana De Lisboa,-9.04265,38.541479
25133741,Ceira,Região de Coimbra,310,2025-03-22T16:00:00Z,25133741,Em despacho,3301,Queda de árvore,0,0,0,0,2025-03-22T16:00:00Z,Coimbra,Coimbra,Centro,-8.355041,40.185
25133916,Podentes,Região de Coimbra,310,2025-03-22T16:30:00Z,25133916,Em curso,3311,Queda de elementos de estruturas edificados,0,3,0,6,2025-03-22T16:30:00Z,Penela,Coimbra,Centro,-8.436699,40.065036
25133932,Lousã e Vilarinho,Região de Coimbra,310,2025-03-22T16:36:00Z,25133932,Em despacho,3315,Inundação de estruturas por precipitação intensa,0,1,0,2,2025-03-22T16:36:00Z,Lousã,Coimbra,Centro,-8.243385,40.12032
25133957,Pessegueiro do Vouga,Região de Aveiro,310,2025-03-22T16:42:00Z,25133957,Em resolução,3313,Deslizamento de terras,0,1,0,4,2025-03-22T16:42:00Z,Sever Do Vouga,Aveiro,Centro,-8.367434,40.709991
25134191,Salir de Matos,Oeste,311,2025-03-22T17:45:00Z,25134191,Em conclusão,3301,Queda de árvore,0,1,0,1,2025-03-22T17:45:00Z,Caldas Da Rainha,Leiria,Centro,-9.0829,39.412179
25087162,Pedrógão,Baixo Alentejo,312,2025-03-14T17:00:00Z,25087162,Em curso,1101,Cheia,0,0,0,0,2025-03-14T17:00:00Z,Vidigueira,Beja,Alentejo,-7.630327,38.110775
25128056,Santa Maria do Castelo e Santiago e Santa Susana,Alentejo Litoral,312,2025-03-21T14:41:00Z,25128056,Em curso,1101,Cheia,0,0,0,0,2025-03-21T14:41:00Z,Alcácer Do Sal,Setúbal,Alentejo,-8.434671,38.401157
25132043,Miranda do Corvo,Região de Coimbra,310,2025-03-22T10:30:00Z,25132043,Em curso,3315,Inundação de estruturas por precipitação intensa,0,0,0,0,2025-03-22T10:30:00Z,Miranda Do Corvo,Coimbra,Centro,-8.339499,40.09407
25133731,Juncal,Região de Leiria,310,2025-03-22T15:54:00Z,25133731,Em despacho,3301,Queda de árvore,0,1,0,4,2025-03-22T15:54:00Z,Porto De Mós,Leiria,Centro,-8.896898,39.603593
25133922,"S.maria, S.miguel, S.martinho, S.pedro Penaferrim",Grande Lisboa,311,2025-03-22T16:41:00Z,25133922,Em despacho,3301,Queda de árvore,0,1,0,4,2025-03-22T16:41:00Z,Sintra,Lisboa,Área Metropolitana De Lisboa,-9.38075,38.77495
25134324,Eiras e São Paulo de Frades,Região de Coimbra,310,2025-03-22T18:13:00Z,25134324,Em despacho,3311,Queda de elementos de estruturas edificados,0,2,0,4,2025-03-22T18:13:00Z,Coimbra,Coimbra,Centro,-8.439766,40.225332
25134372,Massamá e Monte Abraão,Grande Lisboa,311,2025-03-22T18:25:00Z,25134372,Em despacho,3311,Queda de elementos de estruturas edificados,0,1,0,1,2025-03-22T18:25:00Z,Sintra,Lisboa,Área Metropolitana De Lisboa,-9.280008,38.753778
25059714,Torrão,Alentejo Litoral,312,2025-03-08T22:10:00Z,25059714,Em curso,1101,Cheia,0,1,0,2,2025-03-08T22:10:00Z,Alcácer Do Sal,Setúbal,Alentejo,-8.359133,38.252053
25070044,Praia do Ribatejo,Médio Tejo,311,2025-03-10T19:30:00Z,25070044,Em curso,1101,Cheia,0,0,0,0,2025-03-10T19:30:00Z,Vila Nova Da Barquinha,Santarém,Centro,-8.357309,39.485638
25071496,São Manços e São Vicente do Pigeiro,Alentejo Central,312,2025-03-11T13:18:00Z,25071496,Em curso,1101,Cheia,0,2,0,4,2025-03-11T13:18:00Z,Évora,Évora,Alentejo,-7.713313,38.513673
25130358,Grândola e Santa Margarida da Serra,Alentejo Litoral,312,2025-03-21T22:53:00Z,25130358,Em curso,3313,Deslizamento de terras,0,0,0,0,2025-03-21T22:53:00Z,Grândola,Setúbal,Alentejo,-8.621172,38.121494
25131211,"Custóias, Leça do Balio e Guifões",Area M. Porto,309,2025-03-22T07:57:00Z,25131211,Em curso,3315,Inundação de estruturas por precipitação intensa,0,14,0,26,2025-03-22T07:57:00Z,Matosinhos,Porto,Norte,-8.632716,41.208899
25131513,Louriçal,Região de Leiria,310,2025-03-22T08:45:00Z,25131513,Em despacho,3315,Inundação de estruturas por precipitação intensa,0,1,0,2,2025-03-22T08:45:00Z,Pombal,Leiria,Centro,-8.745623,40.007074
25131696,Matas e Cercal,Médio Tejo,311,2025-03-22T09:44:00Z,25131696,Em resolução,3311,Queda de elementos de estruturas edificados,0,3,0,5,2025-03-22T09:44:00Z,Ourém,Santarém,Centro,-8.641594,39.718476
25132347,Trouxemil e Torre de Vilela,Região de Coimbra,310,2025-03-22T11:34:00Z,25132347,Em curso,3315,Inundação de estruturas por precipitação intensa,0,2,0,3,2025-03-22T11:34:00Z,Coimbra,Coimbra,Centro,-8.452804,40.249612
25132816,Parreira e Chouto,Lezíria do Tejo,311,2025-03-22T13:03:00Z,25132816,Em conclusão,3301,Queda de árvore,0,1,0,5,2025-03-22T13:03:00Z,Chamusca,Santarém,Alentejo,-8.327738,39.256475
25133333,Carvalhal,Alentejo Litoral,312,2025-03-22T14:17:00Z,25133333,Em despacho,3301,Queda de árvore,0,2,0,6,2025-03-22T14:17:00Z,Grândola,Setúbal,Alentejo,-8.853697,38.456316
25133533,Parreira e Chouto,Lezíria do Tejo,311,2025-03-22T15:23:00Z,25133533,Em despacho,3301,Queda de árvore,0,1,0,1,2025-03-22T15:23:00Z,Chamusca,Santarém,Alentejo,-8.35511,39.25229
25133870,Caldas da Rainha - Santo Onofre e Serra do Bouro,Oeste,311,2025-03-22T09:47:00Z,25133870,Em conclusão,3301,Queda de árvore,0,1,0,5,2025-03-22T09:47:00Z,Caldas Da Rainha,Leiria,Centro,-9.149726,39.395205
25134102,Cernache,Região de Coimbra,310,2025-03-22T17:20:00Z,25134102,Em curso,3315,Inundação de estruturas por precipitação intensa,0,1,0,2,2025-03-22T17:20:00Z,Coimbra,Coimbra,Centro,-8.458162,40.141528
25134201,Azueira e Sobral da Abelheira,Grande Lisboa,311,2025-03-22T17:31:00Z,25134201,Em despacho,3301,Queda de árvore,0,1,0,5,2025-03-22T17:31:00Z,Mafra,Lisboa,Área Metropolitana De Lisboa,-9.264294,38.996233
25134219,Almalaguês,Região de Coimbra,310,2025-03-22T17:45:00Z,25134219,Em despacho,3313,Deslizamento de terras,0,1,0,3,2025-03-22T17:45:00Z,Coimbra,Coimbra,Centro,-8.393658,40.150697
25134285,Aldeia Galega da Merceana e Aldeia Gavinha,Oeste,311,2025-03-22T17:30:00Z,25134285,Em curso,3311,Queda de elementos de estruturas edificados,0,2,0,2,2025-03-22T17:30:00Z,Alenquer,Lisboa,Centro,-9.062269,39.081787
25134386,Carnaxide e Queijas,Grande Lisboa,311,2025-03-22T18:00:00Z,25134386,Em despacho,3321,Dano na rede de fornecimento de eletricidade ,0,1,0,2,2025-03-22T18:00:00Z,Oeiras,Lisboa,Área Metropolitana De Lisboa,-9.25881,38.722457
25134275,"Oeiras e S. Julião da Barra, Paço de Arcos e Caxias",Grande Lisboa,311,2025-03-22T18:02:00Z,25134275,Em despacho,3311,Queda de elementos de estruturas edificados,0,1,0,4,2025-03-22T18:02:00Z,Oeiras,Lisboa,Área Metropolitana De Lisboa,-9.310159,38.698531
25134350,Nogueira do Cravo,Região de Coimbra,310,2025-03-22T18:22:00Z,25134350,Em despacho,3321,Dano na rede de fornecimento de eletricidade ,0,1,0,1,2025-03-22T18:22:00Z,Oliveira Do Hospital,Coimbra,Centro,-7.888405,40.333686
25134443,Serpins,Região de Coimbra,310,2025-03-22T18:44:00Z,25134443,Em despacho,3313,Deslizamento de terras,0,1,0,2,2025-03-22T18:44:00Z,Lousã,Coimbra,Centro,-8.173011,40.140179
25134473,Moledo e Cristelo,Alto Minho,309,2025-03-22T18:50:00Z,25134473,Em despacho,3301,Queda de árvore,0,1,0,4,2025-03-22T18:50:00Z,Caminha,Viana Do Castelo,Norte,-8.855631,41.849673
25134500,Pedrógão Grande,Região de Leiria,310,2025-03-22T18:58:00Z,25134500,Em despacho,3301,Queda de árvore,0,1,0,5,2025-03-22T18:58:00Z,Pedrógão Grande,Leiria,Centro,-8.169396,39.966364
25134543,Nazaré,Oeste,311,2025-03-22T19:05:00Z,25134543,Em curso,3311,Queda de elementos de estruturas edificados,0,1,0,5,2025-03-22T19:05:00Z,Nazaré,Leiria,Centro,-9.062127,39.596083
25134381,Alverca do Ribatejo e Sobralinho,Grande Lisboa,311,2025-03-22T18:26:00Z,25134381,Em despacho,3301,Queda de árvore,0,1,0,3,2025-03-22T18:26:00Z,Vila Franca De Xira,Lisboa,Área Metropolitana De Lisboa,-9.046012,38.896362
25134615,Penafiel,Tâmega e Sousa,309,2025-03-22T19:17:00Z,25134615,Em despacho,3301,Queda de árvore,0,1,0,1,2025-03-22T19:17:00Z,Penafiel,Porto,Norte,-8.296498,41.215273
