id,address,subregion,neighborhood,date,id.1,state,nature,nature_description,aerial_means,terrestrial_means,aquatic_means,operational,date.1,Concelho,Distrito,NUTII_DSG,longitude,latitude,state_2
25712338,Cercal,Alentejo Litoral,312,2025-07-21T17:38:00Z,25712338,Em Resolução/Conclusão,3103,Incêndio rural,0,8,0,23,2025-07-21T17:38:00Z,Santiago Do Cacém,Setúbal,Alentejo,-8.682272,37.791582,Resolução/Conclusão
25721930,Vilar de Perdizes e Meixide,Alto Tâmega e Barroso,309,2025-07-23T16:21:00Z,25721930,Em Resolução/Conclusão,3103,Incêndio rural,1,41,0,126,2025-07-23T16:21:00Z,NA,NA,NA,-7.618655,41.886193,Resolução/Conclusão
25725056,Pedrógão Pequeno,Beira Baixa,310,2025-07-24T10:16:00Z,25725056,Em Resolução/Conclusão,3101,Incêndio rural,0,8,0,31,2025-07-24T10:16:00Z,Sertã,Castelo Branco,Centro,-8.109729,39.884411,Resolução/Conclusão
25720797,"Lavandeira, Beira Grande e Selores",Douro,309,2025-07-23T12:23:00Z,25720797,Em Resolução/Conclusão,3103,Incêndio rural,0,14,0,40,2025-07-23T12:23:00Z,Carrazeda De Ansiães,Bragança,Norte,-7.304242,41.205575,Resolução/Conclusão
25724141,Guarda,Beiras e Serra da Estrela,310,2025-07-24T06:38:00Z,25724141,Em Resolução/Conclusão,3103,Incêndio rural,0,2,0,10,2025-07-24T06:38:00Z,Guarda,Guarda,Centro,-7.230727,40.539547,Resolução/Conclusão
25725461,Malpica do Tejo,Beira Baixa,310,2025-07-24T11:33:00Z,25725461,Em Resolução/Conclusão,3105,Incêndio rural,1,11,0,41,2025-07-24T11:33:00Z,Castelo Branco,Castelo Branco,Centro,-7.460712,39.705945,Resolução/Conclusão
25721619,Costa da Caparica,Península de Setúbal,311,2025-07-23T15:11:00Z,25721619,Em Resolução/Conclusão,3103,Incêndio rural,0,2,0,6,2025-07-23T15:11:00Z,Almada,Setúbal,Área Metropolitana De Lisboa,-9.21697,38.61683,Resolução/Conclusão
25725296,Valada,Lezíria do Tejo,311,2025-07-24T11:00:00Z,25725296,Em Resolução/Conclusão,3103,Incêndio rural,0,6,0,19,2025-07-24T11:00:00Z,Cartaxo,Santarém,Alentejo,-8.777107,39.113438,Resolução/Conclusão
25725448,Ferreira do Alentejo e Canhestros,Baixo Alentejo,312,2025-07-24T11:29:00Z,25725448,Em Resolução/Conclusão,3105,Incêndio rural,0,12,0,36,2025-07-24T11:29:00Z,Ferreira Do Alentejo,Beja,Alentejo,-8.139218,38.07651,Resolução/Conclusão
25725615,Tourais e Lajes,Beiras e Serra da Estrela,310,2025-07-24T12:03:00Z,25725615,Em Curso,3103,Incêndio rural,1,6,0,30,2025-07-24T12:03:00Z,Seia,Guarda,Centro,-7.773628,40.44338,Curso
25725616,Castêlo da Maia,Area M. Porto,309,2025-07-24T11:57:00Z,25725616,Em Resolução/Conclusão,3101,Incêndio rural,0,1,0,4,2025-07-24T11:57:00Z,Maia,Porto,Norte,-8.639735,41.276782,Resolução/Conclusão
25720932,Bouro (Santa Marta),Cávado,309,2025-07-23T12:54:00Z,25720932,Em Resolução/Conclusão,3101,Incêndio rural,0,3,0,10,2025-07-23T12:54:00Z,Amares,Braga,Norte,-8.283857,41.671897,Resolução/Conclusão
25721382,Unhais da Serra,Beiras e Serra da Estrela,310,2025-07-23T14:29:00Z,25721382,Em Resolução/Conclusão,3105,Incêndio rural,0,2,0,6,2025-07-23T14:29:00Z,Covilhã,Castelo Branco,Centro,-7.61948,40.25114,Resolução/Conclusão
25724374,Azias,Alto Minho,309,2025-07-24T08:12:00Z,25724374,Em Resolução/Conclusão,3103,Incêndio rural,0,2,0,8,2025-07-24T08:12:00Z,Ponte Da Barca,Viana Do Castelo,Norte,-8.359397,41.776477,Resolução/Conclusão
25725153,Troviscal,Beira Baixa,310,2025-07-24T10:31:00Z,25725153,Em Resolução/Conclusão,3101,Incêndio rural,0,4,0,14,2025-07-24T10:31:00Z,Sertã,Castelo Branco,Centro,-8.075827,39.882598,Resolução/Conclusão
25725251,Pedrógão Pequeno,Beira Baixa,310,2025-07-24T10:52:00Z,25725251,Em Resolução/Conclusão,3101,Incêndio rural,6,46,0,177,2025-07-24T10:52:00Z,Sertã,Castelo Branco,Centro,-8.071355,39.92276,Resolução/Conclusão
25725487,Torreira,Região de Aveiro,310,2025-07-24T11:36:00Z,25725487,Em Resolução/Conclusão,3103,Incêndio rural,0,3,0,9,2025-07-24T11:36:00Z,Murtosa,Aveiro,Centro,-8.694697,40.777067,Resolução/Conclusão
25725603,Pereira,Região de Coimbra,310,2025-07-24T12:01:00Z,25725603,Em Despacho,3103,Incêndio rural,1,5,0,29,2025-07-24T12:01:00Z,Montemor-o-Velho,Coimbra,Centro,-8.5734,40.17587,Despacho
25725635,"Seixal, Arrentela e Aldeia de Paio Pires",Península de Setúbal,311,2025-07-24T12:09:00Z,25725635,Em Despacho,3103,Incêndio rural,0,4,0,15,2025-07-24T12:09:00Z,Seixal,Setúbal,Área Metropolitana De Lisboa,-9.06919,38.60238,Despacho
25725646,"Ponte de Sor, Tramaga e Vale de Açor",Alto Alentejo,312,2025-07-24T12:09:00Z,25725646,Em Curso,3103,Incêndio rural,1,8,0,28,2025-07-24T12:09:00Z,Ponte De Sor,Portalegre,Alentejo,-7.882648,39.236036,Curso
