id,address,subregion,neighborhood,date,id.1,state,nature,nature_description,aerial_means,terrestrial_means,aquatic_means,operational,date.1,Concelho,Distrito,NUTII_DSG,longitude,latitude
25579473,Souselas e Botão,Região de Coimbra,310,2025-06-25T18:14:00Z,25579473,Em conclusão,2101,Incêndio em edifícios habitacionais,0,2,0,7,2025-06-25T18:14:00Z,Coimbra,Coimbra,Centro,-8.39722,40.31806
25579890,Faro (Sé e São Pedro),Algarve,313,2025-06-25T19:56:00Z,25579890,Em conclusão,2101,Incêndio em edifícios habitacionais,0,1,0,1,2025-06-25T19:56:00Z,Faro,Faro,Algarve,-7.924624,37.0164
25579521,Marinha Das Ondas,Região de Coimbra,310,2025-06-25T18:27:00Z,25579521,Em conclusão,2111,Incêndio em edifícios hospitalares e lares de idosos,0,4,0,10,2025-06-25T18:27:00Z,Figueira Da Foz,Coimbra,Centro,-8.82052,40.03445
25579871,Faro (Sé e São Pedro),Algarve,313,2025-06-25T19:50:00Z,25579871,Em conclusão,2101,Incêndio em edifícios habitacionais,0,0,0,0,2025-06-25T19:50:00Z,Faro,Faro,Algarve,-7.93398,37.0153
25579754,Beja (Salvador e Santa Maria da Feira),Baixo Alentejo,312,2025-06-25T19:15:00Z,25579754,Em conclusão,3105,Incêndio rural,0,4,0,17,2025-06-25T19:15:00Z,Beja,Beja,Alentejo,-7.87483,38.050697
25579922,Rubiães,Alto Minho,309,2025-06-25T20:02:00Z,25579922,Em curso,3105,Incêndio rural,0,2,0,7,2025-06-25T20:02:00Z,Paredes De Coura,Viana Do Castelo,Norte,-8.648768,41.89419
