id,address,subregion,neighborhood,date,id.1,state,nature,nature_description,aerial_means,terrestrial_means,aquatic_means,operational,date.1,Concelho,Distrito,NUTII_DSG,longitude,latitude
24850794,Paranhos,Area M. Porto,309,2025-01-21T18:49:00Z,24850794,Em despacho,3315,Inundação de estruturas por precipitação intensa,0,1,0,5,2025-01-21T18:49:00Z,Porto,Porto,Norte,-8.59293,41.16896
24850841,Pedrouços,Area M. Porto,309,2025-01-21T18:55:00Z,24850841,Em despacho,3315,Inundação de estruturas por precipitação intensa,0,1,0,2,2025-01-21T18:55:00Z,Maia,Porto,Norte,-8.595565,41.182042
24850878,Gulpilhares e Valadares,Area M. Porto,309,2025-01-21T18:59:00Z,24850878,Em despacho,3315,Inundação de estruturas por precipitação intensa,0,1,0,3,2025-01-21T18:59:00Z,Vila Nova De Gaia,Porto,Norte,-8.637978,41.084091
24850909,"Ovar, São João, Arada e São Vicente de Pereira Jusã",Região de Aveiro,310,2025-01-21T19:13:00Z,24850909,Em despacho,3315,Inundação de estruturas por precipitação intensa,0,1,0,4,2025-01-21T19:13:00Z,Ovar,Aveiro,Centro,-8.64249,40.86376
24846892,Tavira (Santa Maria e Santiago),Algarve,313,2025-01-20T23:37:00Z,24846892,Em curso,3315,Inundação de estruturas por precipitação intensa,0,0,0,0,2025-01-20T23:37:00Z,Tavira,Faro,Algarve,-7.650217,37.141268
24850853,"Ovar, São João, Arada e São Vicente de Pereira Jusã",Região de Aveiro,310,2025-01-21T19:02:00Z,24850853,Em despacho,3315,Inundação de estruturas por precipitação intensa,0,0,0,0,2025-01-21T19:02:00Z,Ovar,Aveiro,Centro,-8.61558,40.85316
24850934,"Ovar, São João, Arada e São Vicente de Pereira Jusã",Região de Aveiro,310,2025-01-21T19:19:00Z,24850934,Em despacho,3315,Inundação de estruturas por precipitação intensa,0,0,0,0,2025-01-21T19:19:00Z,Ovar,Aveiro,Centro,-8.62968,40.86502
24850765,Alvorninha,Oeste,311,2025-01-21T18:37:00Z,24850765,Em despacho,3301,Queda de árvore,0,1,0,5,2025-01-21T18:37:00Z,Caldas Da Rainha,Leiria,Centro,-9.051205,39.406928
24847222,Castelo Branco,Beira Baixa,310,2025-01-21T04:20:00Z,24847222,Em conclusão,3309,Desabamento de estruturas edificadas,0,2,0,3,2025-01-21T04:20:00Z,Castelo Branco,Castelo Branco,Centro,-7.493762,39.824047
24850857,"Ovar, São João, Arada e São Vicente de Pereira Jusã",Região de Aveiro,310,2025-01-21T19:03:00Z,24850857,Em despacho,3315,Inundação de estruturas por precipitação intensa,0,1,0,2,2025-01-21T19:03:00Z,Ovar,Aveiro,Centro,-8.62038,40.85895
24850864,Canelas,Area M. Porto,309,2025-01-21T18:55:00Z,24850864,Em despacho,3315,Inundação de estruturas por precipitação intensa,0,1,0,3,2025-01-21T18:55:00Z,Vila Nova De Gaia,Porto,Norte,-8.600638,41.079331
24850880,"Ovar, São João, Arada e São Vicente de Pereira Jusã",Região de Aveiro,310,2025-01-21T19:07:00Z,24850880,Em despacho,3315,Inundação de estruturas por precipitação intensa,0,0,0,0,2025-01-21T19:07:00Z,Ovar,Aveiro,Centro,-8.6208,40.86224
24850937,"Santa Maria da Feira, Travanca, Sanfins e Espargo",Area M. Porto,309,2025-01-21T19:20:00Z,24850937,Em despacho,3315,Inundação de estruturas por precipitação intensa,0,0,0,0,2025-01-21T19:20:00Z,Santa Maria Da Feira,Aveiro,Norte,-8.558349,40.92593
24850872,"Ovar, São João, Arada e São Vicente de Pereira Jusã",Região de Aveiro,310,2025-01-21T19:07:00Z,24850872,Em despacho,3315,Inundação de estruturas por precipitação intensa,0,0,0,0,2025-01-21T19:07:00Z,Ovar,Aveiro,Centro,-8.63614,40.8522
24850881,Alfena,Area M. Porto,309,2025-01-21T18:55:00Z,24850881,Em despacho,3315,Inundação de estruturas por precipitação intensa,0,1,0,2,2025-01-21T18:55:00Z,Valongo,Porto,Norte,-8.523192,41.237236
24850899,"Santa Maria da Feira, Travanca, Sanfins e Espargo",Area M. Porto,309,2025-01-21T19:11:00Z,24850899,Em despacho,3315,Inundação de estruturas por precipitação intensa,0,0,0,0,2025-01-21T19:11:00Z,Santa Maria Da Feira,Aveiro,Norte,-8.562675,40.92113
24850915,Torreira,Região de Aveiro,310,2025-01-21T19:00:00Z,24850915,Em despacho,3315,Inundação de estruturas por precipitação intensa,0,1,0,3,2025-01-21T19:00:00Z,Murtosa,Aveiro,Centro,-8.687677,40.798042
24850931,Torreira,Região de Aveiro,310,2025-01-21T19:09:00Z,24850931,Em despacho,3315,Inundação de estruturas por precipitação intensa,0,1,0,3,2025-01-21T19:09:00Z,Murtosa,Aveiro,Centro,-8.699212,40.761066
24850956,Caldas de São Jorge e Pigeiros,Area M. Porto,309,2025-01-21T19:24:00Z,24850956,Em despacho,3315,Inundação de estruturas por precipitação intensa,0,0,0,0,2025-01-21T19:24:00Z,Santa Maria Da Feira,Aveiro,Norte,-8.49917,40.966
