id,address,subregion,neighborhood,date,id.1,state,nature,nature_description,aerial_means,terrestrial_means,aquatic_means,operational,date.1,Concelho,Distrito,NUTII_DSG,longitude,latitude
25500470,Morgade,Alto Tâmega e Barroso,309,2025-06-09T13:06:00Z,25500470,Em conclusão,3103,Incêndio rural,0,1,0,5,2025-06-09T13:06:00Z,Montalegre,Vila Real,Norte,-7.727372,41.721168
25501983,Castêlo da Maia,Area M. Porto,309,2025-06-09T18:00:00Z,25501983,Em conclusão,3103,Incêndio rural,0,3,0,12,2025-06-09T18:00:00Z,Maia,Porto,Norte,-8.61397,41.292298
25501999,Meinedo,Tâmega e Sousa,309,2025-06-09T18:03:00Z,25501999,Em conclusão,3103,Incêndio rural,0,1,0,5,2025-06-09T18:03:00Z,Lousada,Porto,Norte,-8.24861,41.25077
25500438,Alenquer (Santo Estêvão e Triana),Oeste,311,2025-06-09T12:59:00Z,25500438,Em conclusão,2301,Incêndio em transporte rodoviário,0,4,0,11,2025-06-09T12:59:00Z,Alenquer,Lisboa,Centro,-8.995652,39.061319
25500876,Macieira de Cambra,Area M. Porto,309,2025-06-09T14:21:00Z,25500876,Em conclusão,3103,Incêndio rural,0,1,0,5,2025-06-09T14:21:00Z,Vale De Cambra,Aveiro,Norte,-8.369678,40.87889
25501726,Azias,Alto Minho,309,2025-06-09T16:56:00Z,25501726,Em conclusão,3107,Consolidação de rescaldo de incêndio rural,0,1,0,5,2025-06-09T16:56:00Z,Ponte Da Barca,Viana Do Castelo,Norte,-8.352492,41.781112
25498388,Ceira,Região de Coimbra,310,2025-06-09T03:57:00Z,25498388,Em conclusão,2127,"Incêndio em edifícios e recintos industriais, oficinas e armazéns",0,2,0,4,2025-06-09T03:57:00Z,Coimbra,Coimbra,Centro,-8.39222,40.18194
25502282,Galegos (Santa Maria),Cávado,309,2025-06-09T18:58:00Z,25502282,Em conclusão,3105,Incêndio rural,0,1,0,5,2025-06-09T18:58:00Z,Barcelos,Braga,Norte,-8.573438,41.566085
25499380,Freiriz,Cávado,309,2025-06-09T09:54:00Z,25499380,Em conclusão,3107,Consolidação de rescaldo de incêndio rural,0,7,0,20,2025-06-09T09:54:00Z,Vila Verde,Braga,Norte,-8.502703,41.633588
25501569,Ovoa e Vimieiro,Viseu Dão Lafões,310,2025-06-09T16:30:00Z,25501569,Em resolução,2301,Incêndio em transporte rodoviário,0,14,0,35,2025-06-09T16:30:00Z,Santa Comba Dão,Viseu,Centro,-8.179507,40.347382
25502018,Arões (Santa Cristina),Ave,309,2025-06-09T17:57:00Z,25502018,Em conclusão,3107,Consolidação de rescaldo de incêndio rural,0,1,0,5,2025-06-09T17:57:00Z,Fafe,Braga,Norte,-8.233185,41.436933
25502135,Covas,Alto Minho,309,2025-06-09T18:32:00Z,25502135,Em conclusão,3107,Consolidação de rescaldo de incêndio rural,0,1,0,5,2025-06-09T18:32:00Z,Vila Nova De Cerveira,Viana Do Castelo,Norte,-8.696402,41.903205
25502328,Vila Nova de Souto D'El-Rei,Douro,309,2025-06-09T19:12:00Z,25502328,Em despacho,2301,Incêndio em transporte rodoviário,0,3,0,8,2025-06-09T19:12:00Z,Lamego,Viseu,Norte,-7.85302,41.04952
25502316,Eiriz,Tâmega e Sousa,309,2025-06-09T18:40:00Z,25502316,Em resolução,3103,Incêndio rural,0,1,0,5,2025-06-09T18:40:00Z,Paços De Ferreira,Porto,Norte,-8.388735,41.322253
25502286,Torres do Mondego,Região de Coimbra,310,2025-06-09T19:02:00Z,25502286,Em conclusão,3203,Detritos confinados,0,1,0,5,2025-06-09T19:02:00Z,Coimbra,Coimbra,Centro,-8.36087,40.208722
