id,address,subregion,neighborhood,date,id.1,state,nature,nature_description,aerial_means,terrestrial_means,aquatic_means,operational,date.1,Concelho,Distrito,NUTII_DSG,longitude,latitude,state_2
26115854,Gralhas,Alto Tâmega e Barroso,309,2025-10-10T12:13:00Z,26115854,Em Resolução/Conclusão,3103,Incêndio rural,0,3,0,12,2025-10-10T12:13:00Z,Montalegre,Vila Real,Norte,-7.72346,41.854762,Resolução/Conclusão
26123526,"Raiva, Pedorido e Paraíso",Tâmega e Sousa,309,2025-10-11T23:30:00Z,26123526,Em Despacho,3103,Incêndio rural,0,3,0,12,2025-10-11T23:30:00Z,Castelo De Paiva,Aveiro,Norte,-8.295964,41.000969,Despacho
26123436,"Alhões, Bustelo, Gralheira e Ramires",Tâmega e Sousa,309,2025-10-11T22:45:00Z,26123436,Em Curso,3103,Incêndio rural,0,5,0,22,2025-10-11T22:45:00Z,Cinfães,Viseu,Norte,-8.015361,41.057755,Curso
26123452,Murtosa,Região de Aveiro,310,2025-10-11T22:57:00Z,26123452,Em Resolução/Conclusão,3105,Incêndio rural,0,3,0,9,2025-10-11T22:57:00Z,Murtosa,Aveiro,Centro,-8.64266,40.7357,Resolução/Conclusão
26122953,Alvora e Loureda,Alto Minho,309,2025-10-11T20:00:00Z,26122953,Em Resolução/Conclusão,3103,Incêndio rural,0,4,0,15,2025-10-11T20:00:00Z,Arcos De Valdevez,Viana Do Castelo,Norte,-8.447903,41.943457,Resolução/Conclusão
26123337,Vilar de Besteiros e Mosteiro de Fráguas,Viseu Dão Lafões,310,2025-10-11T22:08:00Z,26123337,Em Resolução/Conclusão,3103,Incêndio rural,0,5,0,18,2025-10-11T22:08:00Z,Tondela,Viseu,Centro,-8.091218,40.576258,Resolução/Conclusão
26122931,"Algodres, Vale de Afonsinho e Vilar de Amargo",Beiras e Serra da Estrela,310,2025-10-11T20:10:00Z,26122931,Em Resolução/Conclusão,3103,Incêndio rural,0,14,0,50,2025-10-11T20:10:00Z,Figueira De Castelo Rodrigo,Guarda,Centro,-7.01107,40.93251,Resolução/Conclusão
26123262,Quinchães,Ave,309,2025-10-11T21:48:00Z,26123262,Em Resolução/Conclusão,3103,Incêndio rural,0,7,0,29,2025-10-11T21:48:00Z,Fafe,Braga,Norte,-8.107948,41.437197,Resolução/Conclusão
26123365,Prozelo,Alto Minho,309,2025-10-11T22:12:00Z,26123365,Em Resolução/Conclusão,3101,Incêndio rural,0,0,0,0,2025-10-11T22:12:00Z,Arcos De Valdevez,Viana Do Castelo,Norte,-8.441713,41.864377,Resolução/Conclusão
26123497,Arouca e Burgo,Area M. Porto,309,2025-10-11T23:22:00Z,26123497,Em Despacho,3103,Incêndio rural,0,6,0,27,2025-10-11T23:22:00Z,Arouca,Aveiro,Norte,-8.245277,40.92445,Despacho
