id,address,subregion,neighborhood,date,id.1,state,nature,nature_description,aerial_means,terrestrial_means,aquatic_means,operational,date.1,Concelho,Distrito,NUTII_DSG,longitude,latitude,state_2
25951176,Sandomil,Beiras e Serra da Estrela,310,2025-09-06T10:29:00Z,25951176,Em Resolução/Conclusão,3103,Incêndio rural,0,1,0,5,2025-09-06T10:29:00Z,Seia,Guarda,Centro,-7.76001,40.351547,Resolução/Conclusão
26077823,Faíl e Vila Chã de Sá,Viseu Dão Lafões,310,2025-10-02T14:18:00Z,26077823,Em Despacho,3103,Incêndio rural,2,4,0,29,2025-10-02T14:18:00Z,Viseu,Viseu,Centro,-7.980696,40.609276,Despacho
26022995,Bordeira,Algarve,313,2025-09-21T12:21:00Z,26022995,Em Resolução/Conclusão,3103,Incêndio rural,0,5,0,15,2025-09-21T12:21:00Z,Aljezur,Faro,Algarve,-8.825374,37.23495,Resolução/Conclusão
26077730,Meixedo e Padornelos,Alto Tâmega e Barroso,309,2025-10-02T14:00:00Z,26077730,Em Despacho,3103,Incêndio rural,1,3,0,21,2025-10-02T14:00:00Z,Montalegre,Vila Real,Norte,-7.732032,41.871064,Despacho
26077600,Várzea,Area M. Porto,309,2025-10-02T13:32:00Z,26077600,Em Resolução/Conclusão,3105,Incêndio rural,0,2,0,7,2025-10-02T13:32:00Z,Arouca,Aveiro,Norte,-8.298123,40.924297,Resolução/Conclusão
26050704,Tortosendo,Beiras e Serra da Estrela,310,2025-09-26T23:04:00Z,26050704,Em Resolução/Conclusão,3103,Incêndio rural,0,1,0,4,2025-09-26T23:04:00Z,Covilhã,Castelo Branco,Centro,-7.521592,40.251592,Resolução/Conclusão
26073480,Alcanede,Lezíria do Tejo,311,2025-10-01T16:15:00Z,26073480,Em Resolução/Conclusão,3103,Incêndio rural,0,4,0,17,2025-10-01T16:15:00Z,Santarém,Santarém,Alentejo,-8.787427,39.400588,Resolução/Conclusão
26076481,Dornelas,Alto Tâmega e Barroso,309,2025-10-02T10:10:00Z,26076481,Em Resolução/Conclusão,3103,Incêndio rural,0,6,0,28,2025-10-02T10:10:00Z,Boticas,Vila Real,Norte,-7.843733,41.66854,Resolução/Conclusão
26077731,Ferreira do Zêzere,Médio Tejo,311,2025-10-02T14:01:00Z,26077731,Em Resolução/Conclusão,3103,Incêndio rural,0,6,0,18,2025-10-02T14:01:00Z,Ferreira Do Zêzere,Santarém,Centro,-8.249243,39.695792,Resolução/Conclusão
