id,address,subregion,neighborhood,date,id.1,state,nature,nature_description,aerial_means,terrestrial_means,aquatic_means,operational,date.1,Concelho,Distrito,NUTII_DSG,longitude,latitude
25586470,Vendas Novas,Alentejo Central,312,2025-06-27T08:40:00Z,25586470,Em conclusão,2127,"Incêndio em edifícios e recintos industriais, oficinas e armazéns",0,3,0,8,2025-06-27T08:40:00Z,Vendas Novas,Évora,Alentejo,-8.433988,38.67218
25586890,Loulé (São Sebastião),Algarve,313,2025-06-27T09:56:00Z,25586890,Em despacho,2301,Incêndio em transporte rodoviário,0,4,0,13,2025-06-27T09:56:00Z,Loulé,Faro,Algarve,-8.1102900000000009,37.13726
25586938,Boliqueime,Algarve,313,2025-06-27T10:02:00Z,25586938,Em despacho,3103,Incêndio rural,1,2,0,16,2025-06-27T10:02:00Z,Loulé,Faro,Algarve,-8.138693,37.147653
25586947,Ramada e Caneças,Grande Lisboa,311,2025-06-27T10:00:00Z,25586947,Em despacho,2127,"Incêndio em edifícios e recintos industriais, oficinas e armazéns",0,2,0,10,2025-06-27T10:00:00Z,Odivelas,Lisboa,Área Metropolitana De Lisboa,-9.205356,38.813669
25586290,Coronado (São Romão e São Mamede),Area M. Porto,309,2025-06-27T08:01:00Z,25586290,Em conclusão,3107,Consolidação de rescaldo de incêndio rural,0,1,0,5,2025-06-27T08:01:00Z,Trofa,Porto,Norte,-8.58287,41.27891
25586912,Mouçós e Lamares,Douro,309,2025-06-27T10:00:00Z,25586912,Em despacho,2301,Incêndio em transporte rodoviário,0,3,0,12,2025-06-27T10:00:00Z,Vila Real,Vila Real,Norte,-7.698884,41.33054
25586060,São Gens,Ave,309,2025-06-27T06:47:00Z,25586060,Em conclusão,3101,Incêndio rural,0,1,0,5,2025-06-27T06:47:00Z,Fafe,Braga,Norte,-8.112268,41.444087
25586923,Reguengos de Monsaraz,Alentejo Central,312,2025-06-27T09:58:00Z,25586923,Em despacho,3107,Consolidação de rescaldo de incêndio rural,0,1,0,5,2025-06-27T09:58:00Z,Reguengos De Monsaraz,Évora,Alentejo,-7.569853,38.418395
25586957,"Margaride (Santa Eulália), Várzea, Lagares, Varziela e Moure",Tâmega e Sousa,309,2025-06-27T10:00:00Z,25586957,Em despacho,2201,Incêndio em equipamentos ou produtos,0,3,0,9,2025-06-27T10:00:00Z,Felgueiras,Porto,Norte,-8.233538,41.369315
