id,address,subregion,neighborhood,date,id.1,state,nature,nature_description,aerial_means,terrestrial_means,aquatic_means,operational,date.1,Concelho,Distrito,NUTII_DSG,longitude,latitude,state_2
25737642,Aboim da Nóbrega e Gondomar,Cávado,309,2025-07-26T17:54:00Z,25737642,Em Resolução/Conclusão,3103,Incêndio rural,0,0,0,0,2025-07-26T17:54:00Z,Vila Verde,Braga,Norte,-8.38607,41.734402,Resolução/Conclusão
25744328,Vila Facaia,Região de Leiria,310,2025-07-28T04:00:00Z,25744328,Em Resolução/Conclusão,3101,Incêndio rural,0,1,0,2,2025-07-28T04:00:00Z,Pedrógão Grande,Leiria,Centro,-8.197592,39.93944,Resolução/Conclusão
25744346,Pedrógão Grande,Região de Leiria,310,2025-07-28T04:18:00Z,25744346,Em Resolução/Conclusão,3101,Incêndio rural,0,1,0,2,2025-07-28T04:18:00Z,Pedrógão Grande,Leiria,Centro,-8.18142,39.926725,Resolução/Conclusão
25749937,Tarouquela,Tâmega e Sousa,309,2025-07-29T04:11:00Z,25749937,Em Curso,3103,Incêndio rural,0,11,0,38,2025-07-29T04:11:00Z,Cinfães,Viseu,Norte,-8.173308,41.072792,Curso
25750444,Pedrógão Grande,Região de Leiria,310,2025-07-29T08:31:00Z,25750444,Em Resolução/Conclusão,3101,Incêndio rural,0,3,0,5,2025-07-29T08:31:00Z,Pedrógão Grande,Leiria,Centro,-8.177567,39.933038,Resolução/Conclusão
25750503,Campos e Vila Meã,Alto Minho,309,2025-07-29T08:35:00Z,25750503,Em Resolução/Conclusão,3105,Incêndio rural,0,0,0,0,2025-07-29T08:35:00Z,Vila Nova De Cerveira,Viana Do Castelo,Norte,-8.700745,41.967555,Resolução/Conclusão
25750537,Castelo Branco,Beira Baixa,310,2025-07-29T08:51:00Z,25750537,Em Resolução/Conclusão,3103,Incêndio rural,0,1,0,2,2025-07-29T08:51:00Z,Castelo Branco,Castelo Branco,Centro,-7.4478,39.766387,Resolução/Conclusão
25751046,Castelejo,Beiras e Serra da Estrela,310,2025-07-29T10:13:00Z,25751046,Em Resolução/Conclusão,3103,Incêndio rural,3,23,0,92,2025-07-29T10:13:00Z,Fundão,Castelo Branco,Centro,-7.604291,40.108879,Resolução/Conclusão
25751096,Cete,Area M. Porto,309,2025-07-29T10:19:00Z,25751096,Em Resolução/Conclusão,3103,Incêndio rural,0,2,0,7,2025-07-29T10:19:00Z,Paredes,Porto,Norte,-8.361354,41.17965,Resolução/Conclusão
25751241,Santiago de Besteiros,Viseu Dão Lafões,310,2025-07-29T10:43:00Z,25751241,Em Curso,3103,Incêndio rural,4,20,0,82,2025-07-29T10:43:00Z,Tondela,Viseu,Centro,-8.124854,40.582359,Curso
25751339,Ferreira do Alentejo e Canhestros,Baixo Alentejo,312,2025-07-29T10:57:00Z,25751339,Em Despacho,3105,Incêndio rural,0,6,0,20,2025-07-29T10:57:00Z,Ferreira Do Alentejo,Beja,Alentejo,-8.296052,38.04153,Despacho
25751355,"Crato e Mártires, Flor da Rosa e Vale do Peso",Alto Alentejo,312,2025-07-29T10:59:00Z,25751355,Em Curso,3103,Incêndio rural,1,14,0,59,2025-07-29T10:59:00Z,Crato,Portalegre,Alentejo,-7.636346,39.369425,Curso
25747108,Melides,Alentejo Litoral,312,2025-07-28T14:39:00Z,25747108,Em Resolução/Conclusão,3101,Incêndio rural,0,0,0,0,2025-07-28T14:39:00Z,Grândola,Setúbal,Alentejo,-8.752402,38.123636,Resolução/Conclusão
25749681,Fornos de Maceira Dão,Viseu Dão Lafões,310,2025-07-29T01:19:00Z,25749681,Em Resolução/Conclusão,3103,Incêndio rural,0,42,0,146,2025-07-29T01:19:00Z,Mangualde,Viseu,Centro,-7.806963,40.617022,Resolução/Conclusão
25749831,Valdreu,Cávado,309,2025-07-29T02:54:00Z,25749831,Em Resolução/Conclusão,3103,Incêndio rural,0,1,0,5,2025-07-29T02:54:00Z,Vila Verde,Braga,Norte,-8.326492,41.720598,Resolução/Conclusão
25749898,Borba de Montanha,Tâmega e Sousa,309,2025-07-29T03:41:00Z,25749898,Em Resolução/Conclusão,3103,Incêndio rural,0,3,0,12,2025-07-29T03:41:00Z,Celorico De Basto,Braga,Norte,-8.099557,41.380222,Resolução/Conclusão
25750701,Capela,Tâmega e Sousa,309,2025-07-29T09:26:00Z,25750701,Em Curso,3103,Incêndio rural,2,10,0,50,2025-07-29T09:26:00Z,Penafiel,Porto,Norte,-8.345202,41.09353,Curso
25750936,Avelãs de Cima,Região de Aveiro,310,2025-07-29T09:55:00Z,25750936,Em Resolução/Conclusão,3105,Incêndio rural,0,6,0,22,2025-07-29T09:55:00Z,Anadia,Aveiro,Centro,-8.373675,40.500188,Resolução/Conclusão
25751137,Várzea,Cávado,309,2025-07-29T10:25:00Z,25751137,Em Resolução/Conclusão,3105,Incêndio rural,0,2,0,7,2025-07-29T10:25:00Z,Barcelos,Braga,Norte,-8.584182,41.519982,Resolução/Conclusão
25751304,Pontinha e Famões,Grande Lisboa,311,2025-07-29T10:53:00Z,25751304,Em Resolução/Conclusão,3103,Incêndio rural,0,10,0,41,2025-07-29T10:53:00Z,Odivelas,Lisboa,Área Metropolitana De Lisboa,-9.198755,38.778162,Resolução/Conclusão
25738747,Lindoso,Alto Minho,309,2025-07-26T21:47:00Z,25738747,Em Curso,3103,Incêndio rural,2,127,0,395,2025-07-26T21:47:00Z,Ponte Da Barca,Viana Do Castelo,Norte,-8.220528,41.865272,Curso
25741880,Benavila e Valongo,Alto Alentejo,312,2025-07-27T14:31:00Z,25741880,Em Resolução/Conclusão,3101,Incêndio rural,0,2,0,7,2025-07-27T14:31:00Z,Avis,Portalegre,Alentejo,-7.866293,39.19533,Resolução/Conclusão
25747773,Aranhas,Beira Baixa,310,2025-07-28T16:36:00Z,25747773,Em Curso,3103,Incêndio rural,4,124,0,373,2025-07-28T16:36:00Z,Penamacor,Castelo Branco,Centro,-7.14438,40.117542,Curso
25749611,Sameice e Santa Eulália,Beiras e Serra da Estrela,310,2025-07-29T00:44:00Z,25749611,Em Resolução/Conclusão,3103,Incêndio rural,0,3,0,12,2025-07-29T00:44:00Z,Seia,Guarda,Centro,-7.77621,40.42021,Resolução/Conclusão
25749802,Gandra e Taião,Alto Minho,309,2025-07-29T02:30:00Z,25749802,Em Resolução/Conclusão,3103,Incêndio rural,0,7,0,17,2025-07-29T02:30:00Z,Valença,Viana Do Castelo,Norte,-8.59159,42.012522,Resolução/Conclusão
25750038,Paderne,Alto Minho,309,2025-07-29T05:49:00Z,25750038,Em Resolução/Conclusão,3101,Incêndio rural,0,4,0,13,2025-07-29T05:49:00Z,Melgaço,Viana Do Castelo,Norte,-8.28068,42.101137,Resolução/Conclusão
25750804,"Lobão, Gião, Louredo e Guisande",Area M. Porto,309,2025-07-29T09:38:00Z,25750804,Em Resolução/Conclusão,3103,Incêndio rural,1,4,0,23,2025-07-29T09:38:00Z,Santa Maria Da Feira,Aveiro,Norte,-8.47984,40.985798,Resolução/Conclusão
25750845,Fornos,Tâmega e Sousa,309,2025-07-29T09:46:00Z,25750845,Em Curso,3103,Incêndio rural,0,8,0,29,2025-07-29T09:46:00Z,Castelo De Paiva,Aveiro,Norte,-8.247077,41.050502,Curso
25747334,Aboim da Nóbrega e Gondomar,Cávado,309,2025-07-28T15:08:00Z,25747334,Em Resolução/Conclusão,3103,Incêndio rural,0,2,0,9,2025-07-28T15:08:00Z,Vila Verde,Braga,Norte,-8.38607,41.734402,Resolução/Conclusão
25748118,Canelas e Espiunca,Area M. Porto,309,2025-07-28T17:16:00Z,25748118,Em Curso,3101,Incêndio rural,6,192,0,589,2025-07-28T17:16:00Z,Arouca,Aveiro,Norte,-8.212231,40.969918,Curso
25748672,Sopo,Alto Minho,309,2025-07-28T20:07:00Z,25748672,Em Resolução/Conclusão,3103,Incêndio rural,0,1,0,4,2025-07-28T20:07:00Z,Vila Nova De Cerveira,Viana Do Castelo,Norte,-8.76152,41.888527,Resolução/Conclusão
25749320,Rebordões (Santa Maria),Alto Minho,309,2025-07-28T22:47:00Z,25749320,Em Curso,3103,Incêndio rural,2,44,0,147,2025-07-28T22:47:00Z,Ponte De Lima,Viana Do Castelo,Norte,-8.588365,41.729993,Curso
25749641,Silva Escura e Dornelas,Região de Aveiro,310,2025-07-29T01:02:00Z,25749641,Em Resolução/Conclusão,3101,Incêndio rural,0,24,0,76,2025-07-29T01:02:00Z,Sever Do Vouga,Aveiro,Centro,-8.399623,40.769354,Resolução/Conclusão
25749824,Santa Marinha do Zêzere,Tâmega e Sousa,309,2025-07-29T02:46:00Z,25749824,Em Curso,3103,Incêndio rural,1,13,0,43,2025-07-29T02:46:00Z,Baião,Porto,Norte,-7.949183,41.161627,Curso
25750259,Boelhe,Tâmega e Sousa,309,2025-07-29T07:49:00Z,25750259,Em Resolução/Conclusão,3103,Incêndio rural,0,1,0,5,2025-07-29T07:49:00Z,Penafiel,Porto,Norte,-8.237167,41.138373,Resolução/Conclusão
25750874,Vilarinho,Area M. Porto,309,2025-07-29T09:45:00Z,25750874,Em Resolução/Conclusão,3103,Incêndio rural,0,1,0,5,2025-07-29T09:45:00Z,Santo Tirso,Porto,Norte,-8.332396,41.361273,Resolução/Conclusão
25750978,Mouriscas,Médio Tejo,311,2025-07-29T10:02:00Z,25750978,Em Resolução/Conclusão,3103,Incêndio rural,0,17,0,60,2025-07-29T10:02:00Z,Abrantes,Santarém,Centro,-8.10428,39.484922,Resolução/Conclusão
25751060,Paredes,Area M. Porto,309,2025-07-29T10:09:00Z,25751060,Em Resolução/Conclusão,3103,Incêndio rural,0,1,0,5,2025-07-29T10:09:00Z,Paredes,Porto,Norte,-8.355788,41.208912,Resolução/Conclusão
25751327,Estremoz (Santa Maria e Santo André),Alentejo Central,312,2025-07-29T10:52:00Z,25751327,Em Curso,3103,Incêndio rural,1,9,0,35,2025-07-29T10:52:00Z,Estremoz,Évora,Alentejo,-7.611247,38.839733,Curso
25751329,Mouronho,Região de Coimbra,310,2025-07-29T10:56:00Z,25751329,Em Resolução/Conclusão,3101,Incêndio rural,0,1,0,5,2025-07-29T10:56:00Z,Tábua,Coimbra,Centro,-8.055532,40.260839,Resolução/Conclusão
25751349,Parada de Gatim,Cávado,309,2025-07-29T10:59:00Z,25751349,Em Despacho,3103,Incêndio rural,1,4,0,19,2025-07-29T10:59:00Z,Vila Verde,Braga,Norte,-8.524927,41.620349,Despacho
25751424,Anhões e Luzio,Alto Minho,309,2025-07-29T11:09:00Z,25751424,Em Despacho,3101,Incêndio rural,0,0,0,0,2025-07-29T11:09:00Z,Monção,Viana Do Castelo,Norte,-8.45634,41.97659,Despacho
