id,address,subregion,neighborhood,date,id.1,state,nature,nature_description,aerial_means,terrestrial_means,aquatic_means,operational,date.1,Concelho,Distrito,NUTII_DSG,longitude,latitude,state_2
25662366,Olmos,Terras de Trás-os-Montes,309,2025-07-11T13:52:00Z,25662366,Em Resolução/Conclusão,3103,Incêndio rural,0,7,0,22,2025-07-11T13:52:00Z,Macedo De Cavaleiros,Bragança,Norte,-6.89976,41.490615,Resolução/Conclusão
25663821,Gilmonde,Cávado,309,2025-07-11T19:01:00Z,25663821,Em Resolução/Conclusão,3103,Incêndio rural,0,1,0,5,2025-07-11T19:01:00Z,Barcelos,Braga,Norte,-8.657872,41.518367,Resolução/Conclusão
25647385,Castelo Novo,Beiras e Serra da Estrela,310,2025-07-08T15:11:00Z,25647385,Em Resolução/Conclusão,3103,Incêndio rural,0,1,0,5,2025-07-08T15:11:00Z,Fundão,Castelo Branco,Centro,-7.447838,40.023465,Resolução/Conclusão
25657801,Santana da Azinha,Beiras e Serra da Estrela,310,2025-07-10T15:19:00Z,25657801,Em Resolução/Conclusão,3103,Incêndio rural,0,2,0,6,2025-07-10T15:19:00Z,Guarda,Guarda,Centro,-7.208863,40.479537,Resolução/Conclusão
25661545,Pussos São Pedro,Região de Leiria,310,2025-07-11T11:12:00Z,25661545,Em Resolução/Conclusão,3111,Queima,0,0,0,0,2025-07-11T11:12:00Z,Alvaiázere,Leiria,Centro,-8.364256,39.792389,Resolução/Conclusão
25663324,"Leiria, Pousos, Barreira e Cortes",Região de Leiria,310,2025-07-11T17:04:00Z,25663324,Em Resolução/Conclusão,3103,Incêndio rural,0,5,0,19,2025-07-11T17:04:00Z,Leiria,Leiria,Centro,-8.781488,39.733495,Resolução/Conclusão
25647106,Tortosendo,Beiras e Serra da Estrela,310,2025-07-08T14:25:00Z,25647106,Em Resolução/Conclusão,3103,Incêndio rural,0,1,0,2,2025-07-08T14:25:00Z,Covilhã,Castelo Branco,Centro,-7.508533,40.223705,Resolução/Conclusão
25657918,"Canedo, Vale e Vila Maior",Area M. Porto,309,2025-07-10T15:44:00Z,25657918,Em Resolução/Conclusão,3103,Incêndio rural,0,1,0,6,2025-07-10T15:44:00Z,Santa Maria Da Feira,Aveiro,Norte,-8.461548,41.045418,Resolução/Conclusão
25662814,Soajo,Alto Minho,309,2025-07-11T15:16:00Z,25662814,Em Resolução/Conclusão,3103,Incêndio rural,1,6,0,28,2025-07-11T15:16:00Z,Arcos De Valdevez,Viana Do Castelo,Norte,-8.22891,41.87654,Resolução/Conclusão
25663848,Idanha-a-Nova e Alcafozes,Beira Baixa,310,2025-07-11T19:08:00Z,25663848,Em Resolução/Conclusão,3103,Incêndio rural,1,10,0,44,2025-07-11T19:08:00Z,Idanha-a-Nova,Castelo Branco,Centro,-7.210318,39.843498,Resolução/Conclusão
25663993,Santo António Dos Cavaleiros e Frielas,Grande Lisboa,311,2025-07-11T19:45:00Z,25663993,Em Despacho,3103,Incêndio rural,0,1,0,5,2025-07-11T19:45:00Z,Loures,Lisboa,Área Metropolitana De Lisboa,-9.171619,38.815144,Despacho
