id,address,subregion,neighborhood,date,id.1,state,nature,nature_description,aerial_means,terrestrial_means,aquatic_means,operational,date.1,Concelho,Distrito,NUTII_DSG,longitude,latitude,state_2
26179444,Lourinhã e Atalaia,Oeste,311,2025-10-23T14:16:00Z,26179444,Em Resolução/Conclusão,3111,Queima,0,3,0,10,2025-10-23T14:16:00Z,Lourinhã,Lisboa,Centro,-9.329936,39.260385,Resolução/Conclusão
26157762,Vilar e Mosteiró,Area M. Porto,309,2025-10-18T22:18:00Z,26157762,Em Resolução/Conclusão,3103,Incêndio rural,0,0,0,0,2025-10-18T22:18:00Z,Vila Do Conde,Porto,Norte,-8.679891,41.289721,Resolução/Conclusão
26160929,Caranguejeira,Região de Leiria,310,2025-10-19T16:50:00Z,26160929,Em Resolução/Conclusão,3101,Incêndio rural,0,1,0,2,2025-10-19T16:50:00Z,Leiria,Leiria,Centro,-8.697637,39.726483,Resolução/Conclusão
26179270,Ferreiros,Ave,309,2025-10-23T13:45:00Z,26179270,Em Despacho,3111,Queima,0,1,0,2,2025-10-23T13:45:00Z,Póvoa De Lanhoso,Braga,Norte,-8.303507,41.5859,Despacho
26179482,Salvaterra de Magos e Foros de Salvaterra,Lezíria do Tejo,311,2025-10-23T14:23:00Z,26179482,Em Resolução/Conclusão,3103,Incêndio rural,0,5,0,12,2025-10-23T14:23:00Z,Salvaterra De Magos,Santarém,Alentejo,-8.781847,39.019195,Resolução/Conclusão
26179519,"Nossa Senhora da Conceição, São Pedro e São Dinis",Douro,309,2025-10-23T14:31:00Z,26179519,Em Despacho,3103,Incêndio rural,0,1,0,5,2025-10-23T14:31:00Z,Vila Real,Vila Real,Norte,-7.74113,41.30873,Despacho
