id,address,subregion,neighborhood,date,id.1,state,nature,nature_description,aerial_means,terrestrial_means,aquatic_means,operational,date.1,Concelho,Distrito,NUTII_DSG,longitude,latitude,state_2
25712338,Cercal,Alentejo Litoral,312,2025-07-21T17:38:00Z,25712338,Em Resolução/Conclusão,3103,Incêndio rural,0,12,0,40,2025-07-21T17:38:00Z,Santiago Do Cacém,Setúbal,Alentejo,-8.682272,37.791582,Resolução/Conclusão
25717167,Pinhel,Beiras e Serra da Estrela,310,2025-07-22T16:40:00Z,25717167,Em Resolução/Conclusão,3103,Incêndio rural,0,9,0,33,2025-07-22T16:40:00Z,Pinhel,Guarda,Centro,-7.060442,40.781598,Resolução/Conclusão
25717282,Faiões,Alto Tâmega e Barroso,309,2025-07-22T17:03:00Z,25717282,Em Resolução/Conclusão,3103,Incêndio rural,0,0,0,0,2025-07-22T17:03:00Z,Chaves,Vila Real,Norte,-7.435467,41.749257,Resolução/Conclusão
25717520,Castelo Branco,Beira Baixa,310,2025-07-22T17:59:00Z,25717520,Em Resolução/Conclusão,3103,Incêndio rural,0,40,0,126,2025-07-22T17:59:00Z,Castelo Branco,Castelo Branco,Centro,-7.464898,39.851129,Resolução/Conclusão
25718270,"Bigorne, Magueija e Pretarouca",Douro,309,2025-07-22T21:05:00Z,25718270,Em Despacho,3103,Incêndio rural,0,3,0,12,2025-07-22T21:05:00Z,Lamego,Viseu,Norte,-7.871525,41.02638,Despacho
25718335,São João da Madeira,Area M. Porto,309,2025-07-22T21:17:00Z,25718335,Em Resolução/Conclusão,3105,Incêndio rural,0,1,0,5,2025-07-22T21:17:00Z,São João Da Madeira,Aveiro,Norte,-8.497441,40.896053,Resolução/Conclusão
25718369,Castanheira de Pêra e Coentral,Região de Leiria,310,2025-07-22T21:36:00Z,25718369,Em Resolução/Conclusão,3105,Incêndio rural,0,3,0,11,2025-07-22T21:36:00Z,Castanheira De Pêra,Leiria,Centro,-8.19884,39.99897,Resolução/Conclusão
25711397,Vale da Pedra,Lezíria do Tejo,311,2025-07-21T14:16:00Z,25711397,Em Resolução/Conclusão,3103,Incêndio rural,0,1,0,5,2025-07-21T14:16:00Z,Cartaxo,Santarém,Alentejo,-8.783137,39.110872,Resolução/Conclusão
25716118,Alvite,Douro,309,2025-07-22T13:18:00Z,25716118,Em Resolução/Conclusão,3101,Incêndio rural,0,0,0,0,2025-07-22T13:18:00Z,Moimenta Da Beira,Viseu,Norte,-7.71388,40.952273,Resolução/Conclusão
25718176,Caria,Beiras e Serra da Estrela,310,2025-07-22T20:43:00Z,25718176,Em Resolução/Conclusão,3105,Incêndio rural,0,7,0,24,2025-07-22T20:43:00Z,Belmonte,Castelo Branco,Centro,-7.36336,40.286452,Resolução/Conclusão
25716558,Alquerubim,Região de Aveiro,310,2025-07-22T14:38:00Z,25716558,Em Resolução/Conclusão,3101,Incêndio rural,0,2,0,7,2025-07-22T14:38:00Z,Albergaria-a-Velha,Aveiro,Centro,-8.51459,40.626095,Resolução/Conclusão
25718028,Montargil,Alto Alentejo,312,2025-07-22T19:58:00Z,25718028,Em Resolução/Conclusão,3103,Incêndio rural,0,8,0,30,2025-07-22T19:58:00Z,Ponte De Sor,Portalegre,Alentejo,-8.169745,39.069765,Resolução/Conclusão
25718082,Monsanto e Idanha-a-Velha,Beira Baixa,310,2025-07-22T20:17:00Z,25718082,Em Resolução/Conclusão,3105,Incêndio rural,0,10,0,28,2025-07-22T20:17:00Z,Idanha-a-Nova,Castelo Branco,Centro,-7.048977,40.051923,Resolução/Conclusão
25718325,Urrô,Area M. Porto,309,2025-07-22T21:12:00Z,25718325,Em Resolução/Conclusão,3103,Incêndio rural,0,3,0,12,2025-07-22T21:12:00Z,Arouca,Aveiro,Norte,-8.292055,40.898489,Resolução/Conclusão
25718393,Valongo,Area M. Porto,309,2025-07-22T21:46:00Z,25718393,Em Despacho,3103,Incêndio rural,0,0,0,0,2025-07-22T21:46:00Z,Valongo,Porto,Norte,-8.511292,41.23021,Despacho
25718400,Castêlo da Maia,Area M. Porto,309,2025-07-22T21:47:00Z,25718400,Em Despacho,3103,Incêndio rural,0,0,0,0,2025-07-22T21:47:00Z,Maia,Porto,Norte,-8.612223,41.26812,Despacho
