id,address,subregion,neighborhood,date,id.1,state,nature,nature_description,aerial_means,terrestrial_means,aquatic_means,operational,date.1,Concelho,Distrito,NUTII_DSG,longitude,latitude
25490136,Vale do Paraíso,Lezíria do Tejo,311,2025-06-07T10:01:00Z,25490136,Em conclusão,3203,Detritos confinados,0,0,0,0,2025-06-07T10:01:00Z,Azambuja,Lisboa,Alentejo,-8.893342,39.109998
25490137,Monsanto e Idanha-a-Velha,Beira Baixa,310,2025-06-07T10:01:00Z,25490137,Em despacho,3107,Consolidação de rescaldo de incêndio rural,0,1,0,5,2025-06-07T10:01:00Z,Idanha-a-Nova,Castelo Branco,Centro,-7.11847,40.036689
25490352,Eiriz,Tâmega e Sousa,309,2025-06-07T10:36:00Z,25490352,Em resolução,3103,Incêndio rural,0,1,0,5,2025-06-07T10:36:00Z,Paços De Ferreira,Porto,Norte,-8.388735,41.322253
25490420,Alcabideche,Grande Lisboa,311,2025-06-07T10:58:00Z,25490420,Em conclusão,3103,Incêndio rural,0,2,0,10,2025-06-07T10:58:00Z,Cascais,Lisboa,Área Metropolitana De Lisboa,-9.435089,38.742243
25490176,"Santa Iria de Azoia, São João da Talha e Bobadela",Grande Lisboa,311,2025-06-07T10:11:00Z,25490176,Em conclusão,3105,Incêndio rural,0,2,0,7,2025-06-07T10:11:00Z,Loures,Lisboa,Área Metropolitana De Lisboa,-9.093532,38.82329
25490181,Covas,Alto Minho,309,2025-06-07T10:05:00Z,25490181,Em curso,3109,Gestão de combustível,0,3,0,14,2025-06-07T10:05:00Z,Vila Nova De Cerveira,Viana Do Castelo,Norte,-8.692105,41.901722
25490243,Mesão Frio (Santo André),Douro,309,2025-06-07T10:22:00Z,25490243,Em resolução,2101,Incêndio em edifícios habitacionais,0,1,0,2,2025-06-07T10:22:00Z,Mesão Frio,Vila Real,Norte,-7.883542,41.151625
25490570,Bougado (São Martinho e Santiago),Area M. Porto,309,2025-06-07T11:30:00Z,25490570,Em despacho,3103,Incêndio rural,0,1,0,5,2025-06-07T11:30:00Z,Trofa,Porto,Norte,-8.558796,41.329536
