id,address,subregion,neighborhood,date,id.1,state,nature,nature_description,aerial_means,terrestrial_means,aquatic_means,operational,date.1,Concelho,Distrito,NUTII_DSG,longitude,latitude
24945951,Vila Real de Santo António,Algarve,313,2025-02-11T14:26:00Z,24945951,Em despacho,3315,Inundação de estruturas por precipitação intensa,0,2,0,5,2025-02-11T14:26:00Z,Vila Real De Santo António,Faro,Algarve,-7.413388,37.191428
24945985,Altura,Algarve,313,2025-02-11T14:32:00Z,24945985,Em despacho,3315,Inundação de estruturas por precipitação intensa,0,2,0,2,2025-02-11T14:32:00Z,Castro Marim,Faro,Algarve,-7.501312,37.182018
24946072,Alvorninha,Oeste,311,2025-02-11T14:50:00Z,24946072,Em curso,3301,Queda de árvore,0,1,0,5,2025-02-11T14:50:00Z,Caldas Da Rainha,Leiria,Centro,-9.016553,39.399192
24877003,Malagueira e Horta Das Figueiras,Alentejo Central,312,2025-01-27T11:41:00Z,24877003,Em conclusão,3315,Inundação de estruturas por precipitação intensa,0,0,0,0,2025-01-27T11:41:00Z,Évora,Évora,Alentejo,-7.924277,38.57285
24944419,São Jacinto,Região de Aveiro,310,2025-02-11T09:29:00Z,24944419,Em curso,3311,Queda de elementos de estruturas edificados,0,1,0,2,2025-02-11T09:29:00Z,Aveiro,Aveiro,Centro,-8.723538,40.699711
24944560,Glória e Vera Cruz,Região de Aveiro,310,2025-02-11T10:09:00Z,24944560,Em curso,3317,Inundação de estruturas por água canalizada,0,1,0,1,2025-02-11T10:09:00Z,Aveiro,Aveiro,Centro,-8.647359,40.640643
24944591,São Bartolomeu de Messines,Algarve,313,2025-02-11T10:17:00Z,24944591,Em curso,1103,Vento forte,0,9,0,23,2025-02-11T10:17:00Z,Silves,Faro,Algarve,-8.293242,37.307028
24945445,São Domingos de Rana,Grande Lisboa,311,2025-02-11T12:39:00Z,24945445,Em despacho,3315,Inundação de estruturas por precipitação intensa,0,1,0,2,2025-02-11T12:39:00Z,Cascais,Lisboa,Área Metropolitana De Lisboa,-9.347651,38.740483
24945877,Couço,Lezíria do Tejo,311,2025-02-11T14:18:00Z,24945877,Em conclusão,3315,Inundação de estruturas por precipitação intensa,0,1,0,2,2025-02-11T14:18:00Z,Coruche,Santarém,Alentejo,-8.297213,38.982392
