id,address,subregion,neighborhood,date,id.1,state,nature,nature_description,aerial_means,terrestrial_means,aquatic_means,operational,date.1,Concelho,Distrito,NUTII_DSG,longitude,latitude
25067716,Salir,Algarve,313,2025-03-10T18:27:00Z,25067716,Em curso,3313,Deslizamento de terras,0,0,0,0,2025-03-10T18:27:00Z,Loulé,Faro,Algarve,-7.957935,37.23457
25068300,Almeirim,Lezíria do Tejo,311,2025-03-10T20:52:00Z,25068300,Em curso,1101,Cheia,0,0,0,0,2025-03-10T20:52:00Z,Almeirim,Santarém,Alentejo,-8.635002,39.187436
25085205,São João Baptista e Santa Maria Dos Olivais,Médio Tejo,311,2025-03-14T10:57:00Z,25085205,Em resolução,3301,Queda de árvore,0,2,0,6,2025-03-14T10:57:00Z,Tomar,Santarém,Centro,-8.386858,39.584216
25063232,Santa Maria do Castelo e Santiago e Santa Susana,Alentejo Litoral,312,2025-03-09T19:02:00Z,25063232,Em conclusão,1101,Cheia,0,0,0,0,2025-03-09T19:02:00Z,Alcácer Do Sal,Setúbal,Alentejo,-8.48167,38.29806
25084758,Santa Maria Maior e Monserrate e Meadela,Alto Minho,309,2025-03-14T09:32:00Z,25084758,Em curso,3317,Inundação de estruturas por água canalizada,0,0,0,0,2025-03-14T09:32:00Z,Viana Do Castelo,Viana Do Castelo,Norte,-8.81652,41.703882
25084486,Almeirim,Lezíria do Tejo,311,2025-03-14T08:53:00Z,25084486,Em resolução,3315,Inundação de estruturas por precipitação intensa,0,2,0,4,2025-03-14T08:53:00Z,Almeirim,Santarém,Alentejo,-8.635002,39.187436
25084888,"Fundão, Valverde, Donas, Aldeia de Joanes e Aldeia Nova do Cabo",Beiras e Serra da Estrela,310,2025-03-14T09:39:00Z,25084888,Em despacho,3315,Inundação de estruturas por precipitação intensa,0,1,0,2,2025-03-14T09:39:00Z,Fundão,Castelo Branco,Centro,-7.505345,40.138491
25059714,Torrão,Alentejo Litoral,312,2025-03-08T22:10:00Z,25059714,Em conclusão,1101,Cheia,0,0,0,0,2025-03-08T22:10:00Z,Alcácer Do Sal,Setúbal,Alentejo,-8.359133,38.252053
25070044,Praia do Ribatejo,Médio Tejo,311,2025-03-10T19:30:00Z,25070044,Em curso,1101,Cheia,0,0,0,0,2025-03-10T19:30:00Z,Vila Nova Da Barquinha,Santarém,Centro,-8.357309,39.485638
25071496,São Manços e São Vicente do Pigeiro,Alentejo Central,312,2025-03-11T13:18:00Z,25071496,Em curso,1101,Cheia,0,2,0,4,2025-03-11T13:18:00Z,Évora,Évora,Alentejo,-7.713313,38.513673
25084884,"Coruche, Fajarda e Erra",Lezíria do Tejo,311,2025-03-14T09:55:00Z,25084884,Em despacho,3311,Queda de elementos de estruturas edificados,0,1,0,1,2025-03-14T09:55:00Z,Coruche,Santarém,Alentejo,-8.445915,38.996802
25085036,Marinha Grande,Região de Leiria,310,2025-03-14T10:15:00Z,25085036,Em curso,3321,Dano na rede de fornecimento de eletricidade ,0,1,0,2,2025-03-14T10:15:00Z,Marinha Grande,Leiria,Centro,-8.921812,39.746629
