id,address,subregion,neighborhood,date,id.1,state,nature,nature_description,aerial_means,terrestrial_means,aquatic_means,operational,date.1,Concelho,Distrito,NUTII_DSG,longitude,latitude,state_2
25832672,Piódão,Região de Coimbra,310,2025-08-13T05:08:00Z,25832672,Em Resolução/Conclusão,3103,Incêndio rural,0,41,0,135,2025-08-13T05:08:00Z,Arganil,Coimbra,Centro,-7.81972,40.23083,Resolução/Conclusão
25840417,Lousã e Vilarinho,Região de Coimbra,310,2025-08-14T13:46:00Z,25840417,Em Resolução/Conclusão,3101,Incêndio rural,0,1,0,1,2025-08-14T13:46:00Z,Lousã,Coimbra,Centro,-8.201561,40.080016,Resolução/Conclusão
25911638,Moledo,Viseu Dão Lafões,310,2025-08-28T16:35:00Z,25911638,Em Resolução/Conclusão,3103,Incêndio rural,0,1,0,5,2025-08-28T16:35:00Z,Castro Daire,Viseu,Centro,-7.875873,40.821295,Resolução/Conclusão
25912363,Vermoil,Região de Leiria,310,2025-08-28T19:49:00Z,25912363,Em Resolução/Conclusão,3103,Incêndio rural,0,1,0,2,2025-08-28T19:49:00Z,Pombal,Leiria,Centro,-8.703191,39.87191,Resolução/Conclusão
25912588,Arões (São Romão),Ave,309,2025-08-28T20:48:00Z,25912588,Em Resolução/Conclusão,3103,Incêndio rural,0,4,0,16,2025-08-28T20:48:00Z,Fafe,Braga,Norte,-8.22132,41.467293,Resolução/Conclusão
25912622,São Cipriano,Tâmega e Sousa,309,2025-08-28T20:54:00Z,25912622,Em Resolução/Conclusão,3103,Incêndio rural,0,3,0,11,2025-08-28T20:54:00Z,Resende,Viseu,Norte,-7.969415,41.049148,Resolução/Conclusão
25912840,Azias,Alto Minho,309,2025-08-28T22:00:00Z,25912840,Em Curso,3103,Incêndio rural,0,1,0,5,2025-08-28T22:00:00Z,Ponte Da Barca,Viana Do Castelo,Norte,-8.344961,41.772154,Curso
25912906,Lamas e Cercal,Oeste,311,2025-08-28T22:21:00Z,25912906,Em Curso,3103,Incêndio rural,0,5,0,19,2025-08-28T22:21:00Z,Cadaval,Lisboa,Centro,-9.086873,39.216697,Curso
25883011,Almofala,Viseu Dão Lafões,310,2025-08-22T17:00:00Z,25883011,Em Resolução/Conclusão,3103,Incêndio rural,0,1,0,2,2025-08-22T17:00:00Z,Castro Daire,Viseu,Centro,-7.767003,40.956183,Resolução/Conclusão
25887019,Pedrógão Grande,Região de Leiria,310,2025-08-23T14:27:00Z,25887019,Em Resolução/Conclusão,3101,Incêndio rural,0,4,0,14,2025-08-23T14:27:00Z,Pedrógão Grande,Leiria,Centro,-8.15364,39.9136,Resolução/Conclusão
25906523,Picão e Ermida,Viseu Dão Lafões,310,2025-08-27T15:26:00Z,25906523,Em Resolução/Conclusão,3103,Incêndio rural,0,1,0,2,2025-08-27T15:26:00Z,Castro Daire,Viseu,Centro,-7.9416079999999996,40.947432,Resolução/Conclusão
25912648,Torrados e Sousa,Tâmega e Sousa,309,2025-08-28T21:03:00Z,25912648,Em Resolução/Conclusão,3105,Incêndio rural,0,2,0,7,2025-08-28T21:03:00Z,Felgueiras,Porto,Norte,-8.24052,41.36576,Resolução/Conclusão
25813482,Freches e Torres,Beiras e Serra da Estrela,310,2025-08-09T16:21:00Z,25813482,Em Resolução/Conclusão,3103,Incêndio rural,0,1,0,5,2025-08-09T16:21:00Z,Trancoso,Guarda,Centro,-7.363745,40.709022,Resolução/Conclusão
25832250,Ferreira de Aves,Viseu Dão Lafões,310,2025-08-13T00:03:00Z,25832250,Em Resolução/Conclusão,3103,Incêndio rural,0,1,0,2,2025-08-13T00:03:00Z,Sátão,Viseu,Centro,-7.647793,40.79568,Resolução/Conclusão
25836309,Cinfães,Tâmega e Sousa,309,2025-08-13T18:17:00Z,25836309,Em Resolução/Conclusão,3103,Incêndio rural,0,1,0,2,2025-08-13T18:17:00Z,Cinfães,Viseu,Norte,-8.071502,41.049757,Resolução/Conclusão
25910498,Cortiçadas de Lavre e Lavre,Alentejo Central,312,2025-08-28T12:32:00Z,25910498,Em Resolução/Conclusão,3103,Incêndio rural,0,22,0,68,2025-08-28T12:32:00Z,Montemor-o-Novo,Évora,Alentejo,-8.362108,38.73748,Resolução/Conclusão
25910697,Chancelaria,Médio Tejo,311,2025-08-28T13:19:00Z,25910697,Em Resolução/Conclusão,3103,Incêndio rural,0,2,0,7,2025-08-28T13:19:00Z,Torres Novas,Santarém,Centro,-8.568325,39.54473,Resolução/Conclusão
25911099,Chavães,Douro,309,2025-08-28T14:29:00Z,25911099,Em Resolução/Conclusão,3103,Incêndio rural,0,9,0,30,2025-08-28T14:29:00Z,Tabuaço,Viseu,Norte,-7.553807,41.09554,Resolução/Conclusão
25911281,Moimenta de Maceira Dão e Lobelhe do Mato,Viseu Dão Lafões,310,2025-08-28T15:09:00Z,25911281,Em Resolução/Conclusão,3103,Incêndio rural,0,26,0,82,2025-08-28T15:09:00Z,Mangualde,Viseu,Centro,-7.835496,40.578377,Resolução/Conclusão
25846480,Sabugal e Aldeia de Santo António,Beiras e Serra da Estrela,310,2025-08-15T14:41:00Z,25846480,Em Resolução/Conclusão,3103,Incêndio rural,0,11,0,33,2025-08-15T14:41:00Z,Sabugal,Guarda,Centro,-7.125037,40.34023,Resolução/Conclusão
25851895,Sortelha,Beiras e Serra da Estrela,310,2025-08-16T14:53:00Z,25851895,Em Resolução/Conclusão,3103,Incêndio rural,0,3,0,15,2025-08-16T14:53:00Z,Sabugal,Guarda,Centro,-7.254367,40.318488,Resolução/Conclusão
25910055,Rebordelo,Terras de Trás-os-Montes,309,2025-08-28T11:08:00Z,25910055,Em Curso,3103,Incêndio rural,0,131,0,389,2025-08-28T11:08:00Z,Vinhais,Bragança,Norte,-7.134773,41.765422,Curso
25911105,"Requeixo, Nossa Senhora de Fátima e Nariz",Região de Aveiro,310,2025-08-28T14:36:00Z,25911105,Em Resolução/Conclusão,3101,Incêndio rural,0,14,0,42,2025-08-28T14:36:00Z,Aveiro,Aveiro,Centro,-8.555615,40.599955,Resolução/Conclusão
