id,address,subregion,neighborhood,date,id.1,state,nature,nature_description,aerial_means,terrestrial_means,aquatic_means,operational,date.1,Concelho,Distrito,NUTII_DSG,longitude,latitude
24914160,Nazaré,Oeste,311,2025-02-04T13:38:00Z,24914160,Em curso,3321,Dano na rede de fornecimento de eletricidade ,0,3,0,5,2025-02-04T13:38:00Z,Nazaré,Leiria,Centro,-9.062127,39.596083
24877003,Malagueira e Horta Das Figueiras,Alentejo Central,312,2025-01-27T11:41:00Z,24877003,Em conclusão,3315,Inundação de estruturas por precipitação intensa,0,0,0,0,2025-01-27T11:41:00Z,Évora,Évora,Alentejo,-7.924277,38.57285
24913301,São João Baptista,Médio Tejo,311,2025-02-04T10:40:00Z,24913301,Em despacho,3301,Queda de árvore,0,1,0,1,2025-02-04T10:40:00Z,Entroncamento,Santarém,Centro,-8.472394,39.461503
24914430,"Oeiras e S. Julião da Barra, Paço de Arcos e Caxias",Grande Lisboa,311,2025-02-04T14:27:00Z,24914430,Em curso,3317,Inundação de estruturas por água canalizada,0,1,0,2,2025-02-04T14:27:00Z,Oeiras,Lisboa,Área Metropolitana De Lisboa,-9.290593,38.696925
24914473,Gulpilhares e Valadares,Area M. Porto,309,2025-02-04T14:35:00Z,24914473,Em despacho,3301,Queda de árvore,0,1,0,5,2025-02-04T14:35:00Z,Vila Nova De Gaia,Porto,Norte,-8.637978,41.084091
