id,address,subregion,neighborhood,date,id.1,state,nature,nature_description,aerial_means,terrestrial_means,aquatic_means,operational,date.1,Concelho,Distrito,NUTII_DSG,longitude,latitude
25056922,Bougado (São Martinho e Santiago),Area M. Porto,309,2025-01-22T10:38:00Z,25056922,Em despacho,1101,Cheia,0,0,0,0,2025-01-22T10:38:00Z,Trofa,Porto,Norte,-8.558796,41.329536
25057015,Santa Maria do Castelo e Santiago e Santa Susana,Alentejo Litoral,312,2025-03-08T10:20:00Z,25057015,Em curso,1101,Cheia,0,2,0,3,2025-03-08T10:20:00Z,Alcácer Do Sal,Setúbal,Alentejo,-8.432801,38.398147
25057228,Carregueira,Lezíria do Tejo,311,2025-03-08T11:12:00Z,25057228,Em despacho,3313,Deslizamento de terras,0,1,0,1,2025-03-08T11:12:00Z,Chamusca,Santarém,Alentejo,-8.411811,39.421134
25060452,Torrão,Alentejo Litoral,312,2025-03-09T06:05:00Z,25060452,Em resolução,3301,Queda de árvore,0,4,0,8,2025-03-09T06:05:00Z,Alcácer Do Sal,Setúbal,Alentejo,-8.220052,38.272115
25060516,Colares,Grande Lisboa,311,2025-03-09T06:53:00Z,25060516,Em despacho,3301,Queda de árvore,0,1,0,3,2025-03-09T06:53:00Z,Sintra,Lisboa,Área Metropolitana De Lisboa,-9.432326,38.780106
