id,address,subregion,neighborhood,date,id.1,state,nature,nature_description,aerial_means,terrestrial_means,aquatic_means,operational,date.1,Concelho,Distrito,NUTII_DSG,longitude,latitude,state_2
25712338,Cercal,Alentejo Litoral,312,2025-07-21T17:38:00Z,25712338,Em Resolução/Conclusão,3103,Incêndio rural,0,24,0,60,2025-07-21T17:38:00Z,Santiago Do Cacém,Setúbal,Alentejo,-8.682272,37.791582,Resolução/Conclusão
25714211,Gondemaria e Olival,Médio Tejo,311,2025-07-22T07:18:00Z,25714211,Em Resolução/Conclusão,3101,Incêndio rural,0,5,0,22,2025-07-22T07:18:00Z,Ourém,Santarém,Centro,-8.626446,39.720343,Resolução/Conclusão
25708284,Bogas de Cima,Beiras e Serra da Estrela,310,2025-07-20T21:26:00Z,25708284,Em Resolução/Conclusão,3103,Incêndio rural,0,1,0,5,2025-07-20T21:26:00Z,Fundão,Castelo Branco,Centro,-7.707703,40.064562,Resolução/Conclusão
25714217,Benfica do Ribatejo,Lezíria do Tejo,311,2025-07-22T07:21:00Z,25714217,Em Resolução/Conclusão,3103,Incêndio rural,0,2,0,7,2025-07-22T07:21:00Z,Almeirim,Santarém,Alentejo,-8.688346,39.147223,Resolução/Conclusão
25711397,Vale da Pedra,Lezíria do Tejo,311,2025-07-21T14:16:00Z,25711397,Em Resolução/Conclusão,3103,Incêndio rural,0,0,0,0,2025-07-21T14:16:00Z,Cartaxo,Santarém,Alentejo,-8.783137,39.110872,Resolução/Conclusão
25714112,Fregim,Tâmega e Sousa,309,2025-07-22T06:11:00Z,25714112,Em Resolução/Conclusão,3103,Incêndio rural,0,2,0,7,2025-07-22T06:11:00Z,Amarante,Porto,Norte,-8.129855,41.278348,Resolução/Conclusão
25714121,Souto Maior,Douro,309,2025-07-22T06:24:00Z,25714121,Em Resolução/Conclusão,3103,Incêndio rural,0,1,0,5,2025-07-22T06:24:00Z,Sabrosa,Vila Real,Norte,-7.592063,41.285112,Resolução/Conclusão
25714248,Oliveira do Bairro,Região de Aveiro,310,2025-07-22T07:21:00Z,25714248,Em Despacho,3105,Incêndio rural,0,2,0,7,2025-07-22T07:21:00Z,Oliveira Do Bairro,Aveiro,Centro,-8.516619,40.517781,Despacho
