id,address,subregion,neighborhood,date,id.1,state,nature,nature_description,aerial_means,terrestrial_means,aquatic_means,operational,date.1,Concelho,Distrito,NUTII_DSG,longitude,latitude,state_2
26155442,Perre,Alto Minho,309,2025-10-18T12:54:00Z,26155442,Em Resolução/Conclusão,3103,Incêndio rural,0,4,0,10,2025-10-18T12:54:00Z,Viana Do Castelo,Viana Do Castelo,Norte,-8.779695,41.728362,Resolução/Conclusão
26155977,Vila de Punhe,Alto Minho,309,2025-10-18T14:46:00Z,26155977,Em Resolução/Conclusão,3103,Incêndio rural,0,2,0,5,2025-10-18T14:46:00Z,Viana Do Castelo,Viana Do Castelo,Norte,-8.733431,41.658607,Resolução/Conclusão
26156244,"Real, Ataíde e Oliveira",Tâmega e Sousa,309,2025-10-18T15:35:00Z,26156244,Em Resolução/Conclusão,3103,Incêndio rural,1,10,0,37,2025-10-18T15:35:00Z,Amarante,Porto,Norte,-8.171672,41.257368,Resolução/Conclusão
26156294,Calde,Viseu Dão Lafões,310,2025-10-18T15:50:00Z,26156294,Em Resolução/Conclusão,3101,Incêndio rural,4,15,0,63,2025-10-18T15:50:00Z,Viseu,Viseu,Centro,-7.940081,40.763201,Resolução/Conclusão
26156345,Pombeiro de Ribavizela,Tâmega e Sousa,309,2025-10-18T16:05:00Z,26156345,Em Resolução/Conclusão,3103,Incêndio rural,0,3,0,11,2025-10-18T16:05:00Z,Felgueiras,Porto,Norte,-8.20431,41.383348,Resolução/Conclusão
26156678,"Bustos, Troviscal e Mamarrosa",Região de Aveiro,310,2025-10-18T17:18:00Z,26156678,Em Despacho,3111,Queima,0,1,0,4,2025-10-18T17:18:00Z,Oliveira Do Bairro,Aveiro,Centro,-8.579061,40.503148,Despacho
26155924,Baguim do Monte (Rio Tinto),Area M. Porto,309,2025-10-18T14:34:00Z,26155924,Em Resolução/Conclusão,3103,Incêndio rural,0,5,0,15,2025-10-18T14:34:00Z,Gondomar,Porto,Norte,-8.53429,41.19883,Resolução/Conclusão
26156024,Ameixial,Algarve,313,2025-10-18T14:54:00Z,26156024,Em Resolução/Conclusão,3103,Incêndio rural,0,3,0,7,2025-10-18T14:54:00Z,Loulé,Faro,Algarve,-7.970529,37.357485,Resolução/Conclusão
26156099,Sangalhos,Região de Aveiro,310,2025-10-18T15:06:00Z,26156099,Em Resolução/Conclusão,3105,Incêndio rural,0,3,0,9,2025-10-18T15:06:00Z,Anadia,Aveiro,Centro,-8.49061,40.475507,Resolução/Conclusão
26156265,Viade de Baixo e Fervidelas,Alto Tâmega e Barroso,309,2025-10-18T15:45:00Z,26156265,Em Curso,3103,Incêndio rural,0,8,0,34,2025-10-18T15:45:00Z,Montalegre,Vila Real,Norte,-7.834732,41.773632,Curso
26156349,Castedo e Cotas,Douro,309,2025-10-18T16:05:00Z,26156349,Em Resolução/Conclusão,3103,Incêndio rural,0,4,0,17,2025-10-18T16:05:00Z,Alijó,Vila Real,Norte,-7.452003,41.228702,Resolução/Conclusão
26156383,"Torres Novas (Santa Maria, Salvador e Santiago)",Médio Tejo,311,2025-10-18T16:13:00Z,26156383,Em Resolução/Conclusão,3111,Queima,0,0,0,0,2025-10-18T16:13:00Z,Torres Novas,Santarém,Centro,-8.53274,39.44609,Resolução/Conclusão
26155589,"Real, Ataíde e Oliveira",Tâmega e Sousa,309,2025-10-18T13:29:00Z,26155589,Em Resolução/Conclusão,3103,Incêndio rural,0,3,0,9,2025-10-18T13:29:00Z,Amarante,Porto,Norte,-8.188419,41.24405,Resolução/Conclusão
26155825,Sobreira,Area M. Porto,309,2025-10-18T14:16:00Z,26155825,Em Resolução/Conclusão,3103,Incêndio rural,0,1,0,2,2025-10-18T14:16:00Z,Paredes,Porto,Norte,-8.39087,41.15349,Resolução/Conclusão
26156059,Sesimbra (Castelo),Península de Setúbal,311,2025-10-18T15:00:00Z,26156059,Em Resolução/Conclusão,3103,Incêndio rural,0,4,0,11,2025-10-18T15:00:00Z,Sesimbra,Setúbal,Área Metropolitana De Lisboa,-9.137729,38.450619,Resolução/Conclusão
26156114,Tornada e Salir do Porto,Oeste,311,2025-10-18T15:12:00Z,26156114,Em Resolução/Conclusão,3101,Incêndio rural,0,10,0,31,2025-10-18T15:12:00Z,Caldas Da Rainha,Leiria,Centro,-9.15226,39.43258,Resolução/Conclusão
26156325,Maiorca,Região de Coimbra,310,2025-10-18T16:00:00Z,26156325,Em Resolução/Conclusão,3105,Incêndio rural,0,1,0,2,2025-10-18T16:00:00Z,Figueira Da Foz,Coimbra,Centro,-8.75278,40.18833,Resolução/Conclusão
26156391,Quirás e Pinheiro Novo,Terras de Trás-os-Montes,309,2025-10-18T16:17:00Z,26156391,Em Resolução/Conclusão,3103,Incêndio rural,0,2,0,7,2025-10-18T16:17:00Z,Vinhais,Bragança,Norte,-7.177638,41.971137,Resolução/Conclusão
26156448,Balazar,Area M. Porto,309,2025-10-18T16:26:00Z,26156448,Em Resolução/Conclusão,3103,Incêndio rural,0,1,0,3,2025-10-18T16:26:00Z,Póvoa De Varzim,Porto,Norte,-8.645758,41.41671,Resolução/Conclusão
26155653,Rio Douro,Ave,309,2025-10-18T13:45:00Z,26155653,Em Resolução/Conclusão,3103,Incêndio rural,0,2,0,10,2025-10-18T13:45:00Z,Cabeceiras De Basto,Braga,Norte,-7.913402,41.58015,Resolução/Conclusão
26156036,Vila Nova de São Bento e Vale de Vargo,Baixo Alentejo,312,2025-10-18T14:58:00Z,26156036,Em Resolução/Conclusão,3105,Incêndio rural,0,10,0,28,2025-10-18T14:58:00Z,Serpa,Beja,Alentejo,-7.379152,37.882523,Resolução/Conclusão
26156670,Nossa Senhora da Expectação,Alto Alentejo,312,2025-10-18T17:17:00Z,26156670,Em Resolução/Conclusão,3105,Incêndio rural,0,2,0,7,2025-10-18T17:17:00Z,Campo Maior,Portalegre,Alentejo,-7.063944,39.014855,Resolução/Conclusão
26156753,Alhadas,Região de Coimbra,310,2025-10-18T17:34:00Z,26156753,Em Despacho,3105,Incêndio rural,0,1,0,5,2025-10-18T17:34:00Z,Figueira Da Foz,Coimbra,Centro,-8.780299,40.205914,Despacho
26156632,Arcozelo,Beiras e Serra da Estrela,310,2025-10-18T17:07:00Z,26156632,Em Resolução/Conclusão,3103,Incêndio rural,0,3,0,9,2025-10-18T17:07:00Z,Gouveia,Guarda,Centro,-7.634187,40.536978,Resolução/Conclusão
26156440,Campo e Campinho,Alentejo Central,312,2025-10-18T16:13:00Z,26156440,Em Resolução/Conclusão,3105,Incêndio rural,0,4,0,11,2025-10-18T16:13:00Z,Reguengos De Monsaraz,Évora,Alentejo,-7.532907,38.35597,Resolução/Conclusão
26156442,"Torres Novas (Santa Maria, Salvador e Santiago)",Médio Tejo,311,2025-10-18T16:23:00Z,26156442,Em Resolução/Conclusão,3103,Incêndio rural,0,2,0,7,2025-10-18T16:23:00Z,Torres Novas,Santarém,Centro,-8.53274,39.44609,Resolução/Conclusão
26156549,Moledo,Viseu Dão Lafões,310,2025-10-18T16:45:00Z,26156549,Em Resolução/Conclusão,3103,Incêndio rural,0,3,0,15,2025-10-18T16:45:00Z,Castro Daire,Viseu,Centro,-7.879023,40.821077,Resolução/Conclusão
26156574,Alhadas,Região de Coimbra,310,2025-10-18T16:52:00Z,26156574,Em Resolução/Conclusão,3101,Incêndio rural,0,1,0,3,2025-10-18T16:52:00Z,Figueira Da Foz,Coimbra,Centro,-8.754428,40.202454,Resolução/Conclusão
26156674,Alhadas,Região de Coimbra,310,2025-10-18T17:15:00Z,26156674,Em Despacho,3105,Incêndio rural,0,5,0,18,2025-10-18T17:15:00Z,Figueira Da Foz,Coimbra,Centro,-8.824783,40.191247,Despacho
26156683,Tourém,Alto Tâmega e Barroso,309,2025-10-18T17:20:00Z,26156683,Em Despacho,3103,Incêndio rural,0,2,0,7,2025-10-18T17:20:00Z,Montalegre,Vila Real,Norte,-7.896915,41.909333,Despacho
