id,address,subregion,neighborhood,date,id.1,state,nature,nature_description,aerial_means,terrestrial_means,aquatic_means,operational,date.1,Concelho,Distrito,NUTII_DSG,longitude,latitude,state_2
25611301,"Algodres, Vale de Afonsinho e Vilar de Amargo",Beiras e Serra da Estrela,310,2025-07-01T19:25:00Z,25611301,Em Resolução/Conclusão,3103,Incêndio rural,0,1,0,5,2025-07-01T19:25:00Z,Figueira De Castelo Rodrigo,Guarda,Centro,-7.002512,40.960853,Resolução/Conclusão
25618855,Oldrões,Tâmega e Sousa,309,2025-07-03T09:10:00Z,25618855,Em Resolução/Conclusão,3103,Incêndio rural,0,2,0,10,2025-07-03T09:10:00Z,Penafiel,Porto,Norte,-8.29243,41.15247,Resolução/Conclusão
25620459,São Salvador da Aramenha,Alto Alentejo,312,2025-07-03T13:44:00Z,25620459,Em Resolução/Conclusão,3101,Incêndio rural,0,2,0,7,2025-07-03T13:44:00Z,Marvão,Portalegre,Alentejo,-7.410033,39.365023,Resolução/Conclusão
25620611,Azeitão (São Lourenço e São Simão),Península de Setúbal,311,2025-07-03T14:12:00Z,25620611,Em Resolução/Conclusão,3105,Incêndio rural,0,7,0,26,2025-07-03T14:12:00Z,Setúbal,Setúbal,Área Metropolitana De Lisboa,-9.000776,38.528822,Resolução/Conclusão
25599382,Almaceda,Beira Baixa,310,2025-06-29T17:03:00Z,25599382,Em Resolução/Conclusão,3101,Incêndio rural,0,7,0,25,2025-06-29T17:03:00Z,Castelo Branco,Castelo Branco,Centro,-7.645695,39.962858,Resolução/Conclusão
25620674,Nossa Senhora Das Misericórdias,Médio Tejo,311,2025-07-03T14:23:00Z,25620674,Em Resolução/Conclusão,3101,Incêndio rural,0,10,0,38,2025-07-03T14:23:00Z,Ourém,Santarém,Centro,-8.570353,39.64772,Resolução/Conclusão
25620681,Côja e Barril de Alva,Região de Coimbra,310,2025-07-03T14:20:00Z,25620681,Em Curso,3103,Incêndio rural,0,0,0,0,2025-07-03T14:20:00Z,Arganil,Coimbra,Centro,-7.994385,40.270689,Curso
25620790,Beja (Salvador e Santa Maria da Feira),Baixo Alentejo,312,2025-07-03T14:43:00Z,25620790,Em Resolução/Conclusão,3103,Incêndio rural,0,5,0,18,2025-07-03T14:43:00Z,Beja,Beja,Alentejo,-7.86332,38.02806,Resolução/Conclusão
25620822,Travanca,Tâmega e Sousa,309,2025-07-03T14:48:00Z,25620822,Em Despacho,3103,Incêndio rural,1,3,0,21,2025-07-03T14:48:00Z,Amarante,Porto,Norte,-8.191621,41.278404,Despacho
25620662,Alfena,Area M. Porto,309,2025-07-03T14:08:00Z,25620662,Em Despacho,3103,Incêndio rural,0,1,0,5,2025-07-03T14:08:00Z,Valongo,Porto,Norte,-8.523192,41.237236,Despacho
25620726,"Areias, Sequeiró, Lama e Palmeira",Area M. Porto,309,2025-07-03T14:24:00Z,25620726,Em Resolução/Conclusão,3103,Incêndio rural,0,3,0,12,2025-07-03T14:24:00Z,Santo Tirso,Porto,Norte,-8.476147,41.364343,Resolução/Conclusão
25620336,Baguim do Monte (Rio Tinto),Area M. Porto,309,2025-07-03T13:10:00Z,25620336,Em Resolução/Conclusão,3103,Incêndio rural,0,2,0,5,2025-07-03T13:10:00Z,Gondomar,Porto,Norte,-8.525955,41.197223,Resolução/Conclusão
25620835,Recarei,Area M. Porto,309,2025-07-03T14:40:00Z,25620835,Em Curso,3103,Incêndio rural,1,3,0,18,2025-07-03T14:40:00Z,Paredes,Porto,Norte,-8.427998,41.160472,Curso
25605147,Vale do Côa,Beiras e Serra da Estrela,310,2025-06-30T17:42:00Z,25605147,Em Resolução/Conclusão,3103,Incêndio rural,0,2,0,5,2025-06-30T17:42:00Z,Pinhel,Guarda,Centro,-7.114995,40.946045,Resolução/Conclusão
25610143,Nossa Senhora Das Misericórdias,Médio Tejo,311,2025-07-01T15:32:00Z,25610143,Em Resolução/Conclusão,3103,Incêndio rural,0,0,0,0,2025-07-01T15:32:00Z,Ourém,Santarém,Centro,-8.600277,39.655883,Resolução/Conclusão
25620107,Oliveira (Santa Maria),Ave,309,2025-07-03T12:37:00Z,25620107,Em Resolução/Conclusão,3103,Incêndio rural,0,2,0,5,2025-07-03T12:37:00Z,Vila Nova De Famalicão,Braga,Norte,-8.402107,41.406152,Resolução/Conclusão
25620464,Cativelos,Beiras e Serra da Estrela,310,2025-07-03T13:45:00Z,25620464,Em Resolução/Conclusão,3103,Incêndio rural,0,5,0,15,2025-07-03T13:45:00Z,Gouveia,Guarda,Centro,-7.704635,40.546025,Resolução/Conclusão
25620525,Castro Daire,Viseu Dão Lafões,310,2025-07-03T13:58:00Z,25620525,Em Resolução/Conclusão,3103,Incêndio rural,0,5,0,16,2025-07-03T13:58:00Z,Castro Daire,Viseu,Centro,-7.930275,40.907077,Resolução/Conclusão
25620664,Côja e Barril de Alva,Região de Coimbra,310,2025-07-03T14:22:00Z,25620664,Em Curso,3101,Incêndio rural,8,49,0,203,2025-07-03T14:22:00Z,Arganil,Coimbra,Centro,-7.95667,40.2725,Curso
25620914,Arões (São Romão),Ave,309,2025-07-03T15:01:00Z,25620914,Em Despacho,3105,Incêndio rural,0,2,0,9,2025-07-03T15:01:00Z,Fafe,Braga,Norte,-8.220707,41.45745,Despacho
