id,address,subregion,neighborhood,date,id.1,state,nature,nature_description,aerial_means,terrestrial_means,aquatic_means,operational,date.1,Concelho,Distrito,NUTII_DSG,longitude,latitude,state_2
25785983,Caçarilhe e Infesta,Tâmega e Sousa,309,2025-08-04T18:22:00Z,25785983,Em Resolução/Conclusão,3103,Incêndio rural,0,2,0,6,2025-08-04T18:22:00Z,Celorico De Basto,Braga,Norte,-8.04611,41.419858,Resolução/Conclusão
25792058,Cibões e Brufe,Cávado,309,2025-08-05T19:10:00Z,25792058,Em Resolução/Conclusão,3103,Incêndio rural,0,1,0,5,2025-08-05T19:10:00Z,Terras De Bouro,Braga,Norte,-8.293932,41.764918,Resolução/Conclusão
25820422,Távora e Pereiro,Douro,309,2025-08-10T22:27:00Z,25820422,Em Curso,3103,Incêndio rural,0,91,0,285,2025-08-10T22:27:00Z,Tabuaço,Viseu,Norte,-7.55556,41.097602,Curso
25822776,Santos Evos,Viseu Dão Lafões,310,2025-08-11T11:05:00Z,25822776,Em Resolução/Conclusão,3103,Incêndio rural,0,1,0,5,2025-08-11T11:05:00Z,Viseu,Viseu,Centro,-7.810218,40.667813,Resolução/Conclusão
25830257,Vila Alva,Baixo Alentejo,312,2025-08-12T16:21:00Z,25830257,Em Resolução/Conclusão,3103,Incêndio rural,0,42,0,113,2025-08-12T16:21:00Z,Cuba,Beja,Alentejo,-7.870563,38.233373,Resolução/Conclusão
25831936,Tortosendo,Beiras e Serra da Estrela,310,2025-08-12T22:24:00Z,25831936,Em Resolução/Conclusão,3103,Incêndio rural,0,0,0,0,2025-08-12T22:24:00Z,Covilhã,Castelo Branco,Centro,-7.528427,40.250968,Resolução/Conclusão
25832404,Ala e Vilarinho do Monte,Terras de Trás-os-Montes,309,2025-08-13T01:25:00Z,25832404,Em Curso,3103,Incêndio rural,0,15,0,48,2025-08-13T01:25:00Z,Macedo De Cavaleiros,Bragança,Norte,-7.101645,41.632283,Curso
25832620,Nogueira do Cravo,Região de Coimbra,310,2025-08-13T04:19:00Z,25832620,Em Resolução/Conclusão,3101,Incêndio rural,0,3,0,12,2025-08-13T04:19:00Z,Oliveira Do Hospital,Coimbra,Centro,-7.90602,40.327285,Resolução/Conclusão
25832672,Piódão,Região de Coimbra,310,2025-08-13T05:08:00Z,25832672,Em Despacho,3103,Incêndio rural,0,17,0,78,2025-08-13T05:08:00Z,Arganil,Coimbra,Centro,-7.8254,40.22948,Despacho
25832706,Manteigas (São Pedro),Beiras e Serra da Estrela,310,2025-08-13T05:35:00Z,25832706,Em Despacho,3101,Incêndio rural,0,5,0,19,2025-08-13T05:35:00Z,Manteigas,Guarda,Centro,-7.537096,40.398921,Despacho
25775263,Torgueda,Douro,309,2025-08-02T19:49:00Z,25775263,Em Resolução/Conclusão,3101,Incêndio rural,0,6,0,19,2025-08-02T19:49:00Z,Vila Real,Vila Real,Norte,-7.785983,41.274952,Resolução/Conclusão
25807426,Alvite,Douro,309,2025-08-08T14:31:00Z,25807426,Em Resolução/Conclusão,3103,Incêndio rural,0,19,0,77,2025-08-08T14:31:00Z,Moimenta Da Beira,Viseu,Norte,-7.688727,40.96613,Resolução/Conclusão
25826678,Landal,Oeste,311,2025-08-12T00:07:00Z,25826678,Em Resolução/Conclusão,3101,Incêndio rural,0,1,0,2,2025-08-12T00:07:00Z,Caldas Da Rainha,Leiria,Centro,-9.020722,39.295158,Resolução/Conclusão
25829740,NA,NA,0,2025-08-12T14:44:00Z,25829740,Em Curso,3103,Incêndio rural,0,2,0,7,2025-08-12T14:44:00Z,NA,NA,NA,-7.03798,42.004282,Curso
25830104,Campo,Viseu Dão Lafões,310,2025-08-12T15:50:00Z,25830104,Em Resolução/Conclusão,3103,Incêndio rural,0,0,0,0,2025-08-12T15:50:00Z,Viseu,Viseu,Centro,-7.924696,40.705094,Resolução/Conclusão
25832589,Estreito-Vilar Barroco,Beira Baixa,310,2025-08-13T03:47:00Z,25832589,Em Resolução/Conclusão,3101,Incêndio rural,0,10,0,37,2025-08-13T03:47:00Z,Oleiros,Castelo Branco,Centro,-7.784128,39.916948,Resolução/Conclusão
25832619,Coronado (São Romão e São Mamede),Area M. Porto,309,2025-08-13T04:19:00Z,25832619,Em Resolução/Conclusão,3103,Incêndio rural,0,3,0,10,2025-08-13T04:19:00Z,Trofa,Porto,Norte,-8.573077,41.2849,Resolução/Conclusão
25832673,Vide e Cabeça,Beiras e Serra da Estrela,310,2025-08-13T05:14:00Z,25832673,Em Despacho,3103,Incêndio rural,0,7,0,21,2025-08-13T05:14:00Z,Seia,Guarda,Centro,-7.78643,40.28577,Despacho
25773830,Andrães,Douro,309,2025-08-02T14:23:00Z,25773830,Em Resolução/Conclusão,3103,Incêndio rural,0,0,0,0,2025-08-02T14:23:00Z,Vila Real,Vila Real,Norte,-7.671293,41.267593,Resolução/Conclusão
25774883,Arnóia,Tâmega e Sousa,309,2025-08-02T18:20:00Z,25774883,Em Resolução/Conclusão,3103,Incêndio rural,0,2,0,6,2025-08-02T18:20:00Z,Celorico De Basto,Braga,Norte,-7.998983,41.348727,Resolução/Conclusão
25804968,Alvadia,Alto Tâmega e Barroso,309,2025-08-08T07:21:00Z,25804968,Em Resolução/Conclusão,3103,Incêndio rural,0,2,0,7,2025-08-08T07:21:00Z,Ribeira De Pena,Vila Real,Norte,-7.782872,41.457452,Resolução/Conclusão
25818455,Sobral de São Miguel,Beiras e Serra da Estrela,310,2025-08-10T15:02:00Z,25818455,Em Resolução/Conclusão,3103,Incêndio rural,0,95,0,274,2025-08-10T15:02:00Z,Covilhã,Castelo Branco,Centro,-7.77307,40.200173,Resolução/Conclusão
25830417,Sezures,Viseu Dão Lafões,310,2025-08-12T16:50:00Z,25830417,Em Resolução/Conclusão,3101,Incêndio rural,0,0,0,0,2025-08-12T16:50:00Z,Penalva Do Castelo,Viseu,Centro,-7.601704,40.72072,Resolução/Conclusão
25832474,Cercosa,Região de Coimbra,310,2025-08-13T02:19:00Z,25832474,Em Resolução/Conclusão,3103,Incêndio rural,0,12,0,36,2025-08-13T02:19:00Z,Mortágua,Viseu,Centro,-8.2625,40.33833,Resolução/Conclusão
25832608,Vila Boa de Quires e Maureles,Tâmega e Sousa,309,2025-08-13T04:06:00Z,25832608,Em Resolução/Conclusão,3103,Incêndio rural,0,1,0,5,2025-08-13T04:06:00Z,Marco De Canaveses,Porto,Norte,-8.202805,41.210432,Resolução/Conclusão
25776263,"Pena, Quintã e Vila Cova",Douro,309,2025-08-02T23:45:00Z,25776263,Em Curso,3103,Incêndio rural,0,154,0,466,2025-08-02T23:45:00Z,Vila Real,Vila Real,Norte,-7.811902,41.317355,Curso
25813482,Freches e Torres,Beiras e Serra da Estrela,310,2025-08-09T16:21:00Z,25813482,Em Curso,3103,Incêndio rural,0,164,0,487,2025-08-09T16:21:00Z,Trancoso,Guarda,Centro,-7.363745,40.709022,Curso
25824945,Povolide,Viseu Dão Lafões,310,2025-08-11T17:17:00Z,25824945,Em Resolução/Conclusão,3103,Incêndio rural,0,0,0,0,2025-08-11T17:17:00Z,Viseu,Viseu,Centro,-7.79583,40.660003,Resolução/Conclusão
25830279,"Pena, Quintã e Vila Cova",Douro,309,2025-08-12T16:21:00Z,25830279,Em Resolução/Conclusão,3103,Incêndio rural,0,2,0,7,2025-08-12T16:21:00Z,Vila Real,Vila Real,Norte,-7.86331,41.318053,Resolução/Conclusão
25830378,Ermidas-Sado,Alentejo Litoral,312,2025-08-12T16:42:00Z,25830378,Em Resolução/Conclusão,3101,Incêndio rural,0,85,0,236,2025-08-12T16:42:00Z,Santiago Do Cacém,Setúbal,Alentejo,-8.404102,38.056457,Resolução/Conclusão
25830830,Podence e Santa Combinha,Terras de Trás-os-Montes,309,2025-08-12T18:14:00Z,25830830,Em Resolução/Conclusão,3103,Incêndio rural,0,2,0,7,2025-08-12T18:14:00Z,Macedo De Cavaleiros,Bragança,Norte,-6.926542,41.595166999999996,Resolução/Conclusão
25831615,Idanha-a-Nova e Alcafozes,Beira Baixa,310,2025-08-12T21:08:00Z,25831615,Em Resolução/Conclusão,3105,Incêndio rural,0,5,0,22,2025-08-12T21:08:00Z,Idanha-a-Nova,Castelo Branco,Centro,-7.227497,39.883522,Resolução/Conclusão
25831679,Monsanto e Idanha-a-Velha,Beira Baixa,310,2025-08-12T21:21:00Z,25831679,Em Resolução/Conclusão,3103,Incêndio rural,0,2,0,7,2025-08-12T21:21:00Z,Idanha-a-Nova,Castelo Branco,Centro,-7.143792,40.013767,Resolução/Conclusão
25831698,Cendufe,Alto Minho,309,2025-08-12T21:25:00Z,25831698,Em Curso,3103,Incêndio rural,0,10,0,36,2025-08-12T21:25:00Z,Arcos De Valdevez,Viana Do Castelo,Norte,-8.504462,41.817677,Curso
25832250,Ferreira de Aves,Viseu Dão Lafões,310,2025-08-13T00:03:00Z,25832250,Em Curso,3103,Incêndio rural,0,32,0,109,2025-08-13T00:03:00Z,Sátão,Viseu,Centro,-7.647793,40.79568,Curso
