id,address,subregion,neighborhood,date,id.1,state,nature,nature_description,aerial_means,terrestrial_means,aquatic_means,operational,date.1,Concelho,Distrito,NUTII_DSG,longitude,latitude,state_2
25681100,Sendim e Atenor,Terras de Trás-os-Montes,309,2025-07-15T11:45:00Z,25681100,Em Resolução/Conclusão,3103,Incêndio rural,0,2,0,7,2025-07-15T11:45:00Z,Miranda Do Douro,Bragança,Norte,-6.433873,41.404508,Resolução/Conclusão
25682037,"Aver-o-Mar, Amorim e Terroso",Area M. Porto,309,2025-07-15T14:47:00Z,25682037,Em Resolução/Conclusão,3103,Incêndio rural,0,3,0,8,2025-07-15T14:47:00Z,Póvoa De Varzim,Porto,Norte,-8.734177,41.422432,Resolução/Conclusão
25682254,Panque,Cávado,309,2025-07-15T15:31:00Z,25682254,Em Curso,3103,Incêndio rural,5,21,0,75,2025-07-15T15:31:00Z,Barcelos,Braga,Norte,-8.607035,41.626113,Curso
25682641,Serra de Santo António,Médio Tejo,311,2025-07-15T16:44:00Z,25682641,Em Resolução/Conclusão,3101,Incêndio rural,2,28,0,106,2025-07-15T16:44:00Z,Alcanena,Santarém,Centro,-8.744698,39.523725,Resolução/Conclusão
25682856,Nespereira,Tâmega e Sousa,309,2025-07-15T17:24:00Z,25682856,Em Resolução/Conclusão,3103,Incêndio rural,0,9,0,33,2025-07-15T17:24:00Z,Cinfães,Viseu,Norte,-8.180775,41.013885,Resolução/Conclusão
25682991,São Pedro,Região de Coimbra,310,2025-07-15T17:55:00Z,25682991,Em Resolução/Conclusão,3103,Incêndio rural,0,3,0,12,2025-07-15T17:55:00Z,Figueira Da Foz,Coimbra,Centro,-8.853578,40.129593,Resolução/Conclusão
25683023,Pegões,Península de Setúbal,311,2025-07-15T18:00:00Z,25683023,Em Despacho,3103,Incêndio rural,0,3,0,15,2025-07-15T18:00:00Z,Montijo,Setúbal,Área Metropolitana De Lisboa,-8.757197,38.690184,Despacho
25683057,Messejana,Baixo Alentejo,312,2025-07-15T18:10:00Z,25683057,Em Despacho,3105,Incêndio rural,0,4,0,13,2025-07-15T18:10:00Z,Aljustrel,Beja,Alentejo,-8.271683,37.844044,Despacho
25665133,Lindoso,Alto Minho,309,2025-07-12T02:50:00Z,25665133,Em Resolução/Conclusão,3103,Incêndio rural,0,4,0,17,2025-07-12T02:50:00Z,Ponte Da Barca,Viana Do Castelo,Norte,-8.224007,41.852543,Resolução/Conclusão
25677014,Alcórrego e Maranhão,Alto Alentejo,312,2025-07-14T15:07:00Z,25677014,Em Resolução/Conclusão,3101,Incêndio rural,0,11,0,37,2025-07-14T15:07:00Z,Avis,Portalegre,Alentejo,-7.895798,38.982193,Resolução/Conclusão
25682131,Borba de Montanha,Tâmega e Sousa,309,2025-07-15T15:07:00Z,25682131,Em Resolução/Conclusão,3103,Incêndio rural,0,4,0,14,2025-07-15T15:07:00Z,Celorico De Basto,Braga,Norte,-8.099957,41.379852,Resolução/Conclusão
25682680,Rebolosa,Beiras e Serra da Estrela,310,2025-07-15T16:53:00Z,25682680,Em Resolução/Conclusão,3103,Incêndio rural,0,0,0,0,2025-07-15T16:53:00Z,Sabugal,Guarda,Centro,-6.907108,40.421968,Resolução/Conclusão
25682051,Alfeizerão,Oeste,311,2025-07-15T14:50:00Z,25682051,Em Resolução/Conclusão,3111,Queima,0,0,0,0,2025-07-15T14:50:00Z,Alcobaça,Leiria,Centro,-9.111769,39.47104,Resolução/Conclusão
25682108,Lanhelas,Alto Minho,309,2025-07-15T15:02:00Z,25682108,Em Curso,3103,Incêndio rural,1,16,0,57,2025-07-15T15:02:00Z,Caminha,Viana Do Castelo,Norte,-8.783442,41.9107,Curso
25682969,São Bartolomeu de Messines,Algarve,313,2025-07-15T17:55:00Z,25682969,Em Resolução/Conclusão,3103,Incêndio rural,1,4,0,22,2025-07-15T17:55:00Z,Silves,Faro,Algarve,-8.260409,37.2019,Resolução/Conclusão
25682987,São João Baptista,Alto Alentejo,312,2025-07-15T17:57:00Z,25682987,Em Curso,3105,Incêndio rural,0,4,0,10,2025-07-15T17:57:00Z,Campo Maior,Portalegre,Alentejo,-7.075682,39.012942,Curso
25681114,"S. Mig. Pinheiro, S. Pedro Solis e S. Sebastião Carros",Baixo Alentejo,312,2025-07-15T11:44:00Z,25681114,Em Resolução/Conclusão,3105,Incêndio rural,0,1,0,5,2025-07-15T11:44:00Z,Mértola,Beja,Alentejo,-7.901305,37.480835,Resolução/Conclusão
25682332,Poiares,Alto Minho,309,2025-07-15T15:45:00Z,25682332,Em Resolução/Conclusão,3103,Incêndio rural,0,1,0,5,2025-07-15T15:45:00Z,Ponte De Lima,Viana Do Castelo,Norte,-8.633653,41.659273,Resolução/Conclusão
25682486,Balazar,Area M. Porto,309,2025-07-15T16:11:00Z,25682486,Em Resolução/Conclusão,3101,Incêndio rural,0,2,0,7,2025-07-15T16:11:00Z,Póvoa De Varzim,Porto,Norte,-8.624487,41.402142,Resolução/Conclusão
25682652,"Labrujó, Rendufe e Vilar do Monte",Alto Minho,309,2025-07-15T16:48:00Z,25682652,Em Resolução/Conclusão,3105,Incêndio rural,0,2,0,10,2025-07-15T16:48:00Z,Ponte De Lima,Viana Do Castelo,Norte,-8.556888,41.856642,Resolução/Conclusão
25682868,Sertã,Beira Baixa,310,2025-07-15T17:30:00Z,25682868,Em Curso,3101,Incêndio rural,4,34,0,136,2025-07-15T17:30:00Z,Sertã,Castelo Branco,Centro,-8.091141,39.817249,Curso
25683021,Vilar de Pinheiro,Area M. Porto,309,2025-07-15T18:04:00Z,25683021,Em Despacho,3103,Incêndio rural,0,2,0,10,2025-07-15T18:04:00Z,Vila Do Conde,Porto,Norte,-8.66521,41.26559,Despacho
25683009,Paredes de Viadores e Manhuncelos,Tâmega e Sousa,309,2025-07-15T18:05:00Z,25683009,Em Despacho,3103,Incêndio rural,2,5,0,35,2025-07-15T18:05:00Z,Marco De Canaveses,Porto,Norte,-8.1407,41.14688,Despacho
25683027,Valdosende,Cávado,309,2025-07-15T18:05:00Z,25683027,Em Despacho,3103,Incêndio rural,2,2,0,19,2025-07-15T18:05:00Z,Terras De Bouro,Braga,Norte,-8.22761,41.666101,Despacho
