id,address,subregion,neighborhood,date,id.1,state,nature,nature_description,aerial_means,terrestrial_means,aquatic_means,operational,date.1,Concelho,Distrito,NUTII_DSG,longitude,latitude
24817303,Condeixa-a-Velha e Condeixa-a-Nova,Região de Coimbra,310,2025-01-14T10:54:00Z,24817303,Em despacho,3301,Queda de árvore,0,2,0,5,2025-01-14T10:54:00Z,Condeixa-a-Nova,Coimbra,Centro,-8.492045,40.113509
24817670,"Cedofeita, Ildefonso, Sé, Miragaia, Nicolau e Vitória",Area M. Porto,309,2025-01-14T12:14:00Z,24817670,Em despacho,3329,Queda de estruturas temporárias ou móveis,0,1,0,5,2025-01-14T12:14:00Z,Porto,Porto,Norte,-8.62391,41.16571
24817036,Tendais,Tâmega e Sousa,309,2025-01-14T10:18:00Z,24817036,Em curso,3321,Dano na rede de fornecimento de eletricidade ,0,2,0,4,2025-01-14T10:18:00Z,Cinfães,Viseu,Norte,-8.04491,41.01581
24816705,"Marvila, Ribeira Santarém, S.salvador, S.nicolau",Lezíria do Tejo,311,2025-01-14T09:11:00Z,24816705,Em resolução,3309,Desabamento de estruturas edificadas,0,3,0,4,2025-01-14T09:11:00Z,Santarém,Santarém,Alentejo,-8.685158,39.230753
24817024,Luso,Região de Coimbra,310,2025-01-14T10:11:00Z,24817024,Em curso,3301,Queda de árvore,0,2,0,4,2025-01-14T10:11:00Z,Mealhada,Aveiro,Centro,-8.374551,40.387589
