id,address,subregion,neighborhood,date,id.1,state,nature,nature_description,aerial_means,terrestrial_means,aquatic_means,operational,date.1,Concelho,Distrito,NUTII_DSG,longitude,latitude,state_2
26109416,"Nogueira, Meixedo e Vilar de Murteda",Alto Minho,309,2025-10-09T08:38:00Z,26109416,Em Resolução/Conclusão,3101,Incêndio rural,0,4,0,15,2025-10-09T08:38:00Z,Viana Do Castelo,Viana Do Castelo,Norte,-8.719628,41.751532,Resolução/Conclusão
26110435,Ala e Vilarinho do Monte,Terras de Trás-os-Montes,309,2025-10-09T11:02:00Z,26110435,Em Resolução/Conclusão,3103,Incêndio rural,0,7,0,17,2025-10-09T11:02:00Z,Macedo De Cavaleiros,Bragança,Norte,-7.074403,41.591523,Resolução/Conclusão
26110669,Sande e São Lourenço,Tâmega e Sousa,309,2025-10-09T11:45:00Z,26110669,Em Resolução/Conclusão,3105,Incêndio rural,0,1,0,5,2025-10-09T11:45:00Z,Marco De Canaveses,Porto,Norte,-8.16512,41.122907,Resolução/Conclusão
26110905,Unhão e Lordelo,Tâmega e Sousa,309,2025-10-09T12:19:00Z,26110905,Em Resolução/Conclusão,3103,Incêndio rural,0,2,0,7,2025-10-09T12:19:00Z,Felgueiras,Porto,Norte,-8.226797,41.303023,Resolução/Conclusão
26110892,Chancelaria,Médio Tejo,311,2025-10-09T12:35:00Z,26110892,Em Despacho,3103,Incêndio rural,1,7,0,35,2025-10-09T12:35:00Z,Torres Novas,Santarém,Centro,-8.53307,39.5877,Despacho
26093602,Castro Daire,Viseu Dão Lafões,310,2025-10-05T22:05:00Z,26093602,Em Resolução/Conclusão,3103,Incêndio rural,0,0,0,0,2025-10-05T22:05:00Z,Castro Daire,Viseu,Centro,-7.9408,40.925289,Resolução/Conclusão
26110902,Salir de Matos,Oeste,311,2025-10-09T12:33:00Z,26110902,Em Despacho,3103,Incêndio rural,0,5,0,15,2025-10-09T12:33:00Z,Caldas Da Rainha,Leiria,Centro,-9.104059,39.430919,Despacho
