id,address,subregion,neighborhood,date,id.1,state,nature,nature_description,aerial_means,terrestrial_means,aquatic_means,operational,date.1,Concelho,Distrito,NUTII_DSG,longitude,latitude,state_2
25741525,Vela,Beiras e Serra da Estrela,310,2025-07-27T13:16:00Z,25741525,Em Resolução/Conclusão,3103,Incêndio rural,0,10,0,36,2025-07-27T13:16:00Z,Guarda,Guarda,Centro,-7.287277,40.438025,Resolução/Conclusão
25742045,"Milhazes, Vilar de Figos e Faria",Cávado,309,2025-07-27T15:09:00Z,25742045,Em Resolução/Conclusão,3103,Incêndio rural,0,1,0,4,2025-07-27T15:09:00Z,Barcelos,Braga,Norte,-8.675458,41.487573,Resolução/Conclusão
25742611,Ermidas-Sado,Alentejo Litoral,312,2025-07-27T17:30:00Z,25742611,Em Resolução/Conclusão,3105,Incêndio rural,0,1,0,2,2025-07-27T17:30:00Z,Santiago Do Cacém,Setúbal,Alentejo,-8.401263,38.049123,Resolução/Conclusão
25737642,Aboim da Nóbrega e Gondomar,Cávado,309,2025-07-26T17:54:00Z,25737642,Em Resolução/Conclusão,3103,Incêndio rural,0,6,0,24,2025-07-26T17:54:00Z,Vila Verde,Braga,Norte,-8.38607,41.734402,Resolução/Conclusão
25739123,Vale,Alto Minho,309,2025-07-26T23:23:00Z,25739123,Em Resolução/Conclusão,3103,Incêndio rural,0,8,0,32,2025-07-26T23:23:00Z,Arcos De Valdevez,Viana Do Castelo,Norte,-8.374215,41.83279,Resolução/Conclusão
25741940,"Aldeia do Bispo, Águas e Aldeia de João Pires",Beira Baixa,310,2025-07-27T14:45:00Z,25741940,Em Resolução/Conclusão,3105,Incêndio rural,0,8,0,29,2025-07-27T14:45:00Z,Penamacor,Castelo Branco,Centro,-7.213632,40.123598,Resolução/Conclusão
25742006,Roge,Area M. Porto,309,2025-07-27T15:03:00Z,25742006,Em Resolução/Conclusão,3103,Incêndio rural,0,1,0,5,2025-07-27T15:03:00Z,Vale De Cambra,Aveiro,Norte,-8.339362,40.865328,Resolução/Conclusão
25742163,Beiral do Lima,Alto Minho,309,2025-07-27T15:41:00Z,25742163,Em Resolução/Conclusão,3103,Incêndio rural,0,10,0,35,2025-07-27T15:41:00Z,Ponte De Lima,Viana Do Castelo,Norte,-8.492615,41.770398,Resolução/Conclusão
25742517,Pias,Alto Minho,309,2025-07-27T17:08:00Z,25742517,Em Curso,3103,Incêndio rural,0,19,0,59,2025-07-27T17:08:00Z,Monção,Viana Do Castelo,Norte,-8.503027,42.020505,Curso
25742681,"Esqueiros, Nevogilde e Travassós",Cávado,309,2025-07-27T17:50:00Z,25742681,Em Resolução/Conclusão,3103,Incêndio rural,0,1,0,2,2025-07-27T17:50:00Z,Vila Verde,Braga,Norte,-8.43976,41.666935,Resolução/Conclusão
25742851,Poiares e Canelas,Douro,309,2025-07-27T18:34:00Z,25742851,Em Resolução/Conclusão,3103,Incêndio rural,0,5,0,19,2025-07-27T18:34:00Z,Peso Da Régua,Vila Real,Norte,-7.724845,41.192663,Resolução/Conclusão
25742958,Oldrões,Tâmega e Sousa,309,2025-07-27T19:02:00Z,25742958,Em Resolução/Conclusão,3103,Incêndio rural,0,9,0,38,2025-07-27T19:02:00Z,Penafiel,Porto,Norte,-8.307408,41.150973,Resolução/Conclusão
25741031,Canha,Península de Setúbal,311,2025-07-27T11:16:00Z,25741031,Em Resolução/Conclusão,3103,Incêndio rural,0,1,0,5,2025-07-27T11:16:00Z,Montijo,Setúbal,Área Metropolitana De Lisboa,-8.648305,38.76538,Resolução/Conclusão
25741084,Moimenta e Montouto,Terras de Trás-os-Montes,309,2025-07-27T11:31:00Z,25741084,Em Resolução/Conclusão,3103,Incêndio rural,0,2,0,4,2025-07-27T11:31:00Z,Vinhais,Bragança,Norte,-6.981822,41.943852,Resolução/Conclusão
25741985,Assafarge e Antanhol,Região de Coimbra,310,2025-07-27T14:58:00Z,25741985,Em Resolução/Conclusão,3101,Incêndio rural,0,2,0,6,2025-07-27T14:58:00Z,Coimbra,Coimbra,Centro,-8.471196,40.166707,Resolução/Conclusão
25742518,Nogueira e Ermida,Douro,309,2025-07-27T17:08:00Z,25742518,Em Resolução/Conclusão,3103,Incêndio rural,0,3,0,9,2025-07-27T17:08:00Z,Vila Real,Vila Real,Norte,-7.735753,41.216252,Resolução/Conclusão
25742969,Santalha,Terras de Trás-os-Montes,309,2025-07-27T19:01:00Z,25742969,Em Resolução/Conclusão,3103,Incêndio rural,0,5,0,16,2025-07-27T19:01:00Z,Vinhais,Bragança,Norte,-7.158082,41.862533,Resolução/Conclusão
25743238,Nossa Senhora da Tourega e Nossa Senhora de Guadalupe,Alentejo Central,312,2025-07-27T20:17:00Z,25743238,Em Resolução/Conclusão,3103,Incêndio rural,0,4,0,10,2025-07-27T20:17:00Z,Évora,Évora,Alentejo,-8.067977,38.514918,Resolução/Conclusão
25743305,Pinheiro,Tâmega e Sousa,309,2025-07-27T20:17:00Z,25743305,Em Resolução/Conclusão,3103,Incêndio rural,0,1,0,5,2025-07-27T20:17:00Z,Felgueiras,Porto,Norte,-8.149057,41.366363,Resolução/Conclusão
25743474,Nossa Senhora da Expectação,Alto Alentejo,312,2025-07-27T21:13:00Z,25743474,Em Curso,3103,Incêndio rural,0,1,0,2,2025-07-27T21:13:00Z,Campo Maior,Portalegre,Alentejo,-6.966648,39.011265,Curso
25730832,Aveleda e Rio de Onor,Terras de Trás-os-Montes,309,2025-07-25T12:07:00Z,25730832,Em Resolução/Conclusão,3103,Incêndio rural,0,3,0,11,2025-07-25T12:07:00Z,Bragança,Bragança,Norte,-6.707873,41.891435,Resolução/Conclusão
25738747,Lindoso,Alto Minho,309,2025-07-26T21:47:00Z,25738747,Em Curso,3103,Incêndio rural,0,63,0,197,2025-07-26T21:47:00Z,Ponte Da Barca,Viana Do Castelo,Norte,-8.220528,41.865272,Curso
25741880,Benavila e Valongo,Alto Alentejo,312,2025-07-27T14:31:00Z,25741880,Em Resolução/Conclusão,3105,Incêndio rural,0,45,0,145,2025-07-27T14:31:00Z,Avis,Portalegre,Alentejo,-7.866293,39.19533,Resolução/Conclusão
25742073,Benavente,Lezíria do Tejo,311,2025-07-27T15:19:00Z,25742073,Em Resolução/Conclusão,3101,Incêndio rural,0,30,0,113,2025-07-27T15:19:00Z,Benavente,Santarém,Alentejo,-8.689273,38.926085,Resolução/Conclusão
25742877,Alpiarça,Lezíria do Tejo,311,2025-07-27T18:42:00Z,25742877,Em Resolução/Conclusão,3103,Incêndio rural,0,0,0,0,2025-07-27T18:42:00Z,Alpiarça,Santarém,Alentejo,-8.582338,39.30067,Resolução/Conclusão
25742993,Cervães,Cávado,309,2025-07-27T19:08:00Z,25742993,Em Resolução/Conclusão,3103,Incêndio rural,0,6,0,21,2025-07-27T19:08:00Z,Vila Verde,Braga,Norte,-8.524465,41.61316,Resolução/Conclusão
25743166,Miranda do Corvo,Região de Coimbra,310,2025-07-27T19:57:00Z,25743166,Em Resolução/Conclusão,3101,Incêndio rural,0,1,0,2,2025-07-27T19:57:00Z,Miranda Do Corvo,Coimbra,Centro,-8.30972,40.07528,Resolução/Conclusão
25743327,Souselo,Tâmega e Sousa,309,2025-07-27T20:38:00Z,25743327,Em Resolução/Conclusão,3103,Incêndio rural,0,3,0,9,2025-07-27T20:38:00Z,Cinfães,Viseu,Norte,-8.227012,41.073287,Resolução/Conclusão
25743391,"Sandim, Olival, Lever e Crestuma",Area M. Porto,309,2025-07-27T20:55:00Z,25743391,Em Resolução/Conclusão,3103,Incêndio rural,0,1,0,5,2025-07-27T20:55:00Z,Vila Nova De Gaia,Porto,Norte,-8.523467,41.08273,Resolução/Conclusão
25743418,Caparica e Trafaria,Península de Setúbal,311,2025-07-27T21:03:00Z,25743418,Em Despacho,3103,Incêndio rural,0,5,0,25,2025-07-27T21:03:00Z,Almada,Setúbal,Área Metropolitana De Lisboa,-9.201158,38.65535,Despacho
