id,address,subregion,neighborhood,date,id.1,state,nature,nature_description,aerial_means,terrestrial_means,aquatic_means,operational,date.1,Concelho,Distrito,NUTII_DSG,longitude,latitude,state_2
25749681,Fornos de Maceira Dão,Viseu Dão Lafões,310,2025-07-29T01:19:00Z,25749681,Em Resolução/Conclusão,3103,Incêndio rural,0,0,0,0,2025-07-29T01:19:00Z,Mangualde,Viseu,Centro,-7.806963,40.617022,Resolução/Conclusão
25750701,Capela,Tâmega e Sousa,309,2025-07-29T09:26:00Z,25750701,Em Curso,3103,Incêndio rural,0,68,0,238,2025-07-29T09:26:00Z,Penafiel,Porto,Norte,-8.345202,41.09353,Curso
25757286,Santa Marinha do Zêzere,Tâmega e Sousa,309,2025-07-30T12:52:00Z,25757286,Em Resolução/Conclusão,3103,Incêndio rural,0,6,0,21,2025-07-30T12:52:00Z,Baião,Porto,Norte,-7.950478,41.138624,Resolução/Conclusão
25757971,Ninho do Açor e Sobral do Campo,Beira Baixa,310,2025-07-30T14:54:00Z,25757971,Em Resolução/Conclusão,3101,Incêndio rural,0,1,0,3,2025-07-30T14:54:00Z,Castelo Branco,Castelo Branco,Centro,-7.569988,39.996368,Resolução/Conclusão
25762097,Odivelas,Baixo Alentejo,312,2025-07-31T11:08:00Z,25762097,Em Resolução/Conclusão,3105,Incêndio rural,0,0,0,0,2025-07-31T11:08:00Z,Ferreira Do Alentejo,Beja,Alentejo,-8.153908,38.163538,Resolução/Conclusão
25762916,Cota,Viseu Dão Lafões,310,2025-07-31T13:40:00Z,25762916,Em Resolução/Conclusão,3101,Incêndio rural,0,1,0,1,2025-07-31T13:40:00Z,Viseu,Viseu,Centro,-7.801223,40.780375,Resolução/Conclusão
25763119,Oliveira do Douro,Tâmega e Sousa,309,2025-07-31T14:27:00Z,25763119,Em Resolução/Conclusão,3103,Incêndio rural,0,0,0,0,2025-07-31T14:27:00Z,Cinfães,Viseu,Norte,-8.067568,41.08547,Resolução/Conclusão
25763768,São Cristóvão,Alentejo Central,312,2025-07-31T16:16:00Z,25763768,Em Resolução/Conclusão,3105,Incêndio rural,0,8,0,23,2025-07-31T16:16:00Z,Montemor-o-Novo,Évora,Alentejo,-8.24627,38.519177,Resolução/Conclusão
25764019,Mazarefes e Vila Fria,Alto Minho,309,2025-07-31T17:08:00Z,25764019,Em Resolução/Conclusão,3101,Incêndio rural,0,3,0,9,2025-07-31T17:08:00Z,Viana Do Castelo,Viana Do Castelo,Norte,-8.74717,41.653895,Resolução/Conclusão
25764122,Lustosa e Barrosas (Santo Estêvão),Tâmega e Sousa,309,2025-07-31T17:32:00Z,25764122,Em Resolução/Conclusão,3103,Incêndio rural,0,6,0,25,2025-07-31T17:32:00Z,Lousada,Porto,Norte,-8.318658,41.338565,Resolução/Conclusão
25764738,Monte Córdova,Area M. Porto,309,2025-07-31T19:50:00Z,25764738,Em Resolução/Conclusão,3103,Incêndio rural,0,3,0,12,2025-07-31T19:50:00Z,Santo Tirso,Porto,Norte,-8.410882,41.317342,Resolução/Conclusão
25764991,Ribafeita,Viseu Dão Lafões,310,2025-07-31T20:45:00Z,25764991,Em Resolução/Conclusão,3103,Incêndio rural,0,8,0,24,2025-07-31T20:45:00Z,Viseu,Viseu,Centro,-7.94864,40.74179,Resolução/Conclusão
25765106,Charneca de Caparica e Sobreda,Península de Setúbal,311,2025-07-31T21:12:00Z,25765106,Em Resolução/Conclusão,3103,Incêndio rural,0,2,0,10,2025-07-31T21:12:00Z,Almada,Setúbal,Área Metropolitana De Lisboa,-9.17492,38.57751,Resolução/Conclusão
25749937,Tarouquela,Tâmega e Sousa,309,2025-07-29T04:11:00Z,25749937,Em Curso,3103,Incêndio rural,0,28,0,88,2025-07-29T04:11:00Z,Cinfães,Viseu,Norte,-8.173308,41.072792,Curso
25751241,Molelos,Viseu Dão Lafões,310,2025-07-29T10:43:00Z,25751241,Em Resolução/Conclusão,3103,Incêndio rural,0,2,0,6,2025-07-29T10:43:00Z,Tondela,Viseu,Centro,-8.09574,40.551495,Resolução/Conclusão
25751893,"Espírito Santo, Nossa Senhora da Graça e São Simão",Alto Alentejo,312,2025-07-29T12:32:00Z,25751893,Em Resolução/Conclusão,3101,Incêndio rural,0,3,0,8,2025-07-29T12:32:00Z,Nisa,Portalegre,Alentejo,-7.634827,39.571162,Resolução/Conclusão
25757766,Calde,Viseu Dão Lafões,310,2025-07-30T14:19:00Z,25757766,Em Resolução/Conclusão,3101,Incêndio rural,0,1,0,2,2025-07-30T14:19:00Z,Viseu,Viseu,Centro,-7.898995,40.758803,Resolução/Conclusão
25758986,São João de Areias,Viseu Dão Lafões,310,2025-07-30T18:19:00Z,25758986,Em Resolução/Conclusão,3103,Incêndio rural,0,0,0,0,2025-07-30T18:19:00Z,Santa Comba Dão,Viseu,Centro,-8.068341,40.390527,Resolução/Conclusão
25759068,Valadares,Viseu Dão Lafões,310,2025-07-30T18:37:00Z,25759068,Em Resolução/Conclusão,3105,Incêndio rural,0,0,0,0,2025-07-30T18:37:00Z,São Pedro Do Sul,Viseu,Centro,-8.203518,40.75472,Resolução/Conclusão
25760776,Castelo Branco,Beira Baixa,310,2025-07-31T06:05:00Z,25760776,Em Resolução/Conclusão,3103,Incêndio rural,0,1,0,5,2025-07-31T06:05:00Z,Castelo Branco,Castelo Branco,Centro,-7.426803,39.827243,Resolução/Conclusão
25761996,Ninho do Açor e Sobral do Campo,Beira Baixa,310,2025-07-31T10:54:00Z,25761996,Em Resolução/Conclusão,3101,Incêndio rural,0,41,0,123,2025-07-31T10:54:00Z,Castelo Branco,Castelo Branco,Centro,-7.588895,39.990642,Resolução/Conclusão
25762528,Sobrado e Bairros,Tâmega e Sousa,309,2025-07-31T12:30:00Z,25762528,Em Resolução/Conclusão,3103,Incêndio rural,0,2,0,10,2025-07-31T12:30:00Z,Castelo De Paiva,Aveiro,Norte,-8.236423,41.032515,Resolução/Conclusão
25762812,Eiras e Mei,Alto Minho,309,2025-07-31T13:20:00Z,25762812,Em Resolução/Conclusão,3103,Incêndio rural,0,7,0,11,2025-07-31T13:20:00Z,Arcos De Valdevez,Viana Do Castelo,Norte,-8.48304,41.923035,Resolução/Conclusão
25762914,Oliveirinha,Região de Aveiro,310,2025-07-31T13:41:00Z,25762914,Em Resolução/Conclusão,3101,Incêndio rural,0,3,0,6,2025-07-31T13:41:00Z,Aveiro,Aveiro,Centro,-8.583247,40.593848,Resolução/Conclusão
25763457,Santo Agostinho e São João Baptista e Santo Amador,Baixo Alentejo,312,2025-07-31T15:13:00Z,25763457,Em Resolução/Conclusão,3105,Incêndio rural,0,2,0,7,2025-07-31T15:13:00Z,Moura,Beja,Alentejo,-7.47035,38.130985,Resolução/Conclusão
25763532,Ninho do Açor e Sobral do Campo,Beira Baixa,310,2025-07-31T15:31:00Z,25763532,Em Resolução/Conclusão,3101,Incêndio rural,0,3,0,11,2025-07-31T15:31:00Z,Castelo Branco,Castelo Branco,Centro,-7.57756,39.994833,Resolução/Conclusão
25763650,Milagres,Região de Leiria,310,2025-07-31T15:58:00Z,25763650,Em Resolução/Conclusão,3101,Incêndio rural,0,4,0,11,2025-07-31T15:58:00Z,Leiria,Leiria,Centro,-8.792217,39.793427,Resolução/Conclusão
25764034,Lordelo,Area M. Porto,309,2025-07-31T16:33:00Z,25764034,Em Resolução/Conclusão,3103,Incêndio rural,0,2,0,7,2025-07-31T16:33:00Z,Paredes,Porto,Norte,-8.409851,41.232163,Resolução/Conclusão
25764066,Cinfães,Tâmega e Sousa,309,2025-07-31T17:05:00Z,25764066,Em Resolução/Conclusão,3103,Incêndio rural,0,4,0,14,2025-07-31T17:05:00Z,Cinfães,Viseu,Norte,-8.077182,41.05769,Resolução/Conclusão
25764075,"Ardegão, Arnozela e Seidões",Ave,309,2025-07-31T17:22:00Z,25764075,Em Resolução/Conclusão,3103,Incêndio rural,0,9,0,35,2025-07-31T17:22:00Z,Fafe,Braga,Norte,-8.110025,41.40508,Resolução/Conclusão
25764109,"Requeixo, Nossa Senhora de Fátima e Nariz",Região de Aveiro,310,2025-07-31T17:32:00Z,25764109,Em Resolução/Conclusão,3101,Incêndio rural,0,2,0,6,2025-07-31T17:32:00Z,Aveiro,Aveiro,Centro,-8.581245,40.593723,Resolução/Conclusão
25764293,Sul,Viseu Dão Lafões,310,2025-07-31T18:10:00Z,25764293,Em Resolução/Conclusão,3103,Incêndio rural,0,1,0,2,2025-07-31T18:10:00Z,São Pedro Do Sul,Viseu,Centro,-8.060822,40.866837,Resolução/Conclusão
25764468,Vidigueira,Baixo Alentejo,312,2025-07-31T18:47:00Z,25764468,Em Resolução/Conclusão,3105,Incêndio rural,0,9,0,28,2025-07-31T18:47:00Z,Vidigueira,Beja,Alentejo,-7.770448,38.205505,Resolução/Conclusão
25748118,Canelas e Espiunca,Area M. Porto,309,2025-07-28T17:16:00Z,25748118,Em Curso,3101,Incêndio rural,0,181,0,483,2025-07-28T17:16:00Z,Arouca,Aveiro,Norte,-8.212231,40.969918,Curso
25749320,Rebordões (Santa Maria),Alto Minho,309,2025-07-28T22:47:00Z,25749320,Em Resolução/Conclusão,3103,Incêndio rural,0,26,0,81,2025-07-28T22:47:00Z,Ponte De Lima,Viana Do Castelo,Norte,-8.588365,41.729993,Resolução/Conclusão
25749641,Silva Escura e Dornelas,Região de Aveiro,310,2025-07-29T01:02:00Z,25749641,Em Resolução/Conclusão,3101,Incêndio rural,0,10,0,32,2025-07-29T01:02:00Z,Sever Do Vouga,Aveiro,Centro,-8.399623,40.769354,Resolução/Conclusão
25753666,São Cristóvão de Nogueira,Tâmega e Sousa,309,2025-07-29T18:21:00Z,25753666,Em Resolução/Conclusão,3103,Incêndio rural,0,1,0,5,2025-07-29T18:21:00Z,Cinfães,Viseu,Norte,-8.134771,41.05519,Resolução/Conclusão
25756006,Pinhanços,Beiras e Serra da Estrela,310,2025-07-30T09:07:00Z,25756006,Em Resolução/Conclusão,3103,Incêndio rural,0,14,0,38,2025-07-30T09:07:00Z,Seia,Guarda,Centro,-7.708132,40.473517,Resolução/Conclusão
25756459,Nespereira,Tâmega e Sousa,309,2025-07-30T10:20:00Z,25756459,Em Resolução/Conclusão,3103,Incêndio rural,0,11,0,48,2025-07-30T10:20:00Z,Cinfães,Viseu,Norte,-8.130378,41.039695,Resolução/Conclusão
25759350,São Vicente de Lafões,Viseu Dão Lafões,310,2025-07-30T19:44:00Z,25759350,Em Resolução/Conclusão,3103,Incêndio rural,0,0,0,0,2025-07-30T19:44:00Z,Oliveira De Frades,Viseu,Centro,-8.171112,40.704042,Resolução/Conclusão
25760635,Belinho e Mar,Cávado,309,2025-07-31T03:55:00Z,25760635,Em Resolução/Conclusão,3103,Incêndio rural,0,4,0,12,2025-07-31T03:55:00Z,Esposende,Braga,Norte,-8.780248,41.593495,Resolução/Conclusão
25763142,São Cristóvão de Nogueira,Tâmega e Sousa,309,2025-07-31T14:10:00Z,25763142,Em Resolução/Conclusão,3103,Incêndio rural,0,1,0,5,2025-07-31T14:10:00Z,Cinfães,Viseu,Norte,-8.108343,41.085102,Resolução/Conclusão
25763427,Rossas,Ave,309,2025-07-31T15:12:00Z,25763427,Em Resolução/Conclusão,3103,Incêndio rural,0,1,0,3,2025-07-31T15:12:00Z,Vieira Do Minho,Braga,Norte,-8.118778,41.596278,Resolução/Conclusão
25764986,Eixo e Eirol,Região de Aveiro,310,2025-07-31T20:40:00Z,25764986,Em Resolução/Conclusão,3103,Incêndio rural,0,6,0,21,2025-07-31T20:40:00Z,Aveiro,Aveiro,Centro,-8.594152,40.639067,Resolução/Conclusão
25764995,Paderne,Alto Minho,309,2025-07-31T20:45:00Z,25764995,Em Resolução/Conclusão,3103,Incêndio rural,0,3,0,10,2025-07-31T20:45:00Z,Melgaço,Viana Do Castelo,Norte,-8.27282,42.0924,Resolução/Conclusão
25765004,Bravães,Alto Minho,309,2025-07-31T20:48:00Z,25765004,Em Curso,3103,Incêndio rural,0,6,0,23,2025-07-31T20:48:00Z,Ponte Da Barca,Viana Do Castelo,Norte,-8.440397,41.788573,Curso
25765084,Carregal do Sal,Viseu Dão Lafões,310,2025-07-31T21:07:00Z,25765084,Em Curso,3103,Incêndio rural,0,6,0,23,2025-07-31T21:07:00Z,Carregal Do Sal,Viseu,Centro,-7.999939,40.437298,Curso
25765213,Pinheiro,Ave,309,2025-07-31T21:38:00Z,25765213,Em Despacho,3103,Incêndio rural,0,2,0,9,2025-07-31T21:38:00Z,Guimarães,Braga,Norte,-8.281103,41.41951,Despacho
25738747,Lindoso,Alto Minho,309,2025-07-26T21:47:00Z,25738747,Em Curso,3103,Incêndio rural,0,211,0,631,2025-07-26T21:47:00Z,Ponte Da Barca,Viana Do Castelo,Norte,-8.220528,41.865272,Curso
25741169,Cota,Viseu Dão Lafões,310,2025-07-27T11:54:00Z,25741169,Em Resolução/Conclusão,3101,Incêndio rural,0,1,0,4,2025-07-27T11:54:00Z,Viseu,Viseu,Centro,-7.815572,40.816505,Resolução/Conclusão
25747773,Aranhas,Beira Baixa,310,2025-07-28T16:36:00Z,25747773,Em Resolução/Conclusão,3103,Incêndio rural,0,36,0,103,2025-07-28T16:36:00Z,Penamacor,Castelo Branco,Centro,-7.14438,40.117542,Resolução/Conclusão
25751999,Pombal,Região de Leiria,310,2025-07-29T12:53:00Z,25751999,Em Resolução/Conclusão,3101,Incêndio rural,0,1,0,2,2025-07-29T12:53:00Z,Pombal,Leiria,Centro,-8.6801,39.93227,Resolução/Conclusão
25752083,Alcanede,Lezíria do Tejo,311,2025-07-29T13:12:00Z,25752083,Em Resolução/Conclusão,3103,Incêndio rural,0,16,0,51,2025-07-29T13:12:00Z,Santarém,Santarém,Alentejo,-8.802682,39.405543,Resolução/Conclusão
25756620,Recarei,Area M. Porto,309,2025-07-30T10:47:00Z,25756620,Em Resolução/Conclusão,3103,Incêndio rural,0,40,0,115,2025-07-30T10:47:00Z,Paredes,Porto,Norte,-8.416721,41.151,Resolução/Conclusão
25763004,"Perafita, Lavra e Santa Cruz do Bispo",Area M. Porto,309,2025-07-31T13:58:00Z,25763004,Em Curso,3103,Incêndio rural,0,3,0,8,2025-07-31T13:58:00Z,Matosinhos,Porto,Norte,-8.703372,41.24096,Curso
25763822,Lordelo,Area M. Porto,309,2025-07-31T16:33:00Z,25763822,Em Resolução/Conclusão,3103,Incêndio rural,0,12,0,47,2025-07-31T16:33:00Z,Paredes,Porto,Norte,-8.409851,41.232163,Resolução/Conclusão
25764258,Valongo de Milhais,Douro,309,2025-07-31T18:03:00Z,25764258,Em Resolução/Conclusão,3103,Incêndio rural,0,15,0,53,2025-07-31T18:03:00Z,Murça,Vila Real,Norte,-7.42714,41.46461,Resolução/Conclusão
25763627,Antime e Silvares (São Clemente),Ave,309,2025-07-31T15:59:00Z,25763627,Em Resolução/Conclusão,3101,Incêndio rural,0,0,0,0,2025-07-31T15:59:00Z,Fafe,Braga,Norte,-8.16342,41.430679,Resolução/Conclusão
25763730,Pias,Baixo Alentejo,312,2025-07-31T16:10:00Z,25763730,Em Resolução/Conclusão,3105,Incêndio rural,0,1,0,1,2025-07-31T16:10:00Z,Serpa,Beja,Alentejo,-7.609253,38.045168,Resolução/Conclusão
25763964,Pêro Viseu,Beiras e Serra da Estrela,310,2025-07-31T16:58:00Z,25763964,Em Resolução/Conclusão,3103,Incêndio rural,0,2,0,10,2025-07-31T16:58:00Z,Fundão,Castelo Branco,Centro,-7.457652,40.199215,Resolução/Conclusão
25764599,Argoncilhe,Area M. Porto,309,2025-07-31T19:22:00Z,25764599,Em Resolução/Conclusão,3103,Incêndio rural,0,1,0,5,2025-07-31T19:22:00Z,Santa Maria Da Feira,Aveiro,Norte,-8.54936,41.02351,Resolução/Conclusão
25764749,Ceivães e Badim,Alto Minho,309,2025-07-31T19:54:00Z,25764749,Em Resolução/Conclusão,3105,Incêndio rural,0,0,0,0,2025-07-31T19:54:00Z,Monção,Viana Do Castelo,Norte,-8.361482,42.061062,Resolução/Conclusão
25764846,Eixo e Eirol,Região de Aveiro,310,2025-07-31T20:15:00Z,25764846,Em Resolução/Conclusão,3101,Incêndio rural,0,4,0,17,2025-07-31T20:15:00Z,Aveiro,Aveiro,Centro,-8.57825,40.62862,Resolução/Conclusão
25764982,Sátão,Viseu Dão Lafões,310,2025-07-31T20:41:00Z,25764982,Em Resolução/Conclusão,3103,Incêndio rural,0,5,0,14,2025-07-31T20:41:00Z,Sátão,Viseu,Centro,-7.750297,40.748882,Resolução/Conclusão
25765047,"Silvares, Pias, Nogueira e Alvarenga",Tâmega e Sousa,309,2025-07-31T20:32:00Z,25765047,Em Resolução/Conclusão,3103,Incêndio rural,0,3,0,7,2025-07-31T20:32:00Z,Lousada,Porto,Norte,-8.275495,41.301887,Resolução/Conclusão
25765067,São João de Ver,Area M. Porto,309,2025-07-31T21:06:00Z,25765067,Em Resolução/Conclusão,3103,Incêndio rural,0,1,0,5,2025-07-31T21:06:00Z,Santa Maria Da Feira,Aveiro,Norte,-8.55651,40.95087,Resolução/Conclusão
25765114,Alegrete,Alto Alentejo,312,2025-07-31T21:12:00Z,25765114,Em Curso,3101,Incêndio rural,0,18,0,65,2025-07-31T21:12:00Z,Portalegre,Portalegre,Alentejo,-7.287715,39.256223,Curso
25765166,Santo Antão e São Julião do Tojal,Grande Lisboa,311,2025-07-31T21:27:00Z,25765166,Em Resolução/Conclusão,3103,Incêndio rural,0,3,0,12,2025-07-31T21:27:00Z,Loures,Lisboa,Área Metropolitana De Lisboa,-9.135022,38.857443,Resolução/Conclusão
25764942,Campo e Sobrado,Area M. Porto,309,2025-07-31T20:34:00Z,25764942,Em Resolução/Conclusão,3103,Incêndio rural,0,1,0,7,2025-07-31T20:34:00Z,Valongo,Porto,Norte,-8.472533,41.188303,Resolução/Conclusão
25764960,Recezinhos (São Mamede),Tâmega e Sousa,309,2025-07-31T20:38:00Z,25764960,Em Resolução/Conclusão,3103,Incêndio rural,0,4,0,11,2025-07-31T20:38:00Z,Penafiel,Porto,Norte,-8.224372,41.2408,Resolução/Conclusão
25765062,Miranda,Alto Minho,309,2025-07-31T21:05:00Z,25765062,Em Curso,3103,Incêndio rural,0,2,0,10,2025-07-31T21:05:00Z,Arcos De Valdevez,Viana Do Castelo,Norte,-8.494534,41.83056,Curso
25765137,Duas Igrejas,Area M. Porto,309,2025-07-31T21:19:00Z,25765137,Em Resolução/Conclusão,3103,Incêndio rural,0,2,0,9,2025-07-31T21:19:00Z,Paredes,Porto,Norte,-8.37151,41.22159,Resolução/Conclusão
