id,address,subregion,neighborhood,date,id.1,state,nature,nature_description,aerial_means,terrestrial_means,aquatic_means,operational,date.1,Concelho,Distrito,NUTII_DSG,longitude,latitude,state_2
26230072,São Domingos e Vale de Água,Alentejo Litoral,312,2025-11-03T12:54:00Z,26230072,Em Resolução/Conclusão,3103,Incêndio rural,0,4,0,10,2025-11-03T12:54:00Z,Santiago Do Cacém,Setúbal,Alentejo,-8.56421,37.821159,Resolução/Conclusão
26230723,Afife,Alto Minho,309,2025-11-03T14:58:00Z,26230723,Em Resolução/Conclusão,3105,Incêndio rural,0,1,0,5,2025-11-03T14:58:00Z,Viana Do Castelo,Viana Do Castelo,Norte,-8.845865,41.773817,Resolução/Conclusão
26230148,Bacelo e Senhora da Saúde,Alentejo Central,312,2025-11-03T13:08:00Z,26230148,Em Resolução/Conclusão,3103,Incêndio rural,0,0,0,0,2025-11-03T13:08:00Z,Évora,Évora,Alentejo,-7.911,38.582793,Resolução/Conclusão
26230849,Redondo,Alentejo Central,312,2025-11-03T15:15:00Z,26230849,Em Despacho,3105,Incêndio rural,0,1,0,4,2025-11-03T15:15:00Z,Redondo,Évora,Alentejo,-7.601747,38.648134,Despacho
26230536,Vermoim,Ave,309,2025-11-03T14:22:00Z,26230536,Em Despacho,3111,Queima,0,1,0,5,2025-11-03T14:22:00Z,Vila Nova De Famalicão,Braga,Norte,-8.451027,41.421602,Despacho
