id,address,subregion,neighborhood,date,id.1,state,nature,nature_description,aerial_means,terrestrial_means,aquatic_means,operational,date.1,Concelho,Distrito,NUTII_DSG,longitude,latitude
25059714,Torrão,Alentejo Litoral,312,2025-03-08T22:10:00Z,25059714,Em curso,1101,Cheia,0,2,0,3,2025-03-08T22:10:00Z,Alcácer Do Sal,Setúbal,Alentejo,-8.359133,38.252053
25070044,Praia do Ribatejo,Médio Tejo,311,2025-03-10T19:30:00Z,25070044,Em curso,1101,Cheia,0,0,0,0,2025-03-10T19:30:00Z,Vila Nova Da Barquinha,Santarém,Centro,-8.357309,39.485638
25071496,São Manços e São Vicente do Pigeiro,Alentejo Central,312,2025-03-11T13:18:00Z,25071496,Em curso,1101,Cheia,0,2,0,4,2025-03-11T13:18:00Z,Évora,Évora,Alentejo,-7.713313,38.513673
25110573,Cantanhede e Pocariça,Região de Coimbra,310,2025-03-19T17:33:00Z,25110573,Em conclusão,3321,Dano na rede de fornecimento de eletricidade ,0,3,0,8,2025-03-19T17:33:00Z,Cantanhede,Coimbra,Centro,-8.59414,40.35176
25110707,Salvaterra de Magos e Foros de Salvaterra,Lezíria do Tejo,311,2025-03-19T18:03:00Z,25110707,Em curso,3301,Queda de árvore,0,6,0,16,2025-03-19T18:03:00Z,Salvaterra De Magos,Santarém,Alentejo,-8.708643,38.995437
25087162,Pedrógão,Baixo Alentejo,312,2025-03-14T17:00:00Z,25087162,Em curso,1101,Cheia,0,0,0,0,2025-03-14T17:00:00Z,Vidigueira,Beja,Alentejo,-7.630327,38.110775
25110106,São Teotónio,Alentejo Litoral,312,2025-03-19T15:54:00Z,25110106,Em conclusão,3301,Queda de árvore,0,1,0,1,2025-03-19T15:54:00Z,Odemira,Beja,Alentejo,-8.807968,37.597892
25110744,Laranjeiro e Feijó,Península de Setúbal,311,2025-03-19T18:02:00Z,25110744,Em despacho,3311,Queda de elementos de estruturas edificados,0,1,0,5,2025-03-19T18:02:00Z,Almada,Setúbal,Área Metropolitana De Lisboa,-9.156624,38.652235
25110792,Porto de Mós - São João Baptista e São Pedro,Região de Leiria,310,2025-03-19T18:21:00Z,25110792,Em despacho,3321,Dano na rede de fornecimento de eletricidade ,0,1,0,1,2025-03-19T18:21:00Z,Porto De Mós,Leiria,Centro,-8.82383,39.631972
25068300,Almeirim,Lezíria do Tejo,311,2025-03-10T20:52:00Z,25068300,Em curso,1101,Cheia,0,0,0,0,2025-03-10T20:52:00Z,Almeirim,Santarém,Alentejo,-8.635002,39.187436
25110532,Loulé (São Clemente),Algarve,313,2025-03-19T16:20:00Z,25110532,Em despacho,3317,Inundação de estruturas por água canalizada,0,1,0,2,2025-03-19T16:20:00Z,Loulé,Faro,Algarve,-8.018267,37.137687
25110734,"Torres Novas (Santa Maria, Salvador e Santiago)",Médio Tejo,311,2025-03-19T18:10:00Z,25110734,Em conclusão,3301,Queda de árvore,0,0,0,0,2025-03-19T18:10:00Z,Torres Novas,Santarém,Centro,-8.493655,39.4882
25110955,Barcarena,Grande Lisboa,311,2025-03-19T19:01:00Z,25110955,Em curso,3315,Inundação de estruturas por precipitação intensa,0,2,0,6,2025-03-19T19:01:00Z,Oeiras,Lisboa,Área Metropolitana De Lisboa,-9.282164,38.744749
25110988,"Pinheiro da Bemposta, Travanca e Palmaz",Area M. Porto,309,2025-03-19T18:47:00Z,25110988,Em resolução,3301,Queda de árvore,0,3,0,5,2025-03-19T18:47:00Z,Oliveira De Azeméis,Aveiro,Norte,-8.458958,40.792613
25111106,Lourinhã e Atalaia,Oeste,311,2025-03-19T19:35:00Z,25111106,Em conclusão,3301,Queda de árvore,0,3,0,9,2025-03-19T19:35:00Z,Lourinhã,Lisboa,Centro,-9.311131,39.244365
25111121,Cascais e Estoril,Grande Lisboa,311,2025-03-19T19:40:00Z,25111121,Em curso,3301,Queda de árvore,0,2,0,7,2025-03-19T19:40:00Z,Cascais,Lisboa,Área Metropolitana De Lisboa,-9.429423,38.70731
25111207,Braga (São José de São Lázaro e São João do Souto),Cávado,309,2025-03-19T19:45:00Z,25111207,Em despacho,3329,Queda de estruturas temporárias ou móveis,0,1,0,2,2025-03-19T19:45:00Z,Braga,Braga,Norte,-8.419101,41.543217
25110908,Sazes da Beira,Beiras e Serra da Estrela,310,2025-03-19T18:45:00Z,25110908,Em despacho,3301,Queda de árvore,0,1,0,2,2025-03-19T18:45:00Z,Seia,Guarda,Centro,-7.72894,40.348304
25111028,Caparica e Trafaria,Península de Setúbal,311,2025-03-19T19:05:00Z,25111028,Em curso,3329,Queda de estruturas temporárias ou móveis,0,1,0,4,2025-03-19T19:05:00Z,Almada,Setúbal,Área Metropolitana De Lisboa,-9.215111,38.660442
25111178,Carnaxide e Queijas,Grande Lisboa,311,2025-03-19T19:45:00Z,25111178,Em despacho,3311,Queda de elementos de estruturas edificados,0,2,0,6,2025-03-19T19:45:00Z,Oeiras,Lisboa,Área Metropolitana De Lisboa,-9.233587,38.727201
25111185,Maceira,Região de Leiria,310,2025-03-19T19:51:00Z,25111185,Em despacho,3321,Dano na rede de fornecimento de eletricidade ,0,1,0,2,2025-03-19T19:51:00Z,Leiria,Leiria,Centro,-8.889652,39.686501
25111208,Cascais e Estoril,Grande Lisboa,311,2025-03-19T19:58:00Z,25111208,Em despacho,3301,Queda de árvore,0,1,0,2,2025-03-19T19:58:00Z,Cascais,Lisboa,Área Metropolitana De Lisboa,-9.38607,38.701344
25063232,Santa Maria do Castelo e Santiago e Santa Susana,Alentejo Litoral,312,2025-03-09T19:02:00Z,25063232,Em curso,1101,Cheia,0,0,0,0,2025-03-09T19:02:00Z,Alcácer Do Sal,Setúbal,Alentejo,-8.48167,38.29806
25110912,"São Miguel, Santa Eufémia e Rabaçal",Região de Coimbra,310,2025-03-19T18:30:00Z,25110912,Em despacho,3311,Queda de elementos de estruturas edificados,0,1,0,2,2025-03-19T18:30:00Z,Penela,Coimbra,Centro,-8.399036,40.025502
25110997,Póvoa de Santa Iria e Forte da Casa,Grande Lisboa,311,2025-03-19T19:13:00Z,25110997,Em despacho,3301,Queda de árvore,0,1,0,2,2025-03-19T19:13:00Z,Vila Franca De Xira,Lisboa,Área Metropolitana De Lisboa,-9.04981,38.88344
25111080,Alcabideche,Grande Lisboa,311,2025-03-19T19:27:00Z,25111080,Em despacho,3301,Queda de árvore,0,1,0,5,2025-03-19T19:27:00Z,Cascais,Lisboa,Área Metropolitana De Lisboa,-9.438785,38.755713
25110827,"S.julião, N.s. da Anunciada e S. Maria da Graça",Península de Setúbal,311,2025-03-19T18:25:00Z,25110827,Em curso,3329,Queda de estruturas temporárias ou móveis,0,1,0,5,2025-03-19T18:25:00Z,Setúbal,Setúbal,Área Metropolitana De Lisboa,-8.89348,38.535337
25110977,Arganil,Região de Coimbra,310,2025-03-19T19:05:00Z,25110977,Em despacho,3311,Queda de elementos de estruturas edificados,0,1,0,2,2025-03-19T19:05:00Z,Arganil,Coimbra,Centro,-8.049704,40.220309
25111034,Montargil,Alto Alentejo,312,2025-03-19T19:15:00Z,25111034,Em conclusão,3301,Queda de árvore,0,1,0,4,2025-03-19T19:15:00Z,Ponte De Sor,Portalegre,Alentejo,-8.140132,39.03404
25111136,Montargil,Alto Alentejo,312,2025-03-19T19:44:00Z,25111136,Em resolução,3301,Queda de árvore,0,1,0,3,2025-03-19T19:44:00Z,Ponte De Sor,Portalegre,Alentejo,-8.249731,39.02689
25111170,"Oeiras e S. Julião da Barra, Paço de Arcos e Caxias",Grande Lisboa,311,2025-03-19T19:47:00Z,25111170,Em curso,3321,Dano na rede de fornecimento de eletricidade ,0,1,0,5,2025-03-19T19:47:00Z,Oeiras,Lisboa,Área Metropolitana De Lisboa,-9.310159,38.698531
25111204,Ferrel,Oeste,311,2025-03-19T19:57:00Z,25111204,Em despacho,3301,Queda de árvore,0,3,0,8,2025-03-19T19:57:00Z,Peniche,Leiria,Centro,-9.31683,39.36392
25111209,Colares,Grande Lisboa,311,2025-03-19T19:57:00Z,25111209,Em despacho,3301,Queda de árvore,0,1,0,2,2025-03-19T19:57:00Z,Sintra,Lisboa,Área Metropolitana De Lisboa,-9.486381,38.778591
25111115,São Pedro de Tomar,Médio Tejo,311,2025-03-19T19:38:00Z,25111115,Em conclusão,3301,Queda de árvore,0,2,0,5,2025-03-19T19:38:00Z,Tomar,Santarém,Centro,-8.382121,39.561709
25111163,"S.maria, S.miguel, S.martinho, S.pedro Penaferrim",Grande Lisboa,311,2025-03-19T19:39:00Z,25111163,Em despacho,3301,Queda de árvore,0,2,0,5,2025-03-19T19:39:00Z,Sintra,Lisboa,Área Metropolitana De Lisboa,-9.427226,38.816192
