id,address,subregion,neighborhood,date,id.1,state,nature,nature_description,aerial_means,terrestrial_means,aquatic_means,operational,date.1,Concelho,Distrito,NUTII_DSG,longitude,latitude
24890309,Algueirão-Mem Martins,Grande Lisboa,311,2025-01-30T03:40:00Z,24890309,Em despacho,3301,Queda de árvore,0,2,0,4,2025-01-30T03:40:00Z,Sintra,Lisboa,Área Metropolitana De Lisboa,-9.333934,38.805379
24890328,Charneca de Caparica e Sobreda,Península de Setúbal,311,2025-01-30T04:27:00Z,24890328,Em despacho,3301,Queda de árvore,0,3,0,8,2025-01-30T04:27:00Z,Almada,Setúbal,Área Metropolitana De Lisboa,-9.190193,38.591584
24890341,Santa Bárbara de Nexe,Algarve,313,2025-01-30T04:53:00Z,24890341,Em curso,3329,Queda de estruturas temporárias ou móveis,0,3,0,6,2025-01-30T04:53:00Z,Faro,Faro,Algarve,-7.97666,37.09434
24890425,Tavira (Santa Maria e Santiago),Algarve,313,2025-01-30T06:27:00Z,24890425,Em despacho,3301,Queda de árvore,0,1,0,5,2025-01-30T06:27:00Z,Tavira,Faro,Algarve,-7.64487,37.13735
24890427,Donai,Terras de Trás-os-Montes,309,2025-01-30T06:27:00Z,24890427,Em despacho,3301,Queda de árvore,0,2,0,4,2025-01-30T06:27:00Z,Bragança,Bragança,Norte,-6.793388,41.828848
24890495,Faro (Sé e São Pedro),Algarve,313,2025-01-30T07:14:00Z,24890495,Em despacho,3301,Queda de árvore,0,1,0,6,2025-01-30T07:14:00Z,Faro,Faro,Algarve,-7.918509,37.01752
24890543,Tavira (Santa Maria e Santiago),Algarve,313,2025-01-30T07:31:00Z,24890543,Em despacho,3301,Queda de árvore,0,0,0,0,2025-01-30T07:31:00Z,Tavira,Faro,Algarve,-7.6675,37.11636
24890593,Faro (Sé e São Pedro),Algarve,313,2025-01-30T07:25:00Z,24890593,Em despacho,3329,Queda de estruturas temporárias ou móveis,0,1,0,1,2025-01-30T07:25:00Z,Faro,Faro,Algarve,-7.942032,37.01865
24890454,São Brás de Alportel,Algarve,313,2025-01-30T06:41:00Z,24890454,Em conclusão,3301,Queda de árvore,0,2,0,6,2025-01-30T06:41:00Z,São Brás De Alportel,Faro,Algarve,-7.844367,37.155327
24890456,Paialvo,Médio Tejo,311,2025-01-30T06:50:00Z,24890456,Em conclusão,3301,Queda de árvore,0,0,0,0,2025-01-30T06:50:00Z,Tomar,Santarém,Centro,-8.46813,39.541995
24890506,Conceição e Cabanas de Tavira,Algarve,313,2025-01-30T06:52:00Z,24890506,Em despacho,3301,Queda de árvore,0,1,0,3,2025-01-30T06:52:00Z,Tavira,Faro,Algarve,-7.608618,37.134785
24877003,Malagueira e Horta Das Figueiras,Alentejo Central,312,2025-01-27T11:41:00Z,24877003,Em conclusão,3315,Inundação de estruturas por precipitação intensa,0,0,0,0,2025-01-27T11:41:00Z,Évora,Évora,Alentejo,-7.924277,38.57285
24890228,"S.maria, S.miguel, S.martinho, S.pedro Penaferrim",Grande Lisboa,311,2025-01-30T02:27:00Z,24890228,Em curso,3301,Queda de árvore,0,4,0,13,2025-01-30T02:27:00Z,Sintra,Lisboa,Área Metropolitana De Lisboa,-9.387899,38.805813
24890489,Vila Real de Santo António,Algarve,313,2025-01-30T07:00:00Z,24890489,Em despacho,3301,Queda de árvore,0,1,0,2,2025-01-30T07:00:00Z,Vila Real De Santo António,Faro,Algarve,-7.426935,37.187906
24890521,Conceição e Cabanas de Tavira,Algarve,313,2025-01-30T07:25:00Z,24890521,Em despacho,3301,Queda de árvore,0,0,0,0,2025-01-30T07:25:00Z,Tavira,Faro,Algarve,-7.60592,37.14764
24890539,Fátima,Médio Tejo,311,2025-01-30T07:29:00Z,24890539,Em resolução,3301,Queda de árvore,0,1,0,5,2025-01-30T07:29:00Z,Ourém,Santarém,Centro,-8.661903,39.617297
24890546,Faro (Sé e São Pedro),Algarve,313,2025-01-30T07:24:00Z,24890546,Em despacho,3301,Queda de árvore,0,1,0,5,2025-01-30T07:24:00Z,Faro,Faro,Algarve,-7.942032,37.01865
24890557,Luz de Tavira e Santo Estêvão,Algarve,313,2025-01-30T07:34:00Z,24890557,Em despacho,3301,Queda de árvore,0,0,0,0,2025-01-30T07:34:00Z,Tavira,Faro,Algarve,-7.692302,37.09587
24851780,"São Miguel, Santa Eufémia e Rabaçal",Região de Coimbra,310,2025-01-21T23:25:00Z,24851780,Em curso,3315,Inundação de estruturas por precipitação intensa,0,0,0,0,2025-01-21T23:25:00Z,Penela,Coimbra,Centro,-8.399036,40.025502
24889733,"Sé, Santa Maria e Meixedo",Terras de Trás-os-Montes,309,2025-01-29T21:44:00Z,24889733,Em resolução,3315,Inundação de estruturas por precipitação intensa,0,1,0,2,2025-01-29T21:44:00Z,Bragança,Bragança,Norte,-6.761223,41.813164
24890433,"Almargem do Bispo, Pêro Pinheiro e Montelavar",Grande Lisboa,311,2025-01-30T06:32:00Z,24890433,Em curso,3301,Queda de árvore,0,1,0,2,2025-01-30T06:32:00Z,Sintra,Lisboa,Área Metropolitana De Lisboa,-9.24848,38.82006
24890486,Odivelas,Grande Lisboa,311,2025-01-30T07:06:00Z,24890486,Em despacho,3329,Queda de estruturas temporárias ou móveis,0,1,0,2,2025-01-30T07:06:00Z,Odivelas,Lisboa,Área Metropolitana De Lisboa,-9.19399,38.79649
24890533,Vila do Bispo e Raposeira,Algarve,313,2025-01-30T07:25:00Z,24890533,Em conclusão,3301,Queda de árvore,0,1,0,4,2025-01-30T07:25:00Z,Vila Do Bispo,Faro,Algarve,-8.865778,37.141777
24890537,Luz de Tavira e Santo Estêvão,Algarve,313,2025-01-30T07:00:00Z,24890537,Em despacho,3301,Queda de árvore,0,1,0,2,2025-01-30T07:00:00Z,Tavira,Faro,Algarve,-7.717746,37.141524
24890550,Encarnação,Grande Lisboa,311,2025-01-30T07:20:00Z,24890550,Em despacho,3301,Queda de árvore,0,1,0,4,2025-01-30T07:20:00Z,Mafra,Lisboa,Área Metropolitana De Lisboa,-9.39675,39.045312
