id,address,subregion,neighborhood,date,id.1,state,nature,nature_description,aerial_means,terrestrial_means,aquatic_means,operational,date.1,Concelho,Distrito,NUTII_DSG,longitude,latitude
24877003,Malagueira e Horta Das Figueiras,Alentejo Central,312,2025-01-27T11:41:00Z,24877003,Em conclusão,3315,Inundação de estruturas por precipitação intensa,0,0,0,0,2025-01-27T11:41:00Z,Évora,Évora,Alentejo,-7.924277,38.57285
24977700,Cela,Oeste,311,2025-02-18T15:40:00Z,24977700,Em despacho,3301,Queda de árvore,0,1,0,2,2025-02-18T15:40:00Z,Alcobaça,Leiria,Centro,-9.035757,39.537749
24888293,Pernes,Lezíria do Tejo,311,2025-01-29T16:41:00Z,24888293,Em curso,3301,Queda de árvore,0,0,0,0,2025-01-29T16:41:00Z,Santarém,Santarém,Alentejo,-8.658865,39.381547
24976978,Setúbal (São Sebastião),Península de Setúbal,311,2025-02-18T13:30:00Z,24976978,Em despacho,3315,Inundação de estruturas por precipitação intensa,0,1,0,5,2025-02-18T13:30:00Z,Setúbal,Setúbal,Área Metropolitana De Lisboa,-8.862337,38.527365
24978055,"Caia, São Pedro e Alcáçova",Alto Alentejo,312,2025-02-18T17:08:00Z,24978055,Em despacho,3329,Queda de estruturas temporárias ou móveis,0,2,0,5,2025-02-18T17:08:00Z,Elvas,Portalegre,Alentejo,-7.137766,38.902007
