id,address,subregion,neighborhood,date,id.1,state,nature,nature_description,aerial_means,terrestrial_means,aquatic_means,operational,date.1,Concelho,Distrito,NUTII_DSG,longitude,latitude
25463709,Grijó e Sermonde,Area M. Porto,309,2025-06-02T00:05:00Z,25463709,Em conclusão,3103,Incêndio rural,0,1,0,6,2025-06-02T00:05:00Z,Vila Nova De Gaia,Porto,Norte,-8.582982,41.049473
25463802,Pombal,Região de Leiria,310,2025-06-02T00:57:00Z,25463802,Em conclusão,2301,Incêndio em transporte rodoviário,0,2,0,7,2025-06-02T00:57:00Z,Pombal,Leiria,Centro,-8.63848,39.92025
25463861,Bonfim,Area M. Porto,309,2025-06-02T01:24:00Z,25463861,Em despacho,2101,Incêndio em edifícios habitacionais,0,1,0,5,2025-06-02T01:24:00Z,Porto,Porto,Norte,-8.60131,41.16385
25463868,Sampriz,Alto Minho,309,2025-06-02T01:30:00Z,25463868,Em despacho,3103,Incêndio rural,0,0,0,0,2025-06-02T01:30:00Z,Ponte Da Barca,Viana Do Castelo,Norte,-8.38794,41.78586
25461382,Pegões,Península de Setúbal,311,2025-06-01T13:30:00Z,25461382,Em curso,3201,Detritos não confinados,0,2,0,4,2025-06-01T13:30:00Z,Montijo,Setúbal,Área Metropolitana De Lisboa,-8.659163,38.685652
25463814,Sebal e Belide,Região de Coimbra,310,2025-06-02T01:04:00Z,25463814,Em conclusão,3201,Detritos não confinados,0,2,0,7,2025-06-02T01:04:00Z,Condeixa-a-Nova,Coimbra,Centro,-8.5107,40.11786
25463847,"Sandim, Olival, Lever e Crestuma",Area M. Porto,309,2025-06-02T01:18:00Z,25463847,Em curso,3103,Incêndio rural,0,4,0,17,2025-06-02T01:18:00Z,Vila Nova De Gaia,Porto,Norte,-8.534772,41.041977
25463478,Formariz e Ferreira,Alto Minho,309,2025-06-01T22:30:00Z,25463478,Em curso,3103,Incêndio rural,0,5,0,17,2025-06-01T22:30:00Z,Paredes De Coura,Viana Do Castelo,Norte,-8.563595,41.960807
25463742,Caria,Beiras e Serra da Estrela,310,2025-06-02T00:15:00Z,25463742,Em conclusão,2101,Incêndio em edifícios habitacionais,0,3,0,9,2025-06-02T00:15:00Z,Belmonte,Castelo Branco,Centro,-7.358665,40.316547
