id,address,subregion,neighborhood,date,id.1,state,nature,nature_description,aerial_means,terrestrial_means,aquatic_means,operational,date.1,Concelho,Distrito,NUTII_DSG,longitude,latitude,state_2
25711397,Vale da Pedra,Lezíria do Tejo,311,2025-07-21T14:16:00Z,25711397,Em Resolução/Conclusão,3103,Incêndio rural,0,0,0,0,2025-07-21T14:16:00Z,Cartaxo,Santarém,Alentejo,-8.783137,39.110872,Resolução/Conclusão
25715532,"Ponte de Sor, Tramaga e Vale de Açor",Alto Alentejo,312,2025-07-22T11:24:00Z,25715532,Em Resolução/Conclusão,3103,Incêndio rural,0,9,0,29,2025-07-22T11:24:00Z,Ponte De Sor,Portalegre,Alentejo,-8.139892,39.273078,Resolução/Conclusão
25715802,Abrantes (São Vicente e São João) e Alferrarede,Médio Tejo,311,2025-07-22T12:16:00Z,25715802,Em Resolução/Conclusão,3103,Incêndio rural,0,0,0,0,2025-07-22T12:16:00Z,Abrantes,Santarém,Centro,-8.211658,39.486935,Resolução/Conclusão
25715993,Azueira e Sobral da Abelheira,Grande Lisboa,311,2025-07-22T12:53:00Z,25715993,Em Resolução/Conclusão,3103,Incêndio rural,0,15,0,53,2025-07-22T12:53:00Z,Mafra,Lisboa,Área Metropolitana De Lisboa,-9.323877,38.988737,Resolução/Conclusão
25716118,Alvite,Douro,309,2025-07-22T13:18:00Z,25716118,Em Resolução/Conclusão,3101,Incêndio rural,0,4,0,14,2025-07-22T13:18:00Z,Moimenta Da Beira,Viseu,Norte,-7.71388,40.952273,Resolução/Conclusão
25716368,São João Baptista e Santa Maria Dos Olivais,Médio Tejo,311,2025-07-22T14:04:00Z,25716368,Em Resolução/Conclusão,3103,Incêndio rural,0,3,0,8,2025-07-22T14:04:00Z,Tomar,Santarém,Centro,-8.418278,39.604013,Resolução/Conclusão
25716468,São Domingos de Rana,Grande Lisboa,311,2025-07-22T14:22:00Z,25716468,Em Resolução/Conclusão,3103,Incêndio rural,0,9,0,33,2025-07-22T14:22:00Z,Cascais,Lisboa,Área Metropolitana De Lisboa,-9.3395,38.73726,Resolução/Conclusão
25716223,Rio de Moinhos,Médio Tejo,311,2025-07-22T13:38:00Z,25716223,Em Resolução/Conclusão,3103,Incêndio rural,0,1,0,2,2025-07-22T13:38:00Z,Abrantes,Santarém,Centro,-8.278835,39.49534,Resolução/Conclusão
25716558,Alquerubim,Região de Aveiro,310,2025-07-22T14:38:00Z,25716558,Em Despacho,3101,Incêndio rural,1,4,0,23,2025-07-22T14:38:00Z,Albergaria-a-Velha,Aveiro,Centro,-8.50914,40.62108,Despacho
25712338,Cercal,Alentejo Litoral,312,2025-07-21T17:38:00Z,25712338,Em Resolução/Conclusão,3103,Incêndio rural,0,21,0,55,2025-07-21T17:38:00Z,Santiago Do Cacém,Setúbal,Alentejo,-8.682272,37.791582,Resolução/Conclusão
25715665,Rio de Moinhos,Médio Tejo,311,2025-07-22T11:54:00Z,25715665,Em Resolução/Conclusão,3103,Incêndio rural,0,0,0,0,2025-07-22T11:54:00Z,Abrantes,Santarém,Centro,-8.27888,39.495318,Resolução/Conclusão
25716467,Lustosa e Barrosas (Santo Estêvão),Tâmega e Sousa,309,2025-07-22T14:21:00Z,25716467,Em Despacho,3103,Incêndio rural,0,2,0,10,2025-07-22T14:21:00Z,Lousada,Porto,Norte,-8.322338,41.33881,Despacho
25716135,Palaçoulo,Terras de Trás-os-Montes,309,2025-07-22T13:22:00Z,25716135,Em Resolução/Conclusão,3103,Incêndio rural,0,4,0,17,2025-07-22T13:22:00Z,Miranda Do Douro,Bragança,Norte,-6.430875,41.404038,Resolução/Conclusão
25716294,Canelas e Fermelã,Região de Aveiro,310,2025-07-22T13:52:00Z,25716294,Em Resolução/Conclusão,3103,Incêndio rural,0,9,0,33,2025-07-22T13:52:00Z,Estarreja,Aveiro,Centro,-8.543075,40.697923,Resolução/Conclusão
25716362,Carregueira,Lezíria do Tejo,311,2025-07-22T14:01:00Z,25716362,Em Resolução/Conclusão,3103,Incêndio rural,1,19,0,73,2025-07-22T14:01:00Z,Chamusca,Santarém,Alentejo,-8.347285,39.426922,Resolução/Conclusão
25716660,Alvarenga,Area M. Porto,309,2025-07-22T14:52:00Z,25716660,Em Despacho,3103,Incêndio rural,0,2,0,10,2025-07-22T14:52:00Z,Arouca,Aveiro,Norte,-8.144899,40.967288,Despacho
25716617,Alquerubim,Região de Aveiro,310,2025-07-22T14:47:00Z,25716617,Em Despacho,3101,Incêndio rural,1,0,0,1,2025-07-22T14:47:00Z,Albergaria-a-Velha,Aveiro,Centro,-8.51085,40.63699,Despacho
