id,address,subregion,neighborhood,date,id.1,state,nature,nature_description,aerial_means,terrestrial_means,aquatic_means,operational,date.1,Concelho,Distrito,NUTII_DSG,longitude,latitude,state_2
25785983,Caçarilhe e Infesta,Tâmega e Sousa,309,2025-08-04T18:22:00Z,25785983,Em Resolução/Conclusão,3103,Incêndio rural,0,11,0,34,2025-08-04T18:22:00Z,Celorico De Basto,Braga,Norte,-8.04611,41.419858,Resolução/Conclusão
25792058,Cibões e Brufe,Cávado,309,2025-08-05T19:10:00Z,25792058,Em Resolução/Conclusão,3103,Incêndio rural,0,1,0,5,2025-08-05T19:10:00Z,Terras De Bouro,Braga,Norte,-8.293932,41.764918,Resolução/Conclusão
25819818,Sobrado e Bairros,Tâmega e Sousa,309,2025-08-10T20:13:00Z,25819818,Em Resolução/Conclusão,3103,Incêndio rural,0,1,0,5,2025-08-10T20:13:00Z,Castelo De Paiva,Aveiro,Norte,-8.252268,41.018942,Resolução/Conclusão
25820422,Távora e Pereiro,Douro,309,2025-08-10T22:27:00Z,25820422,Em Curso,3103,Incêndio rural,3,34,0,115,2025-08-10T22:27:00Z,Tabuaço,Viseu,Norte,-7.55556,41.097602,Curso
25821490,Vreia de Jales,Alto Tâmega e Barroso,309,2025-08-11T07:40:00Z,25821490,Em Resolução/Conclusão,3103,Incêndio rural,0,3,0,15,2025-08-11T07:40:00Z,Vila Pouca De Aguiar,Vila Real,Norte,-7.640608,41.421142,Resolução/Conclusão
25822776,Barreiros e Cepões,Viseu Dão Lafões,310,2025-08-11T11:05:00Z,25822776,Em Resolução/Conclusão,3103,Incêndio rural,1,10,0,44,2025-08-11T11:05:00Z,Viseu,Viseu,Centro,-7.810218,40.667813,Resolução/Conclusão
25822851,Salto,Alto Tâmega e Barroso,309,2025-08-11T11:14:00Z,25822851,Em Curso,3103,Incêndio rural,2,6,0,41,2025-08-11T11:14:00Z,Montalegre,Vila Real,Norte,-7.979477,41.654678,Curso
25775263,Torgueda,Douro,309,2025-08-02T19:49:00Z,25775263,Em Resolução/Conclusão,3101,Incêndio rural,0,7,0,23,2025-08-02T19:49:00Z,Vila Real,Vila Real,Norte,-7.785983,41.274952,Resolução/Conclusão
25803707,Almofala e Escarigo,Beiras e Serra da Estrela,310,2025-08-07T20:50:00Z,25803707,Em Resolução/Conclusão,3103,Incêndio rural,0,2,0,10,2025-08-07T20:50:00Z,Figueira De Castelo Rodrigo,Guarda,Centro,-6.847203,40.887165,Resolução/Conclusão
25807426,Alvite,Douro,309,2025-08-08T14:31:00Z,25807426,Em Resolução/Conclusão,3103,Incêndio rural,0,55,0,192,2025-08-08T14:31:00Z,Moimenta Da Beira,Viseu,Norte,-7.688727,40.96613,Resolução/Conclusão
25812717,"Mangualde, Mesquitela e Cunha Alta",Viseu Dão Lafões,310,2025-08-09T12:50:00Z,25812717,Em Resolução/Conclusão,3103,Incêndio rural,0,4,0,14,2025-08-09T12:50:00Z,Mangualde,Viseu,Centro,-7.778468,40.59536,Resolução/Conclusão
25817277,Lorvão,Região de Coimbra,310,2025-08-10T11:09:00Z,25817277,Em Resolução/Conclusão,3101,Incêndio rural,0,2,0,10,2025-08-10T11:09:00Z,Penacova,Coimbra,Centro,-8.31417,40.23889,Resolução/Conclusão
25817913,Valpedre,Tâmega e Sousa,309,2025-08-10T13:18:00Z,25817913,Em Resolução/Conclusão,3103,Incêndio rural,0,3,0,12,2025-08-10T13:18:00Z,Penafiel,Porto,Norte,-8.311582,41.144047,Resolução/Conclusão
25819119,Póvoa de Penela,Douro,309,2025-08-10T17:23:00Z,25819119,Em Resolução/Conclusão,3103,Incêndio rural,0,3,0,11,2025-08-10T17:23:00Z,Penedono,Viseu,Norte,-7.389118,41.032508,Resolução/Conclusão
25821450,Fornos,Tâmega e Sousa,309,2025-08-11T07:23:00Z,25821450,Em Resolução/Conclusão,3103,Incêndio rural,0,2,0,7,2025-08-11T07:23:00Z,Castelo De Paiva,Aveiro,Norte,-8.255654,41.055046,Resolução/Conclusão
25776263,"Pena, Quintã e Vila Cova",Douro,309,2025-08-02T23:45:00Z,25776263,Em Resolução/Conclusão,3103,Incêndio rural,2,114,0,352,2025-08-02T23:45:00Z,Vila Real,Vila Real,Norte,-7.811902,41.317355,Resolução/Conclusão
25783717,Cunha Baixa,Viseu Dão Lafões,310,2025-08-04T11:48:00Z,25783717,Em Resolução/Conclusão,3101,Incêndio rural,0,1,0,2,2025-08-04T11:48:00Z,Mangualde,Viseu,Centro,-7.764411,40.559738,Resolução/Conclusão
25787860,Faíl e Vila Chã de Sá,Viseu Dão Lafões,310,2025-08-05T05:55:00Z,25787860,Em Resolução/Conclusão,3103,Incêndio rural,0,0,0,0,2025-08-05T05:55:00Z,Viseu,Viseu,Centro,-7.987877,40.601342,Resolução/Conclusão
25802450,Canas de Santa Maria,Viseu Dão Lafões,310,2025-08-07T16:14:00Z,25802450,Em Resolução/Conclusão,3103,Incêndio rural,0,1,0,2,2025-08-07T16:14:00Z,Tondela,Viseu,Centro,-8.032777,40.56017,Resolução/Conclusão
25808937,Abrunhosa-a-Velha,Viseu Dão Lafões,310,2025-08-08T19:26:00Z,25808937,Em Resolução/Conclusão,3103,Incêndio rural,0,2,0,7,2025-08-08T19:26:00Z,Mangualde,Viseu,Centro,-7.647667,40.572515,Resolução/Conclusão
25813482,Freches e Torres,Beiras e Serra da Estrela,310,2025-08-09T16:21:00Z,25813482,Em Curso,3103,Incêndio rural,8,203,0,615,2025-08-09T16:21:00Z,Trancoso,Guarda,Centro,-7.363745,40.709022,Curso
25773830,Andrães,Douro,309,2025-08-02T14:23:00Z,25773830,Em Resolução/Conclusão,3103,Incêndio rural,0,0,0,0,2025-08-02T14:23:00Z,Vila Real,Vila Real,Norte,-7.671293,41.267593,Resolução/Conclusão
25774883,Arnóia,Tâmega e Sousa,309,2025-08-02T18:20:00Z,25774883,Em Resolução/Conclusão,3103,Incêndio rural,0,2,0,6,2025-08-02T18:20:00Z,Celorico De Basto,Braga,Norte,-7.998983,41.348727,Resolução/Conclusão
25804968,Alvadia,Alto Tâmega e Barroso,309,2025-08-08T07:21:00Z,25804968,Em Resolução/Conclusão,3103,Incêndio rural,1,26,0,95,2025-08-08T07:21:00Z,Ribeira De Pena,Vila Real,Norte,-7.782872,41.457452,Resolução/Conclusão
25814493,Cota,Viseu Dão Lafões,310,2025-08-09T20:08:00Z,25814493,Em Resolução/Conclusão,3101,Incêndio rural,0,0,0,0,2025-08-09T20:08:00Z,Viseu,Viseu,Centro,-7.80263,40.777299,Resolução/Conclusão
25818455,Sobral de São Miguel,Beiras e Serra da Estrela,310,2025-08-10T15:02:00Z,25818455,Em Curso,3103,Incêndio rural,6,113,0,366,2025-08-10T15:02:00Z,Covilhã,Castelo Branco,Centro,-7.77307,40.200173,Curso
25821360,Alcoentre,Lezíria do Tejo,311,2025-08-11T06:40:00Z,25821360,Em Resolução/Conclusão,3103,Incêndio rural,0,1,0,5,2025-08-11T06:40:00Z,Azambuja,Lisboa,Alentejo,-8.962168,39.182868,Resolução/Conclusão
25822886,Vilar de Andorinho,Area M. Porto,309,2025-08-11T11:21:00Z,25822886,Em Resolução/Conclusão,3103,Incêndio rural,0,1,0,4,2025-08-11T11:21:00Z,Vila Nova De Gaia,Porto,Norte,-8.582419,41.1036,Resolução/Conclusão
25823038,"Crasto, Ruivos e Grovelas",Alto Minho,309,2025-08-11T11:38:00Z,25823038,Em Curso,3103,Incêndio rural,1,2,0,11,2025-08-11T11:38:00Z,Ponte Da Barca,Viana Do Castelo,Norte,-8.444263,41.762168,Curso
25823068,Caldas de São Jorge e Pigeiros,Area M. Porto,309,2025-08-11T11:47:00Z,25823068,Em Despacho,3103,Incêndio rural,1,0,0,6,2025-08-11T11:47:00Z,Santa Maria Da Feira,Aveiro,Norte,-8.49917,40.966,Despacho
25822805,"Mamouros, Alva e Ribolhos",Viseu Dão Lafões,310,2025-08-11T11:10:00Z,25822805,Em Resolução/Conclusão,3103,Incêndio rural,0,6,0,26,2025-08-11T11:10:00Z,Castro Daire,Viseu,Centro,-7.941163,40.853207,Resolução/Conclusão
25823074,Vila Boa de Quires e Maureles,Tâmega e Sousa,309,2025-08-11T11:45:00Z,25823074,Em Despacho,3103,Incêndio rural,1,1,0,11,2025-08-11T11:45:00Z,Marco De Canaveses,Porto,Norte,-8.198674,41.212435,Despacho
25822984,Candemil e Gondar,Alto Minho,309,2025-08-11T11:34:00Z,25822984,Em Despacho,3103,Incêndio rural,1,2,0,11,2025-08-11T11:34:00Z,Vila Nova De Cerveira,Viana Do Castelo,Norte,-8.6931,41.94323,Despacho
