id,address,subregion,neighborhood,date,id.1,state,nature,nature_description,aerial_means,terrestrial_means,aquatic_means,operational,date.1,Concelho,Distrito,NUTII_DSG,longitude,latitude
24885769,Gulpilhares e Valadares,Area M. Porto,309,2025-01-29T08:29:00Z,24885769,Em despacho,3315,Inundação de estruturas por precipitação intensa,0,2,0,3,2025-01-29T08:29:00Z,Vila Nova De Gaia,Porto,Norte,-8.637978,41.084091
24886201,Lourinhã e Atalaia,Oeste,311,2025-01-29T09:30:00Z,24886201,Em conclusão,3315,Inundação de estruturas por precipitação intensa,0,1,0,1,2025-01-29T09:30:00Z,Lourinhã,Lisboa,Centro,-9.311131,39.244365
24887223,"Cedofeita, Ildefonso, Sé, Miragaia, Nicolau e Vitória",Area M. Porto,309,2025-01-29T13:11:00Z,24887223,Em despacho,3329,Queda de estruturas temporárias ou móveis,0,0,0,0,2025-01-29T13:11:00Z,Porto,Porto,Norte,-8.61101,41.16293
24887389,Fragosela,Viseu Dão Lafões,310,2025-01-29T13:32:00Z,24887389,Em despacho,3301,Queda de árvore,0,1,0,2,2025-01-29T13:32:00Z,Viseu,Viseu,Centro,-7.867206,40.623479
24887398,Sines,Alentejo Litoral,312,2025-01-29T13:40:00Z,24887398,Em despacho,3315,Inundação de estruturas por precipitação intensa,0,1,0,1,2025-01-29T13:40:00Z,Sines,Setúbal,Alentejo,-8.830877,37.967532
24887430,Santa Maria do Castelo e Santiago e Santa Susana,Alentejo Litoral,312,2025-01-29T13:41:00Z,24887430,Em despacho,3301,Queda de árvore,0,1,0,3,2025-01-29T13:41:00Z,Alcácer Do Sal,Setúbal,Alentejo,-8.527897,38.375893
24887437,Paranhos,Area M. Porto,309,2025-01-29T13:40:00Z,24887437,Em despacho,3311,Queda de elementos de estruturas edificados,0,1,0,3,2025-01-29T13:40:00Z,Porto,Porto,Norte,-8.604254,41.174248
24851780,"São Miguel, Santa Eufémia e Rabaçal",Região de Coimbra,310,2025-01-21T23:25:00Z,24851780,Em curso,3315,Inundação de estruturas por precipitação intensa,0,0,0,0,2025-01-21T23:25:00Z,Penela,Coimbra,Centro,-8.399036,40.025502
24886021,Lamas e Cercal,Oeste,311,2025-01-29T09:39:00Z,24886021,Em resolução,3321,Dano na rede de fornecimento de eletricidade ,0,2,0,4,2025-01-29T09:39:00Z,Cadaval,Lisboa,Centro,-8.99533,39.21899
24886140,Castanheira de Pêra e Coentral,Região de Leiria,310,2025-01-29T09:54:00Z,24886140,Em despacho,3301,Queda de árvore,0,1,0,2,2025-01-29T09:54:00Z,Castanheira De Pêra,Leiria,Centro,-8.196364,40.017687
24886793,Miranda do Corvo,Região de Coimbra,310,2025-01-29T11:35:00Z,24886793,Em curso,3315,Inundação de estruturas por precipitação intensa,0,0,0,0,2025-01-29T11:35:00Z,Miranda Do Corvo,Coimbra,Centro,-8.339499,40.09407
24887126,Rio Tinto,Area M. Porto,309,2025-01-29T12:50:00Z,24887126,Em despacho,3329,Queda de estruturas temporárias ou móveis,0,3,0,6,2025-01-29T12:50:00Z,Gondomar,Porto,Norte,-8.556463,41.17285
24886300,"Sé, Santa Maria e Meixedo",Terras de Trás-os-Montes,309,2025-01-29T10:22:00Z,24886300,Em despacho,3315,Inundação de estruturas por precipitação intensa,0,3,0,4,2025-01-29T10:22:00Z,Bragança,Bragança,Norte,-6.76349,41.81617
24886364,Peso da Régua e Godim,Douro,309,2025-01-29T10:27:00Z,24886364,Em despacho,3315,Inundação de estruturas por precipitação intensa,0,1,0,2,2025-01-29T10:27:00Z,Peso Da Régua,Vila Real,Norte,-7.799499,41.166288
24886416,Lamas,Região de Coimbra,310,2025-01-29T10:35:00Z,24886416,Em curso,3315,Inundação de estruturas por precipitação intensa,0,0,0,0,2025-01-29T10:35:00Z,Miranda Do Corvo,Coimbra,Centro,-8.38289,40.094885
24887301,Foz de Arouce e Casal de Ermio,Região de Coimbra,310,2025-01-29T13:24:00Z,24887301,Em despacho,3301,Queda de árvore,0,1,0,2,2025-01-29T13:24:00Z,Lousã,Coimbra,Centro,-8.277489,40.159908
24887368,"São Pedro do Sul, Várzea e Baiões",Viseu Dão Lafões,310,2025-01-29T13:36:00Z,24887368,Em curso,3301,Queda de árvore,0,1,0,2,2025-01-29T13:36:00Z,São Pedro Do Sul,Viseu,Centro,-8.089323,40.736338
24887383,Carcavelos e Parede,Grande Lisboa,311,2025-01-29T13:42:00Z,24887383,Em despacho,3321,Dano na rede de fornecimento de eletricidade ,0,1,0,2,2025-01-29T13:42:00Z,Cascais,Lisboa,Área Metropolitana De Lisboa,-9.36719,38.70205
24877003,Malagueira e Horta Das Figueiras,Alentejo Central,312,2025-01-27T11:41:00Z,24877003,Em conclusão,3315,Inundação de estruturas por precipitação intensa,0,0,0,0,2025-01-27T11:41:00Z,Évora,Évora,Alentejo,-7.924277,38.57285
24886261,Rio Tinto,Area M. Porto,309,2025-01-29T10:17:00Z,24886261,Em despacho,3321,Dano na rede de fornecimento de eletricidade ,0,1,0,1,2025-01-29T10:17:00Z,Gondomar,Porto,Norte,-8.55251,41.17102
24887086,"Marvila, Ribeira Santarém, S.salvador, S.nicolau",Lezíria do Tejo,311,2025-01-29T12:43:00Z,24887086,Em curso,3313,Deslizamento de terras,0,1,0,1,2025-01-29T12:43:00Z,Santarém,Santarém,Alentejo,-8.72694,39.336959
24887324,"Sandim, Olival, Lever e Crestuma",Area M. Porto,309,2025-01-29T13:24:00Z,24887324,Em despacho,3315,Inundação de estruturas por precipitação intensa,0,2,0,4,2025-01-29T13:24:00Z,Vila Nova De Gaia,Porto,Norte,-8.502382,41.048753
24887411,Campelo e Ovil,Tâmega e Sousa,309,2025-01-29T13:44:00Z,24887411,Em curso,3315,Inundação de estruturas por precipitação intensa,0,1,0,3,2025-01-29T13:44:00Z,Baião,Porto,Norte,-8.023547,41.173195
24887436,Canelas e Espiunca,Area M. Porto,309,2025-01-29T13:48:00Z,24887436,Em despacho,3301,Queda de árvore,0,1,0,2,2025-01-29T13:48:00Z,Arouca,Aveiro,Norte,-8.212231,40.969918
