id,address,subregion,neighborhood,date,id.1,state,nature,nature_description,aerial_means,terrestrial_means,aquatic_means,operational,date.1,Concelho,Distrito,NUTII_DSG,longitude,latitude,state_2
25813482,Freches e Torres,Beiras e Serra da Estrela,310,2025-08-09T16:21:00Z,25813482,Em Resolução/Conclusão,3103,Incêndio rural,0,2,0,10,2025-08-09T16:21:00Z,Trancoso,Guarda,Centro,-7.363745,40.709022,Resolução/Conclusão
25832250,Ferreira de Aves,Viseu Dão Lafões,310,2025-08-13T00:03:00Z,25832250,Em Resolução/Conclusão,3103,Incêndio rural,0,3,0,13,2025-08-13T00:03:00Z,Sátão,Viseu,Centro,-7.647793,40.79568,Resolução/Conclusão
25836309,Cinfães,Tâmega e Sousa,309,2025-08-13T18:17:00Z,25836309,Em Resolução/Conclusão,3103,Incêndio rural,0,1,0,2,2025-08-13T18:17:00Z,Cinfães,Viseu,Norte,-8.071502,41.049757,Resolução/Conclusão
25840505,Ribeira de Nisa e Carreiras,Alto Alentejo,312,2025-08-14T14:01:00Z,25840505,Em Resolução/Conclusão,3101,Incêndio rural,0,2,0,7,2025-08-14T14:01:00Z,Portalegre,Portalegre,Alentejo,-7.47009,39.374707,Resolução/Conclusão
25851721,Arnóia,Tâmega e Sousa,309,2025-08-16T14:24:00Z,25851721,Em Resolução/Conclusão,3103,Incêndio rural,0,7,0,27,2025-08-16T14:24:00Z,Celorico De Basto,Braga,Norte,-7.994469,41.369836,Resolução/Conclusão
25877725,São Cipriano e Vil de Souto,Viseu Dão Lafões,310,2025-08-21T16:05:00Z,25877725,Em Resolução/Conclusão,3103,Incêndio rural,0,0,0,0,2025-08-21T16:05:00Z,Viseu,Viseu,Centro,-7.959537,40.61783,Resolução/Conclusão
25882003,"Mamouros, Alva e Ribolhos",Viseu Dão Lafões,310,2025-08-22T13:50:00Z,25882003,Em Resolução/Conclusão,3103,Incêndio rural,0,0,0,0,2025-08-22T13:50:00Z,Castro Daire,Viseu,Centro,-7.972402,40.848113,Resolução/Conclusão
25891313,Cervães,Cávado,309,2025-08-24T13:23:00Z,25891313,Em Resolução/Conclusão,3103,Incêndio rural,0,5,0,16,2025-08-24T13:23:00Z,Vila Verde,Braga,Norte,-8.525457,41.612832,Resolução/Conclusão
25891462,Faíl e Vila Chã de Sá,Viseu Dão Lafões,310,2025-08-24T12:41:00Z,25891462,Em Resolução/Conclusão,3103,Incêndio rural,0,3,0,10,2025-08-24T12:41:00Z,Viseu,Viseu,Centro,-7.956645,40.601897,Resolução/Conclusão
25832672,Piódão,Região de Coimbra,310,2025-08-13T05:08:00Z,25832672,Em Resolução/Conclusão,3103,Incêndio rural,0,242,0,732,2025-08-13T05:08:00Z,Arganil,Coimbra,Centro,-7.81972,40.23083,Resolução/Conclusão
25840417,Lousã e Vilarinho,Região de Coimbra,310,2025-08-14T13:46:00Z,25840417,Em Resolução/Conclusão,3101,Incêndio rural,0,4,0,12,2025-08-14T13:46:00Z,Lousã,Coimbra,Centro,-8.201561,40.080016,Resolução/Conclusão
25896355,Alqueidão,Região de Coimbra,310,2025-08-25T14:18:00Z,25896355,Em Resolução/Conclusão,3101,Incêndio rural,0,17,0,58,2025-08-25T14:18:00Z,Figueira Da Foz,Coimbra,Centro,-8.7625,40.08639,Resolução/Conclusão
25896498,Esmolfe,Viseu Dão Lafões,310,2025-08-25T14:43:00Z,25896498,Em Resolução/Conclusão,3103,Incêndio rural,0,1,0,4,2025-08-25T14:43:00Z,Penalva Do Castelo,Viseu,Centro,-7.673287,40.679115,Resolução/Conclusão
25896646,"Refojos de Basto, Outeiro e Painzela",Ave,309,2025-08-25T15:15:00Z,25896646,Em Resolução/Conclusão,3103,Incêndio rural,0,4,0,17,2025-08-25T15:15:00Z,Cabeceiras De Basto,Braga,Norte,-8.010408,41.514146,Resolução/Conclusão
25896673,Ruivães e Campos,Ave,309,2025-08-25T15:20:00Z,25896673,Em Curso,3103,Incêndio rural,1,16,0,61,2025-08-25T15:20:00Z,Vieira Do Minho,Braga,Norte,-8.055852,41.672477,Curso
25896889,Cabana Maior,Alto Minho,309,2025-08-25T16:03:00Z,25896889,Em Curso,3101,Incêndio rural,2,12,0,37,2025-08-25T16:03:00Z,Arcos De Valdevez,Viana Do Castelo,Norte,-8.35358,41.871546,Curso
25897250,Viade de Baixo e Fervidelas,Alto Tâmega e Barroso,309,2025-08-25T17:20:00Z,25897250,Em Curso,3103,Incêndio rural,8,20,0,93,2025-08-25T17:20:00Z,Montalegre,Vila Real,Norte,-7.860477,41.725298,Curso
25897348,Bertiandos,Alto Minho,309,2025-08-25T17:41:00Z,25897348,Em Resolução/Conclusão,3105,Incêndio rural,0,2,0,7,2025-08-25T17:41:00Z,Ponte De Lima,Viana Do Castelo,Norte,-8.628689,41.75915,Resolução/Conclusão
25897423,"Ardegão, Arnozela e Seidões",Ave,309,2025-08-25T17:57:00Z,25897423,Em Resolução/Conclusão,3103,Incêndio rural,0,3,0,12,2025-08-25T17:57:00Z,Fafe,Braga,Norte,-8.124387,41.396363,Resolução/Conclusão
25861685,Santa Catarina da Serra e Chainça,Região de Leiria,310,2025-08-18T13:03:00Z,25861685,Em Resolução/Conclusão,3103,Incêndio rural,0,1,0,2,2025-08-18T13:03:00Z,Leiria,Leiria,Centro,-8.698656,39.708305,Resolução/Conclusão
25883011,Almofala,Viseu Dão Lafões,310,2025-08-22T17:00:00Z,25883011,Em Resolução/Conclusão,3103,Incêndio rural,0,3,0,14,2025-08-22T17:00:00Z,Castro Daire,Viseu,Centro,-7.767003,40.956183,Resolução/Conclusão
25887019,Pedrógão Grande,Região de Leiria,310,2025-08-23T14:27:00Z,25887019,Em Resolução/Conclusão,3101,Incêndio rural,1,52,0,172,2025-08-23T14:27:00Z,Pedrógão Grande,Leiria,Centro,-8.15364,39.9136,Resolução/Conclusão
25892294,Cótimos,Beiras e Serra da Estrela,310,2025-08-24T17:26:00Z,25892294,Em Resolução/Conclusão,3103,Incêndio rural,0,1,0,5,2025-08-24T17:26:00Z,Trancoso,Guarda,Centro,-7.272495,40.826932,Resolução/Conclusão
25893480,Este (São Pedro e São Mamede),Cávado,309,2025-08-24T23:22:00Z,25893480,Em Resolução/Conclusão,3103,Incêndio rural,0,3,0,8,2025-08-24T23:22:00Z,Braga,Braga,Norte,-8.368823,41.555605,Resolução/Conclusão
25896327,Cornes,Alto Minho,309,2025-08-25T14:08:00Z,25896327,Em Resolução/Conclusão,3105,Incêndio rural,0,2,0,7,2025-08-25T14:08:00Z,Vila Nova De Cerveira,Viana Do Castelo,Norte,-8.67561,41.963422,Resolução/Conclusão
25896563,Vilela,Area M. Porto,309,2025-08-25T14:55:00Z,25896563,Em Resolução/Conclusão,3103,Incêndio rural,0,2,0,10,2025-08-25T14:55:00Z,Paredes,Porto,Norte,-8.390771,41.233108,Resolução/Conclusão
25897422,Sanfins,Alto Tâmega e Barroso,309,2025-08-25T17:55:00Z,25897422,Em Resolução/Conclusão,3103,Incêndio rural,0,3,0,14,2025-08-25T17:55:00Z,Chaves,Vila Real,Norte,-7.312573,41.819528,Resolução/Conclusão
25897506,Monte e Queimadela,Ave,309,2025-08-25T18:14:00Z,25897506,Em Curso,3103,Incêndio rural,2,6,0,39,2025-08-25T18:14:00Z,Fafe,Braga,Norte,-8.14997,41.51774,Curso
25897508,"N. S. da Vila, N. S. do Bispo e Silveiras",Alentejo Central,312,2025-08-25T18:10:00Z,25897508,Em Resolução/Conclusão,3103,Incêndio rural,0,4,0,14,2025-08-25T18:10:00Z,Montemor-o-Novo,Évora,Alentejo,-8.201713,38.746237,Resolução/Conclusão
25818455,Sobral de São Miguel,Beiras e Serra da Estrela,310,2025-08-10T15:02:00Z,25818455,Em Resolução/Conclusão,3103,Incêndio rural,0,1,0,1,2025-08-10T15:02:00Z,Covilhã,Castelo Branco,Centro,-7.77307,40.200173,Resolução/Conclusão
25846480,Sabugal e Aldeia de Santo António,Beiras e Serra da Estrela,310,2025-08-15T14:41:00Z,25846480,Em Resolução/Conclusão,3103,Incêndio rural,0,18,0,58,2025-08-15T14:41:00Z,Sabugal,Guarda,Centro,-7.125037,40.34023,Resolução/Conclusão
25852580,São João de Tarouca,Douro,309,2025-08-16T17:00:00Z,25852580,Em Resolução/Conclusão,3103,Incêndio rural,0,3,0,12,2025-08-16T17:00:00Z,Tarouca,Viseu,Norte,-7.760748,40.986773,Resolução/Conclusão
25891770,São Martinho de Antas e Paradela de Guiães,Douro,309,2025-08-24T15:06:00Z,25891770,Em Resolução/Conclusão,3101,Incêndio rural,0,40,0,135,2025-08-24T15:06:00Z,Sabrosa,Vila Real,Norte,-7.640418,41.23664,Resolução/Conclusão
25896583,Laranjeiro e Feijó,Península de Setúbal,311,2025-08-25T15:02:00Z,25896583,Em Resolução/Conclusão,3103,Incêndio rural,1,1,0,8,2025-08-25T15:02:00Z,Almada,Setúbal,Área Metropolitana De Lisboa,-9.181613,38.658767,Resolução/Conclusão
25897217,Verdoejo,Alto Minho,309,2025-08-25T17:12:00Z,25897217,Em Resolução/Conclusão,3103,Incêndio rural,0,4,0,12,2025-08-25T17:12:00Z,Valença,Viana Do Castelo,Norte,-8.57995,42.047665,Resolução/Conclusão
25897476,Vila Nova de Cacela,Algarve,313,2025-08-25T18:08:00Z,25897476,Em Resolução/Conclusão,3103,Incêndio rural,0,7,0,26,2025-08-25T18:08:00Z,Vila Real De Santo António,Faro,Algarve,-7.51971,37.16834,Resolução/Conclusão
25897563,Folgosinho,Beiras e Serra da Estrela,310,2025-08-25T18:20:00Z,25897563,Em Resolução/Conclusão,3103,Incêndio rural,0,3,0,11,2025-08-25T18:20:00Z,Gouveia,Guarda,Centro,-7.512682,40.50827,Resolução/Conclusão
