id,address,subregion,neighborhood,date,id.1,state,nature,nature_description,aerial_means,terrestrial_means,aquatic_means,operational,date.1,Concelho,Distrito,NUTII_DSG,longitude,latitude
25318361,Nossa Senhora da Graça Dos Degolados,Alto Alentejo,312,2025-05-02T13:00:00Z,25318361,Em conclusão,3301,Queda de árvore,0,0,0,0,2025-05-02T13:00:00Z,Campo Maior,Portalegre,Alentejo,-7.118757,39.056913
25319004,Nossa Senhora da Graça Dos Degolados,Alto Alentejo,312,2025-05-02T14:42:00Z,25319004,Em conclusão,3321,Dano na rede de fornecimento de eletricidade ,0,0,0,0,2025-05-02T14:42:00Z,Campo Maior,Portalegre,Alentejo,-7.121187,39.061476999999996
25071496,São Manços e São Vicente do Pigeiro,Alentejo Central,312,2025-03-11T13:18:00Z,25071496,Em conclusão,1101,Cheia,0,0,0,0,2025-03-11T13:18:00Z,Évora,Évora,Alentejo,-7.713313,38.513673
25318424,Nossa Senhora da Graça Dos Degolados,Alto Alentejo,312,2025-05-02T13:10:00Z,25318424,Em resolução,1103,Vento forte,0,0,0,0,2025-05-02T13:10:00Z,Campo Maior,Portalegre,Alentejo,-7.12147,39.062622
25318992,Nossa Senhora da Graça Dos Degolados,Alto Alentejo,312,2025-05-02T14:50:00Z,25318992,Em conclusão,3301,Queda de árvore,0,1,0,1,2025-05-02T14:50:00Z,Campo Maior,Portalegre,Alentejo,-7.12101,39.06231
25319125,Nossa Senhora da Graça Dos Degolados,Alto Alentejo,312,2025-05-02T14:30:00Z,25319125,Em conclusão,3309,Desabamento de estruturas edificadas,0,0,0,0,2025-05-02T14:30:00Z,Campo Maior,Portalegre,Alentejo,-7.11959,39.058483
25319242,"Lemenhe, Mouquim e Jesufrei",Ave,309,2025-05-02T15:50:00Z,25319242,Em curso,3315,Inundação de estruturas por precipitação intensa,0,1,0,2,2025-05-02T15:50:00Z,Vila Nova De Famalicão,Braga,Norte,-8.519555,41.447557
25319276,Nossa Senhora da Graça Dos Degolados,Alto Alentejo,312,2025-05-02T16:06:00Z,25319276,Em conclusão,3301,Queda de árvore,0,0,0,0,2025-05-02T16:06:00Z,Campo Maior,Portalegre,Alentejo,-7.120283,39.059113
25319813,Escalhão,Beiras e Serra da Estrela,310,2025-05-02T18:01:00Z,25319813,Em despacho,3301,Queda de árvore,0,2,0,5,2025-05-02T18:01:00Z,Figueira De Castelo Rodrigo,Guarda,Centro,-6.94033,41.02794
25319435,Nossa Senhora da Graça Dos Degolados,Alto Alentejo,312,2025-05-02T16:26:00Z,25319435,Em conclusão,3309,Desabamento de estruturas edificadas,0,2,0,6,2025-05-02T16:26:00Z,Campo Maior,Portalegre,Alentejo,-7.120847,39.061692
25319735,Brasfemes,Região de Coimbra,310,2025-05-02T17:40:00Z,25319735,Em despacho,3315,Inundação de estruturas por precipitação intensa,0,1,0,4,2025-05-02T17:40:00Z,Coimbra,Coimbra,Centro,-8.412952,40.275832
25316776,Guarda,Beiras e Serra da Estrela,310,2025-05-02T07:17:00Z,25316776,Em conclusão,3311,Queda de elementos de estruturas edificados,0,9,0,18,2025-05-02T07:17:00Z,Guarda,Guarda,Centro,-7.269039,40.539292
25318344,Nossa Senhora da Graça Dos Degolados,Alto Alentejo,312,2025-05-02T12:45:00Z,25318344,Em conclusão,3309,Desabamento de estruturas edificadas,0,0,0,0,2025-05-02T12:45:00Z,Campo Maior,Portalegre,Alentejo,-7.121009,39.061301
25319977,"Gondomar (São Cosme), Valbom e Jovim",Area M. Porto,309,2025-05-02T18:37:00Z,25319977,Em despacho,3315,Inundação de estruturas por precipitação intensa,0,1,0,2,2025-05-02T18:37:00Z,Gondomar,Porto,Norte,-8.53668,41.1398
