id,address,subregion,neighborhood,date,id.1,state,nature,nature_description,aerial_means,terrestrial_means,aquatic_means,operational,date.1,Concelho,Distrito,NUTII_DSG,longitude,latitude
24851780,"São Miguel, Santa Eufémia e Rabaçal",Região de Coimbra,310,2025-01-21T23:25:00Z,24851780,Em curso,3315,Inundação de estruturas por precipitação intensa,0,0,0,0,2025-01-21T23:25:00Z,Penela,Coimbra,Centro,-8.399036,40.025502
24865500,"Cedofeita, Ildefonso, Sé, Miragaia, Nicolau e Vitória",Area M. Porto,309,2025-01-24T19:18:00Z,24865500,Em curso,3311,Queda de elementos de estruturas edificados,0,1,0,5,2025-01-24T19:18:00Z,Porto,Porto,Norte,-8.615939,41.15359
24865347,"Ardegão, Freixo e Mato",Alto Minho,309,2025-01-24T18:40:00Z,24865347,Em curso,3301,Queda de árvore,0,0,0,0,2025-01-24T18:40:00Z,Ponte De Lima,Viana Do Castelo,Norte,-8.588227,41.656012
24865512,"S.maria, S.miguel, S.martinho, S.pedro Penaferrim",Grande Lisboa,311,2025-01-24T19:21:00Z,24865512,Em resolução,3301,Queda de árvore,0,1,0,5,2025-01-24T19:21:00Z,Sintra,Lisboa,Área Metropolitana De Lisboa,-9.41878,38.794668
24864975,"Marvila, Ribeira Santarém, S.salvador, S.nicolau",Lezíria do Tejo,311,2025-01-24T17:14:00Z,24864975,Em despacho,3313,Deslizamento de terras,0,1,0,1,2025-01-24T17:14:00Z,Santarém,Santarém,Alentejo,-8.678591,39.231938
