id,address,subregion,neighborhood,date,id.1,state,nature,nature_description,aerial_means,terrestrial_means,aquatic_means,operational,date.1,Concelho,Distrito,NUTII_DSG,longitude,latitude,state_2
25763650,Milagres,Região de Leiria,310,2025-07-31T15:58:00Z,25763650,Em Resolução/Conclusão,3101,Incêndio rural,0,2,0,4,2025-07-31T15:58:00Z,Leiria,Leiria,Centro,-8.792217,39.793427,Resolução/Conclusão
25781305,Tamel (Santa Leocádia) e Vilar do Monte,Cávado,309,2025-08-03T23:17:00Z,25781305,Em Resolução/Conclusão,3103,Incêndio rural,0,4,0,11,2025-08-03T23:17:00Z,Barcelos,Braga,Norte,-8.66043,41.566023,Resolução/Conclusão
25782109,Monte e Queimadela,Ave,309,2025-08-04T07:12:00Z,25782109,Em Resolução/Conclusão,3103,Incêndio rural,0,4,0,16,2025-08-04T07:12:00Z,Fafe,Braga,Norte,-8.133707,41.507367,Resolução/Conclusão
25738747,Lindoso,Alto Minho,309,2025-07-26T21:47:00Z,25738747,Em Resolução/Conclusão,3103,Incêndio rural,1,129,0,388,2025-07-26T21:47:00Z,Ponte Da Barca,Viana Do Castelo,Norte,-8.220528,41.865272,Resolução/Conclusão
25747773,Aranhas,Beira Baixa,310,2025-07-28T16:36:00Z,25747773,Em Resolução/Conclusão,3103,Incêndio rural,0,3,0,11,2025-07-28T16:36:00Z,Penamacor,Castelo Branco,Centro,-7.14438,40.117542,Resolução/Conclusão
25752083,Alcanede,Lezíria do Tejo,311,2025-07-29T13:12:00Z,25752083,Em Resolução/Conclusão,3103,Incêndio rural,0,3,0,12,2025-07-29T13:12:00Z,Santarém,Santarém,Alentejo,-8.802682,39.405543,Resolução/Conclusão
25775263,Torgueda,Douro,309,2025-08-02T19:49:00Z,25775263,Em Resolução/Conclusão,3101,Incêndio rural,0,10,0,34,2025-08-02T19:49:00Z,Vila Real,Vila Real,Norte,-7.785983,41.274952,Resolução/Conclusão
25778337,Senhorim,Viseu Dão Lafões,310,2025-08-03T11:59:00Z,25778337,Em Resolução/Conclusão,3103,Incêndio rural,0,0,0,0,2025-08-03T11:59:00Z,Nelas,Viseu,Centro,-7.825723,40.54384,Resolução/Conclusão
25780418,Pias,Alto Minho,309,2025-08-03T19:32:00Z,25780418,Em Resolução/Conclusão,3103,Incêndio rural,0,5,0,12,2025-08-03T19:32:00Z,Monção,Viana Do Castelo,Norte,-8.529693,42.015753,Resolução/Conclusão
25780604,Rio Frio,Alto Minho,309,2025-08-03T20:13:00Z,25780604,Em Curso,3103,Incêndio rural,1,14,0,49,2025-08-03T20:13:00Z,Arcos De Valdevez,Viana Do Castelo,Norte,-8.492232,41.868325,Curso
25781822,São Gens,Ave,309,2025-08-04T03:44:00Z,25781822,Em Resolução/Conclusão,3103,Incêndio rural,0,34,0,103,2025-08-04T03:44:00Z,Fafe,Braga,Norte,-8.101607,41.44259,Resolução/Conclusão
25783053,Fornos de Algodres,Beiras e Serra da Estrela,310,2025-08-04T10:09:00Z,25783053,Em Resolução/Conclusão,3103,Incêndio rural,0,2,0,4,2025-08-04T10:09:00Z,Fornos De Algodres,Guarda,Centro,-7.564945,40.60766,Resolução/Conclusão
25783710,Castêlo da Maia,Area M. Porto,309,2025-08-04T11:48:00Z,25783710,Em Resolução/Conclusão,3103,Incêndio rural,0,3,0,14,2025-08-04T11:48:00Z,Maia,Porto,Norte,-8.621138,41.246883,Resolução/Conclusão
25783846,"Provesende, Gouvães Douro, S.cristóvão Douro",Douro,309,2025-08-04T12:08:00Z,25783846,Em Despacho,3103,Incêndio rural,1,0,0,6,2025-08-04T12:08:00Z,Sabrosa,Vila Real,Norte,-7.56535,41.20441,Despacho
25783853,"Vale de Mendiz, Casal de Loivos e Vilarinho de Cotas",Douro,309,2025-08-04T12:10:00Z,25783853,Em Despacho,3103,Incêndio rural,0,0,0,0,2025-08-04T12:10:00Z,Alijó,Vila Real,Norte,-7.532752,41.1993,Despacho
25783563,Lavradas,Alto Minho,309,2025-08-04T11:20:00Z,25783563,Em Resolução/Conclusão,3101,Incêndio rural,0,1,0,5,2025-08-04T11:20:00Z,Ponte Da Barca,Viana Do Castelo,Norte,-8.46504,41.792813,Resolução/Conclusão
25783763,"Lobão, Gião, Louredo e Guisande",Area M. Porto,309,2025-08-04T11:55:00Z,25783763,Em Resolução/Conclusão,3103,Incêndio rural,1,3,0,22,2025-08-04T11:55:00Z,Santa Maria Da Feira,Aveiro,Norte,-8.484747,40.9879,Resolução/Conclusão
25783827,Vale de Anta,Alto Tâmega e Barroso,309,2025-08-04T12:04:00Z,25783827,Em Curso,3101,Incêndio rural,1,4,0,26,2025-08-04T12:04:00Z,Chaves,Vila Real,Norte,-7.493765,41.744487,Curso
25750701,Capela,Tâmega e Sousa,309,2025-07-29T09:26:00Z,25750701,Em Resolução/Conclusão,3103,Incêndio rural,0,9,0,32,2025-07-29T09:26:00Z,Penafiel,Porto,Norte,-8.345202,41.09353,Resolução/Conclusão
25773830,Andrães,Douro,309,2025-08-02T14:23:00Z,25773830,Em Resolução/Conclusão,3103,Incêndio rural,0,34,0,113,2025-08-02T14:23:00Z,Vila Real,Vila Real,Norte,-7.671293,41.267593,Resolução/Conclusão
25774883,Arnóia,Tâmega e Sousa,309,2025-08-02T18:20:00Z,25774883,Em Curso,3103,Incêndio rural,0,103,0,299,2025-08-02T18:20:00Z,Celorico De Basto,Braga,Norte,-7.998983,41.348727,Curso
25775734,Sequeiros e Gradiz,Viseu Dão Lafões,310,2025-08-02T21:35:00Z,25775734,Em Resolução/Conclusão,3103,Incêndio rural,0,1,0,2,2025-08-02T21:35:00Z,Aguiar Da Beira,Guarda,Centro,-7.564515,40.858278,Resolução/Conclusão
25780785,Bouçoães,Alto Tâmega e Barroso,309,2025-08-03T20:57:00Z,25780785,Em Resolução/Conclusão,3103,Incêndio rural,0,1,0,5,2025-08-03T20:57:00Z,Valpaços,Vila Real,Norte,-7.187076,41.741829,Resolução/Conclusão
25781884,Graça,Região de Leiria,310,2025-08-04T04:33:00Z,25781884,Em Resolução/Conclusão,3101,Incêndio rural,0,1,0,2,2025-08-04T04:33:00Z,Pedrógão Grande,Leiria,Centro,-8.204434,39.895198,Resolução/Conclusão
25782105,Croca,Tâmega e Sousa,309,2025-08-04T07:08:00Z,25782105,Em Resolução/Conclusão,3103,Incêndio rural,0,3,0,9,2025-08-04T07:08:00Z,Penafiel,Porto,Norte,-8.224142,41.220425,Resolução/Conclusão
25782121,Bunheiro,Região de Aveiro,310,2025-08-04T07:14:00Z,25782121,Em Resolução/Conclusão,3101,Incêndio rural,0,3,0,6,2025-08-04T07:14:00Z,Murtosa,Aveiro,Centro,-8.605583,40.774805,Resolução/Conclusão
25748118,Canelas e Espiunca,Area M. Porto,309,2025-07-28T17:16:00Z,25748118,Em Resolução/Conclusão,3101,Incêndio rural,0,29,0,75,2025-07-28T17:16:00Z,Arouca,Aveiro,Norte,-8.212231,40.969918,Resolução/Conclusão
25749320,Rebordões (Santa Maria),Alto Minho,309,2025-07-28T22:47:00Z,25749320,Em Resolução/Conclusão,3103,Incêndio rural,0,2,0,5,2025-07-28T22:47:00Z,Ponte De Lima,Viana Do Castelo,Norte,-8.588365,41.729993,Resolução/Conclusão
25749641,Silva Escura e Dornelas,Região de Aveiro,310,2025-07-29T01:02:00Z,25749641,Em Resolução/Conclusão,3101,Incêndio rural,0,6,0,24,2025-07-29T01:02:00Z,Sever Do Vouga,Aveiro,Centro,-8.399623,40.769354,Resolução/Conclusão
25756006,Pinhanços,Beiras e Serra da Estrela,310,2025-07-30T09:07:00Z,25756006,Em Resolução/Conclusão,3103,Incêndio rural,0,1,0,5,2025-07-30T09:07:00Z,Seia,Guarda,Centro,-7.708132,40.473517,Resolução/Conclusão
25776263,"Pena, Quintã e Vila Cova",Douro,309,2025-08-02T23:45:00Z,25776263,Em Curso,3103,Incêndio rural,8,133,0,408,2025-08-02T23:45:00Z,Vila Real,Vila Real,Norte,-7.811902,41.317355,Curso
25779639,Senhorim,Viseu Dão Lafões,310,2025-08-03T16:28:00Z,25779639,Em Resolução/Conclusão,3103,Incêndio rural,0,2,0,6,2025-08-03T16:28:00Z,Nelas,Viseu,Centro,-7.81226,40.511713,Resolução/Conclusão
25781308,Beiral do Lima,Alto Minho,309,2025-08-03T23:18:00Z,25781308,Em Resolução/Conclusão,3103,Incêndio rural,0,4,0,11,2025-08-03T23:18:00Z,Ponte De Lima,Viana Do Castelo,Norte,-8.480692,41.758943,Resolução/Conclusão
25781592,Guarda,Beiras e Serra da Estrela,310,2025-08-04T01:10:00Z,25781592,Em Resolução/Conclusão,3103,Incêndio rural,0,2,0,10,2025-08-04T01:10:00Z,Guarda,Guarda,Centro,-7.225555,40.559305,Resolução/Conclusão
25783717,Cunha Baixa,Viseu Dão Lafões,310,2025-08-04T11:48:00Z,25783717,Em Curso,3101,Incêndio rural,4,22,0,104,2025-08-04T11:48:00Z,Mangualde,Viseu,Centro,-7.754683,40.560647,Curso
