id,address,subregion,neighborhood,date,id.1,state,nature,nature_description,aerial_means,terrestrial_means,aquatic_means,operational,date.1,Concelho,Distrito,NUTII_DSG,longitude,latitude,state_2
25696955,"Vilela, Seramil e Paredes Secas",Cávado,309,2025-07-18T13:36:00Z,25696955,Em Resolução/Conclusão,3101,Incêndio rural,0,2,0,10,2025-07-18T13:36:00Z,Amares,Braga,Norte,-8.309448,41.67517,Resolução/Conclusão
25703020,Alcanede,Lezíria do Tejo,311,2025-07-19T18:24:00Z,25703020,Em Resolução/Conclusão,3103,Incêndio rural,1,29,0,108,2025-07-19T18:24:00Z,Santarém,Santarém,Alentejo,-8.8021,39.403117,Resolução/Conclusão
25703086,"Ponte da Barca, V. N. Muía e Paço Vedro Magalhães",Alto Minho,309,2025-07-19T18:45:00Z,25703086,Em Resolução/Conclusão,3103,Incêndio rural,0,3,0,9,2025-07-19T18:45:00Z,Ponte Da Barca,Viana Do Castelo,Norte,-8.393265,41.801573,Resolução/Conclusão
25703306,Batalha,Região de Leiria,310,2025-07-19T19:30:00Z,25703306,Em Resolução/Conclusão,3111,Queima,0,1,0,2,2025-07-19T19:30:00Z,Batalha,Leiria,Centro,-8.829688,39.677072,Resolução/Conclusão
25686799,Souto Maior,Douro,309,2025-07-16T13:19:00Z,25686799,Em Resolução/Conclusão,3101,Incêndio rural,0,14,0,44,2025-07-16T13:19:00Z,Sabrosa,Vila Real,Norte,-7.57839,41.287518,Resolução/Conclusão
25703047,Vila Chã (São João Baptista e Santiago),Alto Minho,309,2025-07-19T18:30:00Z,25703047,Em Resolução/Conclusão,3103,Incêndio rural,0,1,0,5,2025-07-19T18:30:00Z,Ponte Da Barca,Viana Do Castelo,Norte,-8.352668,41.787662,Resolução/Conclusão
25703112,Rio Mau e Arcos,Area M. Porto,309,2025-07-19T18:43:00Z,25703112,Em Resolução/Conclusão,3101,Incêndio rural,0,2,0,7,2025-07-19T18:43:00Z,Vila Do Conde,Porto,Norte,-8.680828,41.401365,Resolução/Conclusão
25701864,Bordonhos,Viseu Dão Lafões,310,2025-07-19T13:53:00Z,25701864,Em Resolução/Conclusão,3103,Incêndio rural,0,2,0,7,2025-07-19T13:53:00Z,São Pedro Do Sul,Viseu,Centro,-8.088672,40.765902,Resolução/Conclusão
25702273,Selmes,Baixo Alentejo,312,2025-07-19T15:16:00Z,25702273,Em Resolução/Conclusão,3105,Incêndio rural,0,10,0,32,2025-07-19T15:16:00Z,Vidigueira,Beja,Alentejo,-7.771817,38.209072,Resolução/Conclusão
25702598,Ericeira,Grande Lisboa,311,2025-07-19T16:40:00Z,25702598,Em Resolução/Conclusão,3101,Incêndio rural,0,0,0,0,2025-07-19T16:40:00Z,Mafra,Lisboa,Área Metropolitana De Lisboa,-9.388492,38.966247,Resolução/Conclusão
25702864,Tarouquela,Tâmega e Sousa,309,2025-07-19T16:36:00Z,25702864,Em Resolução/Conclusão,3103,Incêndio rural,0,3,0,12,2025-07-19T16:36:00Z,Cinfães,Viseu,Norte,-8.178045,41.06971,Resolução/Conclusão
25702975,Ermida e Figueiredo,Beira Baixa,310,2025-07-19T18:13:00Z,25702975,Em Resolução/Conclusão,3101,Incêndio rural,0,6,0,24,2025-07-19T18:13:00Z,Sertã,Castelo Branco,Centro,-7.982773,39.84015,Resolução/Conclusão
25703207,Gulpilhares e Valadares,Area M. Porto,309,2025-07-19T19:11:00Z,25703207,Em Resolução/Conclusão,3103,Incêndio rural,0,2,0,5,2025-07-19T19:11:00Z,Vila Nova De Gaia,Porto,Norte,-8.652307,41.09464,Resolução/Conclusão
25703323,Costa da Caparica,Península de Setúbal,311,2025-07-19T19:42:00Z,25703323,Em Resolução/Conclusão,3103,Incêndio rural,0,4,0,20,2025-07-19T19:42:00Z,Almada,Setúbal,Área Metropolitana De Lisboa,-9.2294,38.64034,Resolução/Conclusão
25703391,Albergaria-a-Velha e Valmaior,Região de Aveiro,310,2025-07-19T19:54:00Z,25703391,Em Despacho,3103,Incêndio rural,1,3,0,21,2025-07-19T19:54:00Z,Albergaria-a-Velha,Aveiro,Centro,-8.479745,40.688997,Despacho
25702890,Ventosa,Oeste,311,2025-07-19T17:52:00Z,25702890,Em Resolução/Conclusão,3103,Incêndio rural,0,6,0,16,2025-07-19T17:52:00Z,Torres Vedras,Lisboa,Centro,-9.34374,39.07182,Resolução/Conclusão
25703459,Pinhal Novo,Península de Setúbal,311,2025-07-19T20:12:00Z,25703459,Em Despacho,3103,Incêndio rural,0,1,0,5,2025-07-19T20:12:00Z,Palmela,Setúbal,Área Metropolitana De Lisboa,-8.85817,38.673386,Despacho
25703264,Arnóia,Tâmega e Sousa,309,2025-07-19T19:07:00Z,25703264,Em Resolução/Conclusão,3103,Incêndio rural,0,2,0,10,2025-07-19T19:07:00Z,Celorico De Basto,Braga,Norte,-8.017668,41.374917,Resolução/Conclusão
25703428,Fátima,Médio Tejo,311,2025-07-19T20:03:00Z,25703428,Em Resolução/Conclusão,3103,Incêndio rural,0,6,0,24,2025-07-19T20:03:00Z,Ourém,Santarém,Centro,-8.667755,39.632796,Resolução/Conclusão
