id,address,subregion,neighborhood,date,id.1,state,nature,nature_description,aerial_means,terrestrial_means,aquatic_means,operational,date.1,Concelho,Distrito,NUTII_DSG,longitude,latitude
24851780,"São Miguel, Santa Eufémia e Rabaçal",Região de Coimbra,310,2025-01-21T23:25:00Z,24851780,Em curso,3315,Inundação de estruturas por precipitação intensa,0,0,0,0,2025-01-21T23:25:00Z,Penela,Coimbra,Centro,-8.399036,40.025502
24910491,Charneca de Caparica e Sobreda,Península de Setúbal,311,2025-02-03T16:14:00Z,24910491,Em despacho,3301,Queda de árvore,0,1,0,6,2025-02-03T16:14:00Z,Almada,Setúbal,Área Metropolitana De Lisboa,-9.190193,38.591584
24877003,Malagueira e Horta Das Figueiras,Alentejo Central,312,2025-01-27T11:41:00Z,24877003,Em conclusão,3315,Inundação de estruturas por precipitação intensa,0,0,0,0,2025-01-27T11:41:00Z,Évora,Évora,Alentejo,-7.924277,38.57285
24909934,Marco,Tâmega e Sousa,309,2025-02-03T14:29:00Z,24909934,Em despacho,3317,Inundação de estruturas por água canalizada,0,2,0,5,2025-02-03T14:29:00Z,Marco De Canaveses,Porto,Norte,-8.14386,41.181173
24910409,Paranhos,Area M. Porto,309,2025-02-03T16:11:00Z,24910409,Em despacho,3317,Inundação de estruturas por água canalizada,0,1,0,5,2025-02-03T16:11:00Z,Porto,Porto,Norte,-8.6088,41.16346
