id,address,subregion,neighborhood,date,id.1,state,nature,nature_description,aerial_means,terrestrial_means,aquatic_means,operational,date.1,Concelho,Distrito,NUTII_DSG,longitude,latitude
24871459,Chave,Area M. Porto,309,2025-01-26T09:39:00Z,24871459,Em despacho,3301,Queda de árvore,0,1,0,2,2025-01-26T09:39:00Z,Arouca,Aveiro,Norte,-8.350782,40.904985
24851780,"São Miguel, Santa Eufémia e Rabaçal",Região de Coimbra,310,2025-01-21T23:25:00Z,24851780,Em curso,3315,Inundação de estruturas por precipitação intensa,0,0,0,0,2025-01-21T23:25:00Z,Penela,Coimbra,Centro,-8.399036,40.025502
24871716,"Ovar, São João, Arada e São Vicente de Pereira Jusã",Região de Aveiro,310,2025-01-26T10:35:00Z,24871716,Em curso,3315,Inundação de estruturas por precipitação intensa,0,1,0,2,2025-01-26T10:35:00Z,Ovar,Aveiro,Centro,-8.671695,40.872857
24871495,Montaria,Alto Minho,309,2025-01-26T09:35:00Z,24871495,Em curso,3301,Queda de árvore,0,2,0,4,2025-01-26T09:35:00Z,Viana Do Castelo,Viana Do Castelo,Norte,-8.741482,41.79904
24871670,Touvedo (São Lourenço e Salvador),Alto Minho,309,2025-01-26T10:05:00Z,24871670,Em conclusão,3301,Queda de árvore,0,0,0,0,2025-01-26T10:05:00Z,Ponte Da Barca,Viana Do Castelo,Norte,-8.35122,41.811847
