id,address,subregion,neighborhood,date,id.1,state,nature,nature_description,aerial_means,terrestrial_means,aquatic_means,operational,date.1,Concelho,Distrito,NUTII_DSG,longitude,latitude,state_2
25748118,Canelas e Espiunca,Area M. Porto,309,2025-07-28T17:16:00Z,25748118,Em Resolução/Conclusão,3101,Incêndio rural,0,159,0,432,2025-07-28T17:16:00Z,Arouca,Aveiro,Norte,-8.212231,40.969918,Resolução/Conclusão
25749320,Rebordões (Santa Maria),Alto Minho,309,2025-07-28T22:47:00Z,25749320,Em Resolução/Conclusão,3103,Incêndio rural,0,4,0,17,2025-07-28T22:47:00Z,Ponte De Lima,Viana Do Castelo,Norte,-8.588365,41.729993,Resolução/Conclusão
25749641,Silva Escura e Dornelas,Região de Aveiro,310,2025-07-29T01:02:00Z,25749641,Em Resolução/Conclusão,3101,Incêndio rural,0,6,0,16,2025-07-29T01:02:00Z,Sever Do Vouga,Aveiro,Centro,-8.399623,40.769354,Resolução/Conclusão
25756006,Pinhanços,Beiras e Serra da Estrela,310,2025-07-30T09:07:00Z,25756006,Em Resolução/Conclusão,3103,Incêndio rural,0,8,0,19,2025-07-30T09:07:00Z,Seia,Guarda,Centro,-7.708132,40.473517,Resolução/Conclusão
25756459,Nespereira,Tâmega e Sousa,309,2025-07-30T10:20:00Z,25756459,Em Resolução/Conclusão,3103,Incêndio rural,0,8,0,34,2025-07-30T10:20:00Z,Cinfães,Viseu,Norte,-8.130378,41.039695,Resolução/Conclusão
25763964,Pêro Viseu,Beiras e Serra da Estrela,310,2025-07-31T16:58:00Z,25763964,Em Resolução/Conclusão,3103,Incêndio rural,0,1,0,5,2025-07-31T16:58:00Z,Fundão,Castelo Branco,Centro,-7.457652,40.199215,Resolução/Conclusão
25770294,Barreiros e Cepões,Viseu Dão Lafões,310,2025-08-01T20:13:00Z,25770294,Em Resolução/Conclusão,3103,Incêndio rural,0,0,0,0,2025-08-01T20:13:00Z,Viseu,Viseu,Centro,-7.860794,40.747734,Resolução/Conclusão
25770328,São Miguel de Vila Boa,Viseu Dão Lafões,310,2025-08-01T20:18:00Z,25770328,Em Resolução/Conclusão,3103,Incêndio rural,0,5,0,14,2025-08-01T20:18:00Z,Sátão,Viseu,Centro,-7.753755,40.693043,Resolução/Conclusão
25749937,Moimenta,Tâmega e Sousa,309,2025-07-29T04:11:00Z,25749937,Em Resolução/Conclusão,3103,Incêndio rural,0,25,0,78,2025-07-29T04:11:00Z,Cinfães,Viseu,Norte,-8.173308,41.072792,Resolução/Conclusão
25751241,Molelos,Viseu Dão Lafões,310,2025-07-29T10:43:00Z,25751241,Em Resolução/Conclusão,3103,Incêndio rural,0,0,0,0,2025-07-29T10:43:00Z,Tondela,Viseu,Centro,-8.09574,40.551495,Resolução/Conclusão
25751893,"Espírito Santo, Nossa Senhora da Graça e São Simão",Alto Alentejo,312,2025-07-29T12:32:00Z,25751893,Em Resolução/Conclusão,3101,Incêndio rural,0,2,0,6,2025-07-29T12:32:00Z,Nisa,Portalegre,Alentejo,-7.634827,39.571162,Resolução/Conclusão
25761996,Ninho do Açor e Sobral do Campo,Beira Baixa,310,2025-07-31T10:54:00Z,25761996,Em Resolução/Conclusão,3101,Incêndio rural,0,1,0,5,2025-07-31T10:54:00Z,Castelo Branco,Castelo Branco,Centro,-7.588895,39.990642,Resolução/Conclusão
25763532,Ninho do Açor e Sobral do Campo,Beira Baixa,310,2025-07-31T15:31:00Z,25763532,Em Resolução/Conclusão,3101,Incêndio rural,0,1,0,2,2025-07-31T15:31:00Z,Castelo Branco,Castelo Branco,Centro,-7.57756,39.994833,Resolução/Conclusão
25763650,Milagres,Região de Leiria,310,2025-07-31T15:58:00Z,25763650,Em Resolução/Conclusão,3101,Incêndio rural,0,1,0,2,2025-07-31T15:58:00Z,Leiria,Leiria,Centro,-8.792217,39.793427,Resolução/Conclusão
25767810,Freixiel,Terras de Trás-os-Montes,309,2025-08-01T11:53:00Z,25767810,Em Resolução/Conclusão,3103,Incêndio rural,0,2,0,7,2025-08-01T11:53:00Z,Vila Flor,Bragança,Norte,-7.209887,41.311842,Resolução/Conclusão
25767817,Cabanas de Viriato,Viseu Dão Lafões,310,2025-08-01T11:54:00Z,25767817,Em Resolução/Conclusão,3103,Incêndio rural,0,3,0,9,2025-08-01T11:54:00Z,Tondela,Viseu,Centro,-8.120597,40.489477,Resolução/Conclusão
25769003,Castro Vicente,Terras de Trás-os-Montes,309,2025-08-01T15:30:00Z,25769003,Em Resolução/Conclusão,3105,Incêndio rural,0,6,0,20,2025-08-01T15:30:00Z,Mogadouro,Bragança,Norte,-6.833188,41.405293,Resolução/Conclusão
25769741,São Pedro de France,Viseu Dão Lafões,310,2025-08-01T18:00:00Z,25769741,Em Resolução/Conclusão,3105,Incêndio rural,0,0,0,0,2025-08-01T18:00:00Z,Viseu,Viseu,Centro,-7.788347,40.709037,Resolução/Conclusão
25770528,"Perafita, Lavra e Santa Cruz do Bispo",Area M. Porto,309,2025-08-01T21:07:00Z,25770528,Em Resolução/Conclusão,3103,Incêndio rural,0,1,0,5,2025-08-01T21:07:00Z,Matosinhos,Porto,Norte,-8.70897,41.23786,Resolução/Conclusão
25770665,Eiras e Mei,Alto Minho,309,2025-08-01T21:39:00Z,25770665,Em Despacho,3103,Incêndio rural,0,1,0,5,2025-08-01T21:39:00Z,Arcos De Valdevez,Viana Do Castelo,Norte,-8.473248,41.926406,Despacho
25749681,Fornos de Maceira Dão,Viseu Dão Lafões,310,2025-07-29T01:19:00Z,25749681,Em Resolução/Conclusão,3103,Incêndio rural,0,0,0,0,2025-07-29T01:19:00Z,Mangualde,Viseu,Centro,-7.791007,40.612202,Resolução/Conclusão
25750701,Capela,Tâmega e Sousa,309,2025-07-29T09:26:00Z,25750701,Em Resolução/Conclusão,3103,Incêndio rural,0,57,0,188,2025-07-29T09:26:00Z,Penafiel,Porto,Norte,-8.345202,41.09353,Resolução/Conclusão
25762916,Cota,Viseu Dão Lafões,310,2025-07-31T13:40:00Z,25762916,Em Resolução/Conclusão,3101,Incêndio rural,0,0,0,0,2025-07-31T13:40:00Z,Viseu,Viseu,Centro,-7.801223,40.780375,Resolução/Conclusão
25765473,Sameice e Santa Eulália,Beiras e Serra da Estrela,310,2025-07-31T23:02:00Z,25765473,Em Resolução/Conclusão,3103,Incêndio rural,0,1,0,5,2025-07-31T23:02:00Z,Seia,Guarda,Centro,-7.775783,40.420218,Resolução/Conclusão
25767713,Passô,Douro,309,2025-08-01T11:36:00Z,25767713,Em Resolução/Conclusão,3103,Incêndio rural,0,1,0,2,2025-08-01T11:36:00Z,Moimenta Da Beira,Viseu,Norte,-7.718256,41.011149,Resolução/Conclusão
25767796,"Mangualde, Mesquitela e Cunha Alta",Viseu Dão Lafões,310,2025-08-01T11:50:00Z,25767796,Em Resolução/Conclusão,3103,Incêndio rural,0,5,0,12,2025-08-01T11:50:00Z,Mangualde,Viseu,Centro,-7.788212,40.612402,Resolução/Conclusão
25768400,Paradinha e Nagosa,Douro,309,2025-08-01T13:43:00Z,25768400,Em Resolução/Conclusão,3103,Incêndio rural,0,25,0,92,2025-08-01T13:43:00Z,Moimenta Da Beira,Viseu,Norte,-7.602597,41.01336,Resolução/Conclusão
25769301,Caria,Douro,309,2025-08-01T16:33:00Z,25769301,Em Resolução/Conclusão,3103,Incêndio rural,0,10,0,39,2025-08-01T16:33:00Z,Moimenta Da Beira,Viseu,Norte,-7.591565,40.945662,Resolução/Conclusão
25769851,Vila da Ponte,Alto Tâmega e Barroso,309,2025-08-01T18:24:00Z,25769851,Em Resolução/Conclusão,3103,Incêndio rural,0,3,0,12,2025-08-01T18:24:00Z,Montalegre,Vila Real,Norte,-7.902307,41.715092,Resolução/Conclusão
25770009,Bravães,Alto Minho,309,2025-08-01T18:46:00Z,25770009,Em Resolução/Conclusão,3103,Incêndio rural,0,1,0,3,2025-08-01T18:46:00Z,Ponte Da Barca,Viana Do Castelo,Norte,-8.441788,41.787833,Resolução/Conclusão
25770507,São Cristóvão de Nogueira,Tâmega e Sousa,309,2025-08-01T21:02:00Z,25770507,Em Resolução/Conclusão,3103,Incêndio rural,0,4,0,17,2025-08-01T21:02:00Z,Cinfães,Viseu,Norte,-8.124802,41.073122,Resolução/Conclusão
25770511,Campanhã,Area M. Porto,309,2025-08-01T21:04:00Z,25770511,Em Despacho,3103,Incêndio rural,0,1,0,5,2025-08-01T21:04:00Z,Porto,Porto,Norte,-8.587243,41.15557,Despacho
25770543,Lavradas,Alto Minho,309,2025-08-01T21:11:00Z,25770543,Em Curso,3103,Incêndio rural,0,3,0,8,2025-08-01T21:11:00Z,Ponte Da Barca,Viana Do Castelo,Norte,-8.465033,41.793673,Curso
25770506,Duas Igrejas,Area M. Porto,309,2025-08-01T21:03:00Z,25770506,Em Resolução/Conclusão,3103,Incêndio rural,0,1,0,5,2025-08-01T21:03:00Z,Paredes,Porto,Norte,-8.370005,41.222027,Resolução/Conclusão
25770637,Mazarefes e Vila Fria,Alto Minho,309,2025-08-01T21:32:00Z,25770637,Em Curso,3101,Incêndio rural,0,2,0,10,2025-08-01T21:32:00Z,Viana Do Castelo,Viana Do Castelo,Norte,-8.7479,41.65507,Curso
25770704,Laranjeiro e Feijó,Península de Setúbal,311,2025-08-01T21:49:00Z,25770704,Em Despacho,3103,Incêndio rural,0,0,0,0,2025-08-01T21:49:00Z,Almada,Setúbal,Área Metropolitana De Lisboa,-9.167863,38.66282,Despacho
25738747,Lindoso,Alto Minho,309,2025-07-26T21:47:00Z,25738747,Em Curso,3103,Incêndio rural,1,247,0,701,2025-07-26T21:47:00Z,Ponte Da Barca,Viana Do Castelo,Norte,-8.220528,41.865272,Curso
25741169,Cota,Viseu Dão Lafões,310,2025-07-27T11:54:00Z,25741169,Em Resolução/Conclusão,3101,Incêndio rural,0,0,0,0,2025-07-27T11:54:00Z,Viseu,Viseu,Centro,-7.815572,40.816505,Resolução/Conclusão
25747773,Aranhas,Beira Baixa,310,2025-07-28T16:36:00Z,25747773,Em Resolução/Conclusão,3103,Incêndio rural,0,9,0,25,2025-07-28T16:36:00Z,Penamacor,Castelo Branco,Centro,-7.14438,40.117542,Resolução/Conclusão
25751999,Pombal,Região de Leiria,310,2025-07-29T12:53:00Z,25751999,Em Resolução/Conclusão,3101,Incêndio rural,0,1,0,2,2025-07-29T12:53:00Z,Pombal,Leiria,Centro,-8.6801,39.93227,Resolução/Conclusão
25752083,Alcanede,Lezíria do Tejo,311,2025-07-29T13:12:00Z,25752083,Em Resolução/Conclusão,3103,Incêndio rural,0,14,0,44,2025-07-29T13:12:00Z,Santarém,Santarém,Alentejo,-8.802682,39.405543,Resolução/Conclusão
25756620,Recarei,Area M. Porto,309,2025-07-30T10:47:00Z,25756620,Em Resolução/Conclusão,3103,Incêndio rural,0,14,0,37,2025-07-30T10:47:00Z,Paredes,Porto,Norte,-8.416721,41.151,Resolução/Conclusão
25764258,Valongo de Milhais,Douro,309,2025-07-31T18:03:00Z,25764258,Em Resolução/Conclusão,3103,Incêndio rural,0,3,0,11,2025-07-31T18:03:00Z,Murça,Vila Real,Norte,-7.42714,41.46461,Resolução/Conclusão
25766012,"Sande, Vilarinho, Barros e Gomide",Cávado,309,2025-08-01T03:15:00Z,25766012,Em Resolução/Conclusão,3103,Incêndio rural,0,0,0,0,2025-08-01T03:15:00Z,Vila Verde,Braga,Norte,-8.405045,41.734195,Resolução/Conclusão
25766089,"Sande, Vilarinho, Barros e Gomide",Cávado,309,2025-08-01T04:35:00Z,25766089,Em Curso,3103,Incêndio rural,0,34,0,105,2025-08-01T04:35:00Z,Vila Verde,Braga,Norte,-8.38083,41.72917,Curso
25769147,Agrela,Area M. Porto,309,2025-08-01T16:00:00Z,25769147,Em Resolução/Conclusão,3101,Incêndio rural,0,1,0,5,2025-08-01T16:00:00Z,Santo Tirso,Porto,Norte,-8.470348,41.264907,Resolução/Conclusão
25769483,Oura,Alto Tâmega e Barroso,309,2025-08-01T17:12:00Z,25769483,Em Resolução/Conclusão,3103,Incêndio rural,0,1,0,2,2025-08-01T17:12:00Z,Chaves,Vila Real,Norte,-7.562031,41.617352,Resolução/Conclusão
25769624,"Almargem do Bispo, Pêro Pinheiro e Montelavar",Grande Lisboa,311,2025-08-01T17:37:00Z,25769624,Em Resolução/Conclusão,3103,Incêndio rural,0,2,0,10,2025-08-01T17:37:00Z,Sintra,Lisboa,Área Metropolitana De Lisboa,-9.247442,38.842418,Resolução/Conclusão
25770383,Lufrei,Tâmega e Sousa,309,2025-08-01T20:35:00Z,25770383,Em Resolução/Conclusão,3103,Incêndio rural,0,3,0,11,2025-08-01T20:35:00Z,Amarante,Porto,Norte,-8.03454,41.26939,Resolução/Conclusão
25770642,Maceda,Região de Aveiro,310,2025-08-01T21:33:00Z,25770642,Em Despacho,3103,Incêndio rural,0,3,0,15,2025-08-01T21:33:00Z,Ovar,Aveiro,Centro,-8.61226,40.9242,Despacho
25770694,Évora de Alcobaça,Oeste,311,2025-08-01T21:44:00Z,25770694,Em Despacho,3103,Incêndio rural,0,2,0,7,2025-08-01T21:44:00Z,Alcobaça,Leiria,Centro,-8.961267,39.533801,Despacho
25770708,Grijó e Sermonde,Area M. Porto,309,2025-08-01T21:49:00Z,25770708,Em Despacho,3103,Incêndio rural,0,0,0,0,2025-08-01T21:49:00Z,Vila Nova De Gaia,Porto,Norte,-8.565243,41.01511,Despacho
