id,address,subregion,neighborhood,date,id.1,state,nature,nature_description,aerial_means,terrestrial_means,aquatic_means,operational,date.1,Concelho,Distrito,NUTII_DSG,longitude,latitude,state_2
25711671,Santana da Azinha,Beiras e Serra da Estrela,310,2025-07-21T15:13:00Z,25711671,Em Resolução/Conclusão,3103,Incêndio rural,0,1,0,5,2025-07-21T15:13:00Z,Guarda,Guarda,Centro,-7.205925,40.485028,Resolução/Conclusão
25712952,Bacelo e Senhora da Saúde,Alentejo Central,312,2025-07-21T20:05:00Z,25712952,Em Resolução/Conclusão,3105,Incêndio rural,0,3,0,11,2025-07-21T20:05:00Z,Évora,Évora,Alentejo,-7.8340630000000004,38.631172,Resolução/Conclusão
25711397,Vale da Pedra,Lezíria do Tejo,311,2025-07-21T14:16:00Z,25711397,Em Resolução/Conclusão,3103,Incêndio rural,0,31,0,110,2025-07-21T14:16:00Z,Cartaxo,Santarém,Alentejo,-8.783137,39.110872,Resolução/Conclusão
25712440,Miuzela e Porto de Ovelha,Beiras e Serra da Estrela,310,2025-07-21T18:04:00Z,25712440,Em Resolução/Conclusão,3105,Incêndio rural,0,5,0,16,2025-07-21T18:04:00Z,Almeida,Guarda,Centro,-7.005317,40.508498,Resolução/Conclusão
25713060,Ericeira,Grande Lisboa,311,2025-07-21T20:30:00Z,25713060,Em Resolução/Conclusão,3103,Incêndio rural,0,1,0,5,2025-07-21T20:30:00Z,Mafra,Lisboa,Área Metropolitana De Lisboa,-9.41848,38.97958,Resolução/Conclusão
25712338,Cercal,Alentejo Litoral,312,2025-07-21T17:38:00Z,25712338,Em Resolução/Conclusão,3103,Incêndio rural,0,25,0,65,2025-07-21T17:38:00Z,Santiago Do Cacém,Setúbal,Alentejo,-8.682272,37.791582,Resolução/Conclusão
25712519,Beduído e Veiros,Região de Aveiro,310,2025-07-21T18:23:00Z,25712519,Em Resolução/Conclusão,3101,Incêndio rural,0,9,0,35,2025-07-21T18:23:00Z,Estarreja,Aveiro,Centro,-8.542565,40.781313,Resolução/Conclusão
25712704,Beja (Salvador e Santa Maria da Feira),Baixo Alentejo,312,2025-07-21T19:02:00Z,25712704,Em Resolução/Conclusão,3105,Incêndio rural,0,1,0,2,2025-07-21T19:02:00Z,Beja,Beja,Alentejo,-7.84171,38.025082,Resolução/Conclusão
25708284,Bogas de Cima,Beiras e Serra da Estrela,310,2025-07-20T21:26:00Z,25708284,Em Resolução/Conclusão,3103,Incêndio rural,0,1,0,5,2025-07-20T21:26:00Z,Fundão,Castelo Branco,Centro,-7.707703,40.064562,Resolução/Conclusão
25711811,"Enxara do Bispo, Gradil e Vila Franca do Rosário",Grande Lisboa,311,2025-07-21T15:30:00Z,25711811,Em Resolução/Conclusão,3103,Incêndio rural,0,10,0,40,2025-07-21T15:30:00Z,Mafra,Lisboa,Área Metropolitana De Lisboa,-9.252579,38.997565,Resolução/Conclusão
25711912,Poceirão e Marateca,Península de Setúbal,311,2025-07-21T16:03:00Z,25711912,Em Resolução/Conclusão,3103,Incêndio rural,0,9,0,20,2025-07-21T16:03:00Z,Palmela,Setúbal,Área Metropolitana De Lisboa,-8.725,38.586253,Resolução/Conclusão
25712412,Alcochete,Península de Setúbal,311,2025-07-21T17:54:00Z,25712412,Em Resolução/Conclusão,3103,Incêndio rural,0,6,0,16,2025-07-21T17:54:00Z,Alcochete,Setúbal,Área Metropolitana De Lisboa,-8.931472,38.749122,Resolução/Conclusão
25712531,Albufeira e Olhos de Água,Algarve,313,2025-07-21T18:25:00Z,25712531,Em Resolução/Conclusão,3103,Incêndio rural,0,8,0,29,2025-07-21T18:25:00Z,Albufeira,Faro,Algarve,-8.245421,37.10217,Resolução/Conclusão
