id,address,subregion,neighborhood,date,id.1,state,nature,nature_description,aerial_means,terrestrial_means,aquatic_means,operational,date.1,Concelho,Distrito,NUTII_DSG,longitude,latitude
24852551,Alvorge,Região de Leiria,310,2025-01-22T07:38:00Z,24852551,Em despacho,3315,Inundação de estruturas por precipitação intensa,0,1,0,4,2025-01-22T07:38:00Z,Ansião,Leiria,Centro,-8.437457,39.972271
24852760,Glória do Ribatejo e Granho,Lezíria do Tejo,311,2025-01-22T08:41:00Z,24852760,Em conclusão,3315,Inundação de estruturas por precipitação intensa,0,1,0,5,2025-01-22T08:41:00Z,Salvaterra De Magos,Santarém,Alentejo,-8.650894,39.087947
24853060,Pias,Baixo Alentejo,312,2025-01-22T09:38:00Z,24853060,Em conclusão,3313,Deslizamento de terras,0,1,0,4,2025-01-22T09:38:00Z,Serpa,Beja,Alentejo,-7.616952,38.115068
24853171,Abrã,Lezíria do Tejo,311,2025-01-22T09:57:00Z,24853171,Em conclusão,3309,Desabamento de estruturas edificadas,0,1,0,1,2025-01-22T09:57:00Z,Santarém,Santarém,Alentejo,-8.73256,39.444518
24853339,Minde,Médio Tejo,311,2025-01-22T10:23:00Z,24853339,Em curso,1101,Cheia,0,0,0,0,2025-01-22T10:23:00Z,Alcanena,Santarém,Centro,-8.691237,39.511095
24853480,Lamas e Cercal,Oeste,311,2025-01-22T10:37:00Z,24853480,Em despacho,3301,Queda de árvore,0,1,0,3,2025-01-22T10:37:00Z,Cadaval,Lisboa,Centro,-9.057162,39.221439
24853598,Ventosa,Viseu Dão Lafões,310,2025-01-22T11:02:00Z,24853598,Em despacho,3301,Queda de árvore,0,1,0,5,2025-01-22T11:02:00Z,Vouzela,Viseu,Centro,-8.104723,40.710228
24853662,Alferce,Algarve,313,2025-01-22T10:43:00Z,24853662,Em despacho,3301,Queda de árvore,0,1,0,2,2025-01-22T10:43:00Z,Monchique,Faro,Algarve,-8.493023,37.333617
24853664,Alcanede,Lezíria do Tejo,311,2025-01-22T11:13:00Z,24853664,Em despacho,3315,Inundação de estruturas por precipitação intensa,0,1,0,1,2025-01-22T11:13:00Z,Santarém,Santarém,Alentejo,-8.820545,39.417631
24853687,Monchique,Algarve,313,2025-01-22T10:45:00Z,24853687,Em despacho,3301,Queda de árvore,0,2,0,4,2025-01-22T10:45:00Z,Monchique,Faro,Algarve,-8.565129,37.314454
24851780,"São Miguel, Santa Eufémia e Rabaçal",Região de Coimbra,310,2025-01-21T23:25:00Z,24851780,Em curso,3315,Inundação de estruturas por precipitação intensa,0,0,0,0,2025-01-21T23:25:00Z,Penela,Coimbra,Centro,-8.399036,40.025502
24852597,São Brás de Alportel,Algarve,313,2025-01-22T08:04:00Z,24852597,Em curso,3315,Inundação de estruturas por precipitação intensa,0,1,0,5,2025-01-22T08:04:00Z,São Brás De Alportel,Faro,Algarve,-7.90377,37.15284
24853099,Peniche,Oeste,311,2025-01-22T09:38:00Z,24853099,Em despacho,3315,Inundação de estruturas por precipitação intensa,0,1,0,2,2025-01-22T09:38:00Z,Peniche,Leiria,Centro,-9.376833,39.357166
24853385,Peniche,Oeste,311,2025-01-22T10:22:00Z,24853385,Em curso,3315,Inundação de estruturas por precipitação intensa,0,2,0,4,2025-01-22T10:22:00Z,Peniche,Leiria,Centro,-9.376833,39.357166
24853450,Alcanede,Lezíria do Tejo,311,2025-01-22T10:41:00Z,24853450,Em resolução,3315,Inundação de estruturas por precipitação intensa,0,1,0,2,2025-01-22T10:41:00Z,Santarém,Santarém,Alentejo,-8.820545,39.417631
24853501,Gondemaria e Olival,Médio Tejo,311,2025-01-22T10:48:00Z,24853501,Em despacho,3315,Inundação de estruturas por precipitação intensa,0,1,0,2,2025-01-22T10:48:00Z,Ourém,Santarém,Centro,-8.608005,39.703973
24853532,"Marvila, Ribeira Santarém, S.salvador, S.nicolau",Lezíria do Tejo,311,2025-01-22T10:52:00Z,24853532,Em conclusão,3315,Inundação de estruturas por precipitação intensa,0,1,0,1,2025-01-22T10:52:00Z,Santarém,Santarém,Alentejo,-8.683,39.257492
24852943,São Brás de Alportel,Algarve,313,2025-01-22T09:09:00Z,24852943,Em despacho,3315,Inundação de estruturas por precipitação intensa,0,1,0,1,2025-01-22T09:09:00Z,São Brás De Alportel,Faro,Algarve,-7.878642,37.195684
24853129,Soutelo de Aguiar,Alto Tâmega e Barroso,309,2025-01-22T09:41:00Z,24853129,Em despacho,3315,Inundação de estruturas por precipitação intensa,0,1,0,5,2025-01-22T09:41:00Z,Vila Pouca De Aguiar,Vila Real,Norte,-7.665087,41.468356
24853204,São Brás de Alportel,Algarve,313,2025-01-22T09:55:00Z,24853204,Em despacho,3315,Inundação de estruturas por precipitação intensa,0,1,0,4,2025-01-22T09:55:00Z,São Brás De Alportel,Faro,Algarve,-7.861824,37.138335
24851821,Santa Maria do Castelo e Santiago e Santa Susana,Alentejo Litoral,312,2025-01-21T23:41:00Z,24851821,Em resolução,1103,Vento forte,0,11,0,21,2025-01-21T23:41:00Z,Alcácer Do Sal,Setúbal,Alentejo,-8.598678,38.397168
24852523,São Brás de Alportel,Algarve,313,2025-01-22T07:34:00Z,24852523,Em despacho,3315,Inundação de estruturas por precipitação intensa,0,0,0,0,2025-01-22T07:34:00Z,São Brás De Alportel,Faro,Algarve,-7.89716,37.17049
24853074,Barreiro e Lavradio,Península de Setúbal,311,2025-01-22T09:43:00Z,24853074,Em resolução,3301,Queda de árvore,0,5,0,12,2025-01-22T09:43:00Z,Barreiro,Setúbal,Área Metropolitana De Lisboa,-9.05685,38.66475
24853258,"Ovar, São João, Arada e São Vicente de Pereira Jusã",Região de Aveiro,310,2025-01-22T10:04:00Z,24853258,Em curso,3315,Inundação de estruturas por precipitação intensa,0,1,0,2,2025-01-22T10:04:00Z,Ovar,Aveiro,Centro,-8.671695,40.872857
24853343,"Marvila, Ribeira Santarém, S.salvador, S.nicolau",Lezíria do Tejo,311,2025-01-22T10:24:00Z,24853343,Em resolução,3311,Queda de elementos de estruturas edificados,0,2,0,3,2025-01-22T10:24:00Z,Santarém,Santarém,Alentejo,-8.683517,39.239082
24853568,Porto Salvo,Grande Lisboa,311,2025-01-22T10:53:00Z,24853568,Em despacho,3301,Queda de árvore,0,1,0,5,2025-01-22T10:53:00Z,Oeiras,Lisboa,Área Metropolitana De Lisboa,-9.305901,38.719291
24853584,Setúbal (São Sebastião),Península de Setúbal,311,2025-01-22T10:57:00Z,24853584,Em curso,3321,Dano na rede de fornecimento de eletricidade ,0,1,0,5,2025-01-22T10:57:00Z,Setúbal,Setúbal,Área Metropolitana De Lisboa,-8.853099,38.511271
24853617,"Sé, Santa Maria e Meixedo",Terras de Trás-os-Montes,309,2025-01-22T10:28:00Z,24853617,Em despacho,3315,Inundação de estruturas por precipitação intensa,0,1,0,1,2025-01-22T10:28:00Z,Bragança,Bragança,Norte,-6.761223,41.813164
24853352,Santa Bárbara de Nexe,Algarve,313,2025-01-22T09:30:00Z,24853352,Em curso,3315,Inundação de estruturas por precipitação intensa,0,1,0,2,2025-01-22T09:30:00Z,Faro,Faro,Algarve,-7.921522,37.121336
24853463,Oliveira do Conde,Viseu Dão Lafões,310,2025-01-22T10:39:00Z,24853463,Em despacho,3301,Queda de árvore,0,1,0,3,2025-01-22T10:39:00Z,Carregal Do Sal,Viseu,Centro,-7.978752,40.425565
24853556,Figueiró Dos Vinhos e Bairradas,Região de Leiria,310,2025-01-22T08:04:00Z,24853556,Em despacho,3313,Deslizamento de terras,0,1,0,4,2025-01-22T08:04:00Z,Figueiró Dos Vinhos,Leiria,Centro,-8.293324,39.906816
24853460,Alcanede,Lezíria do Tejo,311,2025-01-22T10:43:00Z,24853460,Em resolução,3315,Inundação de estruturas por precipitação intensa,0,1,0,3,2025-01-22T10:43:00Z,Santarém,Santarém,Alentejo,-8.86109,39.408377
24853574,Figueiró Dos Vinhos e Bairradas,Região de Leiria,310,2025-01-22T08:57:00Z,24853574,Em despacho,3313,Deslizamento de terras,0,1,0,4,2025-01-22T08:57:00Z,Figueiró Dos Vinhos,Leiria,Centro,-8.274585,39.893331
24853594,Santiago da Guarda,Região de Leiria,310,2025-01-22T10:45:00Z,24853594,Em curso,3315,Inundação de estruturas por precipitação intensa,0,1,0,1,2025-01-22T10:45:00Z,Ansião,Leiria,Centro,-8.467569,39.906443
24853610,Miranda do Corvo,Região de Coimbra,310,2025-01-22T10:50:00Z,24853610,Em despacho,3313,Deslizamento de terras,0,1,0,2,2025-01-22T10:50:00Z,Miranda Do Corvo,Coimbra,Centro,-8.339499,40.09407
