id,address,subregion,neighborhood,date,id.1,state,nature,nature_description,aerial_means,terrestrial_means,aquatic_means,operational,date.1,Concelho,Distrito,NUTII_DSG,longitude,latitude
25488227,Vidigueira,Baixo Alentejo,312,2025-06-06T21:10:00Z,25488227,Em conclusão,3105,Incêndio rural,0,3,0,10,2025-06-06T21:10:00Z,Vidigueira,Beja,Alentejo,-7.775978,38.197335
25488311,Pinhal Novo,Península de Setúbal,311,2025-06-06T21:33:00Z,25488311,Em conclusão,3103,Incêndio rural,0,2,0,7,2025-06-06T21:33:00Z,Palmela,Setúbal,Área Metropolitana De Lisboa,-8.894875,38.640042
25488393,Algoz e Tunes,Algarve,313,2025-06-06T21:55:00Z,25488393,Em conclusão,2115,Incêndio em edifícios hoteleiros e de restauração,0,4,0,14,2025-06-06T21:55:00Z,Silves,Faro,Algarve,-8.304204,37.167351
25488463,Abrantes (São Vicente e São João) e Alferrarede,Médio Tejo,311,2025-06-06T22:16:00Z,25488463,Em conclusão,3103,Incêndio rural,0,7,0,26,2025-06-06T22:16:00Z,Abrantes,Santarém,Centro,-8.19575,39.465702
25488493,Nogueira e Silva Escura,Area M. Porto,309,2025-06-06T22:15:00Z,25488493,Em despacho,3103,Incêndio rural,0,1,0,4,2025-06-06T22:15:00Z,Maia,Porto,Norte,-8.583457,41.245601
25488387,Malveira e São Miguel de Alcainça,Grande Lisboa,311,2025-06-06T21:56:00Z,25488387,Em conclusão,2101,Incêndio em edifícios habitacionais,0,3,0,9,2025-06-06T21:56:00Z,Mafra,Lisboa,Área Metropolitana De Lisboa,-9.2931,38.92561
25488350,"Perafita, Lavra e Santa Cruz do Bispo",Area M. Porto,309,2025-06-06T21:44:00Z,25488350,Em resolução,3201,Detritos não confinados,0,3,0,11,2025-06-06T21:44:00Z,Matosinhos,Porto,Norte,-8.696238,41.254737
25488483,Carregosa,Area M. Porto,309,2025-06-06T22:20:00Z,25488483,Em despacho,2101,Incêndio em edifícios habitacionais,0,1,0,5,2025-06-06T22:20:00Z,Oliveira De Azeméis,Aveiro,Norte,-8.413188,40.896289
25487371,São João Dos Caldeireiros,Baixo Alentejo,312,2025-06-06T18:02:00Z,25487371,Em conclusão,3105,Incêndio rural,0,18,0,47,2025-06-06T18:02:00Z,Mértola,Beja,Alentejo,-7.804608,37.600808
25488341,Nossa Senhora da Expectação,Alto Alentejo,312,2025-06-06T21:36:00Z,25488341,Em conclusão,3105,Incêndio rural,0,4,0,9,2025-06-06T21:36:00Z,Campo Maior,Portalegre,Alentejo,-7.069262,39.007898
25488392,Loivo,Alto Minho,309,2025-06-06T21:50:00Z,25488392,Em conclusão,2101,Incêndio em edifícios habitacionais,0,3,0,9,2025-06-06T21:50:00Z,Vila Nova De Cerveira,Viana Do Castelo,Norte,-8.74039,41.926413
25488441,Algoz e Tunes,Algarve,313,2025-06-06T22:09:00Z,25488441,Em despacho,3103,Incêndio rural,0,4,0,17,2025-06-06T22:09:00Z,Silves,Faro,Algarve,-8.286184,37.164673
25488474,Braga (São Vicente),Cávado,309,2025-06-06T22:18:00Z,25488474,Em despacho,3201,Detritos não confinados,0,1,0,5,2025-06-06T22:18:00Z,Braga,Braga,Norte,-8.42198,41.55441
