id,address,subregion,neighborhood,date,id.1,state,nature,nature_description,aerial_means,terrestrial_means,aquatic_means,operational,date.1,Concelho,Distrito,NUTII_DSG,longitude,latitude,state_2
26230986,"Torres Novas (Santa Maria, Salvador e Santiago)",Médio Tejo,311,2025-11-03T15:46:00Z,26230986,Em Resolução/Conclusão,3103,Incêndio rural,0,3,0,8,2025-11-03T15:46:00Z,Torres Novas,Santarém,Centro,-8.575582,39.468673,Resolução/Conclusão
26231095,Assunção,Alto Alentejo,312,2025-11-03T16:03:00Z,26231095,Em Resolução/Conclusão,3101,Incêndio rural,0,4,0,8,2025-11-03T16:03:00Z,Arronches,Portalegre,Alentejo,-7.306982,39.147409,Resolução/Conclusão
26230937,Carnota,Oeste,311,2025-11-03T15:25:00Z,26230937,Em Resolução/Conclusão,3111,Queima,0,2,0,5,2025-11-03T15:25:00Z,Alenquer,Lisboa,Centro,-9.072226,39.04838,Resolução/Conclusão
26230978,Entradas,Baixo Alentejo,312,2025-11-03T15:41:00Z,26230978,Em Resolução/Conclusão,3105,Incêndio rural,0,7,0,10,2025-11-03T15:41:00Z,Castro Verde,Beja,Alentejo,-8.002648,37.752583,Resolução/Conclusão
26230723,Afife,Alto Minho,309,2025-11-03T14:58:00Z,26230723,Em Resolução/Conclusão,3105,Incêndio rural,0,0,0,0,2025-11-03T14:58:00Z,Viana Do Castelo,Viana Do Castelo,Norte,-8.845865,41.773817,Resolução/Conclusão
