id,address,subregion,neighborhood,date,id.1,state,nature,nature_description,aerial_means,terrestrial_means,aquatic_means,operational,date.1,Concelho,Distrito,NUTII_DSG,longitude,latitude
24875937,Açores e Velosa,Beiras e Serra da Estrela,310,2025-01-27T09:15:00Z,24875937,Em despacho,3301,Queda de árvore,0,2,0,4,2025-01-27T09:15:00Z,Celorico Da Beira,Guarda,Centro,-7.293622,40.654959
24878043,Salto,Alto Tâmega e Barroso,309,2025-01-27T14:30:00Z,24878043,Em despacho,3301,Queda de árvore,0,1,0,4,2025-01-27T14:30:00Z,Montalegre,Vila Real,Norte,-7.930242,41.659104
24878060,"Sé, Santa Maria e Meixedo",Terras de Trás-os-Montes,309,2025-01-27T14:20:00Z,24878060,Em curso,3315,Inundação de estruturas por precipitação intensa,0,1,0,2,2025-01-27T14:20:00Z,Bragança,Bragança,Norte,-6.761223,41.813164
24878460,Candoso (São Martinho),Ave,309,2025-01-27T16:00:00Z,24878460,Em curso,3311,Queda de elementos de estruturas edificados,0,3,0,5,2025-01-27T16:00:00Z,Guimarães,Braga,Norte,-8.332216,41.42214
24878462,"Mealhada, Ventosa do Bairro e Antes",Região de Coimbra,310,2025-01-27T16:01:00Z,24878462,Em conclusão,3301,Queda de árvore,0,1,0,2,2025-01-27T16:01:00Z,Mealhada,Aveiro,Centro,-8.458111,40.375676
24878476,Grijó e Sermonde,Area M. Porto,309,2025-01-27T16:00:00Z,24878476,Em despacho,3301,Queda de árvore,0,2,0,4,2025-01-27T16:00:00Z,Vila Nova De Gaia,Porto,Norte,-8.579955,41.030201
24878495,Tramagal,Médio Tejo,311,2025-01-27T16:12:00Z,24878495,Em resolução,3315,Inundação de estruturas por precipitação intensa,0,1,0,2,2025-01-27T16:12:00Z,Abrantes,Santarém,Centro,-8.249298,39.461042
24878559,Urrô,Area M. Porto,309,2025-01-27T16:16:00Z,24878559,Em despacho,3301,Queda de árvore,0,1,0,2,2025-01-27T16:16:00Z,Arouca,Aveiro,Norte,-8.292055,40.898489
24878779,Algueirão-Mem Martins,Grande Lisboa,311,2025-01-27T16:40:00Z,24878779,Em despacho,3301,Queda de árvore,0,2,0,4,2025-01-27T16:40:00Z,Sintra,Lisboa,Área Metropolitana De Lisboa,-9.330827,38.796332
24878977,Charneca de Caparica e Sobreda,Península de Setúbal,311,2025-01-27T17:32:00Z,24878977,Em despacho,3301,Queda de árvore,0,1,0,4,2025-01-27T17:32:00Z,Almada,Setúbal,Área Metropolitana De Lisboa,-9.172667,38.570122
24879045,Gâmbia-Pontes-Alto da Guerra,Península de Setúbal,311,2025-01-27T17:26:00Z,24879045,Em despacho,3321,Dano na rede de fornecimento de eletricidade ,0,1,0,5,2025-01-27T17:26:00Z,Setúbal,Setúbal,Área Metropolitana De Lisboa,-8.81215,38.545747
24879062,Beco,Médio Tejo,311,2025-01-27T17:49:00Z,24879062,Em conclusão,3301,Queda de árvore,0,2,0,4,2025-01-27T17:49:00Z,Ferreira Do Zêzere,Santarém,Centro,-8.330793,39.760835
24879144,Santo Aleixo,Alto Alentejo,312,2025-01-27T18:03:00Z,24879144,Em despacho,3301,Queda de árvore,0,2,0,4,2025-01-27T18:03:00Z,Monforte,Portalegre,Alentejo,-7.452584,38.936716
24879177,Lavos,Região de Coimbra,310,2025-01-27T18:13:00Z,24879177,Em despacho,3301,Queda de árvore,0,1,0,5,2025-01-27T18:13:00Z,Figueira Da Foz,Coimbra,Centro,-8.827295,40.092169
24874428,Donai,Terras de Trás-os-Montes,309,2025-01-26T21:18:00Z,24874428,Em curso,3315,Inundação de estruturas por precipitação intensa,0,1,0,2,2025-01-26T21:18:00Z,Bragança,Bragança,Norte,-6.805385,41.830788
24874564,"Sé, Santa Maria e Meixedo",Terras de Trás-os-Montes,309,2025-01-26T21:55:00Z,24874564,Em curso,3315,Inundação de estruturas por precipitação intensa,0,1,0,2,2025-01-26T21:55:00Z,Bragança,Bragança,Norte,-6.761223,41.813164
24875382,Pampilhosa da Serra,Região de Coimbra,310,2025-01-27T06:56:00Z,24875382,Em despacho,3315,Inundação de estruturas por precipitação intensa,0,4,0,8,2025-01-27T06:56:00Z,Pampilhosa Da Serra,Coimbra,Centro,-7.953077,40.054967
24876200,Ceira,Região de Coimbra,310,2025-01-27T09:56:00Z,24876200,Em despacho,3315,Inundação de estruturas por precipitação intensa,0,1,0,2,2025-01-27T09:56:00Z,Coimbra,Coimbra,Centro,-8.376144,40.175952
24876893,"Sé, Santa Maria e Meixedo",Terras de Trás-os-Montes,309,2025-01-27T11:22:00Z,24876893,Em curso,3315,Inundação de estruturas por precipitação intensa,0,1,0,1,2025-01-27T11:22:00Z,Bragança,Bragança,Norte,-6.761223,41.813164
24878106,São Pedro de Sarracenos,Terras de Trás-os-Montes,309,2025-01-27T14:44:00Z,24878106,Em curso,3315,Inundação de estruturas por precipitação intensa,0,1,0,2,2025-01-27T14:44:00Z,Bragança,Bragança,Norte,-6.751439,41.76443
24878406,Santa Maria Maior,Alto Tâmega e Barroso,309,2025-01-27T15:49:00Z,24878406,Em despacho,3315,Inundação de estruturas por precipitação intensa,0,1,0,3,2025-01-27T15:49:00Z,Chaves,Vila Real,Norte,-7.464751,41.742877
24875758,Valhelhas,Beiras e Serra da Estrela,310,2025-01-27T08:41:00Z,24875758,Em curso,3301,Queda de árvore,0,1,0,2,2025-01-27T08:41:00Z,Guarda,Guarda,Centro,-7.405093,40.406271
24877003,Malagueira e Horta Das Figueiras,Alentejo Central,312,2025-01-27T11:41:00Z,24877003,Em conclusão,3315,Inundação de estruturas por precipitação intensa,0,1,0,2,2025-01-27T11:41:00Z,Évora,Évora,Alentejo,-7.924277,38.57285
24878057,Salto,Alto Tâmega e Barroso,309,2025-01-27T14:42:00Z,24878057,Em despacho,3301,Queda de árvore,0,1,0,4,2025-01-27T14:42:00Z,Montalegre,Vila Real,Norte,-7.929191,41.611383
24878139,"Sé, Santa Maria e Meixedo",Terras de Trás-os-Montes,309,2025-01-27T14:59:00Z,24878139,Em curso,3315,Inundação de estruturas por precipitação intensa,0,1,0,2,2025-01-27T14:59:00Z,Bragança,Bragança,Norte,-6.761223,41.813164
24878657,"S.maria, S.miguel, S.martinho, S.pedro Penaferrim",Grande Lisboa,311,2025-01-27T16:38:00Z,24878657,Em despacho,3321,Dano na rede de fornecimento de eletricidade ,0,1,0,2,2025-01-27T16:38:00Z,Sintra,Lisboa,Área Metropolitana De Lisboa,-9.363811,38.743917
24878757,Benavente,Lezíria do Tejo,311,2025-01-27T16:56:00Z,24878757,Em resolução,3301,Queda de árvore,0,0,0,0,2025-01-27T16:56:00Z,Benavente,Santarém,Alentejo,-8.809933,38.975318
24878773,Carnaxide e Queijas,Grande Lisboa,311,2025-01-27T16:50:00Z,24878773,Em curso,3311,Queda de elementos de estruturas edificados,0,1,0,5,2025-01-27T16:50:00Z,Oeiras,Lisboa,Área Metropolitana De Lisboa,-9.233587,38.727201
24878782,Soalhães,Tâmega e Sousa,309,2025-01-27T16:52:00Z,24878782,Em despacho,3301,Queda de árvore,0,1,0,2,2025-01-27T16:52:00Z,Marco De Canaveses,Porto,Norte,-8.100963,41.16136
24878834,"S.julião, N.s. da Anunciada e S. Maria da Graça",Península de Setúbal,311,2025-01-27T17:09:00Z,24878834,Em curso,3301,Queda de árvore,0,1,0,5,2025-01-27T17:09:00Z,Setúbal,Setúbal,Área Metropolitana De Lisboa,-8.884092,38.533
24851780,"São Miguel, Santa Eufémia e Rabaçal",Região de Coimbra,310,2025-01-21T23:25:00Z,24851780,Em curso,3315,Inundação de estruturas por precipitação intensa,0,0,0,0,2025-01-21T23:25:00Z,Penela,Coimbra,Centro,-8.399036,40.025502
24876130,Bornes de Aguiar,Alto Tâmega e Barroso,309,2025-01-27T09:37:00Z,24876130,Em curso,3315,Inundação de estruturas por precipitação intensa,0,1,0,5,2025-01-27T09:37:00Z,Vila Pouca De Aguiar,Vila Real,Norte,-7.60702,41.543737
24878217,Alfragide,Grande Lisboa,311,2025-01-27T14:57:00Z,24878217,Em conclusão,3301,Queda de árvore,0,2,0,8,2025-01-27T14:57:00Z,Amadora,Lisboa,Área Metropolitana De Lisboa,-9.225704,38.738085
24878704,Salto,Alto Tâmega e Barroso,309,2025-01-27T16:44:00Z,24878704,Em despacho,1107,Nevão,0,3,0,6,2025-01-27T16:44:00Z,Montalegre,Vila Real,Norte,-7.953108,41.639334
24878736,"Oeiras e S. Julião da Barra, Paço de Arcos e Caxias",Grande Lisboa,311,2025-01-27T16:44:00Z,24878736,Em curso,3301,Queda de árvore,0,1,0,5,2025-01-27T16:44:00Z,Oeiras,Lisboa,Área Metropolitana De Lisboa,-9.290593,38.696925
24878801,Serpins,Região de Coimbra,310,2025-01-27T17:01:00Z,24878801,Em despacho,3313,Deslizamento de terras,0,1,0,1,2025-01-27T17:01:00Z,Lousã,Coimbra,Centro,-8.200016,40.156377
24878747,Costa da Caparica,Península de Setúbal,311,2025-01-27T16:45:00Z,24878747,Em despacho,3301,Queda de árvore,0,1,0,3,2025-01-27T16:45:00Z,Almada,Setúbal,Área Metropolitana De Lisboa,-9.227696,38.642583
24878799,Vila de Punhe,Alto Minho,309,2025-01-27T16:51:00Z,24878799,Em curso,3301,Queda de árvore,0,0,0,0,2025-01-27T16:51:00Z,Viana Do Castelo,Viana Do Castelo,Norte,-8.730042,41.656262
24878924,Lavos,Região de Coimbra,310,2025-01-27T17:26:00Z,24878924,Em despacho,3329,Queda de estruturas temporárias ou móveis,0,2,0,5,2025-01-27T17:26:00Z,Figueira Da Foz,Coimbra,Centro,-8.871831,40.090092
24878951,Canidelo,Area M. Porto,309,2025-01-27T17:13:00Z,24878951,Em despacho,3329,Queda de estruturas temporárias ou móveis,0,1,0,2,2025-01-27T17:13:00Z,Vila Nova De Gaia,Porto,Norte,-8.652723,41.127681
24878958,"Mogadouro, Valverde, Vale de Porco e Vilar de Rei",Terras de Trás-os-Montes,309,2025-01-27T17:29:00Z,24878958,Em curso,3315,Inundação de estruturas por precipitação intensa,0,1,0,2,2025-01-27T17:29:00Z,Mogadouro,Bragança,Norte,-6.706687,41.339826
24879001,"Oeiras e S. Julião da Barra, Paço de Arcos e Caxias",Grande Lisboa,311,2025-01-27T17:35:00Z,24879001,Em despacho,3301,Queda de árvore,0,1,0,3,2025-01-27T17:35:00Z,Oeiras,Lisboa,Área Metropolitana De Lisboa,-9.310159,38.698531
24879040,"N. S. da Vila, N. S. do Bispo e Silveiras",Alentejo Central,312,2025-01-27T17:45:00Z,24879040,Em conclusão,3301,Queda de árvore,0,2,0,5,2025-01-27T17:45:00Z,Montemor-o-Novo,Évora,Alentejo,-8.26063,38.649723
24879056,Alcochete,Península de Setúbal,311,2025-01-27T17:25:00Z,24879056,Em despacho,3321,Dano na rede de fornecimento de eletricidade ,0,1,0,4,2025-01-27T17:25:00Z,Alcochete,Setúbal,Área Metropolitana De Lisboa,-8.962464,38.749259
24879074,Salvaterra de Magos e Foros de Salvaterra,Lezíria do Tejo,311,2025-01-27T17:28:00Z,24879074,Em conclusão,3301,Queda de árvore,0,1,0,5,2025-01-27T17:28:00Z,Salvaterra De Magos,Santarém,Alentejo,-8.73342,39.006483
24878875,Ribeira de Nisa e Carreiras,Alto Alentejo,312,2025-01-27T17:11:00Z,24878875,Em conclusão,3301,Queda de árvore,0,2,0,8,2025-01-27T17:11:00Z,Portalegre,Portalegre,Alentejo,-7.413627,39.323865
24878882,Poceirão e Marateca,Península de Setúbal,311,2025-01-27T17:16:00Z,24878882,Em despacho,3301,Queda de árvore,0,1,0,1,2025-01-27T17:16:00Z,Palmela,Setúbal,Área Metropolitana De Lisboa,-8.741193,38.629608
24878898,Charneca de Caparica e Sobreda,Península de Setúbal,311,2025-01-27T16:52:00Z,24878898,Em despacho,3301,Queda de árvore,0,1,0,3,2025-01-27T16:52:00Z,Almada,Setúbal,Área Metropolitana De Lisboa,-9.206824,38.629265
24878907,Miranda do Corvo,Região de Coimbra,310,2025-01-27T17:20:00Z,24878907,Em despacho,3301,Queda de árvore,0,1,0,2,2025-01-27T17:20:00Z,Miranda Do Corvo,Coimbra,Centro,-8.339499,40.09407
24878939,Rio Tinto,Area M. Porto,309,2025-01-27T17:20:00Z,24878939,Em despacho,3311,Queda de elementos de estruturas edificados,0,1,0,2,2025-01-27T17:20:00Z,Gondomar,Porto,Norte,-8.556242,41.183094
24878984,"Sé, Santa Maria e Meixedo",Terras de Trás-os-Montes,309,2025-01-27T17:32:00Z,24878984,Em curso,3315,Inundação de estruturas por precipitação intensa,0,1,0,2,2025-01-27T17:32:00Z,Bragança,Bragança,Norte,-6.761223,41.813164
24879000,Loures,Grande Lisboa,311,2025-01-27T17:33:00Z,24879000,Em curso,3311,Queda de elementos de estruturas edificados,0,1,0,1,2025-01-27T17:33:00Z,Loures,Lisboa,Área Metropolitana De Lisboa,-9.198552,38.845527
24878953,Parada de Gatim,Cávado,309,2025-01-27T17:20:00Z,24878953,Em curso,3301,Queda de árvore,0,2,0,5,2025-01-27T17:20:00Z,Vila Verde,Braga,Norte,-8.524927,41.620349
24878987,Campanhã,Area M. Porto,309,2025-01-27T17:28:00Z,24878987,Em despacho,3321,Dano na rede de fornecimento de eletricidade ,0,1,0,4,2025-01-27T17:28:00Z,Porto,Porto,Norte,-8.575994,41.158637
24879002,Queiriz,Beiras e Serra da Estrela,310,2025-01-27T17:22:00Z,24879002,Em despacho,3301,Queda de árvore,0,1,0,3,2025-01-27T17:22:00Z,Fornos De Algodres,Guarda,Centro,-7.463091,40.734408
24879070,"Sé Nova, Santa Cruz, Almedina e São Bartolomeu",Região de Coimbra,310,2025-01-27T17:46:00Z,24879070,Em curso,3321,Dano na rede de fornecimento de eletricidade ,0,3,0,10,2025-01-27T17:46:00Z,Coimbra,Coimbra,Centro,-8.437288,40.221746
24879071,Porto Salvo,Grande Lisboa,311,2025-01-27T17:47:00Z,24879071,Em curso,3311,Queda de elementos de estruturas edificados,0,2,0,4,2025-01-27T17:47:00Z,Oeiras,Lisboa,Área Metropolitana De Lisboa,-9.305901,38.719291
24879085,Lousã e Vilarinho,Região de Coimbra,310,2025-01-27T17:50:00Z,24879085,Em despacho,3301,Queda de árvore,0,1,0,3,2025-01-27T17:50:00Z,Lousã,Coimbra,Centro,-8.280879,40.099564
24879086,Gafanha da Nazaré,Região de Aveiro,310,2025-01-27T17:52:00Z,24879086,Em despacho,3321,Dano na rede de fornecimento de eletricidade ,0,1,0,5,2025-01-27T17:52:00Z,Ílhavo,Aveiro,Centro,-8.719411,40.633995
24879121,"Vila Chã, Codal e Vila Cova de Perrinho",Area M. Porto,309,2025-01-27T17:50:00Z,24879121,Em despacho,3321,Dano na rede de fornecimento de eletricidade ,0,1,0,2,2025-01-27T17:50:00Z,Vale De Cambra,Aveiro,Norte,-8.399593,40.868575
24879122,Macedo de Cavaleiros,Terras de Trás-os-Montes,309,2025-01-27T17:56:00Z,24879122,Em curso,3321,Dano na rede de fornecimento de eletricidade ,0,1,0,2,2025-01-27T17:56:00Z,Macedo De Cavaleiros,Bragança,Norte,-6.958775,41.538051
24879064,Navió e Vitorino Dos Piães,Alto Minho,309,2025-01-27T17:48:00Z,24879064,Em curso,3301,Queda de árvore,0,2,0,7,2025-01-27T17:48:00Z,Ponte De Lima,Viana Do Castelo,Norte,-8.613623,41.68979
24879150,Cuba,Baixo Alentejo,312,2025-01-27T18:03:00Z,24879150,Em conclusão,3301,Queda de árvore,0,1,0,4,2025-01-27T18:03:00Z,Cuba,Beja,Alentejo,-7.892097,38.175706
24879166,Santo Estêvão,Lezíria do Tejo,311,2025-01-27T18:10:00Z,24879166,Em despacho,3301,Queda de árvore,0,1,0,5,2025-01-27T18:10:00Z,Benavente,Santarém,Alentejo,-8.741412,38.861418
24879182,Peniche,Oeste,311,2025-01-27T18:08:00Z,24879182,Em despacho,3321,Dano na rede de fornecimento de eletricidade ,0,1,0,5,2025-01-27T18:08:00Z,Peniche,Leiria,Centro,-9.376833,39.357166
24879204,Fanhões,Grande Lisboa,311,2025-01-27T18:10:00Z,24879204,Em despacho,3301,Queda de árvore,0,1,0,4,2025-01-27T18:10:00Z,Loures,Lisboa,Área Metropolitana De Lisboa,-9.178456,38.888945
24879090,"N. S. da Vila, N. S. do Bispo e Silveiras",Alentejo Central,312,2025-01-27T17:53:00Z,24879090,Em despacho,3301,Queda de árvore,0,1,0,2,2025-01-27T17:53:00Z,Montemor-o-Novo,Évora,Alentejo,-8.206765,38.623083
24879099,Azambuja,Lezíria do Tejo,311,2025-01-27T17:56:00Z,24879099,Em despacho,3301,Queda de árvore,0,1,0,5,2025-01-27T17:56:00Z,Azambuja,Lisboa,Alentejo,-8.864506,39.067885
24879131,Loures,Grande Lisboa,311,2025-01-27T17:55:00Z,24879131,Em despacho,3301,Queda de árvore,0,1,0,5,2025-01-27T17:55:00Z,Loures,Lisboa,Área Metropolitana De Lisboa,-9.176421,38.828612
24879149,Soure,Região de Coimbra,310,2025-01-27T18:00:00Z,24879149,Em despacho,3315,Inundação de estruturas por precipitação intensa,0,1,0,2,2025-01-27T18:00:00Z,Soure,Coimbra,Centro,-8.639406,40.055319
24879183,Santo António Dos Olivais,Região de Coimbra,310,2025-01-27T17:59:00Z,24879183,Em despacho,3315,Inundação de estruturas por precipitação intensa,0,1,0,3,2025-01-27T17:59:00Z,Coimbra,Coimbra,Centro,-8.426807,40.217261
