id,address,subregion,neighborhood,date,id.1,state,nature,nature_description,aerial_means,terrestrial_means,aquatic_means,operational,date.1,Concelho,Distrito,NUTII_DSG,longitude,latitude,state_2
25646909,Nespereira,Tâmega e Sousa,309,2025-07-08T13:53:00Z,25646909,Em Resolução/Conclusão,3103,Incêndio rural,0,0,0,0,2025-07-08T13:53:00Z,Cinfães,Viseu,Norte,-8.122663,40.996095,Resolução/Conclusão
25655854,Soajo,Alto Minho,309,2025-07-10T09:20:00Z,25655854,Em Resolução/Conclusão,3103,Incêndio rural,0,7,0,27,2025-07-10T09:20:00Z,Arcos De Valdevez,Viana Do Castelo,Norte,-8.230447,41.877005,Resolução/Conclusão
25657081,"Eucisia, Gouveia e Valverde",Terras de Trás-os-Montes,309,2025-07-10T12:59:00Z,25657081,Em Resolução/Conclusão,3103,Incêndio rural,0,9,0,24,2025-07-10T12:59:00Z,Alfândega Da Fé,Bragança,Norte,-6.992323,41.333105,Resolução/Conclusão
25657735,São Cristóvão,Alentejo Central,312,2025-07-10T15:10:00Z,25657735,Em Resolução/Conclusão,3103,Incêndio rural,0,49,0,155,2025-07-10T15:10:00Z,Montemor-o-Novo,Évora,Alentejo,-8.251788,38.504227,Resolução/Conclusão
25657801,Santana da Azinha,Beiras e Serra da Estrela,310,2025-07-10T15:19:00Z,25657801,Em Resolução/Conclusão,3103,Incêndio rural,0,8,0,32,2025-07-10T15:19:00Z,Guarda,Guarda,Centro,-7.208863,40.479537,Resolução/Conclusão
25647385,Castelo Novo,Beiras e Serra da Estrela,310,2025-07-08T15:11:00Z,25647385,Em Resolução/Conclusão,3103,Incêndio rural,0,1,0,5,2025-07-08T15:11:00Z,Fundão,Castelo Branco,Centro,-7.447838,40.023465,Resolução/Conclusão
25659416,"Margaride (Santa Eulália), Várzea, Lagares, Varziela e Moure",Tâmega e Sousa,309,2025-07-10T21:47:00Z,25659416,Em Curso,3103,Incêndio rural,0,4,0,17,2025-07-10T21:47:00Z,Felgueiras,Porto,Norte,-8.203972,41.375507,Curso
25659452,Ganfei,Alto Minho,309,2025-07-10T21:55:00Z,25659452,Em Resolução/Conclusão,3103,Incêndio rural,0,2,0,7,2025-07-10T21:55:00Z,Valença,Viana Do Castelo,Norte,-8.638357,42.039105,Resolução/Conclusão
25659533,Sobreira,Area M. Porto,309,2025-07-10T22:26:00Z,25659533,Em Despacho,3103,Incêndio rural,0,1,0,5,2025-07-10T22:26:00Z,Paredes,Porto,Norte,-8.38034,41.14674,Despacho
25647106,Tortosendo,Beiras e Serra da Estrela,310,2025-07-08T14:25:00Z,25647106,Em Resolução/Conclusão,3103,Incêndio rural,0,2,0,7,2025-07-08T14:25:00Z,Covilhã,Castelo Branco,Centro,-7.508533,40.223705,Resolução/Conclusão
25657918,"Canedo, Vale e Vila Maior",Area M. Porto,309,2025-07-10T15:44:00Z,25657918,Em Resolução/Conclusão,3103,Incêndio rural,0,7,0,20,2025-07-10T15:44:00Z,Santa Maria Da Feira,Aveiro,Norte,-8.461548,41.045418,Resolução/Conclusão
25659261,Lavradas,Alto Minho,309,2025-07-10T21:00:00Z,25659261,Em Resolução/Conclusão,3103,Incêndio rural,0,1,0,5,2025-07-10T21:00:00Z,Ponte Da Barca,Viana Do Castelo,Norte,-8.466723,41.795278,Resolução/Conclusão
