id,address,subregion,neighborhood,date,id.1,state,nature,nature_description,aerial_means,terrestrial_means,aquatic_means,operational,date.1,Concelho,Distrito,NUTII_DSG,longitude,latitude,state_2
25707713,"S.maria, S.miguel, S.martinho, S.pedro Penaferrim",Grande Lisboa,311,2025-07-20T18:52:00Z,25707713,Em Resolução/Conclusão,3103,Incêndio rural,0,7,0,29,2025-07-20T18:52:00Z,Sintra,Lisboa,Área Metropolitana De Lisboa,-9.372095,38.757341,Resolução/Conclusão
25707786,Venteira,Grande Lisboa,311,2025-07-20T19:11:00Z,25707786,Em Despacho,3103,Incêndio rural,0,1,0,5,2025-07-20T19:11:00Z,Amadora,Lisboa,Área Metropolitana De Lisboa,-9.240965,38.755077,Despacho
25707530,Âncora,Alto Minho,309,2025-07-20T17:59:00Z,25707530,Em Resolução/Conclusão,3105,Incêndio rural,0,2,0,7,2025-07-20T17:59:00Z,Caminha,Viana Do Castelo,Norte,-8.859643,41.801452,Resolução/Conclusão
25707621,Vilar de Perdizes e Meixide,Alto Tâmega e Barroso,309,2025-07-20T18:24:00Z,25707621,Em Resolução/Conclusão,3103,Incêndio rural,0,3,0,15,2025-07-20T18:24:00Z,Montalegre,Vila Real,Norte,-7.58974,41.872305,Resolução/Conclusão
25686799,Souto Maior,Douro,309,2025-07-16T13:19:00Z,25686799,Em Resolução/Conclusão,3101,Incêndio rural,0,3,0,12,2025-07-16T13:19:00Z,Sabrosa,Vila Real,Norte,-7.57839,41.287518,Resolução/Conclusão
25706620,Forno Telheiro,Beiras e Serra da Estrela,310,2025-07-20T14:06:00Z,25706620,Em Resolução/Conclusão,3103,Incêndio rural,0,3,0,12,2025-07-20T14:06:00Z,Celorico Da Beira,Guarda,Centro,-7.400468,40.6775,Resolução/Conclusão
25706871,Muxagata,Douro,309,2025-07-20T15:06:00Z,25706871,Em Resolução/Conclusão,3103,Incêndio rural,0,10,0,35,2025-07-20T15:06:00Z,Vila Nova De Foz Côa,Guarda,Norte,-7.195613,41.046983,Resolução/Conclusão
25707583,Vilarinho,Area M. Porto,309,2025-07-20T18:20:00Z,25707583,Em Resolução/Conclusão,3103,Incêndio rural,0,1,0,5,2025-07-20T18:20:00Z,Santo Tirso,Porto,Norte,-8.329106,41.352084,Resolução/Conclusão
25707684,Pinhel,Beiras e Serra da Estrela,310,2025-07-20T18:48:00Z,25707684,Em Resolução/Conclusão,3103,Incêndio rural,0,3,0,9,2025-07-20T18:48:00Z,Pinhel,Guarda,Centro,-7.05381,40.775972,Resolução/Conclusão
