id,address,subregion,neighborhood,date,id.1,state,nature,nature_description,aerial_means,terrestrial_means,aquatic_means,operational,date.1,Concelho,Distrito,NUTII_DSG,longitude,latitude,state_2
26093602,Castro Daire,Viseu Dão Lafões,310,2025-10-05T22:05:00Z,26093602,Em Resolução/Conclusão,3103,Incêndio rural,0,0,0,0,2025-10-05T22:05:00Z,Castro Daire,Viseu,Centro,-7.9408,40.925289,Resolução/Conclusão
26113283,Gralhas,Alto Tâmega e Barroso,309,2025-10-09T20:51:00Z,26113283,Em Resolução/Conclusão,3103,Incêndio rural,0,8,0,30,2025-10-09T20:51:00Z,Montalegre,Vila Real,Norte,-7.719948,41.856633,Resolução/Conclusão
26113726,Canelas,Tâmega e Sousa,309,2025-10-09T23:45:00Z,26113726,Em Curso,3101,Incêndio rural,0,3,0,15,2025-10-09T23:45:00Z,Penafiel,Porto,Norte,-8.329035,41.071923,Curso
26113484,Baguim do Monte (Rio Tinto),Area M. Porto,309,2025-10-09T21:59:00Z,26113484,Em Resolução/Conclusão,3103,Incêndio rural,0,2,0,6,2025-10-09T21:59:00Z,Gondomar,Porto,Norte,-8.534493,41.19773,Resolução/Conclusão
26113598,Tarouquela,Tâmega e Sousa,309,2025-10-09T22:45:00Z,26113598,Em Resolução/Conclusão,3103,Incêndio rural,0,5,0,22,2025-10-09T22:45:00Z,Cinfães,Viseu,Norte,-8.18054,41.070127,Resolução/Conclusão
26113684,Calvos e Frades,Ave,309,2025-10-09T23:30:00Z,26113684,Em Resolução/Conclusão,3103,Incêndio rural,0,4,0,17,2025-10-09T23:30:00Z,Póvoa De Lanhoso,Braga,Norte,-8.244785,41.61782,Resolução/Conclusão
26113773,Rebordões (Santa Maria),Alto Minho,309,2025-10-10T00:08:00Z,26113773,Em Despacho,3103,Incêndio rural,0,1,0,5,2025-10-10T00:08:00Z,Ponte De Lima,Viana Do Castelo,Norte,-8.583991,41.725402,Despacho
