id,address,subregion,neighborhood,date,id.1,state,nature,nature_description,aerial_means,terrestrial_means,aquatic_means,operational,date.1,Concelho,Distrito,NUTII_DSG,longitude,latitude
25497945,Paranhos,Area M. Porto,309,2025-06-08T23:24:00Z,25497945,Em despacho,3201,Detritos não confinados,0,1,0,5,2025-06-08T23:24:00Z,Porto,Porto,Norte,-8.622499,41.17768
25497859,Seide,Ave,309,2025-06-08T22:55:00Z,25497859,Em conclusão,3103,Incêndio rural,0,1,0,5,2025-06-08T22:55:00Z,Vila Nova De Famalicão,Braga,Norte,-8.469721,41.397883
25497903,Areosa,Alto Minho,309,2025-06-08T23:16:00Z,25497903,Em despacho,3103,Incêndio rural,0,2,0,11,2025-06-08T23:16:00Z,Viana Do Castelo,Viana Do Castelo,Norte,-8.84774,41.71887
25497964,Ermesinde,Area M. Porto,309,2025-06-08T23:31:00Z,25497964,Em despacho,2301,Incêndio em transporte rodoviário,0,0,0,0,2025-06-08T23:31:00Z,Valongo,Porto,Norte,-8.55421,41.22936
25495190,Peva e Segões,Douro,309,2025-06-08T11:17:00Z,25495190,Em conclusão,2127,"Incêndio em edifícios e recintos industriais, oficinas e armazéns",0,2,0,7,2025-06-08T11:17:00Z,Moimenta Da Beira,Viseu,Norte,-7.69063,40.890053
25497948,Algueirão-Mem Martins,Grande Lisboa,311,2025-06-08T23:17:00Z,25497948,Em curso,3201,Detritos não confinados,0,1,0,5,2025-06-08T23:17:00Z,Sintra,Lisboa,Área Metropolitana De Lisboa,-9.340934,38.801232
