id,address,subregion,neighborhood,date,id.1,state,nature,nature_description,aerial_means,terrestrial_means,aquatic_means,operational,date.1,Concelho,Distrito,NUTII_DSG,longitude,latitude
25068300,Almeirim,Lezíria do Tejo,311,2025-03-10T20:52:00Z,25068300,Em curso,1101,Cheia,0,0,0,0,2025-03-10T20:52:00Z,Almeirim,Santarém,Alentejo,-8.635002,39.187436
25111284,"Manique do Intendente, V. N. de São Pedro e Maçussa",Lezíria do Tejo,311,2025-03-19T20:22:00Z,25111284,Em conclusão,3329,Queda de estruturas temporárias ou móveis,0,1,0,2,2025-03-19T20:22:00Z,Azambuja,Lisboa,Alentejo,-8.889528,39.229128
25111888,Louriçal,Região de Leiria,310,2025-03-19T22:22:00Z,25111888,Em despacho,3321,Dano na rede de fornecimento de eletricidade ,0,1,0,1,2025-03-19T22:22:00Z,Pombal,Leiria,Centro,-8.773705,40.03828
25111936,Alfeizerão,Oeste,311,2025-03-19T22:29:00Z,25111936,Em despacho,3301,Queda de árvore,0,1,0,1,2025-03-19T22:29:00Z,Alcobaça,Leiria,Centro,-9.10212,39.50255
25112036,"São Miguel, Santa Eufémia e Rabaçal",Região de Coimbra,310,2025-03-19T22:40:00Z,25112036,Em curso,3301,Queda de árvore,0,1,0,2,2025-03-19T22:40:00Z,Penela,Coimbra,Centro,-8.397812,40.011996
25112088,Azeitão (São Lourenço e São Simão),Península de Setúbal,311,2025-03-19T22:51:00Z,25112088,Em despacho,3301,Queda de árvore,0,1,0,5,2025-03-19T22:51:00Z,Setúbal,Setúbal,Área Metropolitana De Lisboa,-9.00001,38.524687
25112145,Marinha Das Ondas,Região de Coimbra,310,2025-03-19T23:10:00Z,25112145,Em despacho,3301,Queda de árvore,0,0,0,0,2025-03-19T23:10:00Z,Figueira Da Foz,Coimbra,Centro,-8.80992,40.01798
25112172,"Seixal, Arrentela e Aldeia de Paio Pires",Península de Setúbal,311,2025-03-19T23:13:00Z,25112172,Em curso,3329,Queda de estruturas temporárias ou móveis,0,1,0,4,2025-03-19T23:13:00Z,Seixal,Setúbal,Área Metropolitana De Lisboa,-9.090212,38.62184
25112270,Marrazes e Barosa,Região de Leiria,310,2025-03-19T23:00:00Z,25112270,Em despacho,3301,Queda de árvore,0,1,0,2,2025-03-19T23:00:00Z,Leiria,Leiria,Centro,-8.794769,39.760033
25112324,Juncal,Região de Leiria,310,2025-03-19T23:30:00Z,25112324,Em curso,3301,Queda de árvore,0,2,0,4,2025-03-19T23:30:00Z,Porto De Mós,Leiria,Centro,-8.908329,39.584603
25112329,Agualva e Mira-Sintra,Grande Lisboa,311,2025-03-19T23:39:00Z,25112329,Em curso,3301,Queda de árvore,0,0,0,0,2025-03-19T23:39:00Z,Sintra,Lisboa,Área Metropolitana De Lisboa,-9.307006,38.78408
25112354,Vila Verde Dos Francos,Oeste,311,2025-03-19T23:42:00Z,25112354,Em curso,3301,Queda de árvore,0,1,0,2,2025-03-19T23:42:00Z,Alenquer,Lisboa,Centro,-9.13935,39.16664
25112356,Samora Correia,Lezíria do Tejo,311,2025-03-19T23:41:00Z,25112356,Em conclusão,3301,Queda de árvore,0,1,0,4,2025-03-19T23:41:00Z,Benavente,Santarém,Alentejo,-8.86968,38.910825
25112413,Almagreira,Região de Leiria,310,2025-03-20T00:30:00Z,25112413,Em despacho,3311,Queda de elementos de estruturas edificados,0,1,0,5,2025-03-20T00:30:00Z,Pombal,Leiria,Centro,-8.67684,39.95928
25112422,Pala,Região de Coimbra,310,2025-03-19T23:48:00Z,25112422,Em despacho,3301,Queda de árvore,0,1,0,4,2025-03-19T23:48:00Z,Mortágua,Viseu,Centro,-8.262736,40.422891
25112429,Vila do Bispo e Raposeira,Algarve,313,2025-03-19T23:47:00Z,25112429,Em despacho,3329,Queda de estruturas temporárias ou móveis,0,1,0,2,2025-03-19T23:47:00Z,Vila Do Bispo,Faro,Algarve,-8.90908,37.083835
25059714,Torrão,Alentejo Litoral,312,2025-03-08T22:10:00Z,25059714,Em curso,1101,Cheia,0,2,0,3,2025-03-08T22:10:00Z,Alcácer Do Sal,Setúbal,Alentejo,-8.359133,38.252053
25070044,Praia do Ribatejo,Médio Tejo,311,2025-03-10T19:30:00Z,25070044,Em curso,1101,Cheia,0,0,0,0,2025-03-10T19:30:00Z,Vila Nova Da Barquinha,Santarém,Centro,-8.357309,39.485638
25071496,São Manços e São Vicente do Pigeiro,Alentejo Central,312,2025-03-11T13:18:00Z,25071496,Em curso,1101,Cheia,0,2,0,4,2025-03-11T13:18:00Z,Évora,Évora,Alentejo,-7.713313,38.513673
25111474,Bombarral e Vale Covo,Oeste,311,2025-03-19T21:07:00Z,25111474,Em resolução,3301,Queda de árvore,0,2,0,3,2025-03-19T21:07:00Z,Bombarral,Leiria,Centro,-9.16726,39.2754
25111623,Alqueidão,Região de Coimbra,310,2025-03-19T21:36:00Z,25111623,Em despacho,3301,Queda de árvore,0,0,0,0,2025-03-19T21:36:00Z,Figueira Da Foz,Coimbra,Centro,-8.76809,40.07898
25111860,Longueira/Almograve,Alentejo Litoral,312,2025-03-19T22:09:00Z,25111860,Em conclusão,3301,Queda de árvore,0,1,0,2,2025-03-19T22:09:00Z,Odemira,Beja,Alentejo,-8.71748,37.612027
25111891,"Seia, São Romão e Lapa Dos Dinheiros",Beiras e Serra da Estrela,310,2025-03-19T22:20:00Z,25111891,Em resolução,3301,Queda de árvore,0,2,0,3,2025-03-19T22:20:00Z,Seia,Guarda,Centro,-7.74354,40.393485
25111892,Marinha Das Ondas,Região de Coimbra,310,2025-03-19T22:22:00Z,25111892,Em despacho,3309,Desabamento de estruturas edificadas,0,0,0,0,2025-03-19T22:22:00Z,Figueira Da Foz,Coimbra,Centro,-8.832842,40.02937
25112447,Laranjeiro e Feijó,Península de Setúbal,311,2025-03-19T23:43:00Z,25112447,Em curso,3311,Queda de elementos de estruturas edificados,0,1,0,4,2025-03-19T23:43:00Z,Almada,Setúbal,Área Metropolitana De Lisboa,-9.156624,38.652235
25112449,Amoreira,Oeste,311,2025-03-19T23:53:00Z,25112449,Em despacho,3301,Queda de árvore,0,1,0,5,2025-03-19T23:53:00Z,Óbidos,Leiria,Centro,-9.22215,39.34561
25112472,Caparica e Trafaria,Península de Setúbal,311,2025-03-19T23:57:00Z,25112472,Em curso,3301,Queda de árvore,0,0,0,0,2025-03-19T23:57:00Z,Almada,Setúbal,Área Metropolitana De Lisboa,-9.242559,38.66221
25112481,"Mangualde, Mesquitela e Cunha Alta",Viseu Dão Lafões,310,2025-03-19T23:58:00Z,25112481,Em conclusão,3301,Queda de árvore,0,1,0,3,2025-03-19T23:58:00Z,Mangualde,Viseu,Centro,-7.737095,40.60743
25112488,Buarcos,Região de Coimbra,310,2025-03-19T23:59:00Z,25112488,Em despacho,3301,Queda de árvore,0,1,0,5,2025-03-19T23:59:00Z,Figueira Da Foz,Coimbra,Centro,-8.880897,40.168384
25112513,Caparica e Trafaria,Península de Setúbal,311,2025-03-19T23:58:00Z,25112513,Em despacho,3301,Queda de árvore,0,1,0,3,2025-03-19T23:58:00Z,Almada,Setúbal,Área Metropolitana De Lisboa,-9.205011,38.66171
25112524,Pereira,Região de Coimbra,310,2025-03-19T23:55:00Z,25112524,Em despacho,3301,Queda de árvore,0,0,0,0,2025-03-19T23:55:00Z,Montemor-o-Velho,Coimbra,Centro,-8.585186,40.185229
25112549,Valezim,Beiras e Serra da Estrela,310,2025-03-20T00:08:00Z,25112549,Em despacho,3301,Queda de árvore,0,1,0,3,2025-03-20T00:08:00Z,Seia,Guarda,Centro,-7.715215,40.357374
25112554,Charneca de Caparica e Sobreda,Península de Setúbal,311,2025-03-20T00:10:00Z,25112554,Em curso,3301,Queda de árvore,0,1,0,4,2025-03-20T00:10:00Z,Almada,Setúbal,Área Metropolitana De Lisboa,-9.181708,38.64791
25111976,Cascais e Estoril,Grande Lisboa,311,2025-03-19T22:25:00Z,25111976,Em conclusão,3301,Queda de árvore,0,2,0,7,2025-03-19T22:25:00Z,Cascais,Lisboa,Área Metropolitana De Lisboa,-9.419397,38.700982
25112008,Manteigas (Santa Maria),Beiras e Serra da Estrela,310,2025-03-19T22:44:00Z,25112008,Em curso,3301,Queda de árvore,0,1,0,1,2025-03-19T22:44:00Z,Manteigas,Guarda,Centro,-7.534834,40.40585
25112144,"S.julião, N.s. da Anunciada e S. Maria da Graça",Península de Setúbal,311,2025-03-19T23:01:00Z,25112144,Em curso,3311,Queda de elementos de estruturas edificados,0,1,0,5,2025-03-19T23:01:00Z,Setúbal,Setúbal,Área Metropolitana De Lisboa,-8.889983,38.529955
25112160,"Guia, Ilha e Mata Mourisca",Região de Leiria,310,2025-03-19T22:25:00Z,25112160,Em despacho,3301,Queda de árvore,0,1,0,3,2025-03-19T22:25:00Z,Pombal,Leiria,Centro,-8.753282,39.947593
25112193,Louriçal,Região de Leiria,310,2025-03-19T23:18:00Z,25112193,Em despacho,3301,Queda de árvore,0,1,0,3,2025-03-19T23:18:00Z,Pombal,Leiria,Centro,-8.711387,39.974828
25112210,Rio de Mouro,Grande Lisboa,311,2025-03-19T23:21:00Z,25112210,Em despacho,3301,Queda de árvore,0,1,0,3,2025-03-19T23:21:00Z,Sintra,Lisboa,Área Metropolitana De Lisboa,-9.318117,38.78921
25112325,Manteigas (São Pedro),Beiras e Serra da Estrela,310,2025-03-19T23:30:00Z,25112325,Em despacho,3301,Queda de árvore,0,2,0,8,2025-03-19T23:30:00Z,Manteigas,Guarda,Centro,-7.537096,40.398921
25112341,Sabugueiro,Beiras e Serra da Estrela,310,2025-03-19T23:40:00Z,25112341,Em curso,3311,Queda de elementos de estruturas edificados,0,1,0,1,2025-03-19T23:40:00Z,Seia,Guarda,Centro,-7.63621,40.40352
25112342,Alvor,Algarve,313,2025-03-19T23:41:00Z,25112342,Em despacho,3301,Queda de árvore,0,0,0,0,2025-03-19T23:41:00Z,Portimão,Faro,Algarve,-8.580215,37.16216
25087162,Pedrógão,Baixo Alentejo,312,2025-03-14T17:00:00Z,25087162,Em curso,1101,Cheia,0,0,0,0,2025-03-14T17:00:00Z,Vidigueira,Beja,Alentejo,-7.630327,38.110775
25111421,Febres,Região de Coimbra,310,2025-03-19T20:53:00Z,25111421,Em despacho,3311,Queda de elementos de estruturas edificados,0,1,0,2,2025-03-19T20:53:00Z,Cantanhede,Coimbra,Centro,-8.637168,40.385839
25111596,Paião,Região de Coimbra,310,2025-03-19T21:30:00Z,25111596,Em despacho,3301,Queda de árvore,0,1,0,2,2025-03-19T21:30:00Z,Figueira Da Foz,Coimbra,Centro,-8.756598,40.054747
25111610,Marrazes e Barosa,Região de Leiria,310,2025-03-19T21:35:00Z,25111610,Em despacho,3301,Queda de árvore,0,0,0,0,2025-03-19T21:35:00Z,Leiria,Leiria,Centro,-8.81813,39.75452
25111669,Marinha Grande,Região de Leiria,310,2025-03-19T21:26:00Z,25111669,Em despacho,3311,Queda de elementos de estruturas edificados,0,1,0,2,2025-03-19T21:26:00Z,Marinha Grande,Leiria,Centro,-8.937219,39.767238
25111812,Parceiros e Azoia,Região de Leiria,310,2025-03-19T22:08:00Z,25111812,Em despacho,3301,Queda de árvore,0,1,0,3,2025-03-19T22:08:00Z,Leiria,Leiria,Centro,-8.83613,39.70146
25111844,Cadafaz e Colmeal,Região de Coimbra,310,2025-03-19T22:11:00Z,25111844,Em despacho,3309,Desabamento de estruturas edificadas,0,2,0,3,2025-03-19T22:11:00Z,Góis,Coimbra,Centro,-8.013447,40.126617
25111939,Pombal,Região de Leiria,310,2025-03-19T22:30:00Z,25111939,Em despacho,3301,Queda de árvore,0,1,0,2,2025-03-19T22:30:00Z,Pombal,Leiria,Centro,-8.603159,39.896965
25112565,Aldeias e Mangualde da Serra,Beiras e Serra da Estrela,310,2025-03-20T00:13:00Z,25112565,Em despacho,3301,Queda de árvore,0,1,0,3,2025-03-20T00:13:00Z,Gouveia,Guarda,Centro,-7.59625,40.42121
25112572,Algueirão-Mem Martins,Grande Lisboa,311,2025-03-20T00:14:00Z,25112572,Em despacho,3301,Queda de árvore,0,2,0,6,2025-03-20T00:14:00Z,Sintra,Lisboa,Área Metropolitana De Lisboa,-9.34312,38.79552
25112622,"S.julião, N.s. da Anunciada e S. Maria da Graça",Península de Setúbal,311,2025-03-20T00:21:00Z,25112622,Em curso,3311,Queda de elementos de estruturas edificados,0,0,0,0,2025-03-20T00:21:00Z,Setúbal,Setúbal,Área Metropolitana De Lisboa,-8.90427,38.528
25112631,Agualva e Mira-Sintra,Grande Lisboa,311,2025-03-20T00:23:00Z,25112631,Em despacho,3301,Queda de árvore,0,0,0,0,2025-03-20T00:23:00Z,Sintra,Lisboa,Área Metropolitana De Lisboa,-9.28347,38.76878
25112638,Portimão,Algarve,313,2025-03-20T00:00:00Z,25112638,Em curso,3329,Queda de estruturas temporárias ou móveis,0,3,0,7,2025-03-20T00:00:00Z,Portimão,Faro,Algarve,-8.532608,37.137966
25112658,Quinta do Anjo,Península de Setúbal,311,2025-03-20T00:26:00Z,25112658,Em curso,3301,Queda de árvore,0,0,0,0,2025-03-20T00:26:00Z,Palmela,Setúbal,Área Metropolitana De Lisboa,-9.02329,38.58032
25112672,Alhos Vedros,Península de Setúbal,311,2025-03-20T00:28:00Z,25112672,Em curso,3311,Queda de elementos de estruturas edificados,0,0,0,0,2025-03-20T00:28:00Z,Moita,Setúbal,Área Metropolitana De Lisboa,-9.02548,38.65708
25112674,Venda do Pinheiro e Santo Estêvão Das Galés,Grande Lisboa,311,2025-03-20T00:28:00Z,25112674,Em despacho,3301,Queda de árvore,0,0,0,0,2025-03-20T00:28:00Z,Mafra,Lisboa,Área Metropolitana De Lisboa,-9.26038,38.90364
25112708,Castro Verde e Casével,Baixo Alentejo,312,2025-03-20T00:20:00Z,25112708,Em despacho,3301,Queda de árvore,0,2,0,6,2025-03-20T00:20:00Z,Castro Verde,Beja,Alentejo,-8.179615,37.779248
25112361,"Almada, Cova da Piedade, Pragal e Cacilhas",Península de Setúbal,311,2025-03-19T23:43:00Z,25112361,Em curso,3301,Queda de árvore,0,1,0,4,2025-03-19T23:43:00Z,Almada,Setúbal,Área Metropolitana De Lisboa,-9.169937,38.67238
25112376,Carvalhal,Oeste,311,2025-03-19T23:40:00Z,25112376,Em despacho,3301,Queda de árvore,0,0,0,0,2025-03-19T23:40:00Z,Bombarral,Leiria,Centro,-9.140539,39.302711
25112377,Pombal,Região de Leiria,310,2025-03-19T23:44:00Z,25112377,Em despacho,3321,Dano na rede de fornecimento de eletricidade ,0,1,0,1,2025-03-19T23:44:00Z,Pombal,Leiria,Centro,-8.67152,39.8958
25112378,Lagos da Beira e Lajeosa,Região de Coimbra,310,2025-03-19T23:45:00Z,25112378,Em despacho,3301,Queda de árvore,0,1,0,3,2025-03-19T23:45:00Z,Oliveira Do Hospital,Coimbra,Centro,-7.826974,40.373933
25112392,Lousã e Vilarinho,Região de Coimbra,310,2025-03-19T23:40:00Z,25112392,Em despacho,3301,Queda de árvore,0,1,0,2,2025-03-19T23:40:00Z,Lousã,Coimbra,Centro,-8.225749,40.091516
25112395,"Sandim, Olival, Lever e Crestuma",Area M. Porto,309,2025-03-19T23:45:00Z,25112395,Em despacho,3301,Queda de árvore,0,1,0,3,2025-03-19T23:45:00Z,Vila Nova De Gaia,Porto,Norte,-8.504153,41.048753
25112444,"S.maria, S.miguel, S.martinho, S.pedro Penaferrim",Grande Lisboa,311,2025-03-19T23:45:00Z,25112444,Em despacho,3301,Queda de árvore,0,2,0,9,2025-03-19T23:45:00Z,Sintra,Lisboa,Área Metropolitana De Lisboa,-9.414924,38.772191
25112475,Alcabideche,Grande Lisboa,311,2025-03-19T23:48:00Z,25112475,Em despacho,3301,Queda de árvore,0,1,0,5,2025-03-19T23:48:00Z,Cascais,Lisboa,Área Metropolitana De Lisboa,-9.41439,38.712196
25112492,Barreiro e Lavradio,Península de Setúbal,311,2025-03-19T23:41:00Z,25112492,Em curso,3301,Queda de árvore,0,1,0,5,2025-03-19T23:41:00Z,Barreiro,Setúbal,Área Metropolitana De Lisboa,-9.060271,38.662949
25112512,Alvorninha,Oeste,311,2025-03-19T23:46:00Z,25112512,Em curso,3321,Dano na rede de fornecimento de eletricidade ,0,2,0,7,2025-03-19T23:46:00Z,Caldas Da Rainha,Leiria,Centro,-9.047004,39.419673
25063232,Santa Maria do Castelo e Santiago e Santa Susana,Alentejo Litoral,312,2025-03-09T19:02:00Z,25063232,Em curso,1101,Cheia,0,0,0,0,2025-03-09T19:02:00Z,Alcácer Do Sal,Setúbal,Alentejo,-8.48167,38.29806
25111915,Góis,Região de Coimbra,310,2025-03-19T22:23:00Z,25111915,Em despacho,3301,Queda de árvore,0,1,0,4,2025-03-19T22:23:00Z,Góis,Coimbra,Centro,-8.120659,40.134935
25111934,Monchique,Algarve,313,2025-03-19T22:18:00Z,25111934,Em curso,3301,Queda de árvore,0,2,0,5,2025-03-19T22:18:00Z,Monchique,Faro,Algarve,-8.614574,37.284529
25112000,Fernão Ferro,Península de Setúbal,311,2025-03-19T22:42:00Z,25112000,Em despacho,3301,Queda de árvore,0,1,0,2,2025-03-19T22:42:00Z,Seixal,Setúbal,Área Metropolitana De Lisboa,-9.09385,38.57806
25112066,Gafanha da Nazaré,Região de Aveiro,310,2025-03-19T22:51:00Z,25112066,Em resolução,3311,Queda de elementos de estruturas edificados,0,0,0,1,2025-03-19T22:51:00Z,Ílhavo,Aveiro,Centro,-8.714699,40.63582
25112068,Lagoa e Carvoeiro,Algarve,313,2025-03-19T22:54:00Z,25112068,Em curso,3301,Queda de árvore,0,3,0,10,2025-03-19T22:54:00Z,Lagoa,Faro,Algarve,-8.45971,37.09728
25112100,Sines,Alentejo Litoral,312,2025-03-19T22:56:00Z,25112100,Em conclusão,3301,Queda de árvore,0,1,0,2,2025-03-19T22:56:00Z,Sines,Setúbal,Alentejo,-8.817062,37.971866
25112119,Góis,Região de Coimbra,310,2025-03-19T23:00:00Z,25112119,Em despacho,3301,Queda de árvore,0,1,0,3,2025-03-19T23:00:00Z,Góis,Coimbra,Centro,-8.101407,40.194217
25112132,Alfeizerão,Oeste,311,2025-03-19T23:05:00Z,25112132,Em curso,3301,Queda de árvore,0,2,0,6,2025-03-19T23:05:00Z,Alcobaça,Leiria,Centro,-9.074601,39.50577
25112722,Azeitão (São Lourenço e São Simão),Península de Setúbal,311,2025-03-20T00:34:00Z,25112722,Em curso,3321,Dano na rede de fornecimento de eletricidade ,0,0,0,0,2025-03-20T00:34:00Z,Setúbal,Setúbal,Área Metropolitana De Lisboa,-9.01777,38.55323
25112738,"Oeiras e S. Julião da Barra, Paço de Arcos e Caxias",Grande Lisboa,311,2025-03-20T00:20:00Z,25112738,Em despacho,3301,Queda de árvore,0,1,0,3,2025-03-20T00:20:00Z,Oeiras,Lisboa,Área Metropolitana De Lisboa,-9.275682,38.698873
25112740,Arganil,Região de Coimbra,310,2025-03-20T00:36:00Z,25112740,Em despacho,3301,Queda de árvore,0,0,0,0,2025-03-20T00:36:00Z,Arganil,Coimbra,Centro,-8.0518,40.21991
25112758,Poceirão e Marateca,Península de Setúbal,311,2025-03-20T00:39:00Z,25112758,Em curso,3311,Queda de elementos de estruturas edificados,0,1,0,3,2025-03-20T00:39:00Z,Palmela,Setúbal,Área Metropolitana De Lisboa,-8.781059,38.66537
25112763,Cascais e Estoril,Grande Lisboa,311,2025-03-20T00:38:00Z,25112763,Em despacho,3301,Queda de árvore,0,0,0,0,2025-03-20T00:38:00Z,Cascais,Lisboa,Área Metropolitana De Lisboa,-9.398759,38.70391
25112774,Azueira e Sobral da Abelheira,Grande Lisboa,311,2025-03-20T00:40:00Z,25112774,Em despacho,3301,Queda de árvore,0,0,0,0,2025-03-20T00:40:00Z,Mafra,Lisboa,Área Metropolitana De Lisboa,-9.28373,39.00416
25112781,Moita,Península de Setúbal,311,2025-03-20T00:35:00Z,25112781,Em curso,3301,Queda de árvore,0,1,0,5,2025-03-20T00:35:00Z,Moita,Setúbal,Área Metropolitana De Lisboa,-8.985364,38.643702
25112783,Alverca do Ribatejo e Sobralinho,Grande Lisboa,311,2025-03-20T00:41:00Z,25112783,Em despacho,3301,Queda de árvore,0,0,0,0,2025-03-20T00:41:00Z,Vila Franca De Xira,Lisboa,Área Metropolitana De Lisboa,-9.04675,38.8895
25112788,Santo André de Vagos,Região de Aveiro,310,2025-03-20T00:38:00Z,25112788,Em despacho,3311,Queda de elementos de estruturas edificados,0,2,0,3,2025-03-20T00:38:00Z,Vagos,Aveiro,Centro,-8.672314,40.509954
25112199,Cascais e Estoril,Grande Lisboa,311,2025-03-19T23:12:00Z,25112199,Em despacho,3301,Queda de árvore,0,2,0,10,2025-03-19T23:12:00Z,Cascais,Lisboa,Área Metropolitana De Lisboa,-9.398759,38.70391
25112202,Sameiro,Beiras e Serra da Estrela,310,2025-03-19T23:10:00Z,25112202,Em curso,3301,Queda de árvore,0,0,0,0,2025-03-19T23:10:00Z,Manteigas,Guarda,Centro,-7.495761,40.410408
25112284,São Teotónio,Alentejo Litoral,312,2025-03-19T23:25:00Z,25112284,Em curso,3301,Queda de árvore,0,1,0,2,2025-03-19T23:25:00Z,Odemira,Beja,Alentejo,-8.70051,37.523962
25112286,Sebal e Belide,Região de Coimbra,310,2025-03-19T23:28:00Z,25112286,Em curso,3301,Queda de árvore,0,2,0,4,2025-03-19T23:28:00Z,Condeixa-a-Nova,Coimbra,Centro,-8.536649,40.118765
25112301,Pinhal Novo,Península de Setúbal,311,2025-03-19T23:28:00Z,25112301,Em curso,3301,Queda de árvore,0,5,0,10,2025-03-19T23:28:00Z,Palmela,Setúbal,Área Metropolitana De Lisboa,-8.91294,38.637902
25112335,Falagueira-Venda Nova,Grande Lisboa,311,2025-03-19T23:38:00Z,25112335,Em despacho,3321,Dano na rede de fornecimento de eletricidade ,0,0,0,0,2025-03-19T23:38:00Z,Amadora,Lisboa,Área Metropolitana De Lisboa,-9.223747,38.760622
25112350,Setúbal (São Sebastião),Península de Setúbal,311,2025-03-19T23:42:00Z,25112350,Em curso,3329,Queda de estruturas temporárias ou móveis,0,0,0,0,2025-03-19T23:42:00Z,Setúbal,Setúbal,Área Metropolitana De Lisboa,-8.87752,38.52253
25112402,Golegã,Lezíria do Tejo,311,2025-03-19T23:46:00Z,25112402,Em conclusão,3301,Queda de árvore,0,1,0,2,2025-03-19T23:46:00Z,Golegã,Santarém,Alentejo,-8.483135,39.415012
25112470,Quiaios,Região de Coimbra,310,2025-03-19T23:47:00Z,25112470,Em despacho,3311,Queda de elementos de estruturas edificados,0,1,0,3,2025-03-19T23:47:00Z,Figueira Da Foz,Coimbra,Centro,-8.86,40.190131
25112483,Vila do Bispo e Raposeira,Algarve,313,2025-03-19T23:52:00Z,25112483,Em curso,3301,Queda de árvore,0,1,0,5,2025-03-19T23:52:00Z,Vila Do Bispo,Faro,Algarve,-8.865778,37.141777
25112543,Alcabideche,Grande Lisboa,311,2025-03-20T00:09:00Z,25112543,Em despacho,3301,Queda de árvore,0,1,0,5,2025-03-20T00:09:00Z,Cascais,Lisboa,Área Metropolitana De Lisboa,-9.38993,38.74284
25112560,Monchique,Algarve,313,2025-03-19T23:52:00Z,25112560,Em despacho,3301,Queda de árvore,0,1,0,3,2025-03-19T23:52:00Z,Monchique,Faro,Algarve,-8.567422,37.320753
25112561,Fernão Ferro,Península de Setúbal,311,2025-03-19T23:07:00Z,25112561,Em despacho,3321,Dano na rede de fornecimento de eletricidade ,0,1,0,2,2025-03-19T23:07:00Z,Seixal,Setúbal,Área Metropolitana De Lisboa,-9.063432,38.552125
25112562,"S.julião, N.s. da Anunciada e S. Maria da Graça",Península de Setúbal,311,2025-03-20T00:12:00Z,25112562,Em curso,3329,Queda de estruturas temporárias ou móveis,0,0,0,0,2025-03-20T00:12:00Z,Setúbal,Setúbal,Área Metropolitana De Lisboa,-8.90758,38.52468
25112576,Samora Correia,Lezíria do Tejo,311,2025-03-20T00:14:00Z,25112576,Em curso,3301,Queda de árvore,0,2,0,5,2025-03-20T00:14:00Z,Benavente,Santarém,Alentejo,-8.868908,38.935447
25112578,Carnaxide e Queijas,Grande Lisboa,311,2025-03-20T00:10:00Z,25112578,Em despacho,3301,Queda de árvore,0,0,0,0,2025-03-20T00:10:00Z,Oeiras,Lisboa,Área Metropolitana De Lisboa,-9.249356,38.722132
25112595,Maiorca,Região de Coimbra,310,2025-03-20T00:16:00Z,25112595,Em despacho,3301,Queda de árvore,0,0,0,0,2025-03-20T00:16:00Z,Figueira Da Foz,Coimbra,Centro,-8.749227,40.16851
25112611,Salvaterra de Magos e Foros de Salvaterra,Lezíria do Tejo,311,2025-03-20T00:18:00Z,25112611,Em resolução,3301,Queda de árvore,0,0,0,0,2025-03-20T00:18:00Z,Salvaterra De Magos,Santarém,Alentejo,-8.791365,39.03049
25112628,"Sé Nova, Santa Cruz, Almedina e São Bartolomeu",Região de Coimbra,310,2025-03-20T00:10:00Z,25112628,Em despacho,3311,Queda de elementos de estruturas edificados,0,0,0,0,2025-03-20T00:10:00Z,Coimbra,Coimbra,Centro,-8.425582,40.205556
25112797,Vila Franca de Xira,Grande Lisboa,311,2025-03-20T00:42:00Z,25112797,Em despacho,3301,Queda de árvore,0,0,0,0,2025-03-20T00:42:00Z,Vila Franca De Xira,Lisboa,Área Metropolitana De Lisboa,-8.95154,38.94419
25112808,Joane,Ave,309,2025-03-20T00:00:00Z,25112808,Em despacho,3301,Queda de árvore,0,3,0,6,2025-03-20T00:00:00Z,Vila Nova De Famalicão,Braga,Norte,-8.42238,41.440941
25112817,Azinhaga,Lezíria do Tejo,311,2025-03-20T00:43:00Z,25112817,Em resolução,3301,Queda de árvore,0,2,0,5,2025-03-20T00:43:00Z,Golegã,Santarém,Alentejo,-8.544572,39.3432
25112831,Azueira e Sobral da Abelheira,Grande Lisboa,311,2025-03-20T00:46:00Z,25112831,Em despacho,3301,Queda de árvore,0,0,0,0,2025-03-20T00:46:00Z,Mafra,Lisboa,Área Metropolitana De Lisboa,-9.261398,38.99127
25112838,"Almada, Cova da Piedade, Pragal e Cacilhas",Península de Setúbal,311,2025-03-20T00:47:00Z,25112838,Em curso,3301,Queda de árvore,0,0,0,0,2025-03-20T00:47:00Z,Almada,Setúbal,Área Metropolitana De Lisboa,-9.15927,38.6747
25112856,Amora,Península de Setúbal,311,2025-03-20T00:50:00Z,25112856,Em curso,3301,Queda de árvore,0,1,0,4,2025-03-20T00:50:00Z,Seixal,Setúbal,Área Metropolitana De Lisboa,-9.137635,38.60391
25112858,Lagos (São Sebastião e Santa Maria),Algarve,313,2025-03-20T00:43:00Z,25112858,Em despacho,3311,Queda de elementos de estruturas edificados,0,1,0,3,2025-03-20T00:43:00Z,Lagos,Faro,Algarve,-8.668524,37.100485
25112865,Ereira,Região de Coimbra,310,2025-03-20T00:51:00Z,25112865,Em despacho,3301,Queda de árvore,0,0,0,0,2025-03-20T00:51:00Z,Montemor-o-Velho,Coimbra,Centro,-8.698554,40.15028
25112867,Venda do Pinheiro e Santo Estêvão Das Galés,Grande Lisboa,311,2025-03-20T00:27:00Z,25112867,Em despacho,3301,Queda de árvore,0,1,0,5,2025-03-20T00:27:00Z,Mafra,Lisboa,Área Metropolitana De Lisboa,-9.265167,38.90615
25112881,Albufeira e Olhos de Água,Algarve,313,2025-03-20T00:41:00Z,25112881,Em despacho,3329,Queda de estruturas temporárias ou móveis,0,1,0,3,2025-03-20T00:41:00Z,Albufeira,Faro,Algarve,-8.22417,37.08995
25112485,Quintela de Azurara,Viseu Dão Lafões,310,2025-03-19T23:53:00Z,25112485,Em curso,3301,Queda de árvore,0,0,0,0,2025-03-19T23:53:00Z,Mangualde,Viseu,Centro,-7.715899,40.628437
25112537,Monchique,Algarve,313,2025-03-20T00:08:00Z,25112537,Em despacho,3301,Queda de árvore,0,1,0,3,2025-03-20T00:08:00Z,Monchique,Faro,Algarve,-8.55301,37.32016
25112551,Carcavelos e Parede,Grande Lisboa,311,2025-03-20T00:10:00Z,25112551,Em despacho,3301,Queda de árvore,0,2,0,6,2025-03-20T00:10:00Z,Cascais,Lisboa,Área Metropolitana De Lisboa,-9.330858,38.68312
25112569,São Salvador e Santa Maria,Alentejo Litoral,312,2025-03-20T00:01:00Z,25112569,Em despacho,3301,Queda de árvore,0,1,0,4,2025-03-20T00:01:00Z,Odemira,Beja,Alentejo,-8.681094,37.59238
25112570,Aljezur,Algarve,313,2025-03-20T00:05:00Z,25112570,Em despacho,3301,Queda de árvore,0,1,0,2,2025-03-20T00:05:00Z,Aljezur,Faro,Algarve,-8.8494,37.313973
25112585,Rio de Mouro,Grande Lisboa,311,2025-03-20T00:15:00Z,25112585,Em despacho,3315,Inundação de estruturas por precipitação intensa,0,1,0,3,2025-03-20T00:15:00Z,Sintra,Lisboa,Área Metropolitana De Lisboa,-9.32588,38.77819
25112600,Carvoeira,Grande Lisboa,311,2025-03-19T23:18:00Z,25112600,Em despacho,3301,Queda de árvore,0,1,0,4,2025-03-19T23:18:00Z,Mafra,Lisboa,Área Metropolitana De Lisboa,-9.39494,38.94355
25112618,Azinhaga,Lezíria do Tejo,311,2025-03-20T00:20:00Z,25112618,Em conclusão,3301,Queda de árvore,0,0,0,0,2025-03-20T00:20:00Z,Golegã,Santarém,Alentejo,-8.532263,39.364938
25112634,Algueirão-Mem Martins,Grande Lisboa,311,2025-03-20T00:23:00Z,25112634,Em despacho,3301,Queda de árvore,0,0,0,0,2025-03-20T00:23:00Z,Sintra,Lisboa,Área Metropolitana De Lisboa,-9.345731,38.79992
25112651,Setúbal (São Sebastião),Península de Setúbal,311,2025-03-20T00:25:00Z,25112651,Em curso,3301,Queda de árvore,0,0,0,0,2025-03-20T00:25:00Z,Setúbal,Setúbal,Área Metropolitana De Lisboa,-8.872648,38.53292
25112642,Agualva e Mira-Sintra,Grande Lisboa,311,2025-03-20T00:24:00Z,25112642,Em despacho,3301,Queda de árvore,0,0,0,0,2025-03-20T00:24:00Z,Sintra,Lisboa,Área Metropolitana De Lisboa,-9.29455,38.77558
25112643,Massamá e Monte Abraão,Grande Lisboa,311,2025-03-20T00:11:00Z,25112643,Em despacho,3301,Queda de árvore,0,2,0,10,2025-03-20T00:11:00Z,Sintra,Lisboa,Área Metropolitana De Lisboa,-9.27045,38.75541
25112644,Poceirão e Marateca,Península de Setúbal,311,2025-03-20T00:20:00Z,25112644,Em curso,3301,Queda de árvore,0,2,0,5,2025-03-20T00:20:00Z,Palmela,Setúbal,Área Metropolitana De Lisboa,-8.796299,38.568359
25112660,Valada,Lezíria do Tejo,311,2025-03-20T00:25:00Z,25112660,Em resolução,3329,Queda de estruturas temporárias ou móveis,0,2,0,6,2025-03-20T00:25:00Z,Cartaxo,Santarém,Alentejo,-8.757225,39.089142
25112661,"Algés, Linda-a-Velha e Cruz Quebrada-Dafundo",Grande Lisboa,311,2025-03-20T00:27:00Z,25112661,Em curso,3329,Queda de estruturas temporárias ou móveis,0,2,0,7,2025-03-20T00:27:00Z,Oeiras,Lisboa,Área Metropolitana De Lisboa,-9.24794,38.70009
25112676,"Oeiras e S. Julião da Barra, Paço de Arcos e Caxias",Grande Lisboa,311,2025-03-20T00:05:00Z,25112676,Em despacho,3301,Queda de árvore,0,1,0,6,2025-03-20T00:05:00Z,Oeiras,Lisboa,Área Metropolitana De Lisboa,-9.310159,38.698531
25112694,Amora,Península de Setúbal,311,2025-03-20T00:30:00Z,25112694,Em curso,3301,Queda de árvore,0,1,0,5,2025-03-20T00:30:00Z,Seixal,Setúbal,Área Metropolitana De Lisboa,-9.125095,38.62821
25112711,Esmolfe,Viseu Dão Lafões,310,2025-03-20T00:29:00Z,25112711,Em curso,3301,Queda de árvore,0,2,0,2,2025-03-20T00:29:00Z,Penalva Do Castelo,Viseu,Centro,-7.685918,40.678242
25112712,Malveira e São Miguel de Alcainça,Grande Lisboa,311,2025-03-20T00:33:00Z,25112712,Em despacho,3329,Queda de estruturas temporárias ou móveis,0,1,0,5,2025-03-20T00:33:00Z,Mafra,Lisboa,Área Metropolitana De Lisboa,-9.25702,38.92984
25112897,Castelo de Penalva,Viseu Dão Lafões,310,2025-03-20T00:53:00Z,25112897,Em despacho,3301,Queda de árvore,0,1,0,3,2025-03-20T00:53:00Z,Penalva Do Castelo,Viseu,Centro,-7.638791,40.666855
25112899,Cascais e Estoril,Grande Lisboa,311,2025-03-20T00:55:00Z,25112899,Em despacho,3315,Inundação de estruturas por precipitação intensa,0,0,0,0,2025-03-20T00:55:00Z,Cascais,Lisboa,Área Metropolitana De Lisboa,-9.38669,38.70476
25112908,Maceira,Região de Leiria,310,2025-03-20T00:37:00Z,25112908,Em despacho,3301,Queda de árvore,0,1,0,2,2025-03-20T00:37:00Z,Leiria,Leiria,Centro,-8.861611,39.680376
25112915,"Alto do Seixalinho, Santo André e Verderena",Península de Setúbal,311,2025-03-20T00:40:00Z,25112915,Em curso,3301,Queda de árvore,0,1,0,5,2025-03-20T00:40:00Z,Barreiro,Setúbal,Área Metropolitana De Lisboa,-9.065968,38.6593
25112933,Febres,Região de Coimbra,310,2025-03-20T00:45:00Z,25112933,Em despacho,3311,Queda de elementos de estruturas edificados,0,0,0,0,2025-03-20T00:45:00Z,Cantanhede,Coimbra,Centro,-8.63492,40.400257
25112940,Cantanhede e Pocariça,Região de Coimbra,310,2025-03-20T00:58:00Z,25112940,Em despacho,3301,Queda de árvore,0,1,0,2,2025-03-20T00:58:00Z,Cantanhede,Coimbra,Centro,-8.604891,40.353889
25112669,Parque Das Nações,Grande Lisboa,311,2025-03-20T00:28:00Z,25112669,Em despacho,3301,Queda de árvore,0,1,0,5,2025-03-20T00:28:00Z,Lisboa,Lisboa,Área Metropolitana De Lisboa,-9.09548,38.774802
25112686,Alverca do Ribatejo e Sobralinho,Grande Lisboa,311,2025-03-20T00:28:00Z,25112686,Em despacho,3301,Queda de árvore,0,0,0,0,2025-03-20T00:28:00Z,Vila Franca De Xira,Lisboa,Área Metropolitana De Lisboa,-9.034761,38.918068
25112704,Fernão Ferro,Península de Setúbal,311,2025-03-20T00:32:00Z,25112704,Em curso,3321,Dano na rede de fornecimento de eletricidade ,0,0,0,0,2025-03-20T00:32:00Z,Seixal,Setúbal,Área Metropolitana De Lisboa,-9.08671,38.56536
25112718,Alhos Vedros,Península de Setúbal,311,2025-03-20T00:33:00Z,25112718,Em curso,3329,Queda de estruturas temporárias ou móveis,0,0,0,0,2025-03-20T00:33:00Z,Moita,Setúbal,Área Metropolitana De Lisboa,-9.023435,38.65349
25112719,Liceia,Região de Coimbra,310,2025-03-20T00:33:00Z,25112719,Em curso,3309,Desabamento de estruturas edificadas,0,1,0,2,2025-03-20T00:33:00Z,Montemor-o-Velho,Coimbra,Centro,-8.727873,40.254827
25112720,Luz,Algarve,313,2025-03-20T00:10:00Z,25112720,Em despacho,3301,Queda de árvore,0,2,0,7,2025-03-20T00:10:00Z,Lagos,Faro,Algarve,-8.736029,37.101963
25112736,Seixo de Gatões,Região de Coimbra,310,2025-03-20T00:26:00Z,25112736,Em despacho,3309,Desabamento de estruturas edificadas,0,0,0,0,2025-03-20T00:26:00Z,Montemor-o-Velho,Coimbra,Centro,-8.690129,40.238805
25112737,Laranjeiro e Feijó,Península de Setúbal,311,2025-03-20T00:36:00Z,25112737,Em curso,3301,Queda de árvore,0,1,0,4,2025-03-20T00:36:00Z,Almada,Setúbal,Área Metropolitana De Lisboa,-9.14737,38.65335
25112754,Praia de Mira,Região de Coimbra,310,2025-03-20T00:34:00Z,25112754,Em despacho,3329,Queda de estruturas temporárias ou móveis,0,1,0,2,2025-03-20T00:34:00Z,Mira,Coimbra,Centro,-8.8004270000000009,40.460655
25112768,São Pedro Fins,Area M. Porto,309,2025-03-20T00:00:00Z,25112768,Em despacho,3301,Queda de árvore,0,1,0,2,2025-03-20T00:00:00Z,Maia,Porto,Norte,-8.554092,41.247401
25112728,Alvalade,Grande Lisboa,311,2025-03-20T00:35:00Z,25112728,Em despacho,3329,Queda de estruturas temporárias ou móveis,0,1,0,4,2025-03-20T00:35:00Z,Lisboa,Lisboa,Área Metropolitana De Lisboa,-9.14841,38.74863
25112744,Ramada e Caneças,Grande Lisboa,311,2025-03-20T00:29:00Z,25112744,Em despacho,3301,Queda de árvore,0,2,0,7,2025-03-20T00:29:00Z,Odivelas,Lisboa,Área Metropolitana De Lisboa,-9.194441,38.801427
25112760,"Algés, Linda-a-Velha e Cruz Quebrada-Dafundo",Grande Lisboa,311,2025-03-20T00:20:00Z,25112760,Em despacho,3311,Queda de elementos de estruturas edificados,0,1,0,5,2025-03-20T00:20:00Z,Oeiras,Lisboa,Área Metropolitana De Lisboa,-9.244903,38.715384
25112762,Monte Redondo e Carreira,Região de Leiria,310,2025-03-20T00:09:00Z,25112762,Em despacho,3301,Queda de árvore,0,1,0,4,2025-03-20T00:09:00Z,Leiria,Leiria,Centro,-8.847483,39.892112
25112796,"S.julião, N.s. da Anunciada e S. Maria da Graça",Península de Setúbal,311,2025-03-20T00:42:00Z,25112796,Em curso,3311,Queda de elementos de estruturas edificados,0,0,0,0,2025-03-20T00:42:00Z,Setúbal,Setúbal,Área Metropolitana De Lisboa,-8.890614,38.52599
25112810,São João Das Lampas e Terrugem,Grande Lisboa,311,2025-03-20T00:33:00Z,25112810,Em curso,3301,Queda de árvore,0,1,0,5,2025-03-20T00:33:00Z,Sintra,Lisboa,Área Metropolitana De Lisboa,-9.376923,38.836556
25112811,Sabóia,Alentejo Litoral,312,2025-03-20T00:37:00Z,25112811,Em despacho,3313,Deslizamento de terras,0,1,0,2,2025-03-20T00:37:00Z,Odemira,Beja,Alentejo,-8.484325,37.403923
25112812,Olivais,Grande Lisboa,311,2025-03-20T00:44:00Z,25112812,Em despacho,3301,Queda de árvore,0,2,0,5,2025-03-20T00:44:00Z,Lisboa,Lisboa,Área Metropolitana De Lisboa,-9.123507,38.76593
25112826,Budens,Algarve,313,2025-03-20T00:33:00Z,25112826,Em despacho,3301,Queda de árvore,0,1,0,4,2025-03-20T00:33:00Z,Vila Do Bispo,Faro,Algarve,-8.837124,37.086087
25112829,Bucelas,Grande Lisboa,311,2025-03-20T00:44:00Z,25112829,Em despacho,3301,Queda de árvore,0,1,0,4,2025-03-20T00:44:00Z,Loures,Lisboa,Área Metropolitana De Lisboa,-9.121038,38.903857
25112770,Cascais e Estoril,Grande Lisboa,311,2025-03-20T00:39:00Z,25112770,Em despacho,3301,Queda de árvore,0,0,0,0,2025-03-20T00:39:00Z,Cascais,Lisboa,Área Metropolitana De Lisboa,-9.393056,38.71305
25112785,Marinhais,Lezíria do Tejo,311,2025-03-20T00:40:00Z,25112785,Em curso,3301,Queda de árvore,0,2,0,7,2025-03-20T00:40:00Z,Salvaterra De Magos,Santarém,Alentejo,-8.713032,39.042942
25112819,Cascais e Estoril,Grande Lisboa,311,2025-03-20T00:45:00Z,25112819,Em despacho,3301,Queda de árvore,0,0,0,0,2025-03-20T00:45:00Z,Cascais,Lisboa,Área Metropolitana De Lisboa,-9.43903,38.70249
25112821,Queluz e Belas,Grande Lisboa,311,2025-03-20T00:05:00Z,25112821,Em despacho,3301,Queda de árvore,0,1,0,5,2025-03-20T00:05:00Z,Sintra,Lisboa,Área Metropolitana De Lisboa,-9.270072,38.779997
25112834,Alvorninha,Oeste,311,2025-03-20T00:42:00Z,25112834,Em curso,3301,Queda de árvore,0,1,0,5,2025-03-20T00:42:00Z,Caldas Da Rainha,Leiria,Centro,-9.022426,39.404552
25112835,"Almada, Cova da Piedade, Pragal e Cacilhas",Península de Setúbal,311,2025-03-20T00:47:00Z,25112835,Em curso,3301,Queda de árvore,0,0,0,0,2025-03-20T00:47:00Z,Almada,Setúbal,Área Metropolitana De Lisboa,-9.15992,38.67447
25112851,Costa da Caparica,Península de Setúbal,311,2025-03-20T00:30:00Z,25112851,Em despacho,3301,Queda de árvore,0,1,0,4,2025-03-20T00:30:00Z,Almada,Setúbal,Área Metropolitana De Lisboa,-9.227696,38.642583
25112853,Juncal,Região de Leiria,310,2025-03-20T00:40:00Z,25112853,Em despacho,3301,Queda de árvore,0,1,0,3,2025-03-20T00:40:00Z,Porto De Mós,Leiria,Centro,-8.896898,39.603593
25112868,Germil,Viseu Dão Lafões,310,2025-03-20T00:50:00Z,25112868,Em despacho,3301,Queda de árvore,0,1,0,3,2025-03-20T00:50:00Z,Penalva Do Castelo,Viseu,Centro,-7.727588,40.65009
25112870,Maceira,Região de Leiria,310,2025-03-19T23:44:00Z,25112870,Em despacho,3329,Queda de estruturas temporárias ou móveis,0,1,0,3,2025-03-19T23:44:00Z,Leiria,Leiria,Centro,-8.861611,39.680376
25112947,Vila Cova à Coelheira,Beiras e Serra da Estrela,310,2025-03-20T01:00:00Z,25112947,Em despacho,3301,Queda de árvore,0,2,0,6,2025-03-20T01:00:00Z,Seia,Guarda,Centro,-7.733886,40.385357
25112949,"Oeiras e S. Julião da Barra, Paço de Arcos e Caxias",Grande Lisboa,311,2025-03-20T01:01:00Z,25112949,Em despacho,3301,Queda de árvore,0,0,0,0,2025-03-20T01:01:00Z,Oeiras,Lisboa,Área Metropolitana De Lisboa,-9.324249,38.69806
25112956,Rio de Mouro,Grande Lisboa,311,2025-03-20T00:33:00Z,25112956,Em despacho,3301,Queda de árvore,0,1,0,2,2025-03-20T00:33:00Z,Sintra,Lisboa,Área Metropolitana De Lisboa,-9.330688,38.782224
25112974,Corroios,Península de Setúbal,311,2025-03-20T01:04:00Z,25112974,Em curso,3301,Queda de árvore,0,0,0,0,2025-03-20T01:04:00Z,Seixal,Setúbal,Área Metropolitana De Lisboa,-9.1683,38.62225
25112990,Sezures,Viseu Dão Lafões,310,2025-03-20T01:01:00Z,25112990,Em despacho,3301,Queda de árvore,0,0,0,0,2025-03-20T01:01:00Z,Penalva Do Castelo,Viseu,Centro,-7.623267,40.686599
25112992,Moscavide e Portela,Grande Lisboa,311,2025-03-20T00:53:00Z,25112992,Em despacho,3329,Queda de estruturas temporárias ou móveis,0,1,0,3,2025-03-20T00:53:00Z,Loures,Lisboa,Área Metropolitana De Lisboa,-9.114803,38.78591
25113015,Carnaxide e Queijas,Grande Lisboa,311,2025-03-20T01:10:00Z,25113015,Em despacho,3301,Queda de árvore,0,1,0,3,2025-03-20T01:10:00Z,Oeiras,Lisboa,Área Metropolitana De Lisboa,-9.2678,38.71895
25113024,"Mangualde, Mesquitela e Cunha Alta",Viseu Dão Lafões,310,2025-03-20T01:07:00Z,25113024,Em despacho,3301,Queda de árvore,0,2,0,3,2025-03-20T01:07:00Z,Mangualde,Viseu,Centro,-7.764584,40.587178
25113033,Mira,Região de Coimbra,310,2025-03-20T01:10:00Z,25113033,Em despacho,3301,Queda de árvore,0,1,0,2,2025-03-20T01:10:00Z,Mira,Coimbra,Centro,-8.734102,40.4268
25113042,Oliveira do Hospital e São Paio de Gramaços,Região de Coimbra,310,2025-03-20T01:10:00Z,25113042,Em despacho,3329,Queda de estruturas temporárias ou móveis,0,0,0,0,2025-03-20T01:10:00Z,Oliveira Do Hospital,Coimbra,Centro,-7.849022,40.355133
25113047,Corroios,Península de Setúbal,311,2025-03-20T01:13:00Z,25113047,Em curso,3301,Queda de árvore,0,0,0,0,2025-03-20T01:13:00Z,Seixal,Setúbal,Área Metropolitana De Lisboa,-9.16166,38.61952
25113049,Vendas Novas,Alentejo Central,312,2025-03-20T00:57:00Z,25113049,Em despacho,3301,Queda de árvore,0,1,0,2,2025-03-20T00:57:00Z,Vendas Novas,Évora,Alentejo,-8.477166,38.679307
25113056,"Alto do Seixalinho, Santo André e Verderena",Península de Setúbal,311,2025-03-20T01:00:00Z,25113056,Em curso,3301,Queda de árvore,0,1,0,5,2025-03-20T01:00:00Z,Barreiro,Setúbal,Área Metropolitana De Lisboa,-9.065968,38.6593
25113067,Pampilhosa,Região de Coimbra,310,2025-03-20T01:11:00Z,25113067,Em despacho,3301,Queda de árvore,0,1,0,3,2025-03-20T01:11:00Z,Mealhada,Aveiro,Centro,-8.429501,40.33872
25113076,Cascais e Estoril,Grande Lisboa,311,2025-03-20T01:15:00Z,25113076,Em despacho,3311,Queda de elementos de estruturas edificados,0,0,0,0,2025-03-20T01:15:00Z,Cascais,Lisboa,Área Metropolitana De Lisboa,-9.40634,38.72382
25113081,Santo Antão e São Julião do Tojal,Grande Lisboa,311,2025-03-20T01:09:00Z,25113081,Em despacho,3301,Queda de árvore,0,1,0,5,2025-03-20T01:09:00Z,Loures,Lisboa,Área Metropolitana De Lisboa,-9.137133,38.85709
25113083,Regueira de Pontes,Região de Leiria,310,2025-03-19T23:57:00Z,25113083,Em despacho,3301,Queda de árvore,0,1,0,4,2025-03-19T23:57:00Z,Leiria,Leiria,Centro,-8.820701,39.786001
25113090,"Alhandra, São João Dos Montes e Calhandriz",Grande Lisboa,311,2025-03-20T01:16:00Z,25113090,Em despacho,3301,Queda de árvore,0,0,0,0,2025-03-20T01:16:00Z,Vila Franca De Xira,Lisboa,Área Metropolitana De Lisboa,-9.02855,38.9405
25112903,Massamá e Monte Abraão,Grande Lisboa,311,2025-03-20T00:46:00Z,25112903,Em despacho,3301,Queda de árvore,0,1,0,6,2025-03-20T00:46:00Z,Sintra,Lisboa,Área Metropolitana De Lisboa,-9.280008,38.753778
25112918,Mira,Região de Coimbra,310,2025-03-20T00:57:00Z,25112918,Em despacho,3329,Queda de estruturas temporárias ou móveis,0,0,0,0,2025-03-20T00:57:00Z,Mira,Coimbra,Centro,-8.69438,40.4138
25112919,São Domingos de Rana,Grande Lisboa,311,2025-03-20T00:57:00Z,25112919,Em despacho,3301,Queda de árvore,0,0,0,0,2025-03-20T00:57:00Z,Cascais,Lisboa,Área Metropolitana De Lisboa,-9.353889,38.70417
25112920,Miragaia e Marteleira,Oeste,311,2025-03-20T00:57:00Z,25112920,Em curso,3301,Queda de árvore,0,3,0,8,2025-03-20T00:57:00Z,Lourinhã,Lisboa,Centro,-9.26782,39.22212
25112921,Castêlo da Maia,Area M. Porto,309,2025-03-20T00:40:00Z,25112921,Em despacho,3301,Queda de árvore,0,1,0,5,2025-03-20T00:40:00Z,Maia,Porto,Norte,-8.616749,41.267591
25112936,Pinhal Novo,Península de Setúbal,311,2025-03-20T00:59:00Z,25112936,Em curso,3329,Queda de estruturas temporárias ou móveis,0,0,0,0,2025-03-20T00:59:00Z,Palmela,Setúbal,Área Metropolitana De Lisboa,-8.93024,38.60548
25112952,Amora,Península de Setúbal,311,2025-03-20T01:01:00Z,25112952,Em curso,3311,Queda de elementos de estruturas edificados,0,0,0,0,2025-03-20T01:01:00Z,Seixal,Setúbal,Área Metropolitana De Lisboa,-9.114517,38.62354
25112954,Lamas,Região de Coimbra,310,2025-03-20T00:55:00Z,25112954,Em despacho,3301,Queda de árvore,0,1,0,2,2025-03-20T00:55:00Z,Miranda Do Corvo,Coimbra,Centro,-8.371151,40.091307
25112969,Campo de Ourique,Grande Lisboa,311,2025-03-20T00:52:00Z,25112969,Em despacho,3301,Queda de árvore,0,1,0,6,2025-03-20T00:52:00Z,Lisboa,Lisboa,Área Metropolitana De Lisboa,-9.169863,38.718496
25112985,Almodôvar e Graça Dos Padrões,Baixo Alentejo,312,2025-03-20T00:55:00Z,25112985,Em curso,3301,Queda de árvore,0,1,0,2,2025-03-20T00:55:00Z,Almodôvar,Beja,Alentejo,-8.061783,37.544083
25113002,"Algés, Linda-a-Velha e Cruz Quebrada-Dafundo",Grande Lisboa,311,2025-03-20T00:58:00Z,25113002,Em despacho,3329,Queda de estruturas temporárias ou móveis,0,1,0,5,2025-03-20T00:58:00Z,Oeiras,Lisboa,Área Metropolitana De Lisboa,-9.22967,38.696612
25112846,Amora,Península de Setúbal,311,2025-03-20T00:48:00Z,25112846,Em curso,3311,Queda de elementos de estruturas edificados,0,1,0,3,2025-03-20T00:48:00Z,Seixal,Setúbal,Área Metropolitana De Lisboa,-9.11648,38.62536
25112862,Alcochete,Península de Setúbal,311,2025-03-20T00:35:00Z,25112862,Em curso,3301,Queda de árvore,0,1,0,4,2025-03-20T00:35:00Z,Alcochete,Setúbal,Área Metropolitana De Lisboa,-8.962464,38.749259
25112879,Quintela de Azurara,Viseu Dão Lafões,310,2025-03-20T00:53:00Z,25112879,Em resolução,3301,Queda de árvore,0,3,0,7,2025-03-20T00:53:00Z,Mangualde,Viseu,Centro,-7.71927,40.61601
25112896,Ega,Região de Coimbra,310,2025-03-20T00:25:00Z,25112896,Em despacho,3301,Queda de árvore,0,1,0,3,2025-03-20T00:25:00Z,Condeixa-a-Nova,Coimbra,Centro,-8.550731,40.119616
25112911,Sesimbra (Castelo),Península de Setúbal,311,2025-03-20T00:56:00Z,25112911,Em curso,3329,Queda de estruturas temporárias ou móveis,0,0,0,0,2025-03-20T00:56:00Z,Sesimbra,Setúbal,Área Metropolitana De Lisboa,-9.10466,38.46059
25112926,Barcarena,Grande Lisboa,311,2025-03-20T00:49:00Z,25112926,Em despacho,3301,Queda de árvore,0,1,0,5,2025-03-20T00:49:00Z,Oeiras,Lisboa,Área Metropolitana De Lisboa,-9.268179,38.733176
25112928,Porto Salvo,Grande Lisboa,311,2025-03-20T00:40:00Z,25112928,Em despacho,3329,Queda de estruturas temporárias ou móveis,0,1,0,4,2025-03-20T00:40:00Z,Oeiras,Lisboa,Área Metropolitana De Lisboa,-9.305901,38.719291
25112943,Alverca do Ribatejo e Sobralinho,Grande Lisboa,311,2025-03-20T01:00:00Z,25112943,Em despacho,3329,Queda de estruturas temporárias ou móveis,0,0,0,0,2025-03-20T01:00:00Z,Vila Franca De Xira,Lisboa,Área Metropolitana De Lisboa,-9.04604,38.89168
25112944,Longueira/Almograve,Alentejo Litoral,312,2025-03-20T00:20:00Z,25112944,Em despacho,3301,Queda de árvore,0,2,0,4,2025-03-20T00:20:00Z,Odemira,Beja,Alentejo,-8.752532,37.635323
25113092,Torrozelo e Folhadosa,Beiras e Serra da Estrela,310,2025-03-20T01:03:00Z,25113092,Em despacho,3301,Queda de árvore,0,1,0,3,2025-03-20T01:03:00Z,Seia,Guarda,Centro,-7.777454,40.386399
25113099,Esgueira,Região de Aveiro,310,2025-03-20T01:16:00Z,25113099,Em despacho,3311,Queda de elementos de estruturas edificados,0,1,0,4,2025-03-20T01:16:00Z,Aveiro,Aveiro,Centro,-8.58244,40.655322
25113101,Charneca de Caparica e Sobreda,Península de Setúbal,311,2025-03-20T01:18:00Z,25113101,Em curso,3301,Queda de árvore,0,0,0,0,2025-03-20T01:18:00Z,Almada,Setúbal,Área Metropolitana De Lisboa,-9.17264,38.5926
25113117,Charneca de Caparica e Sobreda,Península de Setúbal,311,2025-03-20T01:19:00Z,25113117,Em curso,3301,Queda de árvore,0,0,0,0,2025-03-20T01:19:00Z,Almada,Setúbal,Área Metropolitana De Lisboa,-9.18066,38.59207
25113124,Carnaxide e Queijas,Grande Lisboa,311,2025-03-20T01:20:00Z,25113124,Em despacho,3311,Queda de elementos de estruturas edificados,0,0,0,0,2025-03-20T01:20:00Z,Oeiras,Lisboa,Área Metropolitana De Lisboa,-9.24609,38.72263
25113126,Águas Livres,Grande Lisboa,311,2025-03-20T01:20:00Z,25113126,Em despacho,3311,Queda de elementos de estruturas edificados,0,0,0,0,2025-03-20T01:20:00Z,Amadora,Lisboa,Área Metropolitana De Lisboa,-9.20581,38.74231
25113133,Almoster,Região de Leiria,310,2025-03-20T01:18:00Z,25113133,Em despacho,3301,Queda de árvore,0,1,0,3,2025-03-20T01:18:00Z,Alvaiázere,Leiria,Centro,-8.456751,39.84433
25113142,"Santa Iria de Azoia, São João da Talha e Bobadela",Grande Lisboa,311,2025-03-20T01:06:00Z,25113142,Em despacho,3311,Queda de elementos de estruturas edificados,0,1,0,4,2025-03-20T01:06:00Z,Loures,Lisboa,Área Metropolitana De Lisboa,-9.098065,38.824783
25111987,Paião,Região de Coimbra,310,2025-03-19T22:38:00Z,25111987,Em despacho,3301,Queda de árvore,0,0,0,0,2025-03-19T22:38:00Z,Figueira Da Foz,Coimbra,Centro,-8.81391,40.06369
25112073,Corroios,Península de Setúbal,311,2025-03-19T22:56:00Z,25112073,Em curso,3301,Queda de árvore,0,1,0,3,2025-03-19T22:56:00Z,Seixal,Setúbal,Área Metropolitana De Lisboa,-9.15214,38.58275
25112155,Portimão,Algarve,313,2025-03-19T23:04:00Z,25112155,Em curso,3315,Inundação de estruturas por precipitação intensa,0,0,0,0,2025-03-19T23:04:00Z,Portimão,Faro,Algarve,-8.532608,37.137966
25112262,Vermoil,Região de Leiria,310,2025-03-20T00:04:00Z,25112262,Em despacho,3301,Queda de árvore,0,1,0,4,2025-03-20T00:04:00Z,Pombal,Leiria,Centro,-8.694122,39.86774
25112280,Santo António da Charneca,Península de Setúbal,311,2025-03-19T22:54:00Z,25112280,Em curso,3301,Queda de árvore,0,1,0,5,2025-03-19T22:54:00Z,Barreiro,Setúbal,Área Metropolitana De Lisboa,-9.016979,38.599327
25112289,Alcabideche,Grande Lisboa,311,2025-03-19T23:23:00Z,25112289,Em despacho,3301,Queda de árvore,0,1,0,5,2025-03-19T23:23:00Z,Cascais,Lisboa,Área Metropolitana De Lisboa,-9.377282,38.724858
25112323,Lagoa e Carvoeiro,Algarve,313,2025-03-19T23:38:00Z,25112323,Em despacho,3301,Queda de árvore,0,1,0,2,2025-03-19T23:38:00Z,Lagoa,Faro,Algarve,-8.45553,37.0934
25112337,Pombal,Região de Leiria,310,2025-03-19T23:40:00Z,25112337,Em despacho,3301,Queda de árvore,0,1,0,3,2025-03-19T23:40:00Z,Pombal,Leiria,Centro,-8.64137,39.9113
25112355,Cascais e Estoril,Grande Lisboa,311,2025-03-19T23:42:00Z,25112355,Em despacho,3301,Queda de árvore,0,0,0,0,2025-03-19T23:42:00Z,Cascais,Lisboa,Área Metropolitana De Lisboa,-9.44891,38.69577
25112945,Amora,Península de Setúbal,311,2025-03-20T01:00:00Z,25112945,Em curso,3311,Queda de elementos de estruturas edificados,0,1,0,5,2025-03-20T01:00:00Z,Seixal,Setúbal,Área Metropolitana De Lisboa,-9.112282,38.62221
25112960,Miranda do Corvo,Região de Coimbra,310,2025-03-20T00:55:00Z,25112960,Em despacho,3301,Queda de árvore,0,1,0,5,2025-03-20T00:55:00Z,Miranda Do Corvo,Coimbra,Centro,-8.359503,40.114746
25112962,Melides,Alentejo Litoral,312,2025-03-20T00:16:00Z,25112962,Em conclusão,3301,Queda de árvore,0,1,0,4,2025-03-20T00:16:00Z,Grândola,Setúbal,Alentejo,-8.726303,38.148035
25112963,Costa da Caparica,Península de Setúbal,311,2025-03-20T00:40:00Z,25112963,Em curso,3301,Queda de árvore,0,1,0,4,2025-03-20T00:40:00Z,Almada,Setúbal,Área Metropolitana De Lisboa,-9.227696,38.642583
25112978,Mina de Água,Grande Lisboa,311,2025-03-20T01:05:00Z,25112978,Em despacho,3301,Queda de árvore,0,0,0,0,2025-03-20T01:05:00Z,Amadora,Lisboa,Área Metropolitana De Lisboa,-9.23375,38.7797
25112993,Cortiçadas de Lavre e Lavre,Alentejo Central,312,2025-03-20T01:07:00Z,25112993,Em despacho,3301,Queda de árvore,0,1,0,2,2025-03-20T01:07:00Z,Montemor-o-Novo,Évora,Alentejo,-8.385322,38.81787
25112995,"Almargem do Bispo, Pêro Pinheiro e Montelavar",Grande Lisboa,311,2025-03-20T01:07:00Z,25112995,Em despacho,3311,Queda de elementos de estruturas edificados,0,1,0,4,2025-03-20T01:07:00Z,Sintra,Lisboa,Área Metropolitana De Lisboa,-9.32296,38.8583
25113010,"Seia, São Romão e Lapa Dos Dinheiros",Beiras e Serra da Estrela,310,2025-03-20T00:40:00Z,25113010,Em curso,3311,Queda de elementos de estruturas edificados,0,1,0,2,2025-03-20T00:40:00Z,Seia,Guarda,Centro,-7.706579,40.420381
25112364,Canha,Península de Setúbal,311,2025-03-19T23:25:00Z,25112364,Em curso,3301,Queda de árvore,0,3,0,12,2025-03-19T23:25:00Z,Montijo,Setúbal,Área Metropolitana De Lisboa,-8.631311,38.768258
25112387,Barreiro e Lavradio,Península de Setúbal,311,2025-03-19T23:08:00Z,25112387,Em curso,3311,Queda de elementos de estruturas edificados,0,1,0,2,2025-03-19T23:08:00Z,Barreiro,Setúbal,Área Metropolitana De Lisboa,-9.060271,38.662949
25112462,Costa da Caparica,Península de Setúbal,311,2025-03-19T23:45:00Z,25112462,Em curso,3301,Queda de árvore,0,0,0,0,2025-03-19T23:45:00Z,Almada,Setúbal,Área Metropolitana De Lisboa,-9.227696,38.642583
25112466,Colares,Grande Lisboa,311,2025-03-19T23:50:00Z,25112466,Em curso,3321,Dano na rede de fornecimento de eletricidade ,0,2,0,7,2025-03-19T23:50:00Z,Sintra,Lisboa,Área Metropolitana De Lisboa,-9.470171,38.782676
25112480,Lagoa e Carvoeiro,Algarve,313,2025-03-19T23:58:00Z,25112480,Em despacho,3301,Queda de árvore,0,0,0,0,2025-03-19T23:58:00Z,Lagoa,Faro,Algarve,-8.43561,37.08839
25112496,Portimão,Algarve,313,2025-03-20T00:00:00Z,25112496,Em despacho,3301,Queda de árvore,0,0,0,0,2025-03-20T00:00:00Z,Portimão,Faro,Algarve,-8.54251,37.14361
25112498,Quinta do Anjo,Península de Setúbal,311,2025-03-19T23:54:00Z,25112498,Em curso,3311,Queda de elementos de estruturas edificados,0,1,0,3,2025-03-19T23:54:00Z,Palmela,Setúbal,Área Metropolitana De Lisboa,-8.968323,38.56095
25112505,"S.julião, N.s. da Anunciada e S. Maria da Graça",Península de Setúbal,311,2025-03-19T23:48:00Z,25112505,Em curso,3301,Queda de árvore,0,2,0,9,2025-03-19T23:48:00Z,Setúbal,Setúbal,Área Metropolitana De Lisboa,-8.889983,38.529955
25112507,Grândola e Santa Margarida da Serra,Alentejo Litoral,312,2025-03-20T00:02:00Z,25112507,Em despacho,3301,Queda de árvore,0,1,0,4,2025-03-20T00:02:00Z,Grândola,Setúbal,Alentejo,-8.621172,38.121494
25112514,Carcavelos e Parede,Grande Lisboa,311,2025-03-20T00:04:00Z,25112514,Em despacho,3301,Queda de árvore,0,2,0,5,2025-03-20T00:04:00Z,Cascais,Lisboa,Área Metropolitana De Lisboa,-9.33892,38.69928
25113158,Santo Antão e São Julião do Tojal,Grande Lisboa,311,2025-03-20T01:23:00Z,25113158,Em despacho,3329,Queda de estruturas temporárias ou móveis,0,0,0,0,2025-03-20T01:23:00Z,Loures,Lisboa,Área Metropolitana De Lisboa,-9.122308,38.86943
25113165,Alvorninha,Oeste,311,2025-03-20T01:19:00Z,25113165,Em despacho,3301,Queda de árvore,0,1,0,5,2025-03-20T01:19:00Z,Caldas Da Rainha,Leiria,Centro,-9.029564,39.418007
25113167,"Alhandra, São João Dos Montes e Calhandriz",Grande Lisboa,311,2025-03-20T01:15:00Z,25113167,Em despacho,3301,Queda de árvore,0,1,0,3,2025-03-20T01:15:00Z,Vila Franca De Xira,Lisboa,Área Metropolitana De Lisboa,-9.018721,38.926298
25113174,Loulé (São Clemente),Algarve,313,2025-03-20T00:31:00Z,25113174,Em despacho,3301,Queda de árvore,0,1,0,5,2025-03-20T00:31:00Z,Loulé,Faro,Algarve,-8.018267,37.137687
25113176,Soure,Região de Coimbra,310,2025-03-20T00:47:00Z,25113176,Em despacho,3301,Queda de árvore,0,1,0,2,2025-03-20T00:47:00Z,Soure,Coimbra,Centro,-8.60395,40.01224
25113181,Semide e Rio Vide,Região de Coimbra,310,2025-03-20T01:25:00Z,25113181,Em despacho,3309,Desabamento de estruturas edificadas,0,0,0,0,2025-03-20T01:25:00Z,Miranda Do Corvo,Coimbra,Centro,-8.338528,40.160715
25113183,"S.pedro e Santiago, S.maria e S.miguel e Matacães",Oeste,311,2025-03-20T01:09:00Z,25113183,Em despacho,3311,Queda de elementos de estruturas edificados,0,1,0,4,2025-03-20T01:09:00Z,Torres Vedras,Lisboa,Centro,-9.251952,39.091829
25113190,Arcos e Mogofores,Região de Aveiro,310,2025-03-20T01:22:00Z,25113190,Em despacho,3329,Queda de estruturas temporárias ou móveis,0,1,0,2,2025-03-20T01:22:00Z,Anadia,Aveiro,Centro,-8.446668,40.446851
25113192,Foz de Arouce e Casal de Ermio,Região de Coimbra,310,2025-03-20T01:10:00Z,25113192,Em despacho,3301,Queda de árvore,0,1,0,2,2025-03-20T01:10:00Z,Lousã,Coimbra,Centro,-8.281034,40.17071
25113201,"N. S. da Vila, N. S. do Bispo e Silveiras",Alentejo Central,312,2025-03-20T01:20:00Z,25113201,Em despacho,3321,Dano na rede de fornecimento de eletricidade ,0,1,0,2,2025-03-20T01:20:00Z,Montemor-o-Novo,Évora,Alentejo,-8.21652,38.662575
25113217,Usseira,Oeste,311,2025-03-20T01:28:00Z,25113217,Em despacho,3321,Dano na rede de fornecimento de eletricidade ,0,1,0,1,2025-03-20T01:28:00Z,Óbidos,Leiria,Centro,-9.131689,39.33251
25113224,Marmelete,Algarve,313,2025-03-20T01:03:00Z,25113224,Em despacho,3301,Queda de árvore,0,1,0,4,2025-03-20T01:03:00Z,Monchique,Faro,Algarve,-8.696734,37.263442
25113226,Barcarena,Grande Lisboa,311,2025-03-20T01:21:00Z,25113226,Em despacho,3301,Queda de árvore,0,2,0,7,2025-03-20T01:21:00Z,Oeiras,Lisboa,Área Metropolitana De Lisboa,-9.277392,38.733987
25113231,Fânzeres e São Pedro da Cova,Area M. Porto,309,2025-03-20T01:25:00Z,25113231,Em despacho,3301,Queda de árvore,0,1,0,3,2025-03-20T01:25:00Z,Gondomar,Porto,Norte,-8.511531,41.155311
25113233,Santa Eulália,Area M. Porto,309,2025-03-20T01:30:00Z,25113233,Em despacho,3301,Queda de árvore,0,1,0,2,2025-03-20T01:30:00Z,Arouca,Aveiro,Norte,-8.273927,40.93694
25113249,Águeda e Borralha,Região de Aveiro,310,2025-03-20T01:25:00Z,25113249,Em despacho,3301,Queda de árvore,0,1,0,5,2025-03-20T01:25:00Z,Águeda,Aveiro,Centro,-8.459067,40.57289
25113251,Portimão,Algarve,313,2025-03-20T01:32:00Z,25113251,Em despacho,3301,Queda de árvore,0,0,0,0,2025-03-20T01:32:00Z,Portimão,Faro,Algarve,-8.532608,37.137966
25113258,Valado Dos Frades,Oeste,311,2025-03-20T01:26:00Z,25113258,Em despacho,3301,Queda de árvore,0,2,0,4,2025-03-20T01:26:00Z,Nazaré,Leiria,Centro,-9.041021,39.584542
25113267,Bunheiro,Região de Aveiro,310,2025-03-20T01:32:00Z,25113267,Em despacho,3311,Queda de elementos de estruturas edificados,0,1,0,3,2025-03-20T01:32:00Z,Murtosa,Aveiro,Centro,-8.650778,40.776602
25113276,"Seia, São Romão e Lapa Dos Dinheiros",Beiras e Serra da Estrela,310,2025-03-20T01:08:00Z,25113276,Em despacho,3311,Queda de elementos de estruturas edificados,0,1,0,3,2025-03-20T01:08:00Z,Seia,Guarda,Centro,-7.702947,40.435677
25113281,"Almargem do Bispo, Pêro Pinheiro e Montelavar",Grande Lisboa,311,2025-03-20T01:36:00Z,25113281,Em despacho,3311,Queda de elementos de estruturas edificados,0,0,0,0,2025-03-20T01:36:00Z,Sintra,Lisboa,Área Metropolitana De Lisboa,-9.286858,38.81957
25112539,"Almargem do Bispo, Pêro Pinheiro e Montelavar",Grande Lisboa,311,2025-03-20T00:02:00Z,25112539,Em despacho,3321,Dano na rede de fornecimento de eletricidade ,0,1,0,2,2025-03-20T00:02:00Z,Sintra,Lisboa,Área Metropolitana De Lisboa,-9.297507,38.825783
25112541,Fernão Ferro,Península de Setúbal,311,2025-03-19T23:20:00Z,25112541,Em despacho,3321,Dano na rede de fornecimento de eletricidade ,0,1,0,4,2025-03-19T23:20:00Z,Seixal,Setúbal,Área Metropolitana De Lisboa,-9.115329,38.572419
25112564,Charneca de Caparica e Sobreda,Península de Setúbal,311,2025-03-20T00:13:00Z,25112564,Em curso,3301,Queda de árvore,0,0,0,0,2025-03-20T00:13:00Z,Almada,Setúbal,Área Metropolitana De Lisboa,-9.178229,38.59188
25112573,São João Das Lampas e Terrugem,Grande Lisboa,311,2025-03-20T00:14:00Z,25112573,Em despacho,3321,Dano na rede de fornecimento de eletricidade ,0,0,0,0,2025-03-20T00:14:00Z,Sintra,Lisboa,Área Metropolitana De Lisboa,-9.37013,38.83172
25112580,Monchique,Algarve,313,2025-03-19T23:46:00Z,25112580,Em despacho,3301,Queda de árvore,0,1,0,2,2025-03-19T23:46:00Z,Monchique,Faro,Algarve,-8.570796,37.318938
25112589,Fernão Ferro,Península de Setúbal,311,2025-03-20T00:16:00Z,25112589,Em curso,3301,Queda de árvore,0,0,0,0,2025-03-20T00:16:00Z,Seixal,Setúbal,Área Metropolitana De Lisboa,-9.07498,38.57159
25112616,Vieira de Leiria,Região de Leiria,310,2025-03-19T23:52:00Z,25112616,Em despacho,3301,Queda de árvore,0,2,0,7,2025-03-19T23:52:00Z,Marinha Grande,Leiria,Centro,-8.929016,39.865463
25112632,Caparica e Trafaria,Península de Setúbal,311,2025-03-20T00:18:00Z,25112632,Em despacho,3301,Queda de árvore,0,1,0,3,2025-03-20T00:18:00Z,Almada,Setúbal,Área Metropolitana De Lisboa,-9.231582,38.671372
25113011,Cascais e Estoril,Grande Lisboa,311,2025-03-20T01:09:00Z,25113011,Em despacho,3301,Queda de árvore,0,0,0,0,2025-03-20T01:09:00Z,Cascais,Lisboa,Área Metropolitana De Lisboa,-9.398759,38.70391
25113012,Cacém e São Marcos,Grande Lisboa,311,2025-03-20T01:09:00Z,25113012,Em despacho,3311,Queda de elementos de estruturas edificados,0,0,0,0,2025-03-20T01:09:00Z,Sintra,Lisboa,Área Metropolitana De Lisboa,-9.3115,38.76819
25113026,Cascais e Estoril,Grande Lisboa,311,2025-03-20T01:11:00Z,25113026,Em despacho,3311,Queda de elementos de estruturas edificados,0,0,0,0,2025-03-20T01:11:00Z,Cascais,Lisboa,Área Metropolitana De Lisboa,-9.43197,38.69844
25113028,Abela,Alentejo Litoral,312,2025-03-20T01:06:00Z,25113028,Em curso,3301,Queda de árvore,0,1,0,2,2025-03-20T01:06:00Z,Santiago Do Cacém,Setúbal,Alentejo,-8.560055,38.005515
25113030,Vialonga,Grande Lisboa,311,2025-03-20T01:02:00Z,25113030,Em despacho,3301,Queda de árvore,0,2,0,10,2025-03-20T01:02:00Z,Vila Franca De Xira,Lisboa,Área Metropolitana De Lisboa,-9.083937,38.887952
25113046,Salvaterra de Magos e Foros de Salvaterra,Lezíria do Tejo,311,2025-03-20T01:12:00Z,25113046,Em despacho,3329,Queda de estruturas temporárias ou móveis,0,1,0,6,2025-03-20T01:12:00Z,Salvaterra De Magos,Santarém,Alentejo,-8.791365,39.03049
25113063,Bidoeira de Cima,Região de Leiria,310,2025-03-20T01:02:00Z,25113063,Em despacho,3301,Queda de árvore,0,1,0,4,2025-03-20T01:02:00Z,Leiria,Leiria,Centro,-8.744177,39.844971
25113077,Palhais e Coina,Península de Setúbal,311,2025-03-20T01:00:00Z,25113077,Em despacho,3311,Queda de elementos de estruturas edificados,0,1,0,5,2025-03-20T01:00:00Z,Barreiro,Setúbal,Área Metropolitana De Lisboa,-9.026061,38.591151
25113078,"Santa Iria de Azoia, São João da Talha e Bobadela",Grande Lisboa,311,2025-03-20T01:15:00Z,25113078,Em despacho,3311,Queda de elementos de estruturas edificados,0,0,0,0,2025-03-20T01:15:00Z,Loures,Lisboa,Área Metropolitana De Lisboa,-9.097366,38.83854
25113004,Oliveira do Bairro,Região de Aveiro,310,2025-03-20T01:07:00Z,25113004,Em despacho,3311,Queda de elementos de estruturas edificados,0,1,0,3,2025-03-20T01:07:00Z,Oliveira Do Bairro,Aveiro,Centro,-8.480831,40.52209
25113005,Póvoa de Santa Iria e Forte da Casa,Grande Lisboa,311,2025-03-20T00:51:00Z,25113005,Em despacho,3301,Queda de árvore,0,1,0,6,2025-03-20T00:51:00Z,Vila Franca De Xira,Lisboa,Área Metropolitana De Lisboa,-9.080109,38.86006
25113018,Alcochete,Península de Setúbal,311,2025-03-20T01:10:00Z,25113018,Em curso,3321,Dano na rede de fornecimento de eletricidade ,0,0,0,0,2025-03-20T01:10:00Z,Alcochete,Setúbal,Área Metropolitana De Lisboa,-8.93938,38.73429
25113019,Póvoa de Santa Iria e Forte da Casa,Grande Lisboa,311,2025-03-20T01:00:00Z,25113019,Em despacho,3329,Queda de estruturas temporárias ou móveis,0,1,0,2,2025-03-20T01:00:00Z,Vila Franca De Xira,Lisboa,Área Metropolitana De Lisboa,-9.051508,38.875602
25113020,Laranjeiro e Feijó,Península de Setúbal,311,2025-03-20T00:33:00Z,25113020,Em curso,3311,Queda de elementos de estruturas edificados,0,1,0,3,2025-03-20T00:33:00Z,Almada,Setúbal,Área Metropolitana De Lisboa,-9.156624,38.652235
25113021,Sacavém e Prior Velho,Grande Lisboa,311,2025-03-20T00:32:00Z,25113021,Em despacho,3315,Inundação de estruturas por precipitação intensa,0,1,0,5,2025-03-20T00:32:00Z,Lisboa,Lisboa,Área Metropolitana De Lisboa,-9.097627,38.792359
25113035,Castanheira do Ribatejo e Cachoeiras,Grande Lisboa,311,2025-03-20T01:00:00Z,25113035,Em despacho,3301,Queda de árvore,0,1,0,3,2025-03-20T01:00:00Z,Vila Franca De Xira,Lisboa,Área Metropolitana De Lisboa,-8.979234,38.999552
25113036,Alhos Vedros,Península de Setúbal,311,2025-03-20T01:05:00Z,25113036,Em curso,3311,Queda de elementos de estruturas edificados,0,1,0,4,2025-03-20T01:05:00Z,Moita,Setúbal,Área Metropolitana De Lisboa,-9.026889,38.657804
25113285,Branca,Lezíria do Tejo,311,2025-03-20T01:35:00Z,25113285,Em despacho,3311,Queda de elementos de estruturas edificados,0,1,0,4,2025-03-20T01:35:00Z,Coruche,Santarém,Alentejo,-8.599754,38.869277
25113301,Febres,Região de Coimbra,310,2025-03-20T01:33:00Z,25113301,Em despacho,3301,Queda de árvore,0,1,0,5,2025-03-20T01:33:00Z,Cantanhede,Coimbra,Centro,-8.628858,40.397696
25113306,Vila Cova de Alva e Anseriz,Região de Coimbra,310,2025-03-20T01:15:00Z,25113306,Em despacho,3329,Queda de estruturas temporárias ou móveis,0,1,0,2,2025-03-20T01:15:00Z,Arganil,Coimbra,Centro,-7.937671,40.274822
25113310,Almeirim,Lezíria do Tejo,311,2025-03-20T01:38:00Z,25113310,Em curso,3309,Desabamento de estruturas edificadas,0,2,0,3,2025-03-20T01:38:00Z,Almeirim,Santarém,Alentejo,-8.588832,39.142251
25113315,Beja (Santiago Maior e São João Baptista),Baixo Alentejo,312,2025-03-20T01:09:00Z,25113315,Em despacho,3301,Queda de árvore,0,1,0,2,2025-03-20T01:09:00Z,Beja,Beja,Alentejo,-7.87003,38.014111
25113317,Ínsua,Viseu Dão Lafões,310,2025-03-20T01:33:00Z,25113317,Em despacho,3301,Queda de árvore,0,1,0,3,2025-03-20T01:33:00Z,Penalva Do Castelo,Viseu,Centro,-7.706129,40.677929
25113331,Almoster,Lezíria do Tejo,311,2025-03-20T01:41:00Z,25113331,Em despacho,3311,Queda de elementos de estruturas edificados,0,1,0,5,2025-03-20T01:41:00Z,Santarém,Santarém,Alentejo,-8.863976,39.239927
25113349,Vilar,Douro,309,2025-03-20T01:39:00Z,25113349,Em despacho,3301,Queda de árvore,0,2,0,4,2025-03-20T01:39:00Z,Moimenta Da Beira,Viseu,Norte,-7.555664,40.980736
25113358,Vale de Cavalos,Lezíria do Tejo,311,2025-03-20T01:42:00Z,25113358,Em despacho,3301,Queda de árvore,0,1,0,1,2025-03-20T01:42:00Z,Chamusca,Santarém,Alentejo,-8.516783,39.292933
25113080,"Oliveira de Frades, Souto de Lafões e Sejães",Viseu Dão Lafões,310,2025-03-19T00:46:00Z,25113080,Em despacho,3311,Queda de elementos de estruturas edificados,0,1,0,3,2025-03-19T00:46:00Z,Oliveira De Frades,Viseu,Centro,-8.185214,40.736334
25113093,Santa Clara e Castelo Viegas,Região de Coimbra,310,2025-03-20T01:06:00Z,25113093,Em despacho,3311,Queda de elementos de estruturas edificados,0,1,0,3,2025-03-20T01:06:00Z,Coimbra,Coimbra,Centro,-8.405437,40.161477
25113096,Montijo e Afonsoeiro,Península de Setúbal,311,2025-03-20T00:55:00Z,25113096,Em curso,3301,Queda de árvore,0,1,0,5,2025-03-20T00:55:00Z,Montijo,Setúbal,Área Metropolitana De Lisboa,-8.975715,38.702323
25113112,Abrigada e Cabanas de Torres,Oeste,311,2025-03-20T01:07:00Z,25113112,Em despacho,3309,Desabamento de estruturas edificadas,0,1,0,2,2025-03-20T01:07:00Z,Alenquer,Lisboa,Centro,-9.033988,39.129748
25113113,Maxial e Monte Redondo,Oeste,311,2025-03-20T00:51:00Z,25113113,Em despacho,3311,Queda de elementos de estruturas edificados,0,1,0,3,2025-03-20T00:51:00Z,Torres Vedras,Lisboa,Centro,-9.19799,39.115753
25113127,Albufeira e Olhos de Água,Algarve,313,2025-03-20T01:20:00Z,25113127,Em despacho,3329,Queda de estruturas temporárias ou móveis,0,0,0,0,2025-03-20T01:20:00Z,Albufeira,Faro,Algarve,-8.25741,37.0854
25113128,São Bartolomeu de Messines,Algarve,313,2025-03-20T00:55:00Z,25113128,Em despacho,3301,Queda de árvore,0,1,0,5,2025-03-20T00:55:00Z,Silves,Faro,Algarve,-8.287502,37.25838
25113129,Vila Franca de Xira,Grande Lisboa,311,2025-03-20T01:05:00Z,25113129,Em despacho,3301,Queda de árvore,0,2,0,6,2025-03-20T01:05:00Z,Vila Franca De Xira,Lisboa,Área Metropolitana De Lisboa,-8.989293,38.955728
25113144,São Vicente,Grande Lisboa,311,2025-03-20T01:21:00Z,25113144,Em despacho,3311,Queda de elementos de estruturas edificados,0,0,0,0,2025-03-20T01:21:00Z,Lisboa,Lisboa,Área Metropolitana De Lisboa,-9.12548,38.72099
25112639,"S.julião, N.s. da Anunciada e S. Maria da Graça",Península de Setúbal,311,2025-03-20T00:23:00Z,25112639,Em curso,3311,Queda de elementos de estruturas edificados,0,0,0,0,2025-03-20T00:23:00Z,Setúbal,Setúbal,Área Metropolitana De Lisboa,-8.90127,38.52768
25112641,Santo António Dos Olivais,Região de Coimbra,310,2025-03-20T00:23:00Z,25112641,Em despacho,3301,Queda de árvore,0,1,0,3,2025-03-20T00:23:00Z,Coimbra,Coimbra,Centro,-8.392808,40.235354
25112648,"S.julião, N.s. da Anunciada e S. Maria da Graça",Península de Setúbal,311,2025-03-20T00:25:00Z,25112648,Em curso,3321,Dano na rede de fornecimento de eletricidade ,0,0,0,0,2025-03-20T00:25:00Z,Setúbal,Setúbal,Área Metropolitana De Lisboa,-8.88305,38.53925
25112671,Ansião,Região de Leiria,310,2025-03-20T00:24:00Z,25112671,Em despacho,3301,Queda de árvore,0,1,0,2,2025-03-20T00:24:00Z,Ansião,Leiria,Centro,-8.43366,39.907437
25112675,Alhos Vedros,Península de Setúbal,311,2025-03-20T00:28:00Z,25112675,Em curso,3301,Queda de árvore,0,0,0,0,2025-03-20T00:28:00Z,Moita,Setúbal,Área Metropolitana De Lisboa,-9.010387,38.63902
25112680,Samora Correia,Lezíria do Tejo,311,2025-03-20T00:28:00Z,25112680,Em despacho,3301,Queda de árvore,0,2,0,4,2025-03-20T00:28:00Z,Benavente,Santarém,Alentejo,-8.890675,38.921796
25112682,Gâmbia-Pontes-Alto da Guerra,Península de Setúbal,311,2025-03-20T00:29:00Z,25112682,Em curso,3301,Queda de árvore,0,0,0,0,2025-03-20T00:29:00Z,Setúbal,Setúbal,Área Metropolitana De Lisboa,-8.85317,38.54087
25112689,Ferreiras,Algarve,313,2025-03-20T00:29:00Z,25112689,Em despacho,3301,Queda de árvore,0,1,0,3,2025-03-20T00:29:00Z,Albufeira,Faro,Algarve,-8.21873,37.11494
25112700,Palmela,Península de Setúbal,311,2025-03-20T00:31:00Z,25112700,Em curso,3329,Queda de estruturas temporárias ou móveis,0,0,0,0,2025-03-20T00:31:00Z,Palmela,Setúbal,Área Metropolitana De Lisboa,-8.887038,38.55602
25113052,São Domingos de Rana,Grande Lisboa,311,2025-03-20T01:13:00Z,25113052,Em despacho,3311,Queda de elementos de estruturas edificados,0,0,0,0,2025-03-20T01:13:00Z,Cascais,Lisboa,Área Metropolitana De Lisboa,-9.32533,38.72599
25113068,Messejana,Baixo Alentejo,312,2025-03-20T01:10:00Z,25113068,Em despacho,3301,Queda de árvore,0,2,0,5,2025-03-20T01:10:00Z,Aljustrel,Beja,Alentejo,-8.25838,37.81834
25113070,Nelas,Viseu Dão Lafões,310,2025-03-20T01:12:00Z,25113070,Em curso,3301,Queda de árvore,0,2,0,6,2025-03-20T01:12:00Z,Nelas,Viseu,Centro,-7.844525,40.542983
25113071,Beato,Grande Lisboa,311,2025-03-20T01:00:00Z,25113071,Em despacho,3301,Queda de árvore,0,1,0,5,2025-03-20T01:00:00Z,Lisboa,Lisboa,Área Metropolitana De Lisboa,-9.113681,38.732507
25113085,Santo António Dos Cavaleiros e Frielas,Grande Lisboa,311,2025-03-20T01:14:00Z,25113085,Em despacho,3311,Queda de elementos de estruturas edificados,0,0,0,0,2025-03-20T01:14:00Z,Loures,Lisboa,Área Metropolitana De Lisboa,-9.171619,38.815144
25113087,Matas e Cercal,Médio Tejo,311,2025-03-20T01:14:00Z,25113087,Em conclusão,3301,Queda de árvore,0,0,0,0,2025-03-20T01:14:00Z,Ourém,Santarém,Centro,-8.675785,39.74752
25113088,Venteira,Grande Lisboa,311,2025-03-20T01:16:00Z,25113088,Em despacho,3311,Queda de elementos de estruturas edificados,0,0,0,0,2025-03-20T01:16:00Z,Amadora,Lisboa,Área Metropolitana De Lisboa,-9.23452,38.75815
25113102,Charneca de Caparica e Sobreda,Península de Setúbal,311,2025-03-20T01:18:00Z,25113102,Em curso,3301,Queda de árvore,0,0,0,0,2025-03-20T01:18:00Z,Almada,Setúbal,Área Metropolitana De Lisboa,-9.17228,38.58738
25113103,Santiago,Beiras e Serra da Estrela,310,2025-03-20T01:02:00Z,25113103,Em despacho,3311,Queda de elementos de estruturas edificados,0,1,0,2,2025-03-20T01:02:00Z,Seia,Guarda,Centro,-7.727597,40.425255
25113104,"Leiria, Pousos, Barreira e Cortes",Região de Leiria,310,2025-03-19T22:00:00Z,25113104,Em despacho,3329,Queda de estruturas temporárias ou móveis,0,1,0,5,2025-03-19T22:00:00Z,Leiria,Leiria,Centro,-8.803702,39.718552
25113145,"Coruche, Fajarda e Erra",Lezíria do Tejo,311,2025-03-20T01:21:00Z,25113145,Em despacho,3311,Queda de elementos de estruturas edificados,0,1,0,3,2025-03-20T01:21:00Z,Coruche,Santarém,Alentejo,-8.602737,38.971954
25113146,Azambuja,Lezíria do Tejo,311,2025-03-20T01:21:00Z,25113146,Em despacho,3301,Queda de árvore,0,1,0,3,2025-03-20T01:21:00Z,Azambuja,Lisboa,Alentejo,-8.864506,39.067885
25113161,Azambujeira e Malaqueijo,Lezíria do Tejo,311,2025-03-20T01:23:00Z,25113161,Em despacho,3301,Queda de árvore,0,1,0,4,2025-03-20T01:23:00Z,Rio Maior,Santarém,Alentejo,-8.813382,39.278064
25113162,São Domingos de Rana,Grande Lisboa,311,2025-03-20T01:24:00Z,25113162,Em despacho,3301,Queda de árvore,0,0,0,0,2025-03-20T01:24:00Z,Cascais,Lisboa,Área Metropolitana De Lisboa,-9.3553,38.70397
25113163,São Domingos de Rana,Grande Lisboa,311,2025-03-20T01:18:00Z,25113163,Em despacho,3311,Queda de elementos de estruturas edificados,0,0,0,0,2025-03-20T01:18:00Z,Cascais,Lisboa,Área Metropolitana De Lisboa,-9.341509,38.701875
25113178,Benfica do Ribatejo,Lezíria do Tejo,311,2025-03-20T01:25:00Z,25113178,Em curso,3301,Queda de árvore,0,1,0,4,2025-03-20T01:25:00Z,Almeirim,Santarém,Alentejo,-8.673377,39.156301
25113179,Santo Estêvão,Lezíria do Tejo,311,2025-03-20T01:25:00Z,25113179,Em despacho,3301,Queda de árvore,0,1,0,3,2025-03-20T01:25:00Z,Benavente,Santarém,Alentejo,-8.741412,38.861418
25113180,Pena Verde,Viseu Dão Lafões,310,2025-03-20T01:01:00Z,25113180,Em despacho,3301,Queda de árvore,0,1,0,3,2025-03-20T01:01:00Z,Aguiar Da Beira,Guarda,Centro,-7.504589,40.727437
25113197,Cela,Oeste,311,2025-03-20T01:22:00Z,25113197,Em resolução,3301,Queda de árvore,0,2,0,4,2025-03-20T01:22:00Z,Alcobaça,Leiria,Centro,-9.042419,39.527414
25113212,Benavente,Lezíria do Tejo,311,2025-03-20T01:27:00Z,25113212,Em despacho,3329,Queda de estruturas temporárias ou móveis,0,2,0,5,2025-03-20T01:27:00Z,Benavente,Santarém,Alentejo,-8.804753,38.980872
25112721,Quinta do Anjo,Península de Setúbal,311,2025-03-20T00:34:00Z,25112721,Em curso,3301,Queda de árvore,0,0,0,0,2025-03-20T00:34:00Z,Palmela,Setúbal,Área Metropolitana De Lisboa,-8.950333,38.56405
25112725,São João Das Lampas e Terrugem,Grande Lisboa,311,2025-03-20T00:23:00Z,25112725,Em despacho,3311,Queda de elementos de estruturas edificados,0,1,0,3,2025-03-20T00:23:00Z,Sintra,Lisboa,Área Metropolitana De Lisboa,-9.376923,38.836556
25112730,Boliqueime,Algarve,313,2025-03-20T00:35:00Z,25112730,Em despacho,3301,Queda de árvore,0,2,0,4,2025-03-20T00:35:00Z,Loulé,Faro,Algarve,-8.19188,37.12471
25112741,Matas e Cercal,Médio Tejo,311,2025-03-20T00:35:00Z,25112741,Em conclusão,3301,Queda de árvore,0,1,0,2,2025-03-20T00:35:00Z,Ourém,Santarém,Centro,-8.670728,39.715643
25112748,Maceira,Região de Leiria,310,2025-03-20T00:19:00Z,25112748,Em despacho,3301,Queda de árvore,0,1,0,2,2025-03-20T00:19:00Z,Leiria,Leiria,Centro,-8.889652,39.686501
25112757,Grândola e Santa Margarida da Serra,Alentejo Litoral,312,2025-03-20T00:58:00Z,25112757,Em despacho,3301,Queda de árvore,0,1,0,3,2025-03-20T00:58:00Z,Grândola,Setúbal,Alentejo,-8.50156,38.147156
25112766,Alverca do Ribatejo e Sobralinho,Grande Lisboa,311,2025-03-20T00:39:00Z,25112766,Em despacho,3329,Queda de estruturas temporárias ou móveis,0,0,0,0,2025-03-20T00:39:00Z,Vila Franca De Xira,Lisboa,Área Metropolitana De Lisboa,-9.04762,38.90468
25112773,Poceirão e Marateca,Península de Setúbal,311,2025-03-20T00:40:00Z,25112773,Em curso,3301,Queda de árvore,0,0,0,0,2025-03-20T00:40:00Z,Palmela,Setúbal,Área Metropolitana De Lisboa,-8.76661,38.69349
25112775,Turcifal,Oeste,311,2025-03-20T00:30:00Z,25112775,Em despacho,3301,Queda de árvore,0,1,0,3,2025-03-20T00:30:00Z,Torres Vedras,Lisboa,Centro,-9.265042,39.043063
25112789,"Camarate, Unhos e Apelação",Grande Lisboa,311,2025-03-20T00:30:00Z,25112789,Em despacho,3315,Inundação de estruturas por precipitação intensa,0,1,0,5,2025-03-20T00:30:00Z,Loures,Lisboa,Área Metropolitana De Lisboa,-9.139208,38.802817
25113213,Santa Maria Maior,Grande Lisboa,311,2025-03-20T01:25:00Z,25113213,Em despacho,3329,Queda de estruturas temporárias ou móveis,0,1,0,2,2025-03-20T01:25:00Z,Lisboa,Lisboa,Área Metropolitana De Lisboa,-9.13452,38.714581
25113230,Roliça,Oeste,311,2025-03-20T01:25:00Z,25113230,Em curso,3301,Queda de árvore,0,2,0,6,2025-03-20T01:25:00Z,Bombarral,Leiria,Centro,-9.152078,39.299008
25113244,Santa Catarina da Serra e Chainça,Região de Leiria,310,2025-03-19T22:06:00Z,25113244,Em despacho,3301,Queda de árvore,0,1,0,4,2025-03-19T22:06:00Z,Leiria,Leiria,Centro,-8.715805,39.667691
25113246,Mafra,Grande Lisboa,311,2025-03-20T01:22:00Z,25113246,Em despacho,3301,Queda de árvore,0,1,0,5,2025-03-20T01:22:00Z,Mafra,Lisboa,Área Metropolitana De Lisboa,-9.3779419999999991,38.960847
25113247,Alvorninha,Oeste,311,2025-03-20T01:27:00Z,25113247,Em despacho,3311,Queda de elementos de estruturas edificados,0,1,0,5,2025-03-20T01:27:00Z,Caldas Da Rainha,Leiria,Centro,-9.020036,39.399166
25113261,Alcobaça e Vestiaria,Oeste,311,2025-03-20T01:31:00Z,25113261,Em despacho,3301,Queda de árvore,0,1,0,3,2025-03-20T01:31:00Z,Alcobaça,Leiria,Centro,-8.991927,39.567803
25113263,Marvila,Grande Lisboa,311,2025-03-20T01:30:00Z,25113263,Em despacho,3301,Queda de árvore,0,1,0,5,2025-03-20T01:30:00Z,Lisboa,Lisboa,Área Metropolitana De Lisboa,-9.11071,38.739104
25113264,Campo,Viseu Dão Lafões,310,2025-03-20T01:23:00Z,25113264,Em despacho,3311,Queda de elementos de estruturas edificados,0,1,0,4,2025-03-20T01:23:00Z,Viseu,Viseu,Centro,-7.917758,40.707331
25113280,Lagoa e Carvoeiro,Algarve,313,2025-03-20T01:14:00Z,25113280,Em despacho,3329,Queda de estruturas temporárias ou móveis,0,1,0,5,2025-03-20T01:14:00Z,Lagoa,Faro,Algarve,-8.449309,37.134614
25113295,Ílhavo (São Salvador),Região de Aveiro,310,2025-03-20T01:30:00Z,25113295,Em despacho,3301,Queda de árvore,0,2,0,5,2025-03-20T01:30:00Z,Ílhavo,Aveiro,Centro,-8.699143,40.613385
25113296,"Ovar, São João, Arada e São Vicente de Pereira Jusã",Região de Aveiro,310,2025-03-20T01:28:00Z,25113296,Em despacho,3301,Queda de árvore,0,1,0,5,2025-03-20T01:28:00Z,Ovar,Aveiro,Centro,-8.632482,40.864029
25113105,Carvalhal,Alentejo Litoral,312,2025-03-20T00:48:00Z,25113105,Em despacho,3301,Queda de árvore,0,1,0,3,2025-03-20T00:48:00Z,Grândola,Setúbal,Alentejo,-8.853697,38.456316
25113118,Beduído e Veiros,Região de Aveiro,310,2025-03-20T01:06:00Z,25113118,Em conclusão,3311,Queda de elementos de estruturas edificados,0,2,0,6,2025-03-20T01:06:00Z,Estarreja,Aveiro,Centro,-8.56076,40.777872
25113121,Albufeira e Olhos de Água,Algarve,313,2025-03-20T00:59:00Z,25113121,Em despacho,3329,Queda de estruturas temporárias ou móveis,0,1,0,3,2025-03-20T00:59:00Z,Albufeira,Faro,Algarve,-8.250061,37.103443
25113122,Moita,Região de Leiria,310,2025-03-20T01:06:00Z,25113122,Em despacho,3301,Queda de árvore,0,1,0,3,2025-03-20T01:06:00Z,Marinha Grande,Leiria,Centro,-8.971691,39.722863
25113135,Rio de Mouro,Grande Lisboa,311,2025-03-20T01:20:00Z,25113135,Em despacho,3321,Dano na rede de fornecimento de eletricidade ,0,0,0,0,2025-03-20T01:20:00Z,Sintra,Lisboa,Área Metropolitana De Lisboa,-9.317364,38.786733
25113136,Montijo e Afonsoeiro,Península de Setúbal,311,2025-03-20T01:17:00Z,25113136,Em despacho,3311,Queda de elementos de estruturas edificados,0,1,0,3,2025-03-20T01:17:00Z,Montijo,Setúbal,Área Metropolitana De Lisboa,-8.975715,38.702323
25113137,Bunheiro,Região de Aveiro,310,2025-03-20T01:10:00Z,25113137,Em despacho,3301,Queda de árvore,0,1,0,3,2025-03-20T01:10:00Z,Murtosa,Aveiro,Centro,-8.650778,40.776602
25113138,Montenegro,Algarve,313,2025-03-20T00:58:00Z,25113138,Em despacho,3301,Queda de árvore,0,1,0,3,2025-03-20T00:58:00Z,Faro,Faro,Algarve,-7.943165,37.015047
25113153,São João da Madeira,Area M. Porto,309,2025-03-20T01:15:00Z,25113153,Em curso,3329,Queda de estruturas temporárias ou móveis,0,1,0,2,2025-03-20T01:15:00Z,São João Da Madeira,Aveiro,Norte,-8.490365,40.895632
25112798,Quarteira,Algarve,313,2025-03-20T00:43:00Z,25112798,Em despacho,3301,Queda de árvore,0,1,0,5,2025-03-20T00:43:00Z,Loulé,Faro,Algarve,-8.097117,37.07755
25112800,Santa Comba,Beiras e Serra da Estrela,310,2025-03-20T00:29:00Z,25112800,Em despacho,3301,Queda de árvore,0,2,0,6,2025-03-20T00:29:00Z,Seia,Guarda,Centro,-7.734704,40.446597
25112814,"Marvila, Ribeira Santarém, S.salvador, S.nicolau",Lezíria do Tejo,311,2025-03-20T00:44:00Z,25112814,Em curso,3301,Queda de árvore,0,1,0,1,2025-03-20T00:44:00Z,Santarém,Santarém,Alentejo,-8.675088,39.23623
25112823,Samora Correia,Lezíria do Tejo,311,2025-03-20T00:46:00Z,25112823,Em despacho,3311,Queda de elementos de estruturas edificados,0,0,0,0,2025-03-20T00:46:00Z,Benavente,Santarém,Alentejo,-8.87181,38.90654
25112830,Canha,Península de Setúbal,311,2025-03-19T23:55:00Z,25112830,Em despacho,3301,Queda de árvore,0,1,0,5,2025-03-19T23:55:00Z,Montijo,Setúbal,Área Metropolitana De Lisboa,-8.631311,38.768258
25112839,Mafra,Grande Lisboa,311,2025-03-20T00:41:00Z,25112839,Em despacho,3301,Queda de árvore,0,1,0,3,2025-03-20T00:41:00Z,Mafra,Lisboa,Área Metropolitana De Lisboa,-9.322743,38.971331
25112841,Vila Franca de Xira,Grande Lisboa,311,2025-03-20T00:48:00Z,25112841,Em despacho,3301,Queda de árvore,0,4,0,13,2025-03-20T00:48:00Z,Vila Franca De Xira,Lisboa,Área Metropolitana De Lisboa,-8.988948,38.95658
25112850,Samora Correia,Lezíria do Tejo,311,2025-03-20T00:49:00Z,25112850,Em despacho,3309,Desabamento de estruturas edificadas,0,0,0,0,2025-03-20T00:49:00Z,Benavente,Santarém,Alentejo,-8.844734,38.92736
25112857,Póvoa de Santa Iria e Forte da Casa,Grande Lisboa,311,2025-03-20T00:30:00Z,25112857,Em despacho,3329,Queda de estruturas temporárias ou móveis,0,1,0,4,2025-03-20T00:30:00Z,Vila Franca De Xira,Lisboa,Área Metropolitana De Lisboa,-9.051508,38.875602
25112882,Massamá e Monte Abraão,Grande Lisboa,311,2025-03-20T00:20:00Z,25112882,Em despacho,3329,Queda de estruturas temporárias ou móveis,0,1,0,2,2025-03-20T00:20:00Z,Sintra,Lisboa,Área Metropolitana De Lisboa,-9.280008,38.753778
25113297,Avenidas Novas,Grande Lisboa,311,2025-03-20T01:07:00Z,25113297,Em despacho,3309,Desabamento de estruturas edificadas,0,1,0,4,2025-03-20T01:07:00Z,Lisboa,Lisboa,Área Metropolitana De Lisboa,-9.152329,38.73746
25113327,Almeirim,Lezíria do Tejo,311,2025-03-20T01:40:00Z,25113327,Em despacho,3309,Desabamento de estruturas edificadas,0,1,0,3,2025-03-20T01:40:00Z,Almeirim,Santarém,Alentejo,-8.588832,39.142251
25113329,Falagueira-Venda Nova,Grande Lisboa,311,2025-03-20T01:40:00Z,25113329,Em despacho,3301,Queda de árvore,0,0,0,0,2025-03-20T01:40:00Z,Amadora,Lisboa,Área Metropolitana De Lisboa,-9.223747,38.760622
25113330,Cascais e Estoril,Grande Lisboa,311,2025-03-20T01:40:00Z,25113330,Em despacho,3301,Queda de árvore,0,0,0,0,2025-03-20T01:40:00Z,Cascais,Lisboa,Área Metropolitana De Lisboa,-9.398759,38.70391
25113345,Montijo e Afonsoeiro,Península de Setúbal,311,2025-03-20T01:21:00Z,25113345,Em curso,3301,Queda de árvore,0,1,0,3,2025-03-20T01:21:00Z,Montijo,Setúbal,Área Metropolitana De Lisboa,-8.975715,38.702323
25113346,Soure,Região de Coimbra,310,2025-03-20T01:42:00Z,25113346,Em despacho,3301,Queda de árvore,0,0,0,0,2025-03-20T01:42:00Z,Soure,Coimbra,Centro,-8.639406,40.055319
25113361,Ventosa,Oeste,311,2025-03-20T01:32:00Z,25113361,Em despacho,3301,Queda de árvore,0,2,0,5,2025-03-20T01:32:00Z,Alenquer,Lisboa,Centro,-9.09504,39.112146
25113154,Palhaça,Região de Aveiro,310,2025-03-20T01:23:00Z,25113154,Em despacho,3311,Queda de elementos de estruturas edificados,0,0,0,0,2025-03-20T01:23:00Z,Oliveira Do Bairro,Aveiro,Centro,-8.595869,40.52536
25113169,Abraveses,Viseu Dão Lafões,310,2025-03-20T01:24:00Z,25113169,Em despacho,3301,Queda de árvore,0,1,0,2,2025-03-20T01:24:00Z,Viseu,Viseu,Centro,-7.919807,40.69207
25113171,São João Das Lampas e Terrugem,Grande Lisboa,311,2025-03-20T01:24:00Z,25113171,Em despacho,3301,Queda de árvore,0,0,0,0,2025-03-20T01:24:00Z,Sintra,Lisboa,Área Metropolitana De Lisboa,-9.38058,38.91877
25113185,Colares,Grande Lisboa,311,2025-03-20T01:20:00Z,25113185,Em despacho,3301,Queda de árvore,0,2,0,4,2025-03-20T01:20:00Z,Sintra,Lisboa,Área Metropolitana De Lisboa,-9.474758,38.77242
25113186,Santa Maria Maior,Grande Lisboa,311,2025-03-20T01:25:00Z,25113186,Em despacho,3301,Queda de árvore,0,1,0,6,2025-03-20T01:25:00Z,Lisboa,Lisboa,Área Metropolitana De Lisboa,-9.13452,38.714581
25113187,Glória e Vera Cruz,Região de Aveiro,310,2025-03-20T01:20:00Z,25113187,Em despacho,3311,Queda de elementos de estruturas edificados,0,1,0,2,2025-03-20T01:20:00Z,Aveiro,Aveiro,Centro,-8.647359,40.640643
25113202,Rio de Loba,Viseu Dão Lafões,310,2025-03-20T01:22:00Z,25113202,Em despacho,3301,Queda de árvore,0,1,0,2,2025-03-20T01:22:00Z,Viseu,Viseu,Centro,-7.864778,40.639683
25113221,Soure,Região de Coimbra,310,2025-03-20T01:15:00Z,25113221,Em despacho,3301,Queda de árvore,0,1,0,2,2025-03-20T01:15:00Z,Soure,Coimbra,Centro,-8.60866,40.015823
25113235,Nazaré,Oeste,311,2025-03-20T01:25:00Z,25113235,Em despacho,3311,Queda de elementos de estruturas edificados,0,2,0,4,2025-03-20T01:25:00Z,Nazaré,Leiria,Centro,-9.062127,39.596083
25113238,"Amarante (São Gonçalo), Madalena, Cepelos e Gatão",Tâmega e Sousa,309,2025-03-20T01:20:00Z,25113238,Em despacho,3301,Queda de árvore,0,1,0,2,2025-03-20T01:20:00Z,Amarante,Porto,Norte,-8.085399,41.267605
25112889,Ramada e Caneças,Grande Lisboa,311,2025-03-20T00:41:00Z,25112889,Em despacho,3315,Inundação de estruturas por precipitação intensa,0,1,0,5,2025-03-20T00:41:00Z,Odivelas,Lisboa,Área Metropolitana De Lisboa,-9.225171,38.812571
25112891,Malveira e São Miguel de Alcainça,Grande Lisboa,311,2025-03-20T00:53:00Z,25112891,Em despacho,3301,Queda de árvore,0,0,0,0,2025-03-20T00:53:00Z,Mafra,Lisboa,Área Metropolitana De Lisboa,-9.28055,38.91962
25112900,Queluz e Belas,Grande Lisboa,311,2025-03-20T00:50:00Z,25112900,Em despacho,3301,Queda de árvore,0,1,0,4,2025-03-20T00:50:00Z,Sintra,Lisboa,Área Metropolitana De Lisboa,-9.270072,38.779997
25112907,Sesimbra (Castelo),Península de Setúbal,311,2025-03-20T00:51:00Z,25112907,Em curso,3301,Queda de árvore,0,2,0,9,2025-03-20T00:51:00Z,Sesimbra,Setúbal,Área Metropolitana De Lisboa,-9.106828,38.452682
25112930,Carregado e Cadafais,Oeste,311,2025-03-20T00:55:00Z,25112930,Em despacho,3309,Desabamento de estruturas edificadas,0,0,0,0,2025-03-20T00:55:00Z,Alenquer,Lisboa,Centro,-8.985297,39.023828
25112934,"Alto do Seixalinho, Santo André e Verderena",Península de Setúbal,311,2025-03-20T00:50:00Z,25112934,Em curso,3301,Queda de árvore,0,0,0,0,2025-03-20T00:50:00Z,Barreiro,Setúbal,Área Metropolitana De Lisboa,-9.065968,38.6593
25112939,Massamá e Monte Abraão,Grande Lisboa,311,2025-03-20T00:30:00Z,25112939,Em despacho,3301,Queda de árvore,0,1,0,4,2025-03-20T00:30:00Z,Sintra,Lisboa,Área Metropolitana De Lisboa,-9.27045,38.75541
25112957,Cascais e Estoril,Grande Lisboa,311,2025-03-20T01:02:00Z,25112957,Em despacho,3311,Queda de elementos de estruturas edificados,0,0,0,0,2025-03-20T01:02:00Z,Cascais,Lisboa,Área Metropolitana De Lisboa,-9.434678,38.72133
25112959,Alcochete,Península de Setúbal,311,2025-03-20T00:41:00Z,25112959,Em curso,3329,Queda de estruturas temporárias ou móveis,0,1,0,2,2025-03-20T00:41:00Z,Alcochete,Setúbal,Área Metropolitana De Lisboa,-8.962464,38.749259
25113239,Monchique,Algarve,313,2025-03-20T01:06:00Z,25113239,Em despacho,3301,Queda de árvore,0,1,0,3,2025-03-20T01:06:00Z,Monchique,Faro,Algarve,-8.576824,37.328951000000004
25113254,São João do Campo,Região de Coimbra,310,2025-03-20T01:21:00Z,25113254,Em despacho,3329,Queda de estruturas temporárias ou móveis,0,1,0,3,2025-03-20T01:21:00Z,Coimbra,Coimbra,Centro,-8.517374,40.236807
25113269,São João Das Lampas e Terrugem,Grande Lisboa,311,2025-03-20T01:22:00Z,25113269,Em despacho,3301,Queda de árvore,0,1,0,5,2025-03-20T01:22:00Z,Sintra,Lisboa,Área Metropolitana De Lisboa,-9.36966,38.882571
25113286,Vila Nova da Rainha,Lezíria do Tejo,311,2025-03-20T01:36:00Z,25113286,Em despacho,3301,Queda de árvore,0,1,0,1,2025-03-20T01:36:00Z,Azambuja,Lisboa,Alentejo,-8.94271,39.035841
25113288,"N. S. da Vila, N. S. do Bispo e Silveiras",Alentejo Central,312,2025-03-20T01:20:00Z,25113288,Em despacho,3301,Queda de árvore,0,1,0,2,2025-03-20T01:20:00Z,Montemor-o-Novo,Évora,Alentejo,-8.21652,38.662575
25113304,São Domingos de Rana,Grande Lisboa,311,2025-03-20T01:38:00Z,25113304,Em despacho,3321,Dano na rede de fornecimento de eletricidade ,0,0,0,0,2025-03-20T01:38:00Z,Cascais,Lisboa,Área Metropolitana De Lisboa,-9.32923,38.71493
25113305,São João Das Lampas e Terrugem,Grande Lisboa,311,2025-03-20T01:03:00Z,25113305,Em despacho,3301,Queda de árvore,0,2,0,6,2025-03-20T01:03:00Z,Sintra,Lisboa,Área Metropolitana De Lisboa,-9.442718,38.844843
25113319,"Bustos, Troviscal e Mamarrosa",Região de Aveiro,310,2025-03-20T01:40:00Z,25113319,Em despacho,3311,Queda de elementos de estruturas edificados,0,0,0,0,2025-03-20T01:40:00Z,Oliveira Do Bairro,Aveiro,Centro,-8.57976,40.48111
25113320,Colares,Grande Lisboa,311,2025-03-20T01:28:00Z,25113320,Em despacho,3315,Inundação de estruturas por precipitação intensa,0,1,0,2,2025-03-20T01:28:00Z,Sintra,Lisboa,Área Metropolitana De Lisboa,-9.438572,38.807058
25112973,Charneca de Caparica e Sobreda,Península de Setúbal,311,2025-03-20T00:04:00Z,25112973,Em curso,3301,Queda de árvore,0,1,0,1,2025-03-20T00:04:00Z,Almada,Setúbal,Área Metropolitana De Lisboa,-9.190193,38.591584
25112975,Aljezur,Algarve,313,2025-03-20T00:55:00Z,25112975,Em despacho,3301,Queda de árvore,0,1,0,3,2025-03-20T00:55:00Z,Aljezur,Faro,Algarve,-8.803144,37.313343
25112982,Moscavide e Portela,Grande Lisboa,311,2025-03-20T00:51:00Z,25112982,Em despacho,3301,Queda de árvore,0,1,0,4,2025-03-20T00:51:00Z,Loures,Lisboa,Área Metropolitana De Lisboa,-9.114803,38.78591
25112984,"Oeiras e S. Julião da Barra, Paço de Arcos e Caxias",Grande Lisboa,311,2025-03-20T01:06:00Z,25112984,Em despacho,3311,Queda de elementos de estruturas edificados,0,0,0,0,2025-03-20T01:06:00Z,Oeiras,Lisboa,Área Metropolitana De Lisboa,-9.303858,38.70432
25112989,Vila Nova de Cacela,Algarve,313,2025-03-20T01:05:00Z,25112989,Em despacho,3301,Queda de árvore,0,0,0,0,2025-03-20T01:05:00Z,Vila Real De Santo António,Faro,Algarve,-7.560058,37.157087
25112998,Charneca de Caparica e Sobreda,Península de Setúbal,311,2025-03-20T01:07:00Z,25112998,Em curso,3309,Desabamento de estruturas edificadas,0,0,0,0,2025-03-20T01:07:00Z,Almada,Setúbal,Área Metropolitana De Lisboa,-9.19436,38.64644
25113007,Alvor,Algarve,313,2025-03-20T01:08:00Z,25113007,Em despacho,3301,Queda de árvore,0,0,0,0,2025-03-20T01:08:00Z,Portimão,Faro,Algarve,-8.58591,37.13655
25113014,Canas de Senhorim,Viseu Dão Lafões,310,2025-03-20T01:07:00Z,25113014,Em conclusão,3301,Queda de árvore,0,2,0,4,2025-03-20T01:07:00Z,Nelas,Viseu,Centro,-7.908972,40.502898
25113016,Monchique,Algarve,313,2025-03-20T01:09:00Z,25113016,Em despacho,3301,Queda de árvore,0,0,0,0,2025-03-20T01:09:00Z,Monchique,Faro,Algarve,-8.567422,37.320753
25113023,Póvoa de Santa Iria e Forte da Casa,Grande Lisboa,311,2025-03-20T01:10:00Z,25113023,Em despacho,3329,Queda de estruturas temporárias ou móveis,0,0,0,0,2025-03-20T01:10:00Z,Vila Franca De Xira,Lisboa,Área Metropolitana De Lisboa,-9.055658,38.87217
25113025,Ramalhal,Oeste,311,2025-03-20T01:11:00Z,25113025,Em despacho,3329,Queda de estruturas temporárias ou móveis,0,0,0,0,2025-03-20T01:11:00Z,Torres Vedras,Lisboa,Centro,-9.2365,39.13034
25113032,Matas e Cercal,Médio Tejo,311,2025-03-20T01:10:00Z,25113032,Em conclusão,3301,Queda de árvore,0,0,0,0,2025-03-20T01:10:00Z,Ourém,Santarém,Centro,-8.664708,39.73865
25113034,"Santa Iria de Azoia, São João da Talha e Bobadela",Grande Lisboa,311,2025-03-20T00:53:00Z,25113034,Em despacho,3301,Queda de árvore,0,1,0,4,2025-03-20T00:53:00Z,Loures,Lisboa,Área Metropolitana De Lisboa,-9.079846,38.840245
25113050,"Achete, Azoia de Baixo e Póvoa de Santarém",Lezíria do Tejo,311,2025-03-20T01:12:00Z,25113050,Em despacho,3329,Queda de estruturas temporárias ou móveis,0,1,0,3,2025-03-20T01:12:00Z,Santarém,Santarém,Alentejo,-8.681505,39.308485
25113059,Alquerubim,Região de Aveiro,310,2025-03-20T01:11:00Z,25113059,Em despacho,3311,Queda de elementos de estruturas edificados,0,1,0,1,2025-03-20T01:11:00Z,Albergaria-a-Velha,Aveiro,Centro,-8.507758,40.62137
25113064,"Alhandra, São João Dos Montes e Calhandriz",Grande Lisboa,311,2025-03-20T01:14:00Z,25113064,Em despacho,3301,Queda de árvore,0,0,0,0,2025-03-20T01:14:00Z,Vila Franca De Xira,Lisboa,Área Metropolitana De Lisboa,-9.03587,38.95457
25113075,Montijo e Afonsoeiro,Península de Setúbal,311,2025-03-20T00:41:00Z,25113075,Em despacho,3321,Dano na rede de fornecimento de eletricidade ,0,1,0,4,2025-03-20T00:41:00Z,Montijo,Setúbal,Área Metropolitana De Lisboa,-8.975715,38.702323
25113082,Arraiolos,Alentejo Central,312,2025-03-20T01:09:00Z,25113082,Em resolução,3301,Queda de árvore,0,2,0,4,2025-03-20T01:09:00Z,Arraiolos,Évora,Alentejo,-8.073325,38.694805
25113089,"Almargem do Bispo, Pêro Pinheiro e Montelavar",Grande Lisboa,311,2025-03-20T01:16:00Z,25113089,Em despacho,3311,Queda de elementos de estruturas edificados,0,0,0,0,2025-03-20T01:16:00Z,Sintra,Lisboa,Área Metropolitana De Lisboa,-9.24059,38.80967
25113322,"S.pedro e Santiago, S.maria e S.miguel e Matacães",Oeste,311,2025-03-20T01:01:00Z,25113322,Em despacho,3301,Queda de árvore,0,1,0,4,2025-03-20T01:01:00Z,Torres Vedras,Lisboa,Centro,-9.264027,39.124138
25113336,Asseiceira,Médio Tejo,311,2025-03-20T01:40:00Z,25113336,Em despacho,3301,Queda de árvore,0,2,0,6,2025-03-20T01:40:00Z,Tomar,Santarém,Centro,-8.400603,39.526541
25113338,Cadaval e Pêro Moniz,Oeste,311,2025-03-20T01:35:00Z,25113338,Em despacho,3301,Queda de árvore,0,2,0,5,2025-03-20T01:35:00Z,Cadaval,Lisboa,Centro,-9.101481,39.244497
25113339,Colares,Grande Lisboa,311,2025-03-20T01:30:00Z,25113339,Em despacho,3301,Queda de árvore,0,1,0,3,2025-03-20T01:30:00Z,Sintra,Lisboa,Área Metropolitana De Lisboa,-9.451332,38.81232
25113354,Mina de Água,Grande Lisboa,311,2025-03-20T01:43:00Z,25113354,Em despacho,3311,Queda de elementos de estruturas edificados,0,0,0,0,2025-03-20T01:43:00Z,Amadora,Lisboa,Área Metropolitana De Lisboa,-9.243611,38.76194
25113356,Almalaguês,Região de Coimbra,310,2025-03-20T01:30:00Z,25113356,Em despacho,3311,Queda de elementos de estruturas edificados,0,1,0,3,2025-03-20T01:30:00Z,Coimbra,Coimbra,Centro,-8.398324,40.143482
25113369,Arroios,Grande Lisboa,311,2025-03-20T01:39:00Z,25113369,Em despacho,3315,Inundação de estruturas por precipitação intensa,0,1,0,3,2025-03-20T01:39:00Z,Lisboa,Lisboa,Área Metropolitana De Lisboa,-9.137942,38.72762
25113098,Beduído e Veiros,Região de Aveiro,310,2025-03-20T00:58:00Z,25113098,Em curso,3311,Queda de elementos de estruturas edificados,0,1,0,4,2025-03-20T00:58:00Z,Estarreja,Aveiro,Centro,-8.56076,40.777872
25113107,Charneca de Caparica e Sobreda,Península de Setúbal,311,2025-03-20T01:18:00Z,25113107,Em curso,3301,Queda de árvore,0,0,0,0,2025-03-20T01:18:00Z,Almada,Setúbal,Área Metropolitana De Lisboa,-9.177058,38.60883
25113114,Alpiarça,Lezíria do Tejo,311,2025-03-20T01:15:00Z,25113114,Em despacho,3301,Queda de árvore,0,2,0,7,2025-03-20T01:15:00Z,Alpiarça,Santarém,Alentejo,-8.595402,39.262022
25113116,Barcarena,Grande Lisboa,311,2025-03-20T01:10:00Z,25113116,Em despacho,3311,Queda de elementos de estruturas edificados,0,1,0,5,2025-03-20T01:10:00Z,Oeiras,Lisboa,Área Metropolitana De Lisboa,-9.277392,38.733987
25113123,Sangalhos,Região de Aveiro,310,2025-03-20T01:10:00Z,25113123,Em conclusão,3311,Queda de elementos de estruturas edificados,0,1,0,3,2025-03-20T01:10:00Z,Anadia,Aveiro,Centro,-8.494068,40.49354
25113132,Oliveira do Bairro,Região de Aveiro,310,2025-03-20T01:18:00Z,25113132,Em despacho,3311,Queda de elementos de estruturas edificados,0,2,0,5,2025-03-20T01:18:00Z,Oliveira Do Bairro,Aveiro,Centro,-8.516619,40.517781
25113141,Marvila,Grande Lisboa,311,2025-03-20T01:17:00Z,25113141,Em despacho,3311,Queda de elementos de estruturas edificados,0,1,0,4,2025-03-20T01:17:00Z,Lisboa,Lisboa,Área Metropolitana De Lisboa,-9.11071,38.739104
25113148,Soure,Região de Coimbra,310,2025-03-20T00:46:00Z,25113148,Em despacho,3301,Queda de árvore,0,1,0,2,2025-03-20T00:46:00Z,Soure,Coimbra,Centro,-8.613421,40.026611
25113159,Albufeira e Olhos de Água,Algarve,313,2025-03-20T00:59:00Z,25113159,Em despacho,3301,Queda de árvore,0,0,0,0,2025-03-20T00:59:00Z,Albufeira,Faro,Algarve,-8.18818,37.092676
25113168,Benavente,Lezíria do Tejo,311,2025-03-20T01:23:00Z,25113168,Em despacho,3329,Queda de estruturas temporárias ou móveis,0,1,0,5,2025-03-20T01:23:00Z,Benavente,Santarém,Alentejo,-8.804753,38.980872
25113173,Charneca de Caparica e Sobreda,Península de Setúbal,311,2025-03-20T01:25:00Z,25113173,Em curso,3301,Queda de árvore,0,0,0,0,2025-03-20T01:25:00Z,Almada,Setúbal,Área Metropolitana De Lisboa,-9.18059,38.59585
25113184,Castanheira do Ribatejo e Cachoeiras,Grande Lisboa,311,2025-03-20T01:20:00Z,25113184,Em despacho,3301,Queda de árvore,0,1,0,3,2025-03-20T01:20:00Z,Vila Franca De Xira,Lisboa,Área Metropolitana De Lisboa,-8.979234,38.999552
25113189,Vila Real de Santo António,Algarve,313,2025-03-20T01:06:00Z,25113189,Em despacho,3301,Queda de árvore,0,1,0,5,2025-03-20T01:06:00Z,Vila Real De Santo António,Faro,Algarve,-7.413388,37.191428
25113193,"Marvila, Ribeira Santarém, S.salvador, S.nicolau",Lezíria do Tejo,311,2025-03-20T01:26:00Z,25113193,Em despacho,3311,Queda de elementos de estruturas edificados,0,1,0,5,2025-03-20T01:26:00Z,Santarém,Santarém,Alentejo,-8.678591,39.231938
25113200,Ericeira,Grande Lisboa,311,2025-03-20T01:15:00Z,25113200,Em despacho,3329,Queda de estruturas temporárias ou móveis,0,3,0,8,2025-03-20T01:15:00Z,Mafra,Lisboa,Área Metropolitana De Lisboa,-9.417289,38.967626
25113209,Castanheira do Ribatejo e Cachoeiras,Grande Lisboa,311,2025-03-20T01:08:00Z,25113209,Em despacho,3301,Queda de árvore,0,2,0,6,2025-03-20T01:08:00Z,Vila Franca De Xira,Lisboa,Área Metropolitana De Lisboa,-8.979234,38.999552
25113216,Alquerubim,Região de Aveiro,310,2025-03-20T01:28:00Z,25113216,Em despacho,3311,Queda de elementos de estruturas edificados,0,1,0,2,2025-03-20T01:28:00Z,Albergaria-a-Velha,Aveiro,Centro,-8.507758,40.62137
25113218,Sapataria,Oeste,311,2025-03-20T01:23:00Z,25113218,Em despacho,3301,Queda de árvore,0,2,0,4,2025-03-20T01:23:00Z,Sobral De Monte Agraço,Lisboa,Centro,-9.198053,38.966232
25113234,São Marcos da Ataboeira,Baixo Alentejo,312,2025-03-20T01:11:00Z,25113234,Em curso,3301,Queda de árvore,0,2,0,5,2025-03-20T01:11:00Z,Castro Verde,Beja,Alentejo,-7.941415,37.703878
25113241,Odivelas,Grande Lisboa,311,2025-03-20T01:32:00Z,25113241,Em despacho,3311,Queda de elementos de estruturas edificados,0,0,0,0,2025-03-20T01:32:00Z,Odivelas,Lisboa,Área Metropolitana De Lisboa,-9.17906,38.78882
25113243,Odivelas,Grande Lisboa,311,2025-03-20T01:32:00Z,25113243,Em despacho,3311,Queda de elementos de estruturas edificados,0,0,0,0,2025-03-20T01:32:00Z,Odivelas,Lisboa,Área Metropolitana De Lisboa,-9.17332,38.79666
25113248,Trigaches e São Brissos,Baixo Alentejo,312,2025-03-20T01:02:00Z,25113248,Em despacho,3301,Queda de árvore,0,1,0,2,2025-03-20T01:02:00Z,Beja,Beja,Alentejo,-7.943902,38.07101
25113250,Santo António Dos Olivais,Região de Coimbra,310,2025-03-20T01:23:00Z,25113250,Em despacho,3329,Queda de estruturas temporárias ou móveis,0,1,0,3,2025-03-20T01:23:00Z,Coimbra,Coimbra,Centro,-8.426807,40.217261
25113257,Armação de Pêra,Algarve,313,2025-03-20T01:13:00Z,25113257,Em despacho,3301,Queda de árvore,0,1,0,4,2025-03-20T01:13:00Z,Silves,Faro,Algarve,-8.355807,37.10329
25113266,Marinhais,Lezíria do Tejo,311,2025-03-20T01:33:00Z,25113266,Em curso,3301,Queda de árvore,0,1,0,5,2025-03-20T01:33:00Z,Salvaterra De Magos,Santarém,Alentejo,-8.697218,39.037103
25113268,"Algés, Linda-a-Velha e Cruz Quebrada-Dafundo",Grande Lisboa,311,2025-03-20T01:14:00Z,25113268,Em despacho,3301,Queda de árvore,0,2,0,6,2025-03-20T01:14:00Z,Oeiras,Lisboa,Área Metropolitana De Lisboa,-9.250524,38.707224
25113273,Albergaria-a-Velha e Valmaior,Região de Aveiro,310,2025-03-20T01:24:00Z,25113273,Em despacho,3311,Queda de elementos de estruturas edificados,0,1,0,2,2025-03-20T01:24:00Z,Albergaria-a-Velha,Aveiro,Centro,-8.479745,40.688996
25113291,Portimão,Algarve,313,2025-03-20T01:00:00Z,25113291,Em despacho,3301,Queda de árvore,0,1,0,5,2025-03-20T01:00:00Z,Portimão,Faro,Algarve,-8.532608,37.137966
25113293,Almagreira,Região de Leiria,310,2025-03-20T01:05:00Z,25113293,Em despacho,3311,Queda de elementos de estruturas edificados,0,1,0,5,2025-03-20T01:05:00Z,Pombal,Leiria,Centro,-8.69483,39.954196
25113309,Cebolais de Cima e Retaxo,Beira Baixa,310,2025-03-20T01:37:00Z,25113309,Em despacho,3301,Queda de árvore,0,1,0,2,2025-03-20T01:37:00Z,Castelo Branco,Castelo Branco,Centro,-7.585759,39.766045
25113325,Ourique,Baixo Alentejo,312,2025-03-20T01:24:00Z,25113325,Em despacho,3301,Queda de árvore,0,1,0,2,2025-03-20T01:24:00Z,Ourique,Beja,Alentejo,-8.244517,37.644989
25113334,Sapataria,Oeste,311,2025-03-20T01:24:00Z,25113334,Em despacho,3301,Queda de árvore,0,0,0,0,2025-03-20T01:24:00Z,Sobral De Monte Agraço,Lisboa,Centro,-9.184303,38.972662
25113341,"São Miguel, Santa Eufémia e Rabaçal",Região de Coimbra,310,2025-03-20T01:40:00Z,25113341,Em despacho,3311,Queda de elementos de estruturas edificados,0,1,0,2,2025-03-20T01:40:00Z,Penela,Coimbra,Centro,-8.399036,40.025502
25113348,Albergaria-a-Velha e Valmaior,Região de Aveiro,310,2025-03-20T01:35:00Z,25113348,Em despacho,3301,Queda de árvore,0,1,0,2,2025-03-20T01:35:00Z,Albergaria-a-Velha,Aveiro,Centro,-8.510534,40.694302
25113350,Caldas da Rainha - Santo Onofre e Serra do Bouro,Oeste,311,2025-03-20T01:35:00Z,25113350,Em despacho,3301,Queda de árvore,0,1,0,5,2025-03-20T01:35:00Z,Caldas Da Rainha,Leiria,Centro,-9.181458,39.480683
