id,address,subregion,neighborhood,date,id.1,state,nature,nature_description,aerial_means,terrestrial_means,aquatic_means,operational,date.1,Concelho,Distrito,NUTII_DSG,longitude,latitude,state_2
25951176,Sandomil,Beiras e Serra da Estrela,310,2025-09-06T10:29:00Z,25951176,Em Resolução/Conclusão,3103,Incêndio rural,0,3,0,15,2025-09-06T10:29:00Z,Seia,Guarda,Centro,-7.76001,40.351547,Resolução/Conclusão
25989064,Vila de Rei,Beira Baixa,310,2025-09-14T13:32:00Z,25989064,Em Resolução/Conclusão,3101,Incêndio rural,0,2,0,7,2025-09-14T13:32:00Z,Vila De Rei,Castelo Branco,Centro,-8.152412,39.660802,Resolução/Conclusão
26001447,Pelmá,Região de Leiria,310,2025-09-17T02:13:00Z,26001447,Em Resolução/Conclusão,3101,Incêndio rural,0,2,0,7,2025-09-17T02:13:00Z,Alvaiázere,Leiria,Centro,-8.425235,39.797637,Resolução/Conclusão
25832672,Piódão,Região de Coimbra,310,2025-08-13T05:08:00Z,25832672,Em Resolução/Conclusão,3103,Incêndio rural,0,0,0,0,2025-08-13T05:08:00Z,Arganil,Coimbra,Centro,-7.81972,40.23083,Resolução/Conclusão
25989850,Povolide,Viseu Dão Lafões,310,2025-09-14T16:49:00Z,25989850,Em Resolução/Conclusão,3103,Incêndio rural,0,1,0,1,2025-09-14T16:49:00Z,Viseu,Viseu,Centro,-7.785413,40.67811,Resolução/Conclusão
26001727,Travancas e Roriz,Alto Tâmega e Barroso,309,2025-09-17T06:54:00Z,26001727,Em Resolução/Conclusão,3103,Incêndio rural,0,3,0,12,2025-09-17T06:54:00Z,Chaves,Vila Real,Norte,-7.308297,41.8165,Resolução/Conclusão
26002870,Vale Das Fontes,Terras de Trás-os-Montes,309,2025-09-17T10:47:00Z,26002870,Em Curso,3103,Incêndio rural,1,6,0,30,2025-09-17T10:47:00Z,Vinhais,Bragança,Norte,-7.106735,41.709982,Curso
26002610,Janeiro de Baixo,Região de Coimbra,310,2025-09-17T10:05:00Z,26002610,Em Resolução/Conclusão,3105,Incêndio rural,0,3,0,11,2025-09-17T10:05:00Z,Pampilhosa Da Serra,Coimbra,Centro,-7.840065,40.067771,Resolução/Conclusão
26002819,Ardãos e Bobadela,Alto Tâmega e Barroso,309,2025-09-17T10:39:00Z,26002819,Em Resolução/Conclusão,3103,Incêndio rural,1,3,0,21,2025-09-17T10:39:00Z,Boticas,Vila Real,Norte,-7.59931,41.747678,Resolução/Conclusão
26002855,Lamego (Almacave e Sé),Douro,309,2025-09-17T10:41:00Z,26002855,Em Resolução/Conclusão,3103,Incêndio rural,1,3,0,18,2025-09-17T10:41:00Z,Lamego,Viseu,Norte,-7.800673,41.100998,Resolução/Conclusão
25980131,Carva e Vilares,Douro,309,2025-09-12T14:27:00Z,25980131,Em Resolução/Conclusão,3103,Incêndio rural,1,19,0,66,2025-09-12T14:27:00Z,Murça,Vila Real,Norte,-7.55901,41.401343,Resolução/Conclusão
25980930,Santo André Das Tojeiras,Beira Baixa,310,2025-09-12T17:08:00Z,25980930,Em Resolução/Conclusão,3101,Incêndio rural,0,1,0,5,2025-09-12T17:08:00Z,Castelo Branco,Castelo Branco,Centro,-7.72701,39.809058,Resolução/Conclusão
25994117,Fortios,Alto Alentejo,312,2025-09-15T14:38:00Z,25994117,Em Resolução/Conclusão,3101,Incêndio rural,0,1,0,5,2025-09-15T14:38:00Z,Portalegre,Portalegre,Alentejo,-7.470015,39.279328,Resolução/Conclusão
