id,address,subregion,neighborhood,date,id.1,state,nature,nature_description,aerial_means,terrestrial_means,aquatic_means,operational,date.1,Concelho,Distrito,NUTII_DSG,longitude,latitude,state_2
25951176,Sandomil,Beiras e Serra da Estrela,310,2025-09-06T10:29:00Z,25951176,Em Resolução/Conclusão,3103,Incêndio rural,0,2,0,10,2025-09-06T10:29:00Z,Seia,Guarda,Centro,-7.76001,40.351547,Resolução/Conclusão
26060607,Gouveia (São Pedro e São Julião),Beiras e Serra da Estrela,310,2025-09-29T07:40:00Z,26060607,Em Resolução/Conclusão,3103,Incêndio rural,0,4,0,9,2025-09-29T07:40:00Z,Gouveia,Guarda,Centro,-7.59114,40.490052,Resolução/Conclusão
26052925,Maceira,Região de Leiria,310,2025-09-27T12:54:00Z,26052925,Em Resolução/Conclusão,3105,Incêndio rural,0,1,0,2,2025-09-27T12:54:00Z,Leiria,Leiria,Centro,-8.89598,39.651515,Resolução/Conclusão
26061045,Santo Antão e São Julião do Tojal,Grande Lisboa,311,2025-09-29T09:08:00Z,26061045,Em Resolução/Conclusão,3103,Incêndio rural,0,1,0,5,2025-09-29T09:08:00Z,Loures,Lisboa,Área Metropolitana De Lisboa,-9.116117,38.88138,Resolução/Conclusão
26050704,Tortosendo,Beiras e Serra da Estrela,310,2025-09-26T23:04:00Z,26050704,Em Resolução/Conclusão,3103,Incêndio rural,0,1,0,4,2025-09-26T23:04:00Z,Covilhã,Castelo Branco,Centro,-7.521592,40.251592,Resolução/Conclusão
26022995,Bordeira,Algarve,313,2025-09-21T12:21:00Z,26022995,Em Resolução/Conclusão,3103,Incêndio rural,0,11,0,31,2025-09-21T12:21:00Z,Aljezur,Faro,Algarve,-8.825374,37.23495,Resolução/Conclusão
