id,address,subregion,neighborhood,date,id.1,state,nature,nature_description,aerial_means,terrestrial_means,aquatic_means,operational,date.1,Concelho,Distrito,NUTII_DSG,longitude,latitude,state_2
25774883,Arnóia,Tâmega e Sousa,309,2025-08-02T18:20:00Z,25774883,Em Resolução/Conclusão,3103,Incêndio rural,0,1,0,1,2025-08-02T18:20:00Z,Celorico De Basto,Braga,Norte,-7.998983,41.348727,Resolução/Conclusão
25818455,Sobral de São Miguel,Beiras e Serra da Estrela,310,2025-08-10T15:02:00Z,25818455,Em Resolução/Conclusão,3103,Incêndio rural,0,11,0,29,2025-08-10T15:02:00Z,Covilhã,Castelo Branco,Centro,-7.77307,40.200173,Resolução/Conclusão
25837154,"Tavares (Chãs, Várzea e Travanca)",Viseu Dão Lafões,310,2025-08-13T21:27:00Z,25837154,Em Resolução/Conclusão,3103,Incêndio rural,0,0,0,0,2025-08-13T21:27:00Z,Mangualde,Viseu,Centro,-7.647492,40.608359,Resolução/Conclusão
25841466,São Miguel do Mato,Viseu Dão Lafões,310,2025-08-14T16:48:00Z,25841466,Em Resolução/Conclusão,3103,Incêndio rural,0,1,0,4,2025-08-14T16:48:00Z,Vouzela,Viseu,Centro,-8.0267,40.71845,Resolução/Conclusão
25846480,Sabugal e Aldeia de Santo António,Beiras e Serra da Estrela,310,2025-08-15T14:41:00Z,25846480,Em Curso,3103,Incêndio rural,3,40,0,144,2025-08-15T14:41:00Z,Sabugal,Guarda,Centro,-7.125037,40.34023,Curso
25848784,Anhões e Luzio,Alto Minho,309,2025-08-15T23:10:00Z,25848784,Em Resolução/Conclusão,3103,Incêndio rural,0,3,0,9,2025-08-15T23:10:00Z,Monção,Viana Do Castelo,Norte,-8.457423,41.973813,Resolução/Conclusão
25850924,Aldeias e Mangualde da Serra,Beiras e Serra da Estrela,310,2025-08-16T11:51:00Z,25850924,Em Resolução/Conclusão,3103,Incêndio rural,0,18,0,60,2025-08-16T11:51:00Z,Gouveia,Guarda,Centro,-7.605542,40.461898,Resolução/Conclusão
25785983,Caçarilhe e Infesta,Tâmega e Sousa,309,2025-08-04T18:22:00Z,25785983,Em Resolução/Conclusão,3103,Incêndio rural,0,1,0,5,2025-08-04T18:22:00Z,Celorico De Basto,Braga,Norte,-8.04611,41.419858,Resolução/Conclusão
25792058,Cibões e Brufe,Cávado,309,2025-08-05T19:10:00Z,25792058,Em Resolução/Conclusão,3103,Incêndio rural,0,1,0,5,2025-08-05T19:10:00Z,Terras De Bouro,Braga,Norte,-8.293932,41.764918,Resolução/Conclusão
25820422,Távora e Pereiro,Douro,309,2025-08-10T22:27:00Z,25820422,Em Resolução/Conclusão,3103,Incêndio rural,0,31,0,99,2025-08-10T22:27:00Z,Tabuaço,Viseu,Norte,-7.55556,41.097602,Resolução/Conclusão
25832672,Piódão,Região de Coimbra,310,2025-08-13T05:08:00Z,25832672,Em Curso,3103,Incêndio rural,7,316,0,954,2025-08-13T05:08:00Z,Arganil,Coimbra,Centro,-7.81972,40.23083,Curso
25835176,Faíl e Vila Chã de Sá,Viseu Dão Lafões,310,2025-08-13T14:35:00Z,25835176,Em Resolução/Conclusão,3103,Incêndio rural,1,7,0,27,2025-08-13T14:35:00Z,Viseu,Viseu,Centro,-7.951177,40.594167,Resolução/Conclusão
25840417,Lousã e Vilarinho,Região de Coimbra,310,2025-08-14T13:46:00Z,25840417,Em Curso,3101,Incêndio rural,3,136,0,451,2025-08-14T13:46:00Z,Lousã,Coimbra,Centro,-8.201561,40.080016,Curso
25841546,São João de Lourosa,Viseu Dão Lafões,310,2025-08-14T16:55:00Z,25841546,Em Resolução/Conclusão,3103,Incêndio rural,0,0,0,0,2025-08-14T16:55:00Z,Viseu,Viseu,Centro,-7.9337,40.6126,Resolução/Conclusão
25848791,Portela,Alto Minho,309,2025-08-15T23:12:00Z,25848791,Em Resolução/Conclusão,3103,Incêndio rural,0,12,0,47,2025-08-15T23:12:00Z,Monção,Viana Do Castelo,Norte,-8.491353,41.985432,Resolução/Conclusão
25849407,Ervedosa,Terras de Trás-os-Montes,309,2025-08-16T03:33:00Z,25849407,Em Resolução/Conclusão,3103,Incêndio rural,0,4,0,11,2025-08-16T03:33:00Z,Vinhais,Bragança,Norte,-7.095813,41.726347,Resolução/Conclusão
25851122,Pindelo Dos Milagres,Viseu Dão Lafões,310,2025-08-16T12:32:00Z,25851122,Em Resolução/Conclusão,3103,Incêndio rural,0,7,0,21,2025-08-16T12:32:00Z,São Pedro Do Sul,Viseu,Centro,-7.947222,40.80556,Resolução/Conclusão
25851465,Pedrógão Grande,Região de Leiria,310,2025-08-16T13:38:00Z,25851465,Em Resolução/Conclusão,3101,Incêndio rural,0,0,0,0,2025-08-16T13:38:00Z,Pedrógão Grande,Leiria,Centro,-8.174036,39.898815,Resolução/Conclusão
25851606,"Ardegão, Arnozela e Seidões",Ave,309,2025-08-16T14:03:00Z,25851606,Em Resolução/Conclusão,3103,Incêndio rural,1,4,0,21,2025-08-16T14:03:00Z,Fafe,Braga,Norte,-8.115163,41.405222,Resolução/Conclusão
25851638,Fânzeres e São Pedro da Cova,Area M. Porto,309,2025-08-16T14:01:00Z,25851638,Em Resolução/Conclusão,3103,Incêndio rural,0,2,0,5,2025-08-16T14:01:00Z,Gondomar,Porto,Norte,-8.497308,41.131747,Resolução/Conclusão
25851044,Nevogilde,Tâmega e Sousa,309,2025-08-16T12:17:00Z,25851044,Em Curso,3103,Incêndio rural,0,17,0,55,2025-08-16T12:17:00Z,Lousada,Porto,Norte,-8.33143,41.258203,Curso
25851158,Sarzedo,Douro,309,2025-08-16T12:37:00Z,25851158,Em Resolução/Conclusão,3103,Incêndio rural,0,6,0,24,2025-08-16T12:37:00Z,Moimenta Da Beira,Viseu,Norte,-7.658762,41.006693,Resolução/Conclusão
25851511,"Abrunheira, Verride e Vila Nova da Barca",Região de Coimbra,310,2025-08-16T13:47:00Z,25851511,Em Resolução/Conclusão,3103,Incêndio rural,0,6,0,18,2025-08-16T13:47:00Z,Montemor-o-Velho,Coimbra,Centro,-8.701429,40.1302,Resolução/Conclusão
25851846,"Mamouros, Alva e Ribolhos",Viseu Dão Lafões,310,2025-08-16T14:44:00Z,25851846,Em Despacho,3103,Incêndio rural,0,3,0,11,2025-08-16T14:44:00Z,Castro Daire,Viseu,Centro,-7.96853,40.85247,Despacho
25775263,Torgueda,Douro,309,2025-08-02T19:49:00Z,25775263,Em Resolução/Conclusão,3101,Incêndio rural,0,4,0,15,2025-08-02T19:49:00Z,Vila Real,Vila Real,Norte,-7.785983,41.274952,Resolução/Conclusão
25807426,Alvite,Douro,309,2025-08-08T14:31:00Z,25807426,Em Resolução/Conclusão,3103,Incêndio rural,0,5,0,26,2025-08-08T14:31:00Z,Moimenta Da Beira,Viseu,Norte,-7.688727,40.96613,Resolução/Conclusão
25841363,Santar e Moreira,Viseu Dão Lafões,310,2025-08-14T16:28:00Z,25841363,Em Resolução/Conclusão,3103,Incêndio rural,0,0,0,0,2025-08-14T16:28:00Z,Nelas,Viseu,Centro,-7.883308,40.563075,Resolução/Conclusão
25845171,Pêra do Moço,Beiras e Serra da Estrela,310,2025-08-15T10:44:00Z,25845171,Em Curso,3103,Incêndio rural,0,84,0,229,2025-08-15T10:44:00Z,Guarda,Guarda,Centro,-7.20956,40.61267,Curso
25846016,Poiares,Douro,309,2025-08-15T13:17:00Z,25846016,Em Curso,3105,Incêndio rural,0,97,0,291,2025-08-15T13:17:00Z,Freixo De Espada à Cinta,Bragança,Norte,-6.843393,41.075787,Curso
25847211,Campelo,Região de Leiria,310,2025-08-15T17:01:00Z,25847211,Em Curso,3101,Incêndio rural,1,13,0,52,2025-08-15T17:01:00Z,Figueiró Dos Vinhos,Leiria,Centro,-8.258518,39.952923,Curso
25847552,"Espírito Santo, Nossa Senhora da Graça e São Simão",Alto Alentejo,312,2025-08-15T18:13:00Z,25847552,Em Curso,3101,Incêndio rural,0,32,0,103,2025-08-15T18:13:00Z,Nisa,Portalegre,Alentejo,-7.676539,39.448501,Curso
25849878,Árvore,Area M. Porto,309,2025-08-16T08:12:00Z,25849878,Em Resolução/Conclusão,3101,Incêndio rural,0,1,0,5,2025-08-16T08:12:00Z,Vila Do Conde,Porto,Norte,-8.724595,41.34317,Resolução/Conclusão
25850285,Duas Igrejas,Area M. Porto,309,2025-08-16T09:50:00Z,25850285,Em Resolução/Conclusão,3103,Incêndio rural,0,1,0,5,2025-08-16T09:50:00Z,Paredes,Porto,Norte,-8.37011,41.222433,Resolução/Conclusão
25850437,Castelo Rodrigo,Beiras e Serra da Estrela,310,2025-08-16T10:19:00Z,25850437,Em Resolução/Conclusão,3105,Incêndio rural,0,6,0,20,2025-08-16T10:19:00Z,Figueira De Castelo Rodrigo,Guarda,Centro,-6.946172,40.891503,Resolução/Conclusão
25850973,NA,NA,0,2025-08-16T11:55:00Z,25850973,Em Curso,3103,Incêndio rural,0,4,0,13,2025-08-16T11:55:00Z,NA,NA,NA,-6.847433,39.389784,Curso
25851014,Vila Alva,Baixo Alentejo,312,2025-08-16T12:15:00Z,25851014,Em Resolução/Conclusão,3103,Incêndio rural,0,0,0,0,2025-08-16T12:15:00Z,Cuba,Beja,Alentejo,-7.873312,38.2348,Resolução/Conclusão
25851632,Aguiar de Sousa,Area M. Porto,309,2025-08-16T14:07:00Z,25851632,Em Resolução/Conclusão,3103,Incêndio rural,0,2,0,10,2025-08-16T14:07:00Z,Paredes,Porto,Norte,-8.41387,41.13204,Resolução/Conclusão
25851655,Fregim,Tâmega e Sousa,309,2025-08-16T14:12:00Z,25851655,Em Curso,3103,Incêndio rural,1,9,0,39,2025-08-16T14:12:00Z,Amarante,Porto,Norte,-8.136772,41.270748,Curso
25851832,"Esqueiros, Nevogilde e Travassós",Cávado,309,2025-08-16T14:42:00Z,25851832,Em Despacho,3103,Incêndio rural,1,2,0,13,2025-08-16T14:42:00Z,Vila Verde,Braga,Norte,-8.44602,41.66303,Despacho
25776263,"Pena, Quintã e Vila Cova",Douro,309,2025-08-02T23:45:00Z,25776263,Em Resolução/Conclusão,3103,Incêndio rural,0,49,0,158,2025-08-02T23:45:00Z,Vila Real,Vila Real,Norte,-7.811902,41.317355,Resolução/Conclusão
25813482,Freches e Torres,Beiras e Serra da Estrela,310,2025-08-09T16:21:00Z,25813482,Em Curso,3103,Incêndio rural,1,146,0,452,2025-08-09T16:21:00Z,Trancoso,Guarda,Centro,-7.363745,40.709022,Curso
25830378,Ermidas-Sado,Alentejo Litoral,312,2025-08-12T16:42:00Z,25830378,Em Resolução/Conclusão,3101,Incêndio rural,0,0,0,0,2025-08-12T16:42:00Z,Santiago Do Cacém,Setúbal,Alentejo,-8.407646,38.059897,Resolução/Conclusão
25832250,Ferreira de Aves,Viseu Dão Lafões,310,2025-08-13T00:03:00Z,25832250,Em Curso,3103,Incêndio rural,2,292,0,883,2025-08-13T00:03:00Z,Sátão,Viseu,Centro,-7.647793,40.79568,Curso
25836309,Cinfães,Tâmega e Sousa,309,2025-08-13T18:17:00Z,25836309,Em Resolução/Conclusão,3103,Incêndio rural,0,21,0,66,2025-08-13T18:17:00Z,Cinfães,Viseu,Norte,-8.071502,41.049757,Resolução/Conclusão
25840505,Ribeira de Nisa e Carreiras,Alto Alentejo,312,2025-08-14T14:01:00Z,25840505,Em Resolução/Conclusão,3101,Incêndio rural,0,36,0,100,2025-08-14T14:01:00Z,Portalegre,Portalegre,Alentejo,-7.47009,39.374707,Resolução/Conclusão
25844050,"Pena, Quintã e Vila Cova",Douro,309,2025-08-15T04:16:00Z,25844050,Em Resolução/Conclusão,3103,Incêndio rural,0,2,0,7,2025-08-15T04:16:00Z,Vila Real,Vila Real,Norte,-7.861022,41.318705,Resolução/Conclusão
25844080,Vale de Espinho,Beiras e Serra da Estrela,310,2025-08-15T04:35:00Z,25844080,Em Resolução/Conclusão,3103,Incêndio rural,0,2,0,4,2025-08-15T04:35:00Z,Sabugal,Guarda,Centro,-6.937728,40.270523,Resolução/Conclusão
25845736,Travancas e Roriz,Alto Tâmega e Barroso,309,2025-08-15T12:20:00Z,25845736,Em Resolução/Conclusão,3103,Incêndio rural,0,8,0,32,2025-08-15T12:20:00Z,Chaves,Vila Real,Norte,-7.316357,41.775985,Resolução/Conclusão
25850200,Santo André,Alto Tâmega e Barroso,309,2025-08-16T09:22:00Z,25850200,Em Resolução/Conclusão,3103,Incêndio rural,0,2,0,10,2025-08-16T09:22:00Z,Montalegre,Vila Real,Norte,-7.68918,41.870293,Resolução/Conclusão
25851201,Vilela,Area M. Porto,309,2025-08-16T12:45:00Z,25851201,Em Resolução/Conclusão,3103,Incêndio rural,0,2,0,10,2025-08-16T12:45:00Z,Paredes,Porto,Norte,-8.390771,41.233108,Resolução/Conclusão
25851451,"Sandim, Olival, Lever e Crestuma",Area M. Porto,309,2025-08-16T13:36:00Z,25851451,Em Resolução/Conclusão,3103,Incêndio rural,0,5,0,18,2025-08-16T13:36:00Z,Vila Nova De Gaia,Porto,Norte,-8.477632,41.032533,Resolução/Conclusão
25851721,Arnóia,Tâmega e Sousa,309,2025-08-16T14:24:00Z,25851721,Em Curso,3103,Incêndio rural,0,3,0,10,2025-08-16T14:24:00Z,Celorico De Basto,Braga,Norte,-8.00882,41.36745,Curso
25851768,Penafiel,Tâmega e Sousa,309,2025-08-16T14:33:00Z,25851768,Em Curso,3103,Incêndio rural,0,0,0,0,2025-08-16T14:33:00Z,Penafiel,Porto,Norte,-8.29409,41.17531,Curso
25851785,Negrelos (São Tomé),Area M. Porto,309,2025-08-16T14:34:00Z,25851785,Em Despacho,3103,Incêndio rural,0,1,0,5,2025-08-16T14:34:00Z,Santo Tirso,Porto,Norte,-8.403205,41.346137,Despacho
25851851,Fervença,Tâmega e Sousa,309,2025-08-16T14:44:00Z,25851851,Em Despacho,3103,Incêndio rural,1,1,0,6,2025-08-16T14:44:00Z,Celorico De Basto,Braga,Norte,-8.081447,41.355187,Despacho
