id,address,subregion,neighborhood,date,id.1,state,nature,nature_description,aerial_means,terrestrial_means,aquatic_means,operational,date.1,Concelho,Distrito,NUTII_DSG,longitude,latitude
25575856,Nossa Senhora Das Neves,Baixo Alentejo,312,2025-06-25T01:32:00Z,25575856,Em conclusão,3103,Incêndio rural,0,1,0,5,2025-06-25T01:32:00Z,Beja,Beja,Alentejo,-7.80618,38.010457
25575870,Eja,Tâmega e Sousa,309,2025-06-25T01:46:00Z,25575870,Em conclusão,3103,Incêndio rural,0,0,0,0,2025-06-25T01:46:00Z,Penafiel,Porto,Norte,-8.300588,41.088347
25575996,Benavente,Lezíria do Tejo,311,2025-06-25T04:03:00Z,25575996,Em conclusão,3101,Incêndio rural,0,5,0,16,2025-06-25T04:03:00Z,Benavente,Santarém,Alentejo,-8.786637,38.937427
25576015,Gamil e Midões,Cávado,309,2025-06-25T04:44:00Z,25576015,Em despacho,2113,Incêndio em recintos de espetáculos e reuniões públicas,0,1,0,5,2025-06-25T04:44:00Z,Barcelos,Braga,Norte,-8.592743,41.508583
25576033,Campanhã,Area M. Porto,309,2025-06-25T05:14:00Z,25576033,Em despacho,3105,Incêndio rural,0,0,0,0,2025-06-25T05:14:00Z,Porto,Porto,Norte,-8.58782,41.15558
