id,address,subregion,neighborhood,date,id.1,state,nature,nature_description,aerial_means,terrestrial_means,aquatic_means,operational,date.1,Concelho,Distrito,NUTII_DSG,longitude,latitude,state_2
25711397,Vale da Pedra,Lezíria do Tejo,311,2025-07-21T14:16:00Z,25711397,Em Resolução/Conclusão,3103,Incêndio rural,0,0,0,0,2025-07-21T14:16:00Z,Cartaxo,Santarém,Alentejo,-8.783137,39.110872,Resolução/Conclusão
25719571,Belmonte e Colmeal da Torre,Beiras e Serra da Estrela,310,2025-07-23T08:37:00Z,25719571,Em Resolução/Conclusão,3103,Incêndio rural,0,3,0,8,2025-07-23T08:37:00Z,Belmonte,Castelo Branco,Centro,-7.3317,40.38457,Resolução/Conclusão
25720387,Castro Verde e Casével,Baixo Alentejo,312,2025-07-23T10:58:00Z,25720387,Em Resolução/Conclusão,3103,Incêndio rural,0,19,0,46,2025-07-23T10:58:00Z,Castro Verde,Beja,Alentejo,-8.032932,37.655215,Resolução/Conclusão
25720916,Vila Flor e Nabo,Terras de Trás-os-Montes,309,2025-07-23T12:50:00Z,25720916,Em Resolução/Conclusão,3103,Incêndio rural,0,8,0,27,2025-07-23T12:50:00Z,Vila Flor,Bragança,Norte,-7.131167,41.262288,Resolução/Conclusão
25720932,Bouro (Santa Marta),Cávado,309,2025-07-23T12:54:00Z,25720932,Em Resolução/Conclusão,3101,Incêndio rural,0,15,0,56,2025-07-23T12:54:00Z,Amares,Braga,Norte,-8.283857,41.671897,Resolução/Conclusão
25721105,Rebordões,Area M. Porto,309,2025-07-23T13:32:00Z,25721105,Em Resolução/Conclusão,3103,Incêndio rural,0,5,0,19,2025-07-23T13:32:00Z,Santo Tirso,Porto,Norte,-8.42274,41.343745,Resolução/Conclusão
25721289,Rates,Area M. Porto,309,2025-07-23T14:02:00Z,25721289,Em Resolução/Conclusão,3103,Incêndio rural,0,1,0,5,2025-07-23T14:02:00Z,Póvoa De Varzim,Porto,Norte,-8.677437,41.424792,Resolução/Conclusão
25721382,Unhais da Serra,Beiras e Serra da Estrela,310,2025-07-23T14:29:00Z,25721382,Em Curso,3103,Incêndio rural,2,16,0,68,2025-07-23T14:29:00Z,Covilhã,Castelo Branco,Centro,-7.619503,40.2515,Curso
25718082,Monsanto e Idanha-a-Velha,Beira Baixa,310,2025-07-22T20:17:00Z,25718082,Em Resolução/Conclusão,3105,Incêndio rural,0,1,0,2,2025-07-22T20:17:00Z,Idanha-a-Nova,Castelo Branco,Centro,-7.048977,40.051923,Resolução/Conclusão
25720797,"Lavandeira, Beira Grande e Selores",Douro,309,2025-07-23T12:23:00Z,25720797,Em Curso,3103,Incêndio rural,7,22,0,86,2025-07-23T12:23:00Z,Carrazeda De Ansiães,Bragança,Norte,-7.304242,41.205575,Curso
25721056,Gafanha da Encarnação,Região de Aveiro,310,2025-07-23T13:20:00Z,25721056,Em Resolução/Conclusão,3105,Incêndio rural,0,1,0,2,2025-07-23T13:20:00Z,Ílhavo,Aveiro,Centro,-8.72354,40.61987,Resolução/Conclusão
25721476,Ericeira,Grande Lisboa,311,2025-07-23T14:47:00Z,25721476,Em Despacho,3103,Incêndio rural,0,6,0,23,2025-07-23T14:47:00Z,Mafra,Lisboa,Área Metropolitana De Lisboa,-9.38997,38.96684,Despacho
25712338,Cercal,Alentejo Litoral,312,2025-07-21T17:38:00Z,25712338,Em Resolução/Conclusão,3103,Incêndio rural,0,11,0,38,2025-07-21T17:38:00Z,Santiago Do Cacém,Setúbal,Alentejo,-8.682272,37.791582,Resolução/Conclusão
25717167,Pinhel,Beiras e Serra da Estrela,310,2025-07-22T16:40:00Z,25717167,Em Resolução/Conclusão,3103,Incêndio rural,0,2,0,7,2025-07-22T16:40:00Z,Pinhel,Guarda,Centro,-7.060442,40.781598,Resolução/Conclusão
25717520,Castelo Branco,Beira Baixa,310,2025-07-22T17:59:00Z,25717520,Em Resolução/Conclusão,3103,Incêndio rural,0,2,0,10,2025-07-22T17:59:00Z,Castelo Branco,Castelo Branco,Centro,-7.464898,39.851129,Resolução/Conclusão
25720844,Beja (Salvador e Santa Maria da Feira),Baixo Alentejo,312,2025-07-23T12:35:00Z,25720844,Em Resolução/Conclusão,3105,Incêndio rural,0,1,0,5,2025-07-23T12:35:00Z,Beja,Beja,Alentejo,-7.860143,38.021423,Resolução/Conclusão
25721162,Pechão,Algarve,313,2025-07-23T13:44:00Z,25721162,Em Resolução/Conclusão,3103,Incêndio rural,0,4,0,11,2025-07-23T13:44:00Z,Olhão,Faro,Algarve,-7.884232,37.047157,Resolução/Conclusão
25721410,Treixedo e Nagozela,Viseu Dão Lafões,310,2025-07-23T14:36:00Z,25721410,Em Despacho,3103,Incêndio rural,1,9,0,38,2025-07-23T14:36:00Z,Santa Comba Dão,Viseu,Centro,-8.093847,40.43991,Despacho
