id,address,subregion,neighborhood,date,id.1,state,nature,nature_description,aerial_means,terrestrial_means,aquatic_means,operational,date.1,Concelho,Distrito,NUTII_DSG,longitude,latitude
25553154,Pedrógão,Baixo Alentejo,312,2025-06-20T12:23:00Z,25553154,Em conclusão,3103,Incêndio rural,0,1,0,3,2025-06-20T12:23:00Z,Vidigueira,Beja,Alentejo,-7.549947,38.179912
25560799,Vendas Novas,Alentejo Central,312,2025-06-21T22:56:00Z,25560799,Em conclusão,2127,"Incêndio em edifícios e recintos industriais, oficinas e armazéns",0,3,0,9,2025-06-21T22:56:00Z,Vendas Novas,Évora,Alentejo,-8.467471,38.671556
25560908,Ramada e Caneças,Grande Lisboa,311,2025-06-21T23:42:00Z,25560908,Em despacho,2101,Incêndio em edifícios habitacionais,0,1,0,5,2025-06-21T23:42:00Z,Odivelas,Lisboa,Área Metropolitana De Lisboa,-9.194441,38.801427
25559128,Ermelo e Pardelhas,Ave,309,2025-06-21T15:50:00Z,25559128,Em conclusão,3103,Incêndio rural,0,1,0,5,2025-06-21T15:50:00Z,Mondim De Basto,Vila Real,Norte,-7.835997,41.35894
25560920,Campo e Sobrado,Area M. Porto,309,2025-06-21T23:35:00Z,25560920,Em despacho,3101,Incêndio rural,0,1,0,5,2025-06-21T23:35:00Z,Valongo,Porto,Norte,-8.467145,41.204483
25558349,Benavila e Valongo,Alto Alentejo,312,2025-06-21T12:39:00Z,25558349,Em conclusão,3101,Incêndio rural,0,11,0,26,2025-06-21T12:39:00Z,Avis,Portalegre,Alentejo,-7.917383,39.142285
25560753,"Oliveira de Frades, Souto de Lafões e Sejães",Viseu Dão Lafões,310,2025-06-21T22:52:00Z,25560753,Em resolução,3103,Incêndio rural,0,7,0,29,2025-06-21T22:52:00Z,Oliveira De Frades,Viseu,Centro,-8.16921,40.740963
25560820,Padroso,Alto Minho,309,2025-06-21T23:14:00Z,25560820,Em despacho,3103,Incêndio rural,0,1,0,5,2025-06-21T23:14:00Z,Arcos De Valdevez,Viana Do Castelo,Norte,-8.502113,41.935985
