id,address,subregion,neighborhood,date,id.1,state,nature,nature_description,aerial_means,terrestrial_means,aquatic_means,operational,date.1,Concelho,Distrito,NUTII_DSG,longitude,latitude,state_2
25748118,Canelas e Espiunca,Area M. Porto,309,2025-07-28T17:16:00Z,25748118,Em Resolução/Conclusão,3101,Incêndio rural,0,140,0,386,2025-07-28T17:16:00Z,Arouca,Aveiro,Norte,-8.212231,40.969918,Resolução/Conclusão
25749320,Rebordões (Santa Maria),Alto Minho,309,2025-07-28T22:47:00Z,25749320,Em Resolução/Conclusão,3103,Incêndio rural,0,3,0,8,2025-07-28T22:47:00Z,Ponte De Lima,Viana Do Castelo,Norte,-8.588365,41.729993,Resolução/Conclusão
25749641,Silva Escura e Dornelas,Região de Aveiro,310,2025-07-29T01:02:00Z,25749641,Em Resolução/Conclusão,3101,Incêndio rural,0,4,0,14,2025-07-29T01:02:00Z,Sever Do Vouga,Aveiro,Centro,-8.399623,40.769354,Resolução/Conclusão
25756006,Pinhanços,Beiras e Serra da Estrela,310,2025-07-30T09:07:00Z,25756006,Em Resolução/Conclusão,3103,Incêndio rural,0,4,0,17,2025-07-30T09:07:00Z,Seia,Guarda,Centro,-7.708132,40.473517,Resolução/Conclusão
25756459,Nespereira,Tâmega e Sousa,309,2025-07-30T10:20:00Z,25756459,Em Resolução/Conclusão,3103,Incêndio rural,0,6,0,26,2025-07-30T10:20:00Z,Cinfães,Viseu,Norte,-8.130378,41.039695,Resolução/Conclusão
25763964,Pêro Viseu,Beiras e Serra da Estrela,310,2025-07-31T16:58:00Z,25763964,Em Resolução/Conclusão,3103,Incêndio rural,0,1,0,5,2025-07-31T16:58:00Z,Fundão,Castelo Branco,Centro,-7.457652,40.199215,Resolução/Conclusão
25772353,Rossas,Ave,309,2025-08-02T09:28:00Z,25772353,Em Resolução/Conclusão,3103,Incêndio rural,0,2,0,7,2025-08-02T09:28:00Z,Vieira Do Minho,Braga,Norte,-8.10672,41.58092,Resolução/Conclusão
25750701,Capela,Tâmega e Sousa,309,2025-07-29T09:26:00Z,25750701,Em Resolução/Conclusão,3103,Incêndio rural,0,36,0,110,2025-07-29T09:26:00Z,Penafiel,Porto,Norte,-8.345202,41.09353,Resolução/Conclusão
25762916,Cota,Viseu Dão Lafões,310,2025-07-31T13:40:00Z,25762916,Em Resolução/Conclusão,3101,Incêndio rural,0,0,0,0,2025-07-31T13:40:00Z,Viseu,Viseu,Centro,-7.801223,40.780375,Resolução/Conclusão
25765473,Sameice e Santa Eulália,Beiras e Serra da Estrela,310,2025-07-31T23:02:00Z,25765473,Em Resolução/Conclusão,3103,Incêndio rural,0,1,0,5,2025-07-31T23:02:00Z,Seia,Guarda,Centro,-7.775783,40.420218,Resolução/Conclusão
25767796,"Mangualde, Mesquitela e Cunha Alta",Viseu Dão Lafões,310,2025-08-01T11:50:00Z,25767796,Em Resolução/Conclusão,3103,Incêndio rural,0,1,0,5,2025-08-01T11:50:00Z,Mangualde,Viseu,Centro,-7.788212,40.612402,Resolução/Conclusão
25771657,Caria,Douro,309,2025-08-02T05:01:00Z,25771657,Em Resolução/Conclusão,3101,Incêndio rural,0,4,0,15,2025-08-02T05:01:00Z,Moimenta Da Beira,Viseu,Norte,-7.591073,40.94778,Resolução/Conclusão
25772492,Santa Cruz do Douro e São Tomé de Covelas,Tâmega e Sousa,309,2025-08-02T09:58:00Z,25772492,Em Resolução/Conclusão,3103,Incêndio rural,0,1,0,5,2025-08-02T09:58:00Z,Baião,Porto,Norte,-7.98101,41.12335,Resolução/Conclusão
25749937,Moimenta,Tâmega e Sousa,309,2025-07-29T04:11:00Z,25749937,Em Resolução/Conclusão,3103,Incêndio rural,0,4,0,13,2025-07-29T04:11:00Z,Cinfães,Viseu,Norte,-8.173308,41.072792,Resolução/Conclusão
25751241,Molelos,Viseu Dão Lafões,310,2025-07-29T10:43:00Z,25751241,Em Resolução/Conclusão,3103,Incêndio rural,0,1,0,5,2025-07-29T10:43:00Z,Tondela,Viseu,Centro,-8.09574,40.551495,Resolução/Conclusão
25751893,"Espírito Santo, Nossa Senhora da Graça e São Simão",Alto Alentejo,312,2025-07-29T12:32:00Z,25751893,Em Resolução/Conclusão,3101,Incêndio rural,0,2,0,6,2025-07-29T12:32:00Z,Nisa,Portalegre,Alentejo,-7.634827,39.571162,Resolução/Conclusão
25763650,Milagres,Região de Leiria,310,2025-07-31T15:58:00Z,25763650,Em Resolução/Conclusão,3101,Incêndio rural,0,1,0,2,2025-07-31T15:58:00Z,Leiria,Leiria,Centro,-8.792217,39.793427,Resolução/Conclusão
25767817,Dardavaz,Viseu Dão Lafões,310,2025-08-01T11:54:00Z,25767817,Em Resolução/Conclusão,3103,Incêndio rural,0,0,0,0,2025-08-01T11:54:00Z,Tondela,Viseu,Centro,-8.120597,40.489477,Resolução/Conclusão
25770852,Gondar,Tâmega e Sousa,309,2025-08-01T22:29:00Z,25770852,Em Resolução/Conclusão,3103,Incêndio rural,0,20,0,61,2025-08-01T22:29:00Z,Amarante,Porto,Norte,-8.02366,41.27024,Resolução/Conclusão
25771363,Santa Marinha do Zêzere,Tâmega e Sousa,309,2025-08-02T01:56:00Z,25771363,Em Curso,3103,Incêndio rural,2,22,0,80,2025-08-02T01:56:00Z,Baião,Porto,Norte,-7.954528,41.158205,Curso
25772621,Pedrógão,Baixo Alentejo,312,2025-08-02T10:24:00Z,25772621,Em Resolução/Conclusão,3105,Incêndio rural,0,0,0,0,2025-08-02T10:24:00Z,Vidigueira,Beja,Alentejo,-7.636893,38.113387,Resolução/Conclusão
25773019,Escalos de Baixo e Mata,Beira Baixa,310,2025-08-02T11:37:00Z,25773019,Em Despacho,3105,Incêndio rural,0,9,0,28,2025-08-02T11:37:00Z,Castelo Branco,Castelo Branco,Centro,-7.431384,39.872495,Despacho
25773021,Santiago de Piães,Tâmega e Sousa,309,2025-08-02T11:37:00Z,25773021,Em Resolução/Conclusão,3103,Incêndio rural,0,4,0,17,2025-08-02T11:37:00Z,Cinfães,Viseu,Norte,-8.160485,41.054612,Resolução/Conclusão
25773105,Penacova,Tâmega e Sousa,309,2025-08-02T11:47:00Z,25773105,Em Resolução/Conclusão,3103,Incêndio rural,0,1,0,5,2025-08-02T11:47:00Z,Felgueiras,Porto,Norte,-8.237837,41.372862,Resolução/Conclusão
25773119,Freixo de Cima e de Baixo,Tâmega e Sousa,309,2025-08-02T11:58:00Z,25773119,Em Despacho,3103,Incêndio rural,1,2,0,16,2025-08-02T11:58:00Z,Amarante,Porto,Norte,-8.146271,41.308132,Despacho
25772863,Mafamude e Vilar do Paraíso,Area M. Porto,309,2025-08-02T11:07:00Z,25772863,Em Resolução/Conclusão,3103,Incêndio rural,0,1,0,5,2025-08-02T11:07:00Z,Vila Nova De Gaia,Porto,Norte,-8.5874,41.099012,Resolução/Conclusão
25773026,Lavradas,Alto Minho,309,2025-08-02T11:37:00Z,25773026,Em Resolução/Conclusão,3103,Incêndio rural,0,2,0,7,2025-08-02T11:37:00Z,Ponte Da Barca,Viana Do Castelo,Norte,-8.468902,41.79684,Resolução/Conclusão
25773049,Vila Cova da Lixa e Borba de Godim,Tâmega e Sousa,309,2025-08-02T11:45:00Z,25773049,Em Curso,3103,Incêndio rural,1,2,0,13,2025-08-02T11:45:00Z,Felgueiras,Porto,Norte,-8.186205,41.326602,Curso
25738747,Lindoso,Alto Minho,309,2025-07-26T21:47:00Z,25738747,Em Curso,3103,Incêndio rural,6,194,0,595,2025-07-26T21:47:00Z,Ponte Da Barca,Viana Do Castelo,Norte,-8.220528,41.865272,Curso
25747773,Aranhas,Beira Baixa,310,2025-07-28T16:36:00Z,25747773,Em Resolução/Conclusão,3103,Incêndio rural,0,7,0,23,2025-07-28T16:36:00Z,Penamacor,Castelo Branco,Centro,-7.14438,40.117542,Resolução/Conclusão
25751999,Pombal,Região de Leiria,310,2025-07-29T12:53:00Z,25751999,Em Resolução/Conclusão,3101,Incêndio rural,0,1,0,2,2025-07-29T12:53:00Z,Pombal,Leiria,Centro,-8.6801,39.93227,Resolução/Conclusão
25752083,Alcanede,Lezíria do Tejo,311,2025-07-29T13:12:00Z,25752083,Em Resolução/Conclusão,3103,Incêndio rural,0,14,0,44,2025-07-29T13:12:00Z,Santarém,Santarém,Alentejo,-8.802682,39.405543,Resolução/Conclusão
25756620,Recarei,Area M. Porto,309,2025-07-30T10:47:00Z,25756620,Em Resolução/Conclusão,3103,Incêndio rural,0,14,0,33,2025-07-30T10:47:00Z,Paredes,Porto,Norte,-8.416721,41.151,Resolução/Conclusão
25766089,"Sande, Vilarinho, Barros e Gomide",Cávado,309,2025-08-01T04:35:00Z,25766089,Em Resolução/Conclusão,3103,Incêndio rural,0,11,0,31,2025-08-01T04:35:00Z,Vila Verde,Braga,Norte,-8.38083,41.72917,Resolução/Conclusão
25772800,Freigil e Miomães,Tâmega e Sousa,309,2025-08-02T10:59:00Z,25772800,Em Resolução/Conclusão,3103,Incêndio rural,0,1,0,5,2025-08-02T10:59:00Z,Resende,Viseu,Norte,-8.0185,41.0861,Resolução/Conclusão
