id,address,subregion,neighborhood,date,id.1,state,nature,nature_description,aerial_means,terrestrial_means,aquatic_means,operational,date.1,Concelho,Distrito,NUTII_DSG,longitude,latitude
25487371,São João Dos Caldeireiros,Baixo Alentejo,312,2025-06-06T18:02:00Z,25487371,Em conclusão,3105,Incêndio rural,0,24,0,60,2025-06-06T18:02:00Z,Mértola,Beja,Alentejo,-7.804608,37.600808
25487855,"Santa Maria da Feira, Travanca, Sanfins e Espargo",Area M. Porto,309,2025-06-06T19:42:00Z,25487855,Em conclusão,2127,"Incêndio em edifícios e recintos industriais, oficinas e armazéns",0,2,0,8,2025-06-06T19:42:00Z,Santa Maria Da Feira,Aveiro,Norte,-8.555837,40.9255
25486979,Caparica e Trafaria,Península de Setúbal,311,2025-06-06T16:34:00Z,25486979,Em resolução,2127,"Incêndio em edifícios e recintos industriais, oficinas e armazéns",0,4,0,12,2025-06-06T16:34:00Z,Almada,Setúbal,Área Metropolitana De Lisboa,-9.198172,38.665376
25487782,Montijo e Afonsoeiro,Península de Setúbal,311,2025-06-06T19:34:00Z,25487782,Em conclusão,2301,Incêndio em transporte rodoviário,0,2,0,7,2025-06-06T19:34:00Z,Montijo,Setúbal,Área Metropolitana De Lisboa,-8.99064,38.71027
25487879,Alcabideche,Grande Lisboa,311,2025-06-06T19:55:00Z,25487879,Em despacho,3103,Incêndio rural,0,0,0,0,2025-06-06T19:55:00Z,Cascais,Lisboa,Área Metropolitana De Lisboa,-9.386783,38.75267
25487365,Fátima,Médio Tejo,311,2025-06-06T18:05:00Z,25487365,Em resolução,3103,Incêndio rural,0,4,0,17,2025-06-06T18:05:00Z,Ourém,Santarém,Centro,-8.64875,39.583346
25487760,Póvoa de Santa Iria e Forte da Casa,Grande Lisboa,311,2025-06-06T19:31:00Z,25487760,Em conclusão,3203,Detritos confinados,0,2,0,7,2025-06-06T19:31:00Z,Vila Franca De Xira,Lisboa,Área Metropolitana De Lisboa,-9.060814,38.86003
