id,address,subregion,neighborhood,date,id.1,state,nature,nature_description,aerial_means,terrestrial_means,aquatic_means,operational,date.1,Concelho,Distrito,NUTII_DSG,longitude,latitude
24885769,Gulpilhares e Valadares,Area M. Porto,309,2025-01-29T08:29:00Z,24885769,Em despacho,3315,Inundação de estruturas por precipitação intensa,0,1,0,2,2025-01-29T08:29:00Z,Vila Nova De Gaia,Porto,Norte,-8.637978,41.084091
24885810,Mozelos,Area M. Porto,309,2025-01-29T08:54:00Z,24885810,Em resolução,3301,Queda de árvore,0,1,0,2,2025-01-29T08:54:00Z,Santa Maria Da Feira,Aveiro,Norte,-8.56526,40.997101
24886201,Lourinhã e Atalaia,Oeste,311,2025-01-29T09:30:00Z,24886201,Em conclusão,3315,Inundação de estruturas por precipitação intensa,0,1,0,1,2025-01-29T09:30:00Z,Lourinhã,Lisboa,Centro,-9.311131,39.244365
24886562,Cunha,Douro,309,2025-01-29T11:00:00Z,24886562,Em despacho,3301,Queda de árvore,0,1,0,3,2025-01-29T11:00:00Z,Sernancelhe,Viseu,Norte,-7.453734,40.83971
24886705,Canha,Península de Setúbal,311,2025-01-29T11:23:00Z,24886705,Em despacho,3311,Queda de elementos de estruturas edificados,0,1,0,5,2025-01-29T11:23:00Z,Montijo,Setúbal,Área Metropolitana De Lisboa,-8.632345,38.75606
24886771,Encosta do Sol,Grande Lisboa,311,2025-01-29T11:36:00Z,24886771,Em conclusão,3329,Queda de estruturas temporárias ou móveis,0,2,0,8,2025-01-29T11:36:00Z,Amadora,Lisboa,Área Metropolitana De Lisboa,-9.219324,38.772374
24886789,"Assunção, Ajuda, Salvador e Santo Ildefonso",Alto Alentejo,312,2025-01-29T11:35:00Z,24886789,Em curso,3315,Inundação de estruturas por precipitação intensa,0,1,0,4,2025-01-29T11:35:00Z,Elvas,Portalegre,Alentejo,-7.161727,38.871223
24886805,Miranda do Corvo,Região de Coimbra,310,2025-01-29T11:30:00Z,24886805,Em despacho,3321,Dano na rede de fornecimento de eletricidade ,0,1,0,2,2025-01-29T11:30:00Z,Miranda Do Corvo,Coimbra,Centro,-8.339499,40.09407
24886830,Espinho,Area M. Porto,309,2025-01-29T11:51:00Z,24886830,Em despacho,3311,Queda de elementos de estruturas edificados,0,1,0,3,2025-01-29T11:51:00Z,Espinho,Aveiro,Norte,-8.64078,41.007665
24886837,"Caia, São Pedro e Alcáçova",Alto Alentejo,312,2025-01-29T11:46:00Z,24886837,Em curso,3315,Inundação de estruturas por precipitação intensa,0,1,0,2,2025-01-29T11:46:00Z,Elvas,Portalegre,Alentejo,-7.169645,38.882464
24851780,"São Miguel, Santa Eufémia e Rabaçal",Região de Coimbra,310,2025-01-21T23:25:00Z,24851780,Em curso,3315,Inundação de estruturas por precipitação intensa,0,0,0,0,2025-01-21T23:25:00Z,Penela,Coimbra,Centro,-8.399036,40.025502
24886021,Lamas e Cercal,Oeste,311,2025-01-29T09:39:00Z,24886021,Em resolução,3321,Dano na rede de fornecimento de eletricidade ,0,2,0,4,2025-01-29T09:39:00Z,Cadaval,Lisboa,Centro,-8.99533,39.21899
24886140,Castanheira de Pêra e Coentral,Região de Leiria,310,2025-01-29T09:54:00Z,24886140,Em despacho,3301,Queda de árvore,0,1,0,2,2025-01-29T09:54:00Z,Castanheira De Pêra,Leiria,Centro,-8.196364,40.017687
24886258,Barcarena,Grande Lisboa,311,2025-01-29T10:13:00Z,24886258,Em conclusão,3311,Queda de elementos de estruturas edificados,0,2,0,4,2025-01-29T10:13:00Z,Oeiras,Lisboa,Área Metropolitana De Lisboa,-9.277392,38.733987
24886509,Louredo e Fornelos,Douro,309,2025-01-29T10:54:00Z,24886509,Em despacho,3301,Queda de árvore,0,1,0,2,2025-01-29T10:54:00Z,Santa Marta De Penaguião,Vila Real,Norte,-7.812212,41.247361
24886523,Sesimbra (Castelo),Península de Setúbal,311,2025-01-29T10:48:00Z,24886523,Em despacho,3321,Dano na rede de fornecimento de eletricidade ,0,1,0,4,2025-01-29T10:48:00Z,Sesimbra,Setúbal,Área Metropolitana De Lisboa,-9.179861,38.512406
24885596,Matosinhos e Leça da Palmeira,Area M. Porto,309,2025-01-29T08:18:00Z,24885596,Em conclusão,3311,Queda de elementos de estruturas edificados,0,2,0,5,2025-01-29T08:18:00Z,Matosinhos,Porto,Norte,-8.67979,41.17901
24886300,"Sé, Santa Maria e Meixedo",Terras de Trás-os-Montes,309,2025-01-29T10:22:00Z,24886300,Em despacho,3315,Inundação de estruturas por precipitação intensa,0,2,0,3,2025-01-29T10:22:00Z,Bragança,Bragança,Norte,-6.76349,41.81617
24886364,Peso da Régua e Godim,Douro,309,2025-01-29T10:27:00Z,24886364,Em despacho,3315,Inundação de estruturas por precipitação intensa,0,1,0,2,2025-01-29T10:27:00Z,Peso Da Régua,Vila Real,Norte,-7.799499,41.166288
24886416,Lamas,Região de Coimbra,310,2025-01-29T10:35:00Z,24886416,Em curso,3315,Inundação de estruturas por precipitação intensa,0,0,0,0,2025-01-29T10:35:00Z,Miranda Do Corvo,Coimbra,Centro,-8.38289,40.094885
24886668,Viseu,Viseu Dão Lafões,310,2025-01-29T11:17:00Z,24886668,Em despacho,3313,Deslizamento de terras,0,1,0,2,2025-01-29T11:17:00Z,Viseu,Viseu,Centro,-7.908451,40.659587
24886682,Quiaios,Região de Coimbra,310,2025-01-29T11:19:00Z,24886682,Em despacho,3315,Inundação de estruturas por precipitação intensa,0,1,0,3,2025-01-29T11:19:00Z,Figueira Da Foz,Coimbra,Centro,-8.853222,40.215389
24886716,"São Miguel, Santa Eufémia e Rabaçal",Região de Coimbra,310,2025-01-29T11:25:00Z,24886716,Em despacho,3301,Queda de árvore,0,1,0,2,2025-01-29T11:25:00Z,Penela,Coimbra,Centro,-8.397906,40.036312
24877003,Malagueira e Horta Das Figueiras,Alentejo Central,312,2025-01-27T11:41:00Z,24877003,Em conclusão,3315,Inundação de estruturas por precipitação intensa,0,0,0,0,2025-01-27T11:41:00Z,Évora,Évora,Alentejo,-7.924277,38.57285
24886261,Rio Tinto,Area M. Porto,309,2025-01-29T10:17:00Z,24886261,Em despacho,3321,Dano na rede de fornecimento de eletricidade ,0,1,0,1,2025-01-29T10:17:00Z,Gondomar,Porto,Norte,-8.55251,41.17102
24886361,Lourinhã e Atalaia,Oeste,311,2025-01-29T10:32:00Z,24886361,Em despacho,3315,Inundação de estruturas por precipitação intensa,0,2,0,4,2025-01-29T10:32:00Z,Lourinhã,Lisboa,Centro,-9.281329,39.263577
24886404,Poiares (Santo André),Região de Coimbra,310,2025-01-29T10:26:00Z,24886404,Em despacho,3315,Inundação de estruturas por precipitação intensa,0,1,0,2,2025-01-29T10:26:00Z,Vila Nova De Poiares,Coimbra,Centro,-8.256455,40.211265
24886572,Santo António Dos Olivais,Região de Coimbra,310,2025-01-29T10:40:00Z,24886572,Em despacho,3311,Queda de elementos de estruturas edificados,0,2,0,7,2025-01-29T10:40:00Z,Coimbra,Coimbra,Centro,-8.403315,40.218219
24886577,Alhadas,Região de Coimbra,310,2025-01-29T11:04:00Z,24886577,Em despacho,3315,Inundação de estruturas por precipitação intensa,0,1,0,3,2025-01-29T11:04:00Z,Figueira Da Foz,Coimbra,Centro,-8.791713,40.171628
24886645,"São Miguel, Santa Eufémia e Rabaçal",Região de Coimbra,310,2025-01-29T11:00:00Z,24886645,Em despacho,3315,Inundação de estruturas por precipitação intensa,0,1,0,2,2025-01-29T11:00:00Z,Penela,Coimbra,Centro,-8.343999,40.032821
24886686,Barcos e Santa Leocádia,Douro,309,2025-01-29T11:14:00Z,24886686,Em despacho,3301,Queda de árvore,0,1,0,2,2025-01-29T11:14:00Z,Tabuaço,Viseu,Norte,-7.627048,41.124241
24886799,Macieira de Cambra,Area M. Porto,309,2025-01-29T11:45:00Z,24886799,Em despacho,3301,Queda de árvore,0,1,0,2,2025-01-29T11:45:00Z,Vale De Cambra,Aveiro,Norte,-8.367205,40.870286
24886729,João Antão,Beiras e Serra da Estrela,310,2025-01-29T11:28:00Z,24886729,Em curso,3301,Queda de árvore,0,1,0,3,2025-01-29T11:28:00Z,Guarda,Guarda,Centro,-7.23953,40.457507
24886788,Gaeiras,Oeste,311,2025-01-29T11:37:00Z,24886788,Em despacho,3315,Inundação de estruturas por precipitação intensa,0,1,0,5,2025-01-29T11:37:00Z,Óbidos,Leiria,Centro,-9.13344,39.373927
24886624,"Póvoa de Varzim, Beiriz e Argivai",Area M. Porto,309,2025-01-29T11:06:00Z,24886624,Em despacho,3301,Queda de árvore,0,1,0,2,2025-01-29T11:06:00Z,Póvoa De Varzim,Porto,Norte,-8.741711,41.385553
24886708,Sever,Douro,309,2025-01-29T11:19:00Z,24886708,Em despacho,3301,Queda de árvore,0,1,0,3,2025-01-29T11:19:00Z,Santa Marta De Penaguião,Vila Real,Norte,-7.793258,41.221195
24886775,"Marvila, Ribeira Santarém, S.salvador, S.nicolau",Lezíria do Tejo,311,2025-01-29T11:45:00Z,24886775,Em despacho,3315,Inundação de estruturas por precipitação intensa,0,1,0,1,2025-01-29T11:45:00Z,Santarém,Santarém,Alentejo,-8.688446,39.238096
24886793,Miranda do Corvo,Região de Coimbra,310,2025-01-29T11:35:00Z,24886793,Em despacho,3315,Inundação de estruturas por precipitação intensa,0,1,0,2,2025-01-29T11:35:00Z,Miranda Do Corvo,Coimbra,Centro,-8.339499,40.09407
24886826,"Leiria, Pousos, Barreira e Cortes",Região de Leiria,310,2025-01-29T11:49:00Z,24886826,Em despacho,3321,Dano na rede de fornecimento de eletricidade ,0,1,0,1,2025-01-29T11:49:00Z,Leiria,Leiria,Centro,-8.777106,39.743021
