id,address,subregion,neighborhood,date,id.1,state,nature,nature_description,aerial_means,terrestrial_means,aquatic_means,operational,date.1,Concelho,Distrito,NUTII_DSG,longitude,latitude
25238581,Alcobaça e Vestiaria,Oeste,311,2025-04-14T08:50:00Z,25238581,Em despacho,3301,Queda de árvore,0,1,0,2,2025-04-14T08:50:00Z,Alcobaça,Leiria,Centro,-8.970766,39.549944000000004
25239451,"Coruche, Fajarda e Erra",Lezíria do Tejo,311,2025-04-14T11:39:00Z,25239451,Em resolução,3301,Queda de árvore,0,1,0,5,2025-04-14T11:39:00Z,Coruche,Santarém,Alentejo,-8.43667,39.00583
25068300,Almeirim,Lezíria do Tejo,311,2025-03-10T20:52:00Z,25068300,Em curso,1101,Cheia,0,0,0,0,2025-03-10T20:52:00Z,Almeirim,Santarém,Alentejo,-8.635002,39.187436
25239863,"Algés, Linda-a-Velha e Cruz Quebrada-Dafundo",Grande Lisboa,311,2025-04-14T13:07:00Z,25239863,Em despacho,3311,Queda de elementos de estruturas edificados,0,1,0,3,2025-04-14T13:07:00Z,Oeiras,Lisboa,Área Metropolitana De Lisboa,-9.22967,38.696612
25070044,Praia do Ribatejo,Médio Tejo,311,2025-03-10T19:30:00Z,25070044,Em curso,1101,Cheia,0,0,0,0,2025-03-10T19:30:00Z,Vila Nova Da Barquinha,Santarém,Centro,-8.357309,39.485638
25071496,São Manços e São Vicente do Pigeiro,Alentejo Central,312,2025-03-11T13:18:00Z,25071496,Em conclusão,1101,Cheia,0,0,0,0,2025-03-11T13:18:00Z,Évora,Évora,Alentejo,-7.713313,38.513673
25202441,Serpa (Salvador e Santa Maria),Baixo Alentejo,312,2025-04-06T10:25:00Z,25202441,Em conclusão,1101,Cheia,0,0,0,0,2025-04-06T10:25:00Z,Serpa,Beja,Alentejo,-7.555783,37.88592
25239861,"Marvila, Ribeira Santarém, S.salvador, S.nicolau",Lezíria do Tejo,311,2025-04-14T13:14:00Z,25239861,Em despacho,3315,Inundação de estruturas por precipitação intensa,0,2,0,6,2025-04-14T13:14:00Z,Santarém,Santarém,Alentejo,-8.678591,39.231938
