id,address,subregion,neighborhood,date,id.1,state,nature,nature_description,aerial_means,terrestrial_means,aquatic_means,operational,date.1,Concelho,Distrito,NUTII_DSG,longitude,latitude
24926224,Infias,Ave,309,2025-02-07T08:37:00Z,24926224,Em despacho,3301,Queda de árvore,0,2,0,3,2025-02-07T08:37:00Z,Vizela,Braga,Norte,-8.31057,41.395982
24877003,Malagueira e Horta Das Figueiras,Alentejo Central,312,2025-01-27T11:41:00Z,24877003,Em conclusão,3315,Inundação de estruturas por precipitação intensa,0,0,0,0,2025-01-27T11:41:00Z,Évora,Évora,Alentejo,-7.924277,38.57285
24926235,Viseu,Viseu Dão Lafões,310,2025-02-07T08:35:00Z,24926235,Em despacho,3313,Deslizamento de terras,0,1,0,2,2025-02-07T08:35:00Z,Viseu,Viseu,Centro,-7.908451,40.659587
24925682,Guarda,Beiras e Serra da Estrela,310,2025-02-07T01:02:00Z,24925682,Em despacho,3317,Inundação de estruturas por água canalizada,0,1,0,2,2025-02-07T01:02:00Z,Guarda,Guarda,Centro,-7.260869,40.536751
24926182,Maceira,Região de Leiria,310,2025-02-07T08:17:00Z,24926182,Em despacho,3321,Dano na rede de fornecimento de eletricidade ,0,1,0,1,2025-02-07T08:17:00Z,Leiria,Leiria,Centro,-8.889652,39.686501
