id,address,subregion,neighborhood,date,id.1,state,nature,nature_description,aerial_means,terrestrial_means,aquatic_means,operational,date.1,Concelho,Distrito,NUTII_DSG,longitude,latitude
25479453,Aveiras de Baixo,Lezíria do Tejo,311,2025-06-05T08:49:00Z,25479453,Em despacho,3109,Gestão de combustível,0,1,0,2,2025-06-05T08:49:00Z,Azambuja,Lisboa,Alentejo,-8.869588,39.111989
25479771,Muxagata,Douro,309,2025-06-05T09:43:00Z,25479771,Em despacho,3109,Gestão de combustível,0,2,0,10,2025-06-05T09:43:00Z,Vila Nova De Foz Côa,Guarda,Norte,-7.168678,41.037581
25480003,Beduído e Veiros,Região de Aveiro,310,2025-06-05T10:20:00Z,25480003,Em conclusão,3105,Incêndio rural,0,1,0,3,2025-06-05T10:20:00Z,Estarreja,Aveiro,Centro,-8.593235,40.760977
25480046,Melides,Alentejo Litoral,312,2025-06-05T10:28:00Z,25480046,Em despacho,3103,Incêndio rural,0,3,0,11,2025-06-05T10:28:00Z,Grândola,Setúbal,Alentejo,-8.7361,38.14216
25479342,Estreito-Vilar Barroco,Beira Baixa,310,2025-06-05T08:29:00Z,25479342,Em conclusão,3201,Detritos não confinados,0,2,0,7,2025-06-05T08:29:00Z,Oleiros,Castelo Branco,Centro,-7.763863,39.868827
