id,address,subregion,neighborhood,date,id.1,state,nature,nature_description,aerial_means,terrestrial_means,aquatic_means,operational,date.1,Concelho,Distrito,NUTII_DSG,longitude,latitude
25553443,Semide e Rio Vide,Região de Coimbra,310,2025-06-20T13:21:00Z,25553443,Em conclusão,3101,Incêndio rural,0,1,0,5,2025-06-20T13:21:00Z,Miranda Do Corvo,Coimbra,Centro,-8.353843,40.177798
25553679,Lomba,Area M. Porto,309,2025-06-20T14:12:00Z,25553679,Em conclusão,3103,Incêndio rural,0,2,0,4,2025-06-20T14:12:00Z,Gondomar,Porto,Norte,-8.405722,41.033878
25554043,Alcains,Beira Baixa,310,2025-06-20T15:15:00Z,25554043,Em conclusão,3105,Incêndio rural,0,0,0,0,2025-06-20T15:15:00Z,Castelo Branco,Castelo Branco,Centro,-7.466145,39.930763
25554613,"Coruche, Fajarda e Erra",Lezíria do Tejo,311,2025-06-20T17:13:00Z,25554613,Em conclusão,3103,Incêndio rural,0,8,0,30,2025-06-20T17:13:00Z,Coruche,Santarém,Alentejo,-8.506234,38.95908
25554628,Prado (São Miguel),Cávado,309,2025-06-20T17:15:00Z,25554628,Em conclusão,3103,Incêndio rural,0,3,0,9,2025-06-20T17:15:00Z,Vila Verde,Braga,Norte,-8.441303,41.70796
25554665,Lomba,Area M. Porto,309,2025-06-20T17:23:00Z,25554665,Em despacho,3103,Incêndio rural,0,1,0,5,2025-06-20T17:23:00Z,Gondomar,Porto,Norte,-8.42618,41.03129
25554797,Santiago Maior,Alto Alentejo,312,2025-06-20T17:54:00Z,25554797,Em conclusão,2301,Incêndio em transporte rodoviário,0,4,0,11,2025-06-20T17:54:00Z,Castelo De Vide,Portalegre,Alentejo,-7.505934,39.432676
25554799,"Coruche, Fajarda e Erra",Lezíria do Tejo,311,2025-06-20T17:57:00Z,25554799,Em conclusão,3103,Incêndio rural,0,5,0,16,2025-06-20T17:57:00Z,Coruche,Santarém,Alentejo,-8.529788,38.979722
25554912,Faro (Sé e São Pedro),Algarve,313,2025-06-20T18:18:00Z,25554912,Em conclusão,3103,Incêndio rural,0,4,0,12,2025-06-20T18:18:00Z,Faro,Faro,Algarve,-7.942032,37.01865
25555015,Castro Vicente,Terras de Trás-os-Montes,309,2025-06-20T18:36:00Z,25555015,Em despacho,3103,Incêndio rural,1,6,0,29,2025-06-20T18:36:00Z,Mogadouro,Bragança,Norte,-6.835313,41.39632
25555029,Caçarilhe e Infesta,Tâmega e Sousa,309,2025-06-20T18:42:00Z,25555029,Em despacho,3101,Incêndio rural,1,3,0,21,2025-06-20T18:42:00Z,Celorico De Basto,Braga,Norte,-8.043895,41.42431
25553364,Carregosa,Area M. Porto,309,2025-06-20T13:00:00Z,25553364,Em conclusão,3101,Incêndio rural,0,3,0,8,2025-06-20T13:00:00Z,Oliveira De Azeméis,Aveiro,Norte,-8.413127,40.881882
25553875,Ermelo e Pardelhas,Ave,309,2025-06-20T14:38:00Z,25553875,Em resolução,3107,Consolidação de rescaldo de incêndio rural,0,1,0,5,2025-06-20T14:38:00Z,Mondim De Basto,Vila Real,Norte,-7.870974,41.353823
25554634,Assafarge e Antanhol,Região de Coimbra,310,2025-06-20T17:16:00Z,25554634,Em conclusão,2301,Incêndio em transporte rodoviário,0,1,0,4,2025-06-20T17:16:00Z,Coimbra,Coimbra,Centro,-8.44722,40.18
25554661,Castêlo da Maia,Area M. Porto,309,2025-06-20T17:22:00Z,25554661,Em conclusão,3103,Incêndio rural,0,2,0,7,2025-06-20T17:22:00Z,Maia,Porto,Norte,-8.62351,41.24505
25554775,Pinhal Novo,Península de Setúbal,311,2025-06-20T17:46:00Z,25554775,Em conclusão,3105,Incêndio rural,0,2,0,10,2025-06-20T17:46:00Z,Palmela,Setúbal,Área Metropolitana De Lisboa,-8.939938,38.656198
25554800,Ameixial (Santa Vitória e São Bento),Alentejo Central,312,2025-06-20T17:54:00Z,25554800,Em resolução,3103,Incêndio rural,0,8,0,25,2025-06-20T17:54:00Z,Estremoz,Évora,Alentejo,-7.645577,38.80539
25552413,Vila Chã (São João Baptista e Santiago),Alto Minho,309,2025-06-20T10:11:00Z,25552413,Em conclusão,3107,Consolidação de rescaldo de incêndio rural,0,0,0,0,2025-06-20T10:11:00Z,Ponte Da Barca,Viana Do Castelo,Norte,-8.321927,41.809178
25553154,Pedrógão,Baixo Alentejo,312,2025-06-20T12:23:00Z,25553154,Em resolução,3105,Incêndio rural,0,60,0,178,2025-06-20T12:23:00Z,Vidigueira,Beja,Alentejo,-7.549947,38.179912
25553508,São João da Ribeira e Ribeira de São João,Lezíria do Tejo,311,2025-06-20T13:33:00Z,25553508,Em conclusão,3103,Incêndio rural,0,0,0,0,2025-06-20T13:33:00Z,Rio Maior,Santarém,Alentejo,-8.878438,39.290003
25553715,Ferreira do Alentejo e Canhestros,Baixo Alentejo,312,2025-06-20T14:07:00Z,25553715,Em conclusão,3103,Incêndio rural,0,0,0,0,2025-06-20T14:07:00Z,Ferreira Do Alentejo,Beja,Alentejo,-8.119798,38.056325
25554201,Vila Boa,Beiras e Serra da Estrela,310,2025-06-20T15:45:00Z,25554201,Em conclusão,3103,Incêndio rural,0,0,0,0,2025-06-20T15:45:00Z,Sabugal,Guarda,Centro,-7.013198,40.383332
25553468,Benquerenças,Beira Baixa,310,2025-06-20T13:26:00Z,25553468,Em conclusão,3101,Incêndio rural,0,2,0,10,2025-06-20T13:26:00Z,Castelo Branco,Castelo Branco,Centro,-7.5872,39.835847
25554419,Ruivães e Novais,Ave,309,2025-06-20T16:29:00Z,25554419,Em conclusão,3103,Incêndio rural,0,6,0,23,2025-06-20T16:29:00Z,Vila Nova De Famalicão,Braga,Norte,-8.426537,41.395645
25554773,Cativelos,Beiras e Serra da Estrela,310,2025-06-20T17:46:00Z,25554773,Em resolução,3103,Incêndio rural,0,20,0,72,2025-06-20T17:46:00Z,Gouveia,Guarda,Centro,-7.702992,40.53306
25554845,Fermentões,Ave,309,2025-06-20T18:04:00Z,25554845,Em curso,3105,Incêndio rural,0,0,0,0,2025-06-20T18:04:00Z,Guimarães,Braga,Norte,-8.314798,41.459823
25555052,Costa da Caparica,Península de Setúbal,311,2025-06-20T18:45:00Z,25555052,Em curso,3103,Incêndio rural,0,3,0,12,2025-06-20T18:45:00Z,Almada,Setúbal,Área Metropolitana De Lisboa,-9.229899,38.64254
25555077,Santo António Dos Cavaleiros e Frielas,Grande Lisboa,311,2025-06-20T18:49:00Z,25555077,Em despacho,3103,Incêndio rural,0,1,0,5,2025-06-20T18:49:00Z,Loures,Lisboa,Área Metropolitana De Lisboa,-9.163365,38.80863
25554935,Tentúgal,Região de Coimbra,310,2025-06-20T18:24:00Z,25554935,Em conclusão,3105,Incêndio rural,0,6,0,24,2025-06-20T18:24:00Z,Montemor-o-Velho,Coimbra,Centro,-8.59028,40.27694
25555037,Odivelas,Grande Lisboa,311,2025-06-20T18:35:00Z,25555037,Em conclusão,3201,Detritos não confinados,0,1,0,5,2025-06-20T18:35:00Z,Odivelas,Lisboa,Área Metropolitana De Lisboa,-9.182813,38.793425
