id,address,subregion,neighborhood,date,id.1,state,nature,nature_description,aerial_means,terrestrial_means,aquatic_means,operational,date.1,Concelho,Distrito,NUTII_DSG,longitude,latitude
25539673,"Canedo, Vale e Vila Maior",Area M. Porto,309,2025-06-17T15:56:00Z,25539673,Em resolução,3103,Incêndio rural,1,3,0,20,2025-06-17T15:56:00Z,Santa Maria Da Feira,Aveiro,Norte,-8.49327,41.006527
25539755,São Martinho de Mouros,Tâmega e Sousa,309,2025-06-17T16:13:00Z,25539755,Em resolução,2301,Incêndio em transporte rodoviário,0,2,0,7,2025-06-17T16:13:00Z,Resende,Viseu,Norte,-7.897288,41.10297
25539856,"N.s. Conceição, S. Brás Matos, Juromenha",Alentejo Central,312,2025-06-17T16:32:00Z,25539856,Em resolução,3103,Incêndio rural,0,11,0,32,2025-06-17T16:32:00Z,Alandroal,Évora,Alentejo,-7.333124,38.690929
25534804,Alvares,Região de Coimbra,310,2025-06-16T17:00:00Z,25534804,Em conclusão,3101,Incêndio rural,0,1,0,3,2025-06-16T17:00:00Z,Góis,Coimbra,Centro,-8.08667,40.05333
25535747,Alvares,Região de Coimbra,310,2025-06-16T20:38:00Z,25535747,Em conclusão,3103,Incêndio rural,0,2,0,5,2025-06-16T20:38:00Z,Góis,Coimbra,Centro,-8.07249,40.03204
25539082,Carregosa,Area M. Porto,309,2025-06-17T14:00:00Z,25539082,Em conclusão,3101,Incêndio rural,0,3,0,11,2025-06-17T14:00:00Z,Oliveira De Azeméis,Aveiro,Norte,-8.400222,40.875547
25539166,"Canedo, Vale e Vila Maior",Area M. Porto,309,2025-06-17T14:15:00Z,25539166,Em conclusão,3101,Incêndio rural,0,14,0,47,2025-06-17T14:15:00Z,Santa Maria Da Feira,Aveiro,Norte,-8.468336,41.006898
25539427,"Guia, Ilha e Mata Mourisca",Região de Leiria,310,2025-06-17T15:07:00Z,25539427,Em conclusão,3101,Incêndio rural,0,16,0,60,2025-06-17T15:07:00Z,Pombal,Leiria,Centro,-8.875093,39.958584
25539591,Luzim e Vila Cova,Tâmega e Sousa,309,2025-06-17T15:32:00Z,25539591,Em conclusão,3103,Incêndio rural,0,2,0,10,2025-06-17T15:32:00Z,Penafiel,Porto,Norte,-8.241268,41.160668
25539725,Avintes,Area M. Porto,309,2025-06-17T16:08:00Z,25539725,Em conclusão,3101,Incêndio rural,0,2,0,11,2025-06-17T16:08:00Z,Vila Nova De Gaia,Porto,Norte,-8.559322,41.105558
25533546,Capelins (Santo António),Alentejo Central,312,2025-06-16T12:49:00Z,25533546,Em conclusão,3103,Incêndio rural,0,3,0,8,2025-06-16T12:49:00Z,Alandroal,Évora,Alentejo,-7.336945,38.553132
25538176,Ermelo e Pardelhas,Ave,309,2025-06-17T11:12:00Z,25538176,Em conclusão,3103,Incêndio rural,0,5,0,18,2025-06-17T11:12:00Z,Mondim De Basto,Vila Real,Norte,-7.836727,41.358133
25539231,Ceivães e Badim,Alto Minho,309,2025-06-17T14:28:00Z,25539231,Em conclusão,3107,Consolidação de rescaldo de incêndio rural,0,1,0,5,2025-06-17T14:28:00Z,Monção,Viana Do Castelo,Norte,-8.367111,42.06089
25539748,Atei,Ave,309,2025-06-17T16:13:00Z,25539748,Em conclusão,3103,Incêndio rural,0,5,0,19,2025-06-17T16:13:00Z,Mondim De Basto,Vila Real,Norte,-7.927163,41.430945
25539765,Adeganha e Cardanha,Douro,309,2025-06-17T16:15:00Z,25539765,Em curso,3103,Incêndio rural,3,16,0,63,2025-06-17T16:15:00Z,Torre De Moncorvo,Bragança,Norte,-7.078435,41.281168
25539813,Fernão Ferro,Península de Setúbal,311,2025-06-17T16:16:00Z,25539813,Em conclusão,3103,Incêndio rural,0,2,0,8,2025-06-17T16:16:00Z,Seixal,Setúbal,Área Metropolitana De Lisboa,-9.106302,38.59233
25539864,Rio de Moinhos,Médio Tejo,311,2025-06-17T16:35:00Z,25539864,Em resolução,2301,Incêndio em transporte rodoviário,0,3,0,8,2025-06-17T16:35:00Z,Abrantes,Santarém,Centro,-8.266776,39.486242
25533960,Nossa Senhora da Tourega e Nossa Senhora de Guadalupe,Alentejo Central,312,2025-06-16T14:13:00Z,25533960,Em conclusão,3101,Incêndio rural,0,2,0,7,2025-06-16T14:13:00Z,Évora,Évora,Alentejo,-8.04123,38.527212
25539267,Lomba,Area M. Porto,309,2025-06-17T14:37:00Z,25539267,Em curso,3101,Incêndio rural,7,10,0,43,2025-06-17T14:37:00Z,Gondomar,Porto,Norte,-8.429132,41.03151
25539458,Lomba,Area M. Porto,309,2025-06-17T15:14:00Z,25539458,Em conclusão,3101,Incêndio rural,0,6,0,26,2025-06-17T15:14:00Z,Gondomar,Porto,Norte,-8.401682,41.048203
25539742,Serpa (Salvador e Santa Maria),Baixo Alentejo,312,2025-06-17T16:12:00Z,25539742,Em curso,3105,Incêndio rural,0,18,0,54,2025-06-17T16:12:00Z,Serpa,Beja,Alentejo,-7.563295,37.92675
25539778,Santo António Dos Olivais,Região de Coimbra,310,2025-06-17T16:14:00Z,25539778,Em resolução,2301,Incêndio em transporte rodoviário,0,3,0,9,2025-06-17T16:14:00Z,Coimbra,Coimbra,Centro,-8.426807,40.217261
25539817,Sardoal,Médio Tejo,311,2025-06-17T16:25:00Z,25539817,Em conclusão,3103,Incêndio rural,0,2,0,5,2025-06-17T16:25:00Z,Sardoal,Santarém,Centro,-8.15589,39.524192
25539860,Couto de Baixo e Couto de Cima,Viseu Dão Lafões,310,2025-06-17T16:34:00Z,25539860,Em despacho,3107,Consolidação de rescaldo de incêndio rural,0,1,0,5,2025-06-17T16:34:00Z,Viseu,Viseu,Centro,-7.991145,40.697539
25539969,"Cristelos, Boim e Ordem",Tâmega e Sousa,309,2025-06-17T16:51:00Z,25539969,Em curso,3107,Consolidação de rescaldo de incêndio rural,0,1,0,5,2025-06-17T16:51:00Z,Lousada,Porto,Norte,-8.284685,41.263011
25539930,Campanhã,Area M. Porto,309,2025-06-17T16:43:00Z,25539930,Em despacho,3201,Detritos não confinados,0,1,0,5,2025-06-17T16:43:00Z,Porto,Porto,Norte,-8.571543,41.154223
25539949,Reguengos de Monsaraz,Alentejo Central,312,2025-06-17T16:53:00Z,25539949,Em despacho,3103,Incêndio rural,0,2,0,6,2025-06-17T16:53:00Z,Reguengos De Monsaraz,Évora,Alentejo,-7.53587,38.42505
25539761,Corroios,Península de Setúbal,311,2025-06-17T16:14:00Z,25539761,Em conclusão,3103,Incêndio rural,0,4,0,18,2025-06-17T16:14:00Z,Seixal,Setúbal,Área Metropolitana De Lisboa,-9.150308,38.643897
25539850,Sardoal,Médio Tejo,311,2025-06-17T16:31:00Z,25539850,Em conclusão,3103,Incêndio rural,0,4,0,20,2025-06-17T16:31:00Z,Sardoal,Santarém,Centro,-8.158693,39.533153
25539859,Sendim,Tâmega e Sousa,309,2025-06-17T16:13:00Z,25539859,Em conclusão,3103,Incêndio rural,0,0,0,0,2025-06-17T16:13:00Z,Felgueiras,Porto,Norte,-8.190545,41.391867
25539911,Venda do Pinheiro e Santo Estêvão Das Galés,Grande Lisboa,311,2025-06-17T16:45:00Z,25539911,Em despacho,2301,Incêndio em transporte rodoviário,0,1,0,5,2025-06-17T16:45:00Z,Mafra,Lisboa,Área Metropolitana De Lisboa,-9.21189,38.91871
25539927,Lomba,Area M. Porto,309,2025-06-17T16:48:00Z,25539927,Em despacho,3103,Incêndio rural,1,1,0,6,2025-06-17T16:48:00Z,Gondomar,Porto,Norte,-8.408252,41.034001
25539934,Campanhã,Area M. Porto,309,2025-06-17T16:50:00Z,25539934,Em despacho,3103,Incêndio rural,0,0,0,0,2025-06-17T16:50:00Z,Porto,Porto,Norte,-8.570395,41.15835
25539968,Arrabal,Região de Leiria,310,2025-06-17T16:56:00Z,25539968,Em despacho,3105,Incêndio rural,1,3,0,16,2025-06-17T16:56:00Z,Leiria,Leiria,Centro,-8.72863,39.70327
