id,address,subregion,neighborhood,date,id.1,state,nature,nature_description,aerial_means,terrestrial_means,aquatic_means,operational,date.1,Concelho,Distrito,NUTII_DSG,longitude,latitude
25059714,Torrão,Alentejo Litoral,312,2025-03-08T22:10:00Z,25059714,Em curso,1101,Cheia,0,1,0,2,2025-03-08T22:10:00Z,Alcácer Do Sal,Setúbal,Alentejo,-8.359133,38.252053
25070044,Praia do Ribatejo,Médio Tejo,311,2025-03-10T19:30:00Z,25070044,Em curso,1101,Cheia,0,0,0,0,2025-03-10T19:30:00Z,Vila Nova Da Barquinha,Santarém,Centro,-8.357309,39.485638
25071496,São Manços e São Vicente do Pigeiro,Alentejo Central,312,2025-03-11T13:18:00Z,25071496,Em curso,1101,Cheia,0,2,0,4,2025-03-11T13:18:00Z,Évora,Évora,Alentejo,-7.713313,38.513673
25096986,São Teotónio,Alentejo Litoral,312,2025-03-16T22:54:00Z,25096986,Em resolução,3309,Desabamento de estruturas edificadas,0,0,0,0,2025-03-16T22:54:00Z,Odemira,Beja,Alentejo,-8.803445,37.599856
25100444,Serra D'El-Rei,Oeste,311,2025-03-17T16:01:00Z,25100444,Em curso,3315,Inundação de estruturas por precipitação intensa,0,1,0,1,2025-03-17T16:01:00Z,Peniche,Leiria,Centro,-9.27897,39.332052
25100576,Portimão,Algarve,313,2025-03-17T16:25:00Z,25100576,Em conclusão,3311,Queda de elementos de estruturas edificados,0,1,0,1,2025-03-17T16:25:00Z,Portimão,Faro,Algarve,-8.532608,37.137966
25100595,Porches,Algarve,313,2025-03-17T16:35:00Z,25100595,Em conclusão,3311,Queda de elementos de estruturas edificados,0,2,0,5,2025-03-17T16:35:00Z,Silves,Faro,Algarve,-8.397682,37.214183
25100912,Mértola,Baixo Alentejo,312,2025-03-17T17:35:00Z,25100912,Em conclusão,3301,Queda de árvore,0,1,0,2,2025-03-17T17:35:00Z,Mértola,Beja,Alentejo,-7.666953,37.626198
25100978,São Bartolomeu de Messines,Algarve,313,2025-03-17T17:40:00Z,25100978,Em curso,3313,Deslizamento de terras,0,1,0,5,2025-03-17T17:40:00Z,Silves,Faro,Algarve,-8.263888,37.291747
25063232,Santa Maria do Castelo e Santiago e Santa Susana,Alentejo Litoral,312,2025-03-09T19:02:00Z,25063232,Em conclusão,1101,Cheia,0,0,0,0,2025-03-09T19:02:00Z,Alcácer Do Sal,Setúbal,Alentejo,-8.48167,38.29806
25100453,Alpiarça,Lezíria do Tejo,311,2025-03-17T16:03:00Z,25100453,Em resolução,3315,Inundação de estruturas por precipitação intensa,0,3,0,5,2025-03-17T16:03:00Z,Alpiarça,Santarém,Alentejo,-8.595402,39.262022
25100688,Silves,Algarve,313,2025-03-17T16:50:00Z,25100688,Em curso,1103,Vento forte,0,0,0,0,2025-03-17T16:50:00Z,Silves,Faro,Algarve,-8.397682,37.214183
25100734,Monchique,Algarve,313,2025-03-17T16:41:00Z,25100734,Em despacho,3313,Deslizamento de terras,0,1,0,2,2025-03-17T16:41:00Z,Monchique,Faro,Algarve,-8.593188,37.290921
25100903,Portimão,Algarve,313,2025-03-17T17:16:00Z,25100903,Em curso,3311,Queda de elementos de estruturas edificados,0,1,0,5,2025-03-17T17:16:00Z,Portimão,Faro,Algarve,-8.53838,37.164977
25100935,São Bartolomeu de Messines,Algarve,313,2025-03-17T17:39:00Z,25100935,Em curso,3315,Inundação de estruturas por precipitação intensa,0,1,0,5,2025-03-17T17:39:00Z,Silves,Faro,Algarve,-8.324695,37.255622
25101020,Oliveira do Douro,Area M. Porto,309,2025-03-17T17:41:00Z,25101020,Em despacho,3315,Inundação de estruturas por precipitação intensa,0,1,0,2,2025-03-17T17:41:00Z,Vila Nova De Gaia,Porto,Norte,-8.585272,41.125484
25068300,Almeirim,Lezíria do Tejo,311,2025-03-10T20:52:00Z,25068300,Em curso,1101,Cheia,0,0,0,0,2025-03-10T20:52:00Z,Almeirim,Santarém,Alentejo,-8.635002,39.187436
25087870,Luzianes-Gare,Alentejo Litoral,312,2025-03-14T18:49:00Z,25087870,Em despacho,3313,Deslizamento de terras,0,1,0,1,2025-03-14T18:49:00Z,Odemira,Beja,Alentejo,-8.48633,37.589522
25096664,Santa Maria do Castelo e Santiago e Santa Susana,Alentejo Litoral,312,2025-03-16T20:53:00Z,25096664,Em resolução,1101,Cheia,0,1,0,1,2025-03-16T20:53:00Z,Alcácer Do Sal,Setúbal,Alentejo,-8.390827,38.447443
25099379,Sagres,Algarve,313,2025-03-17T12:49:00Z,25099379,Em despacho,3315,Inundação de estruturas por precipitação intensa,0,1,0,2,2025-03-17T12:49:00Z,Vila Do Bispo,Faro,Algarve,-8.944832,37.036479
25087162,Pedrógão,Baixo Alentejo,312,2025-03-14T17:00:00Z,25087162,Em curso,1101,Cheia,0,1,0,2,2025-03-14T17:00:00Z,Vidigueira,Beja,Alentejo,-7.630327,38.110775
25100941,Santa Luzia,Algarve,313,2025-03-17T17:45:00Z,25100941,Em curso,3301,Queda de árvore,0,1,0,4,2025-03-17T17:45:00Z,Tavira,Faro,Algarve,-7.660953,37.102587
25100950,Silves,Algarve,313,2025-03-17T17:29:00Z,25100950,Em conclusão,3309,Desabamento de estruturas edificadas,0,1,0,5,2025-03-17T17:29:00Z,Silves,Faro,Algarve,-8.443919,37.192295
25101036,Monchique,Algarve,313,2025-03-17T17:20:00Z,25101036,Em despacho,3313,Deslizamento de terras,0,1,0,1,2025-03-17T17:20:00Z,Monchique,Faro,Algarve,-8.567422,37.320753
