id,address,subregion,neighborhood,date,id.1,state,nature,nature_description,aerial_means,terrestrial_means,aquatic_means,operational,date.1,Concelho,Distrito,NUTII_DSG,longitude,latitude,state_2
25980131,Carva e Vilares,Douro,309,2025-09-12T14:27:00Z,25980131,Em Curso,3103,Incêndio rural,2,17,0,63,2025-09-12T14:27:00Z,Murça,Vila Real,Norte,-7.55901,41.401343,Curso
25980930,Santo André Das Tojeiras,Beira Baixa,310,2025-09-12T17:08:00Z,25980930,Em Resolução/Conclusão,3101,Incêndio rural,0,1,0,5,2025-09-12T17:08:00Z,Castelo Branco,Castelo Branco,Centro,-7.72701,39.809058,Resolução/Conclusão
25990708,Vialonga,Grande Lisboa,311,2025-09-14T20:34:00Z,25990708,Em Resolução/Conclusão,3103,Incêndio rural,0,1,0,5,2025-09-14T20:34:00Z,Vila Franca De Xira,Lisboa,Área Metropolitana De Lisboa,-9.07461,38.888188,Resolução/Conclusão
25993733,Covilhã e Canhoso,Beiras e Serra da Estrela,310,2025-09-15T13:28:00Z,25993733,Em Resolução/Conclusão,3103,Incêndio rural,0,5,0,10,2025-09-15T13:28:00Z,Covilhã,Castelo Branco,Centro,-7.482463,40.263355,Resolução/Conclusão
25994117,Fortios,Alto Alentejo,312,2025-09-15T14:38:00Z,25994117,Em Curso,3103,Incêndio rural,3,25,0,103,2025-09-15T14:38:00Z,Portalegre,Portalegre,Alentejo,-7.470015,39.279328,Curso
25993263,Quirás e Pinheiro Novo,Terras de Trás-os-Montes,309,2025-09-15T11:48:00Z,25993263,Em Resolução/Conclusão,3103,Incêndio rural,0,19,0,63,2025-09-15T11:48:00Z,Vinhais,Bragança,Norte,-7.145422,41.911408,Resolução/Conclusão
25993463,Silvares,Beiras e Serra da Estrela,310,2025-09-15T12:29:00Z,25993463,Em Resolução/Conclusão,3103,Incêndio rural,0,7,0,20,2025-09-15T12:29:00Z,Fundão,Castelo Branco,Centro,-7.674648,40.143207,Resolução/Conclusão
25994215,Bombarral e Vale Covo,Oeste,311,2025-09-15T14:50:00Z,25994215,Em Resolução/Conclusão,3111,Queima,0,2,0,7,2025-09-15T14:50:00Z,Bombarral,Leiria,Centro,-9.180908,39.239602,Resolução/Conclusão
25994490,São João de Ver,Area M. Porto,309,2025-09-15T15:41:00Z,25994490,Em Despacho,3103,Incêndio rural,0,2,0,7,2025-09-15T15:41:00Z,Santa Maria Da Feira,Aveiro,Norte,-8.549167,40.95385,Despacho
25951176,Sandomil,Beiras e Serra da Estrela,310,2025-09-06T10:29:00Z,25951176,Em Resolução/Conclusão,3103,Incêndio rural,0,6,0,30,2025-09-06T10:29:00Z,Seia,Guarda,Centro,-7.76001,40.351547,Resolução/Conclusão
25989064,Vila de Rei,Beira Baixa,310,2025-09-14T13:32:00Z,25989064,Em Resolução/Conclusão,3101,Incêndio rural,0,7,0,24,2025-09-14T13:32:00Z,Vila De Rei,Castelo Branco,Centro,-8.152412,39.660802,Resolução/Conclusão
25993557,Silvares,Beiras e Serra da Estrela,310,2025-09-15T12:43:00Z,25993557,Em Resolução/Conclusão,3103,Incêndio rural,0,0,0,0,2025-09-15T12:43:00Z,Covilhã,Castelo Branco,Centro,-7.675428,40.138862,Resolução/Conclusão
25994345,Maceira,Região de Leiria,310,2025-09-15T15:19:00Z,25994345,Em Resolução/Conclusão,3105,Incêndio rural,0,3,0,16,2025-09-15T15:19:00Z,Leiria,Leiria,Centro,-8.916223,39.678672,Resolução/Conclusão
25994479,Laranjeiro e Feijó,Península de Setúbal,311,2025-09-15T15:45:00Z,25994479,Em Despacho,3103,Incêndio rural,0,0,0,0,2025-09-15T15:45:00Z,Almada,Setúbal,Área Metropolitana De Lisboa,-9.170897,38.65185,Despacho
25832672,Piódão,Região de Coimbra,310,2025-08-13T05:08:00Z,25832672,Em Resolução/Conclusão,3103,Incêndio rural,0,0,0,0,2025-08-13T05:08:00Z,Arganil,Coimbra,Centro,-7.81972,40.23083,Resolução/Conclusão
25989850,Povolide,Viseu Dão Lafões,310,2025-09-14T16:49:00Z,25989850,Em Resolução/Conclusão,3103,Incêndio rural,0,1,0,5,2025-09-14T16:49:00Z,Viseu,Viseu,Centro,-7.785413,40.67811,Resolução/Conclusão
25993337,Folhadela,Douro,309,2025-09-15T12:03:00Z,25993337,Em Resolução/Conclusão,3103,Incêndio rural,0,5,0,11,2025-09-15T12:03:00Z,Vila Real,Vila Real,Norte,-7.727857,41.272708,Resolução/Conclusão
25993973,Santo André,Alto Tâmega e Barroso,309,2025-09-15T14:14:00Z,25993973,Em Resolução/Conclusão,3103,Incêndio rural,0,5,0,21,2025-09-15T14:14:00Z,Montalegre,Vila Real,Norte,-7.692303,41.87752,Resolução/Conclusão
25994448,Alfarela de Jales,Alto Tâmega e Barroso,309,2025-09-15T15:40:00Z,25994448,Em Despacho,3103,Incêndio rural,1,5,0,28,2025-09-15T15:40:00Z,Vila Pouca De Aguiar,Vila Real,Norte,-7.563936,41.452521,Despacho
