id,address,subregion,neighborhood,date,id.1,state,nature,nature_description,aerial_means,terrestrial_means,aquatic_means,operational,date.1,Concelho,Distrito,NUTII_DSG,longitude,latitude,state_2
25747334,Aboim da Nóbrega e Gondomar,Cávado,309,2025-07-28T15:08:00Z,25747334,Em Resolução/Conclusão,3103,Incêndio rural,0,6,0,22,2025-07-28T15:08:00Z,Vila Verde,Braga,Norte,-8.38607,41.734402,Resolução/Conclusão
25748118,Canelas e Espiunca,Area M. Porto,309,2025-07-28T17:16:00Z,25748118,Em Curso,3101,Incêndio rural,2,179,0,576,2025-07-28T17:16:00Z,Arouca,Aveiro,Norte,-8.212231,40.969918,Curso
25748672,Sopo,Alto Minho,309,2025-07-28T20:07:00Z,25748672,Em Resolução/Conclusão,3103,Incêndio rural,0,5,0,14,2025-07-28T20:07:00Z,Vila Nova De Cerveira,Viana Do Castelo,Norte,-8.76152,41.888527,Resolução/Conclusão
25749320,Rebordões (Santa Maria),Alto Minho,309,2025-07-28T22:47:00Z,25749320,Em Curso,3103,Incêndio rural,0,26,0,92,2025-07-28T22:47:00Z,Ponte De Lima,Viana Do Castelo,Norte,-8.588365,41.729993,Curso
25749641,Silva Escura e Dornelas,Região de Aveiro,310,2025-07-29T01:02:00Z,25749641,Em Resolução/Conclusão,3101,Incêndio rural,0,24,0,80,2025-07-29T01:02:00Z,Sever Do Vouga,Aveiro,Centro,-8.399623,40.769354,Resolução/Conclusão
25749824,Santa Marinha do Zêzere,Tâmega e Sousa,309,2025-07-29T02:46:00Z,25749824,Em Curso,3103,Incêndio rural,0,11,0,37,2025-07-29T02:46:00Z,Baião,Porto,Norte,-7.949183,41.161627,Curso
25749956,Recarei,Area M. Porto,309,2025-07-29T04:32:00Z,25749956,Em Resolução/Conclusão,3103,Incêndio rural,0,2,0,6,2025-07-29T04:32:00Z,Paredes,Porto,Norte,-8.41061,41.149365,Resolução/Conclusão
25750005,Lustosa e Barrosas (Santo Estêvão),Tâmega e Sousa,309,2025-07-29T05:33:00Z,25750005,Em Resolução/Conclusão,3103,Incêndio rural,0,0,0,0,2025-07-29T05:33:00Z,Lousada,Porto,Norte,-8.31455,41.32854,Resolução/Conclusão
25750024,Fradelos,Ave,309,2025-07-29T05:49:00Z,25750024,Em Resolução/Conclusão,3103,Incêndio rural,0,2,0,7,2025-07-29T05:49:00Z,Vila Nova De Famalicão,Braga,Norte,-8.588707,41.36628,Resolução/Conclusão
25750259,Boelhe,Tâmega e Sousa,309,2025-07-29T07:49:00Z,25750259,Em Resolução/Conclusão,3103,Incêndio rural,0,1,0,5,2025-07-29T07:49:00Z,Penafiel,Porto,Norte,-8.23537,41.13739,Resolução/Conclusão
25737642,Aboim da Nóbrega e Gondomar,Cávado,309,2025-07-26T17:54:00Z,25737642,Em Resolução/Conclusão,3103,Incêndio rural,0,0,0,0,2025-07-26T17:54:00Z,Vila Verde,Braga,Norte,-8.38607,41.734402,Resolução/Conclusão
25744328,Vila Facaia,Região de Leiria,310,2025-07-28T04:00:00Z,25744328,Em Resolução/Conclusão,3101,Incêndio rural,0,1,0,2,2025-07-28T04:00:00Z,Pedrógão Grande,Leiria,Centro,-8.197592,39.93944,Resolução/Conclusão
25744346,Pedrógão Grande,Região de Leiria,310,2025-07-28T04:18:00Z,25744346,Em Resolução/Conclusão,3101,Incêndio rural,0,1,0,2,2025-07-28T04:18:00Z,Pedrógão Grande,Leiria,Centro,-8.18142,39.926725,Resolução/Conclusão
25749937,Tarouquela,Tâmega e Sousa,309,2025-07-29T04:11:00Z,25749937,Em Curso,3103,Incêndio rural,0,10,0,36,2025-07-29T04:11:00Z,Cinfães,Viseu,Norte,-8.173308,41.072792,Curso
25750171,Treixedo e Nagozela,Viseu Dão Lafões,310,2025-07-29T07:26:00Z,25750171,Em Resolução/Conclusão,3103,Incêndio rural,0,2,0,10,2025-07-29T07:26:00Z,Santa Comba Dão,Viseu,Centro,-8.07185,40.44975,Resolução/Conclusão
25750444,Pedrógão Grande,Região de Leiria,310,2025-07-29T08:31:00Z,25750444,Em Resolução/Conclusão,3101,Incêndio rural,1,5,0,18,2025-07-29T08:31:00Z,Pedrógão Grande,Leiria,Centro,-8.177567,39.933038,Resolução/Conclusão
25750503,Campos e Vila Meã,Alto Minho,309,2025-07-29T08:35:00Z,25750503,Em Resolução/Conclusão,3105,Incêndio rural,0,1,0,4,2025-07-29T08:35:00Z,Vila Nova De Cerveira,Viana Do Castelo,Norte,-8.700745,41.967555,Resolução/Conclusão
25750537,Castelo Branco,Beira Baixa,310,2025-07-29T08:51:00Z,25750537,Em Curso,3103,Incêndio rural,1,9,0,38,2025-07-29T08:51:00Z,Castelo Branco,Castelo Branco,Centro,-7.449539,39.76635,Curso
25747108,Melides,Alentejo Litoral,312,2025-07-28T14:39:00Z,25747108,Em Resolução/Conclusão,3101,Incêndio rural,0,0,0,0,2025-07-28T14:39:00Z,Grândola,Setúbal,Alentejo,-8.752402,38.123636,Resolução/Conclusão
25749681,Fornos de Maceira Dão,Viseu Dão Lafões,310,2025-07-29T01:19:00Z,25749681,Em Curso,3103,Incêndio rural,2,45,0,173,2025-07-29T01:19:00Z,Mangualde,Viseu,Centro,-7.806963,40.617022,Curso
25749831,Valdreu,Cávado,309,2025-07-29T02:54:00Z,25749831,Em Resolução/Conclusão,3103,Incêndio rural,0,1,0,5,2025-07-29T02:54:00Z,Vila Verde,Braga,Norte,-8.326492,41.720598,Resolução/Conclusão
25749898,Borba de Montanha,Tâmega e Sousa,309,2025-07-29T03:41:00Z,25749898,Em Resolução/Conclusão,3103,Incêndio rural,0,3,0,12,2025-07-29T03:41:00Z,Celorico De Basto,Braga,Norte,-8.099557,41.380222,Resolução/Conclusão
25750015,"Sandim, Olival, Lever e Crestuma",Area M. Porto,309,2025-07-29T05:42:00Z,25750015,Em Resolução/Conclusão,3103,Incêndio rural,0,1,0,5,2025-07-29T05:42:00Z,Vila Nova De Gaia,Porto,Norte,-8.520807,41.031065,Resolução/Conclusão
25750366,Portela,Alto Minho,309,2025-07-29T07:45:00Z,25750366,Em Curso,3103,Incêndio rural,0,3,0,8,2025-07-29T07:45:00Z,Monção,Viana Do Castelo,Norte,-8.479047,41.976007,Curso
25738747,Lindoso,Alto Minho,309,2025-07-26T21:47:00Z,25738747,Em Curso,3103,Incêndio rural,0,126,0,388,2025-07-26T21:47:00Z,Ponte Da Barca,Viana Do Castelo,Norte,-8.220528,41.865272,Curso
25741880,Benavila e Valongo,Alto Alentejo,312,2025-07-27T14:31:00Z,25741880,Em Resolução/Conclusão,3101,Incêndio rural,0,3,0,9,2025-07-27T14:31:00Z,Avis,Portalegre,Alentejo,-7.866293,39.19533,Resolução/Conclusão
25747773,Aranhas,Beira Baixa,310,2025-07-28T16:36:00Z,25747773,Em Curso,3103,Incêndio rural,5,137,0,401,2025-07-28T16:36:00Z,Penamacor,Castelo Branco,Centro,-7.14438,40.117542,Curso
25749611,Sameice e Santa Eulália,Beiras e Serra da Estrela,310,2025-07-29T00:44:00Z,25749611,Em Resolução/Conclusão,3103,Incêndio rural,0,3,0,12,2025-07-29T00:44:00Z,Seia,Guarda,Centro,-7.77621,40.42021,Resolução/Conclusão
25749802,Gandra e Taião,Alto Minho,309,2025-07-29T02:30:00Z,25749802,Em Resolução/Conclusão,3103,Incêndio rural,0,9,0,28,2025-07-29T02:30:00Z,Valença,Viana Do Castelo,Norte,-8.59159,42.012522,Resolução/Conclusão
25750038,Paderne,Alto Minho,309,2025-07-29T05:49:00Z,25750038,Em Resolução/Conclusão,3101,Incêndio rural,0,4,0,13,2025-07-29T05:49:00Z,Melgaço,Viana Do Castelo,Norte,-8.28068,42.101137,Resolução/Conclusão
25750086,Cervães,Cávado,309,2025-07-29T06:42:00Z,25750086,Em Resolução/Conclusão,3103,Incêndio rural,0,3,0,15,2025-07-29T06:42:00Z,Vila Verde,Braga,Norte,-8.533422,41.5926,Resolução/Conclusão
25750177,Venteira,Grande Lisboa,311,2025-07-29T07:23:00Z,25750177,Em Resolução/Conclusão,3103,Incêndio rural,0,1,0,5,2025-07-29T07:23:00Z,Amadora,Lisboa,Área Metropolitana De Lisboa,-9.240965,38.755077,Resolução/Conclusão
