id,address,subregion,neighborhood,date,id.1,state,nature,nature_description,aerial_means,terrestrial_means,aquatic_means,operational,date.1,Concelho,Distrito,NUTII_DSG,longitude,latitude
24777071,Pedrógão Grande,Região de Leiria,310,2025-01-05T13:18:00Z,24777071,Em conclusão,3309,Desabamento de estruturas edificadas,0,1,0,1,2025-01-05T13:18:00Z,Pedrógão Grande,Leiria,Centro,-8.177567,39.933038
24779084,Tavira (Santa Maria e Santiago),Algarve,313,2025-01-05T21:45:00Z,24779084,Em despacho,3329,Queda de estruturas temporárias ou móveis,0,1,0,4,2025-01-05T21:45:00Z,Tavira,Faro,Algarve,-7.64691,37.130442
24778999,São Jorge e Ermelo,Alto Minho,309,2025-01-05T21:28:00Z,24778999,Em despacho,3301,Queda de árvore,0,1,0,2,2025-01-05T21:28:00Z,Arcos De Valdevez,Viana Do Castelo,Norte,-8.354722,41.81889
24778994,Touvedo (São Lourenço e Salvador),Alto Minho,309,2025-01-05T21:22:00Z,24778994,Em conclusão,3301,Queda de árvore,0,1,0,2,2025-01-05T21:22:00Z,Ponte Da Barca,Viana Do Castelo,Norte,-8.344845,41.807
24779078,Beja (Salvador e Santa Maria da Feira),Baixo Alentejo,312,2025-01-05T21:50:00Z,24779078,Em despacho,3315,Inundação de estruturas por precipitação intensa,0,1,0,2,2025-01-05T21:50:00Z,Beja,Beja,Alentejo,-7.85522,38.015879
24779079,Arcozelo,Alto Minho,309,2025-01-05T21:45:00Z,24779079,Em despacho,3301,Queda de árvore,0,1,0,3,2025-01-05T21:45:00Z,Ponte De Lima,Viana Do Castelo,Norte,-8.597727,41.791041
