id,address,subregion,neighborhood,date,id.1,state,nature,nature_description,aerial_means,terrestrial_means,aquatic_means,operational,date.1,Concelho,Distrito,NUTII_DSG,longitude,latitude,state_2
25712338,Cercal,Alentejo Litoral,312,2025-07-21T17:38:00Z,25712338,Em Resolução/Conclusão,3103,Incêndio rural,0,8,0,23,2025-07-21T17:38:00Z,Santiago Do Cacém,Setúbal,Alentejo,-8.682272,37.791582,Resolução/Conclusão
25721930,Vilar de Perdizes e Meixide,Alto Tâmega e Barroso,309,2025-07-23T16:21:00Z,25721930,Em Resolução/Conclusão,3103,Incêndio rural,4,42,0,134,2025-07-23T16:21:00Z,NA,NA,NA,-7.618655,41.886193,Resolução/Conclusão
25725056,Pedrógão Pequeno,Beira Baixa,310,2025-07-24T10:16:00Z,25725056,Em Resolução/Conclusão,3101,Incêndio rural,1,8,0,37,2025-07-24T10:16:00Z,Sertã,Castelo Branco,Centro,-8.109729,39.884411,Resolução/Conclusão
25721619,Costa da Caparica,Península de Setúbal,311,2025-07-23T15:11:00Z,25721619,Em Resolução/Conclusão,3103,Incêndio rural,0,5,0,14,2025-07-23T15:11:00Z,Almada,Setúbal,Área Metropolitana De Lisboa,-9.21697,38.61683,Resolução/Conclusão
25725296,Valada,Lezíria do Tejo,311,2025-07-24T11:00:00Z,25725296,Em Resolução/Conclusão,3103,Incêndio rural,0,6,0,19,2025-07-24T11:00:00Z,Cartaxo,Santarém,Alentejo,-8.777107,39.113438,Resolução/Conclusão
25725448,Ferreira do Alentejo e Canhestros,Baixo Alentejo,312,2025-07-24T11:29:00Z,25725448,Em Curso,3105,Incêndio rural,0,10,0,32,2025-07-24T11:29:00Z,Ferreira Do Alentejo,Beja,Alentejo,-8.139218,38.07651,Curso
25720797,"Lavandeira, Beira Grande e Selores",Douro,309,2025-07-23T12:23:00Z,25720797,Em Resolução/Conclusão,3103,Incêndio rural,0,14,0,40,2025-07-23T12:23:00Z,Carrazeda De Ansiães,Bragança,Norte,-7.304242,41.205575,Resolução/Conclusão
25724141,Guarda,Beiras e Serra da Estrela,310,2025-07-24T06:38:00Z,25724141,Em Resolução/Conclusão,3103,Incêndio rural,0,2,0,10,2025-07-24T06:38:00Z,Guarda,Guarda,Centro,-7.230727,40.539547,Resolução/Conclusão
25725461,Malpica do Tejo,Beira Baixa,310,2025-07-24T11:33:00Z,25725461,Em Curso,3105,Incêndio rural,2,12,0,47,2025-07-24T11:33:00Z,Castelo Branco,Castelo Branco,Centro,-7.394,39.6845,Curso
25720932,Bouro (Santa Marta),Cávado,309,2025-07-23T12:54:00Z,25720932,Em Resolução/Conclusão,3101,Incêndio rural,0,3,0,10,2025-07-23T12:54:00Z,Amares,Braga,Norte,-8.283857,41.671897,Resolução/Conclusão
25721382,Unhais da Serra,Beiras e Serra da Estrela,310,2025-07-23T14:29:00Z,25721382,Em Resolução/Conclusão,3105,Incêndio rural,0,2,0,6,2025-07-23T14:29:00Z,Covilhã,Castelo Branco,Centro,-7.61948,40.25114,Resolução/Conclusão
25724374,Azias,Alto Minho,309,2025-07-24T08:12:00Z,25724374,Em Resolução/Conclusão,3103,Incêndio rural,0,2,0,8,2025-07-24T08:12:00Z,Ponte Da Barca,Viana Do Castelo,Norte,-8.359397,41.776477,Resolução/Conclusão
25725153,Troviscal,Beira Baixa,310,2025-07-24T10:31:00Z,25725153,Em Resolução/Conclusão,3101,Incêndio rural,0,4,0,14,2025-07-24T10:31:00Z,Sertã,Castelo Branco,Centro,-8.075827,39.882598,Resolução/Conclusão
25725251,Pedrógão Pequeno,Beira Baixa,310,2025-07-24T10:52:00Z,25725251,Em Curso,3101,Incêndio rural,7,40,0,172,2025-07-24T10:52:00Z,Sertã,Castelo Branco,Centro,-8.071355,39.92276,Curso
25725487,Torreira,Região de Aveiro,310,2025-07-24T11:36:00Z,25725487,Em Resolução/Conclusão,3103,Incêndio rural,0,5,0,18,2025-07-24T11:36:00Z,Murtosa,Aveiro,Centro,-8.694958,40.77674,Resolução/Conclusão
