id,address,subregion,neighborhood,date,id.1,state,nature,nature_description,aerial_means,terrestrial_means,aquatic_means,operational,date.1,Concelho,Distrito,NUTII_DSG,longitude,latitude
24700523,"Mogadouro, Valverde, Vale de Porco e Vilar de Rei",Terras de Trás-os-Montes,309,2024-12-19T09:30:00Z,24700523,Em despacho,3301,Queda de árvore,0,3,0,5,2024-12-19T09:30:00Z,Mogadouro,Bragança,Norte,-6.706687,41.339826
24701693,"Póvoa de Varzim, Beiriz e Argivai",Area M. Porto,309,2024-12-19T13:00:00Z,24701693,Em despacho,3317,Inundação de estruturas por água canalizada,0,1,0,1,2024-12-19T13:00:00Z,Póvoa De Varzim,Porto,Norte,-8.741711,41.385553
24702428,Lousã e Vilarinho,Região de Coimbra,310,2024-12-19T15:32:00Z,24702428,Em despacho,3301,Queda de árvore,0,1,0,3,2024-12-19T15:32:00Z,Lousã,Coimbra,Centro,-8.23865,40.093306
24702337,"Gondomar (São Cosme), Valbom e Jovim",Area M. Porto,309,2024-12-19T15:11:00Z,24702337,Em conclusão,3301,Queda de árvore,0,0,0,0,2024-12-19T15:11:00Z,Gondomar,Porto,Norte,-8.535295,41.129255
24702431,"Sé Nova, Santa Cruz, Almedina e São Bartolomeu",Região de Coimbra,310,2024-12-19T15:24:00Z,24702431,Em despacho,3317,Inundação de estruturas por água canalizada,0,1,0,2,2024-12-19T15:24:00Z,Coimbra,Coimbra,Centro,-8.425582,40.205556
