id,address,subregion,neighborhood,date,id.1,state,nature,nature_description,aerial_means,terrestrial_means,aquatic_means,operational,date.1,Concelho,Distrito,NUTII_DSG,longitude,latitude
25525290,Selmes,Baixo Alentejo,312,2025-06-14T16:14:00Z,25525290,Em conclusão,3105,Incêndio rural,0,23,0,60,2025-06-14T16:14:00Z,Vidigueira,Beja,Alentejo,-7.724372,38.135682
25526878,Beja (Salvador e Santa Maria da Feira),Baixo Alentejo,312,2025-06-14T23:30:00Z,25526878,Em despacho,3105,Incêndio rural,0,3,0,13,2025-06-14T23:30:00Z,Beja,Beja,Alentejo,-7.857487,38.018587
25526548,Colares,Grande Lisboa,311,2025-06-14T21:52:00Z,25526548,Em curso,2201,Incêndio em equipamentos ou produtos,0,2,0,6,2025-06-14T21:52:00Z,Sintra,Lisboa,Área Metropolitana De Lisboa,-9.493446,38.78241
25525049,Beja (Salvador e Santa Maria da Feira),Baixo Alentejo,312,2025-06-14T15:10:00Z,25525049,Em conclusão,3105,Incêndio rural,0,0,0,0,2025-06-14T15:10:00Z,Beja,Beja,Alentejo,-7.860185,38.027045
25526687,Santo Estêvão,Lezíria do Tejo,311,2025-06-14T22:38:00Z,25526687,Em curso,3103,Incêndio rural,0,8,0,27,2025-06-14T22:38:00Z,Benavente,Santarém,Alentejo,-8.752147,38.871665
25526853,Guarda,Beiras e Serra da Estrela,310,2025-06-14T23:23:00Z,25526853,Em despacho,3103,Incêndio rural,0,5,0,19,2025-06-14T23:23:00Z,Guarda,Guarda,Centro,-7.260869,40.536751
25525879,Ermelo e Pardelhas,Ave,309,2025-06-14T18:47:00Z,25525879,Em resolução,3107,Consolidação de rescaldo de incêndio rural,0,2,0,7,2025-06-14T18:47:00Z,Mondim De Basto,Vila Real,Norte,-7.835478,41.355555
25525906,Lagos (São Sebastião e Santa Maria),Algarve,313,2025-06-14T18:58:00Z,25525906,Em conclusão,3103,Incêndio rural,0,1,0,5,2025-06-14T18:58:00Z,Lagos,Faro,Algarve,-8.677873,37.141095
25526767,Luz,Algarve,313,2025-06-14T22:57:00Z,25526767,Em conclusão,3203,Detritos confinados,0,1,0,5,2025-06-14T22:57:00Z,Lagos,Faro,Algarve,-8.730007,37.08602
25526858,Guarda,Beiras e Serra da Estrela,310,2025-06-14T23:16:00Z,25526858,Em despacho,3203,Detritos confinados,0,1,0,2,2025-06-14T23:16:00Z,Guarda,Guarda,Centro,-7.260869,40.536751
25526885,Vila Nova de Famalicão e Calendário,Ave,309,2025-06-14T23:34:00Z,25526885,Em despacho,2201,Incêndio em equipamentos ou produtos,0,2,0,7,2025-06-14T23:34:00Z,Vila Nova De Famalicão,Braga,Norte,-8.530915,41.39878
