id,address,subregion,neighborhood,date,id.1,state,nature,nature_description,aerial_means,terrestrial_means,aquatic_means,operational,date.1,Concelho,Distrito,NUTII_DSG,longitude,latitude
24851821,Santa Maria do Castelo e Santiago e Santa Susana,Alentejo Litoral,312,2025-01-21T23:41:00Z,24851821,Em resolução,1103,Vento forte,0,11,0,21,2025-01-21T23:41:00Z,Alcácer Do Sal,Setúbal,Alentejo,-8.598678,38.397168
24852523,São Brás de Alportel,Algarve,313,2025-01-22T07:34:00Z,24852523,Em despacho,3315,Inundação de estruturas por precipitação intensa,0,0,0,0,2025-01-22T07:34:00Z,São Brás De Alportel,Faro,Algarve,-7.89716,37.17049
24853594,Santiago da Guarda,Região de Leiria,310,2025-01-22T10:45:00Z,24853594,Em curso,3315,Inundação de estruturas por precipitação intensa,0,1,0,1,2025-01-22T10:45:00Z,Ansião,Leiria,Centro,-8.467569,39.906443
24853778,Torrão,Alentejo Litoral,312,2025-01-22T11:18:00Z,24853778,Em despacho,3301,Queda de árvore,0,1,0,3,2025-01-22T11:18:00Z,Alcácer Do Sal,Setúbal,Alentejo,-8.213722,38.257947
24853129,Soutelo de Aguiar,Alto Tâmega e Barroso,309,2025-01-22T09:41:00Z,24853129,Em despacho,3315,Inundação de estruturas por precipitação intensa,0,1,0,5,2025-01-22T09:41:00Z,Vila Pouca De Aguiar,Vila Real,Norte,-7.665087,41.468356
24853204,São Brás de Alportel,Algarve,313,2025-01-22T09:55:00Z,24853204,Em despacho,3315,Inundação de estruturas por precipitação intensa,0,1,0,4,2025-01-22T09:55:00Z,São Brás De Alportel,Faro,Algarve,-7.861824,37.138335
24853352,Santa Bárbara de Nexe,Algarve,313,2025-01-22T09:30:00Z,24853352,Em curso,3315,Inundação de estruturas por precipitação intensa,0,1,0,2,2025-01-22T09:30:00Z,Faro,Faro,Algarve,-7.921522,37.121336
24853976,Loulé (São Sebastião),Algarve,313,2025-01-22T12:02:00Z,24853976,Em conclusão,3313,Deslizamento de terras,0,1,0,3,2025-01-22T12:02:00Z,Loulé,Faro,Algarve,-8.053183,37.111585
24854025,Santa Marinha e São Pedro da Afurada,Area M. Porto,309,2025-01-22T12:15:00Z,24854025,Em despacho,3311,Queda de elementos de estruturas edificados,0,2,0,6,2025-01-22T12:15:00Z,Vila Nova De Gaia,Porto,Norte,-8.62617,41.13819
24854209,Alvega e Concavada,Médio Tejo,311,2025-01-22T12:47:00Z,24854209,Em despacho,3315,Inundação de estruturas por precipitação intensa,0,0,0,0,2025-01-22T12:47:00Z,Abrantes,Santarém,Centro,-8.05361,39.46445
24854242,"Ovar, São João, Arada e São Vicente de Pereira Jusã",Região de Aveiro,310,2025-01-22T12:54:00Z,24854242,Em despacho,3315,Inundação de estruturas por precipitação intensa,0,1,0,2,2025-01-22T12:54:00Z,Ovar,Aveiro,Centro,-8.632482,40.864029
24854279,Abrigada e Cabanas de Torres,Oeste,311,2025-01-22T13:00:00Z,24854279,Em curso,3315,Inundação de estruturas por precipitação intensa,0,1,0,5,2025-01-22T13:00:00Z,Alenquer,Lisboa,Centro,-9.029641,39.148386
24854311,Peniche,Oeste,311,2025-01-22T13:00:00Z,24854311,Em despacho,3321,Dano na rede de fornecimento de eletricidade ,0,1,0,2,2025-01-22T13:00:00Z,Peniche,Leiria,Centro,-9.376833,39.357166
24854312,São Brás de Alportel,Algarve,313,2025-01-22T12:39:00Z,24854312,Em despacho,3315,Inundação de estruturas por precipitação intensa,0,1,0,4,2025-01-22T12:39:00Z,São Brás De Alportel,Faro,Algarve,-7.870754,37.15998
24854328,Alcanede,Lezíria do Tejo,311,2025-01-22T13:13:00Z,24854328,Em despacho,3313,Deslizamento de terras,0,1,0,2,2025-01-22T13:13:00Z,Santarém,Santarém,Alentejo,-8.86109,39.408377
24851780,"São Miguel, Santa Eufémia e Rabaçal",Região de Coimbra,310,2025-01-21T23:25:00Z,24851780,Em curso,3315,Inundação de estruturas por precipitação intensa,0,0,0,0,2025-01-21T23:25:00Z,Penela,Coimbra,Centro,-8.399036,40.025502
24852597,São Brás de Alportel,Algarve,313,2025-01-22T08:04:00Z,24852597,Em curso,3315,Inundação de estruturas por precipitação intensa,0,0,0,0,2025-01-22T08:04:00Z,São Brás De Alportel,Faro,Algarve,-7.90377,37.15284
24853617,"Sé, Santa Maria e Meixedo",Terras de Trás-os-Montes,309,2025-01-22T10:28:00Z,24853617,Em despacho,3315,Inundação de estruturas por precipitação intensa,0,1,0,1,2025-01-22T10:28:00Z,Bragança,Bragança,Norte,-6.761223,41.813164
24853902,"Freixianda, Ribeira do Fárrio e Formigais",Médio Tejo,311,2025-01-22T11:54:00Z,24853902,Em curso,3315,Inundação de estruturas por precipitação intensa,0,1,0,4,2025-01-22T11:54:00Z,Ourém,Santarém,Centro,-8.481177,39.769072
24854033,Fátima,Médio Tejo,311,2025-01-22T12:16:00Z,24854033,Em resolução,3315,Inundação de estruturas por precipitação intensa,0,2,0,6,2025-01-22T12:16:00Z,Ourém,Santarém,Centro,-8.621916,39.574455
24854169,Luz de Tavira e Santo Estêvão,Algarve,313,2025-01-22T12:31:00Z,24854169,Em despacho,3315,Inundação de estruturas por precipitação intensa,0,1,0,3,2025-01-22T12:31:00Z,Tavira,Faro,Algarve,-7.714632,37.093757
24854170,Seiça,Médio Tejo,311,2025-01-22T12:41:00Z,24854170,Em despacho,3313,Deslizamento de terras,0,5,0,8,2025-01-22T12:41:00Z,Ourém,Santarém,Centro,-8.542209,39.675639
24854074,Nelas,Viseu Dão Lafões,310,2025-01-22T12:22:00Z,24854074,Em despacho,3315,Inundação de estruturas por precipitação intensa,0,1,0,3,2025-01-22T12:22:00Z,Nelas,Viseu,Centro,-7.848666,40.536085
24854106,"Mação, Penhascoso e Aboboreira",Médio Tejo,311,2025-01-22T12:29:00Z,24854106,Em resolução,3309,Desabamento de estruturas edificadas,0,2,0,7,2025-01-22T12:29:00Z,Mação,Santarém,Centro,-8.02605,39.50887
24854138,São Brás de Alportel,Algarve,313,2025-01-22T12:10:00Z,24854138,Em despacho,3315,Inundação de estruturas por precipitação intensa,0,1,0,1,2025-01-22T12:10:00Z,São Brás De Alportel,Faro,Algarve,-7.941541,37.215079
24854156,Arganil,Região de Coimbra,310,2025-01-22T12:38:00Z,24854156,Em despacho,3301,Queda de árvore,0,1,0,5,2025-01-22T12:38:00Z,Arganil,Coimbra,Centro,-8.069689,40.205912
24854163,"Algés, Linda-a-Velha e Cruz Quebrada-Dafundo",Grande Lisboa,311,2025-01-22T12:32:00Z,24854163,Em resolução,3301,Queda de árvore,0,1,0,5,2025-01-22T12:32:00Z,Oeiras,Lisboa,Área Metropolitana De Lisboa,-9.250524,38.707224
24854249,Nossa Senhora da Piedade,Médio Tejo,311,2025-01-22T12:55:00Z,24854249,Em despacho,3315,Inundação de estruturas por precipitação intensa,0,1,0,1,2025-01-22T12:55:00Z,Ourém,Santarém,Centro,-8.577082,39.6611
24854272,Riachos,Médio Tejo,311,2025-01-22T13:00:00Z,24854272,Em curso,3315,Inundação de estruturas por precipitação intensa,0,1,0,2,2025-01-22T13:00:00Z,Torres Novas,Santarém,Centro,-8.515126,39.421796
24852551,Alvorge,Região de Leiria,310,2025-01-22T07:38:00Z,24852551,Em despacho,3315,Inundação de estruturas por precipitação intensa,0,1,0,4,2025-01-22T07:38:00Z,Ansião,Leiria,Centro,-8.437457,39.972271
24853339,Minde,Médio Tejo,311,2025-01-22T10:23:00Z,24853339,Em curso,3315,Inundação de estruturas por precipitação intensa,0,1,0,5,2025-01-22T10:23:00Z,Alcanena,Santarém,Centro,-8.691237,39.511095
24853598,Ventosa,Viseu Dão Lafões,310,2025-01-22T11:02:00Z,24853598,Em despacho,3301,Queda de árvore,0,2,0,6,2025-01-22T11:02:00Z,Vouzela,Viseu,Centro,-8.104723,40.710228
24853687,Monchique,Algarve,313,2025-01-22T10:45:00Z,24853687,Em conclusão,3301,Queda de árvore,0,1,0,1,2025-01-22T10:45:00Z,Monchique,Faro,Algarve,-8.565129,37.314454
24854146,Alvaiázere,Região de Leiria,310,2025-01-22T12:25:00Z,24854146,Em despacho,3315,Inundação de estruturas por precipitação intensa,0,1,0,2,2025-01-22T12:25:00Z,Alvaiázere,Leiria,Centro,-8.41696,39.828223
24854223,Figueiró Dos Vinhos e Bairradas,Região de Leiria,310,2025-01-22T12:00:00Z,24854223,Em despacho,3313,Deslizamento de terras,0,2,0,6,2025-01-22T12:00:00Z,Figueiró Dos Vinhos,Leiria,Centro,-8.292159,39.908619
24854225,Benespera,Beiras e Serra da Estrela,310,2025-01-22T12:51:00Z,24854225,Em despacho,3315,Inundação de estruturas por precipitação intensa,0,2,0,3,2025-01-22T12:51:00Z,Guarda,Guarda,Centro,-7.27193,40.43707
24854307,Vila Nova da Telha,Area M. Porto,309,2025-01-22T13:06:00Z,24854307,Em curso,3311,Queda de elementos de estruturas edificados,0,1,0,4,2025-01-22T13:06:00Z,Maia,Porto,Norte,-8.67638,41.248935
24854323,Avis,Alto Alentejo,312,2025-01-22T13:11:00Z,24854323,Em resolução,3301,Queda de árvore,0,2,0,7,2025-01-22T13:11:00Z,Avis,Portalegre,Alentejo,-7.930204,39.084703
24854330,Avis,Alto Alentejo,312,2025-01-22T13:00:00Z,24854330,Em resolução,3301,Queda de árvore,0,2,0,7,2025-01-22T13:00:00Z,Avis,Portalegre,Alentejo,-7.873917,39.04371
24854332,Penhalonga e Paços de Gaiolo,Tâmega e Sousa,309,2025-01-22T13:14:00Z,24854332,Em despacho,3313,Deslizamento de terras,0,0,0,0,2025-01-22T13:14:00Z,Marco De Canaveses,Porto,Norte,-8.12556,41.09254
24854251,Tortosendo,Beiras e Serra da Estrela,310,2025-01-22T12:40:00Z,24854251,Em despacho,3315,Inundação de estruturas por precipitação intensa,0,1,0,4,2025-01-22T12:40:00Z,Covilhã,Castelo Branco,Centro,-7.516167,40.239413
24854253,Mouriscas,Médio Tejo,311,2025-01-22T12:56:00Z,24854253,Em despacho,3315,Inundação de estruturas por precipitação intensa,0,1,0,2,2025-01-22T12:56:00Z,Abrantes,Santarém,Centro,-8.1005490000000009,39.502529
24854337,Belmonte e Colmeal da Torre,Beiras e Serra da Estrela,310,2025-01-22T13:13:00Z,24854337,Em despacho,3315,Inundação de estruturas por precipitação intensa,0,1,0,4,2025-01-22T13:13:00Z,Belmonte,Castelo Branco,Centro,-7.345417,40.371661
