id,address,subregion,neighborhood,date,id.1,state,nature,nature_description,aerial_means,terrestrial_means,aquatic_means,operational,date.1,Concelho,Distrito,NUTII_DSG,longitude,latitude
25582458,Caldas de São Jorge e Pigeiros,Area M. Porto,309,2025-06-26T11:28:00Z,25582458,Em conclusão,3101,Incêndio rural,0,1,0,4,2025-06-26T11:28:00Z,Santa Maria Da Feira,Aveiro,Norte,-8.489392,40.943803
25582505,Gulpilhares e Valadares,Area M. Porto,309,2025-06-26T09:18:00Z,25582505,Em conclusão,3103,Incêndio rural,0,1,0,2,2025-06-26T09:18:00Z,Vila Nova De Gaia,Porto,Norte,-8.635397,41.091832
25582755,Cendufe,Alto Minho,309,2025-06-26T12:34:00Z,25582755,Em curso,3107,Consolidação de rescaldo de incêndio rural,0,1,0,4,2025-06-26T12:34:00Z,Arcos De Valdevez,Viana Do Castelo,Norte,-8.485993,41.800868
25582825,Cabanelas,Cávado,309,2025-06-26T12:49:00Z,25582825,Em conclusão,3103,Incêndio rural,0,3,0,8,2025-06-26T12:49:00Z,Vila Verde,Braga,Norte,-8.486263,41.59424
25582873,Rossas,Ave,309,2025-06-26T12:59:00Z,25582873,Em despacho,3107,Consolidação de rescaldo de incêndio rural,0,1,0,5,2025-06-26T12:59:00Z,Vieira Do Minho,Braga,Norte,-8.118495,41.598417
25582875,Chã,Alto Tâmega e Barroso,309,2025-06-26T12:51:00Z,25582875,Em conclusão,3103,Incêndio rural,0,2,0,10,2025-06-26T12:51:00Z,Montalegre,Vila Real,Norte,-7.80278,41.789013
25583151,Setúbal (São Sebastião),Península de Setúbal,311,2025-06-26T13:43:00Z,25583151,Em curso,3203,Detritos confinados,0,1,0,5,2025-06-26T13:43:00Z,Setúbal,Setúbal,Área Metropolitana De Lisboa,-8.862337,38.527365
25581155,Azambuja,Lezíria do Tejo,311,2025-06-26T07:29:00Z,25581155,Em despacho,3109,Gestão de combustível,0,1,0,4,2025-06-26T07:29:00Z,Azambuja,Lisboa,Alentejo,-8.898558,39.118107
25582141,Parada de Todeia,Area M. Porto,309,2025-06-26T10:37:00Z,25582141,Em conclusão,3103,Incêndio rural,0,1,0,2,2025-06-26T10:37:00Z,Paredes,Porto,Norte,-8.37966,41.170285
25582945,Vila de Frades,Baixo Alentejo,312,2025-06-26T13:06:00Z,25582945,Em conclusão,3105,Incêndio rural,0,4,0,10,2025-06-26T13:06:00Z,Vidigueira,Beja,Alentejo,-7.825353,38.21638
25582628,Coura,Alto Minho,309,2025-06-26T12:07:00Z,25582628,Em curso,3107,Consolidação de rescaldo de incêndio rural,0,1,0,3,2025-06-26T12:07:00Z,Paredes De Coura,Viana Do Castelo,Norte,-8.651819,41.888747
25582719,"Azinhal, Peva e Valverde",Beiras e Serra da Estrela,310,2025-06-26T12:28:00Z,25582719,Em conclusão,3103,Incêndio rural,0,1,0,2,2025-06-26T12:28:00Z,Almeida,Guarda,Centro,-6.96825,40.64631
25583105,Penafiel,Tâmega e Sousa,309,2025-06-26T13:43:00Z,25583105,Em conclusão,3203,Detritos confinados,0,1,0,4,2025-06-26T13:43:00Z,Penafiel,Porto,Norte,-8.26219,41.216092
