id,address,subregion,neighborhood,date,id.1,state,nature,nature_description,aerial_means,terrestrial_means,aquatic_means,operational,date.1,Concelho,Distrito,NUTII_DSG,longitude,latitude
25059714,Torrão,Alentejo Litoral,312,2025-03-08T22:10:00Z,25059714,Em curso,1101,Cheia,0,1,0,2,2025-03-08T22:10:00Z,Alcácer Do Sal,Setúbal,Alentejo,-8.359133,38.252053
25070044,Praia do Ribatejo,Médio Tejo,311,2025-03-10T19:30:00Z,25070044,Em curso,1101,Cheia,0,0,0,0,2025-03-10T19:30:00Z,Vila Nova Da Barquinha,Santarém,Centro,-8.357309,39.485638
25071496,São Manços e São Vicente do Pigeiro,Alentejo Central,312,2025-03-11T13:18:00Z,25071496,Em curso,1101,Cheia,0,2,0,4,2025-03-11T13:18:00Z,Évora,Évora,Alentejo,-7.713313,38.513673
25131211,"Custóias, Leça do Balio e Guifões",Area M. Porto,309,2025-03-22T07:57:00Z,25131211,Em resolução,3315,Inundação de estruturas por precipitação intensa,0,2,0,3,2025-03-22T07:57:00Z,Matosinhos,Porto,Norte,-8.629265,41.200591
25136845,"Custóias, Leça do Balio e Guifões",Area M. Porto,309,2025-03-23T10:45:00Z,25136845,Em despacho,3301,Queda de árvore,0,1,0,3,2025-03-23T10:45:00Z,Matosinhos,Porto,Norte,-8.636547,41.225717
25137059,Almeirim,Lezíria do Tejo,311,2025-03-23T11:51:00Z,25137059,Em resolução,3315,Inundação de estruturas por precipitação intensa,0,1,0,3,2025-03-23T11:51:00Z,Almeirim,Santarém,Alentejo,-8.626853,39.211615
25137261,Caldas da Rainha - Santo Onofre e Serra do Bouro,Oeste,311,2025-03-23T12:35:00Z,25137261,Em despacho,3329,Queda de estruturas temporárias ou móveis,0,1,0,2,2025-03-23T12:35:00Z,Caldas Da Rainha,Leiria,Centro,-9.148929,39.401713
25068300,Almeirim,Lezíria do Tejo,311,2025-03-10T20:52:00Z,25068300,Em curso,1101,Cheia,0,0,0,0,2025-03-10T20:52:00Z,Almeirim,Santarém,Alentejo,-8.635002,39.187436
25121298,Gafanhoeira (São Pedro) e Sabugueiro,Alentejo Central,312,2025-03-20T14:26:00Z,25121298,Em resolução,3301,Queda de árvore,0,0,0,0,2025-03-20T14:26:00Z,Arraiolos,Évora,Alentejo,-8.088754,38.754507
25135245,Grândola e Santa Margarida da Serra,Alentejo Litoral,312,2025-03-22T22:40:00Z,25135245,Em conclusão,3313,Deslizamento de terras,0,1,0,2,2025-03-22T22:40:00Z,Grândola,Setúbal,Alentejo,-8.486669,38.134589
25135936,Penacova,Região de Coimbra,310,2025-03-23T07:35:00Z,25135936,Em despacho,3313,Deslizamento de terras,0,1,0,1,2025-03-23T07:35:00Z,Penacova,Coimbra,Centro,-8.27651,40.251768
25136077,Carvalhal,Alentejo Litoral,312,2025-03-23T08:03:00Z,25136077,Em despacho,3301,Queda de árvore,0,2,0,6,2025-03-23T08:03:00Z,Grândola,Setúbal,Alentejo,-8.859443,38.458082
25136983,"Almada, Cova da Piedade, Pragal e Cacilhas",Península de Setúbal,311,2025-03-23T11:19:00Z,25136983,Em despacho,3311,Queda de elementos de estruturas edificados,0,1,0,6,2025-03-23T11:19:00Z,Almada,Setúbal,Área Metropolitana De Lisboa,-9.164498,38.675268
25137283,"S.maria, S.miguel, S.martinho, S.pedro Penaferrim",Grande Lisboa,311,2025-03-23T12:35:00Z,25137283,Em curso,3301,Queda de árvore,0,1,0,4,2025-03-23T12:35:00Z,Sintra,Lisboa,Área Metropolitana De Lisboa,-9.40542,38.820035
25063232,Santa Maria do Castelo e Santiago e Santa Susana,Alentejo Litoral,312,2025-03-09T19:02:00Z,25063232,Em conclusão,1101,Cheia,0,0,0,0,2025-03-09T19:02:00Z,Alcácer Do Sal,Setúbal,Alentejo,-8.48167,38.29806
25136315,"Ponte de Sor, Tramaga e Vale de Açor",Alto Alentejo,312,2025-03-23T09:00:00Z,25136315,Em curso,3315,Inundação de estruturas por precipitação intensa,0,0,0,0,2025-03-23T09:00:00Z,Ponte De Sor,Portalegre,Alentejo,-8.022157,39.244498
25136903,Charneca de Caparica e Sobreda,Península de Setúbal,311,2025-03-23T11:08:00Z,25136903,Em despacho,3301,Queda de árvore,0,1,0,5,2025-03-23T11:08:00Z,Almada,Setúbal,Área Metropolitana De Lisboa,-9.190193,38.591584
25137368,Cascais e Estoril,Grande Lisboa,311,2025-03-23T12:42:00Z,25137368,Em despacho,3301,Queda de árvore,0,1,0,4,2025-03-23T12:42:00Z,Cascais,Lisboa,Área Metropolitana De Lisboa,-9.419397,38.700982
25087162,Pedrógão,Baixo Alentejo,312,2025-03-14T17:00:00Z,25087162,Em curso,1101,Cheia,0,0,0,0,2025-03-14T17:00:00Z,Vidigueira,Beja,Alentejo,-7.630327,38.110775
25128056,Santa Maria do Castelo e Santiago e Santa Susana,Alentejo Litoral,312,2025-03-21T14:41:00Z,25128056,Em curso,1101,Cheia,0,0,0,0,2025-03-21T14:41:00Z,Alcácer Do Sal,Setúbal,Alentejo,-8.434671,38.401157
25136821,Budens,Algarve,313,2025-03-23T10:37:00Z,25136821,Em curso,3301,Queda de árvore,0,2,0,6,2025-03-23T10:37:00Z,Vila Do Bispo,Faro,Algarve,-8.813082,37.074005
25137347,Gâmbia-Pontes-Alto da Guerra,Península de Setúbal,311,2025-03-23T12:55:00Z,25137347,Em despacho,3301,Queda de árvore,0,1,0,5,2025-03-23T12:55:00Z,Setúbal,Setúbal,Área Metropolitana De Lisboa,-8.848808,38.541024
25137440,"Oeiras e S. Julião da Barra, Paço de Arcos e Caxias",Grande Lisboa,311,2025-03-23T13:15:00Z,25137440,Em despacho,3301,Queda de árvore,0,1,0,2,2025-03-23T13:15:00Z,Oeiras,Lisboa,Área Metropolitana De Lisboa,-9.275682,38.698873
25137501,"Algés, Linda-a-Velha e Cruz Quebrada-Dafundo",Grande Lisboa,311,2025-03-23T13:22:00Z,25137501,Em despacho,3329,Queda de estruturas temporárias ou móveis,0,1,0,5,2025-03-23T13:22:00Z,Oeiras,Lisboa,Área Metropolitana De Lisboa,-9.22967,38.696612
25137491,Montijo e Afonsoeiro,Península de Setúbal,311,2025-03-23T13:25:00Z,25137491,Em despacho,3321,Dano na rede de fornecimento de eletricidade ,0,1,0,5,2025-03-23T13:25:00Z,Montijo,Setúbal,Área Metropolitana De Lisboa,-8.975715,38.702323
