id,address,subregion,neighborhood,date,id.1,state,nature,nature_description,aerial_means,terrestrial_means,aquatic_means,operational,date.1,Concelho,Distrito,NUTII_DSG,longitude,latitude,state_2
25711397,Vale da Pedra,Lezíria do Tejo,311,2025-07-21T14:16:00Z,25711397,Em Resolução/Conclusão,3103,Incêndio rural,0,0,0,0,2025-07-21T14:16:00Z,Cartaxo,Santarém,Alentejo,-8.783137,39.110872,Resolução/Conclusão
25715532,"Ponte de Sor, Tramaga e Vale de Açor",Alto Alentejo,312,2025-07-22T11:24:00Z,25715532,Em Resolução/Conclusão,3103,Incêndio rural,0,11,0,39,2025-07-22T11:24:00Z,Ponte De Sor,Portalegre,Alentejo,-8.139892,39.273078,Resolução/Conclusão
25715734,"Santiago do Cacém, S.cruz e São Bartolomeu da Serra",Alentejo Litoral,312,2025-07-22T12:03:00Z,25715734,Em Resolução/Conclusão,3103,Incêndio rural,0,6,0,23,2025-07-22T12:03:00Z,Santiago Do Cacém,Setúbal,Alentejo,-8.730186,38.04169,Resolução/Conclusão
25715802,Abrantes (São Vicente e São João) e Alferrarede,Médio Tejo,311,2025-07-22T12:16:00Z,25715802,Em Resolução/Conclusão,3103,Incêndio rural,0,6,0,21,2025-07-22T12:16:00Z,Abrantes,Santarém,Centro,-8.211658,39.486935,Resolução/Conclusão
25715540,Santo Estêvão,Alto Tâmega e Barroso,309,2025-07-22T11:27:00Z,25715540,Em Resolução/Conclusão,3103,Incêndio rural,0,2,0,10,2025-07-22T11:27:00Z,Chaves,Vila Real,Norte,-7.4165,41.771785,Resolução/Conclusão
25715822,Loulé (São Sebastião),Algarve,313,2025-07-22T12:21:00Z,25715822,Em Resolução/Conclusão,3103,Incêndio rural,0,6,0,19,2025-07-22T12:21:00Z,Loulé,Faro,Algarve,-8.097039,37.161164,Resolução/Conclusão
25712338,Cercal,Alentejo Litoral,312,2025-07-21T17:38:00Z,25712338,Em Resolução/Conclusão,3103,Incêndio rural,0,23,0,61,2025-07-21T17:38:00Z,Santiago Do Cacém,Setúbal,Alentejo,-8.682272,37.791582,Resolução/Conclusão
25715665,Rio de Moinhos,Médio Tejo,311,2025-07-22T11:54:00Z,25715665,Em Resolução/Conclusão,3103,Incêndio rural,0,9,0,34,2025-07-22T11:54:00Z,Abrantes,Santarém,Centro,-8.27888,39.495318,Resolução/Conclusão
