id,address,subregion,neighborhood,date,id.1,state,nature,nature_description,aerial_means,terrestrial_means,aquatic_means,operational,date.1,Concelho,Distrito,NUTII_DSG,longitude,latitude
25017777,Carnaxide e Queijas,Grande Lisboa,311,2025-02-27T12:59:00Z,25017777,Em despacho,3315,Inundação de estruturas por precipitação intensa,0,1,0,3,2025-02-27T12:59:00Z,Oeiras,Lisboa,Área Metropolitana De Lisboa,-9.259903,38.718843
24877003,Malagueira e Horta Das Figueiras,Alentejo Central,312,2025-01-27T11:41:00Z,24877003,Em conclusão,3315,Inundação de estruturas por precipitação intensa,0,0,0,0,2025-01-27T11:41:00Z,Évora,Évora,Alentejo,-7.924277,38.57285
25017755,Algueirão-Mem Martins,Grande Lisboa,311,2025-02-27T12:10:00Z,25017755,Em despacho,3315,Inundação de estruturas por precipitação intensa,0,1,0,2,2025-02-27T12:10:00Z,Sintra,Lisboa,Área Metropolitana De Lisboa,-9.330827,38.796332
24888293,Pernes,Lezíria do Tejo,311,2025-01-29T16:41:00Z,24888293,Em curso,3301,Queda de árvore,0,0,0,0,2025-01-29T16:41:00Z,Santarém,Santarém,Alentejo,-8.658865,39.381547
25017711,Carcavelos e Parede,Grande Lisboa,311,2025-02-27T12:39:00Z,25017711,Em despacho,3315,Inundação de estruturas por precipitação intensa,0,1,0,1,2025-02-27T12:39:00Z,Cascais,Lisboa,Área Metropolitana De Lisboa,-9.340039,38.698226
25005550,Sines,Alentejo Litoral,312,2025-02-24T19:12:00Z,25005550,Em conclusão,3313,Deslizamento de terras,0,0,0,0,2025-02-24T19:12:00Z,Sines,Setúbal,Alentejo,-8.849778,37.961314
