id,address,subregion,neighborhood,date,id.1,state,nature,nature_description,aerial_means,terrestrial_means,aquatic_means,operational,date.1,Concelho,Distrito,NUTII_DSG,longitude,latitude,state_2
25621615,Negrelos (São Tomé),Area M. Porto,309,2025-07-03T17:16:00Z,25621615,Em Resolução/Conclusão,3103,Incêndio rural,0,1,0,5,2025-07-03T17:16:00Z,Santo Tirso,Porto,Norte,-8.407845,41.335172,Resolução/Conclusão
25622280,Darque,Alto Minho,309,2025-07-03T19:44:00Z,25622280,Em Resolução/Conclusão,3105,Incêndio rural,0,2,0,9,2025-07-03T19:44:00Z,Viana Do Castelo,Viana Do Castelo,Norte,-8.794218,41.685125,Resolução/Conclusão
25599382,Almaceda,Beira Baixa,310,2025-06-29T17:03:00Z,25599382,Em Resolução/Conclusão,3101,Incêndio rural,0,7,0,25,2025-06-29T17:03:00Z,Castelo Branco,Castelo Branco,Centro,-7.645695,39.962858,Resolução/Conclusão
25621233,São Miguel do Rio Torto e Rossio Ao Sul do Tejo,Médio Tejo,311,2025-07-03T16:07:00Z,25621233,Em Resolução/Conclusão,3105,Incêndio rural,0,0,0,0,2025-07-03T16:07:00Z,Abrantes,Santarém,Centro,-8.19668,39.430777,Resolução/Conclusão
25621694,"Bustos, Troviscal e Mamarrosa",Região de Aveiro,310,2025-07-03T17:39:00Z,25621694,Em Resolução/Conclusão,3101,Incêndio rural,0,7,0,24,2025-07-03T17:39:00Z,Oliveira Do Bairro,Aveiro,Centro,-8.556472,40.474195,Resolução/Conclusão
25621801,Lomba,Area M. Porto,309,2025-07-03T18:03:00Z,25621801,Em Resolução/Conclusão,3103,Incêndio rural,0,2,0,7,2025-07-03T18:03:00Z,Gondomar,Porto,Norte,-8.408252,41.034001,Resolução/Conclusão
25620835,Recarei,Area M. Porto,309,2025-07-03T14:40:00Z,25620835,Em Resolução/Conclusão,3103,Incêndio rural,0,19,0,62,2025-07-03T14:40:00Z,Paredes,Porto,Norte,-8.427998,41.160472,Resolução/Conclusão
25622107,Vascoveiro,Beiras e Serra da Estrela,310,2025-07-03T19:03:00Z,25622107,Em Resolução/Conclusão,3103,Incêndio rural,0,8,0,31,2025-07-03T19:03:00Z,Pinhel,Guarda,Centro,-7.12463,40.739772,Resolução/Conclusão
25622141,Bustelo,Tâmega e Sousa,309,2025-07-03T19:10:00Z,25622141,Em Resolução/Conclusão,3103,Incêndio rural,0,2,0,10,2025-07-03T19:10:00Z,Penafiel,Porto,Norte,-8.254823,41.23195,Resolução/Conclusão
25622339,Carregueira,Lezíria do Tejo,311,2025-07-03T19:55:00Z,25622339,Em Despacho,3105,Incêndio rural,1,6,0,30,2025-07-03T19:55:00Z,Chamusca,Santarém,Alentejo,-8.43254,39.43138,Despacho
25622373,Jugueiros,Tâmega e Sousa,309,2025-07-03T19:55:00Z,25622373,Em Despacho,3103,Incêndio rural,0,1,0,5,2025-07-03T19:55:00Z,Felgueiras,Porto,Norte,-8.220438,41.404441,Despacho
25622137,Alverca da Beira/Bouça Cova,Beiras e Serra da Estrela,310,2025-07-03T19:10:00Z,25622137,Em Resolução/Conclusão,3103,Incêndio rural,0,2,0,6,2025-07-03T19:10:00Z,Pinhel,Guarda,Centro,-7.213757,40.702078,Resolução/Conclusão
25622171,"Barcel, Marmelos e Valverde da Gestosa",Terras de Trás-os-Montes,309,2025-07-03T19:16:00Z,25622171,Em Curso,3103,Incêndio rural,0,9,0,35,2025-07-03T19:16:00Z,Mirandela,Bragança,Norte,-7.21564,41.391697,Curso
25622185,Souselo,Tâmega e Sousa,309,2025-07-03T19:19:00Z,25622185,Em Curso,3103,Incêndio rural,1,9,0,42,2025-07-03T19:19:00Z,Cinfães,Viseu,Norte,-8.235655,41.049808,Curso
25622328,"N. S. da Vila, N. S. do Bispo e Silveiras",Alentejo Central,312,2025-07-03T19:50:00Z,25622328,Em Resolução/Conclusão,3105,Incêndio rural,1,5,0,25,2025-07-03T19:50:00Z,Montemor-o-Novo,Évora,Alentejo,-8.241019,38.616136,Resolução/Conclusão
25610143,Nossa Senhora Das Misericórdias,Médio Tejo,311,2025-07-01T15:32:00Z,25610143,Em Resolução/Conclusão,3103,Incêndio rural,0,1,0,5,2025-07-01T15:32:00Z,Ourém,Santarém,Centro,-8.600277,39.655883,Resolução/Conclusão
25620464,Cativelos,Beiras e Serra da Estrela,310,2025-07-03T13:45:00Z,25620464,Em Resolução/Conclusão,3103,Incêndio rural,0,5,0,15,2025-07-03T13:45:00Z,Gouveia,Guarda,Centro,-7.704635,40.546025,Resolução/Conclusão
25620664,Côja e Barril de Alva,Região de Coimbra,310,2025-07-03T14:22:00Z,25620664,Em Resolução/Conclusão,3101,Incêndio rural,0,46,0,148,2025-07-03T14:22:00Z,Arganil,Coimbra,Centro,-7.95667,40.2725,Resolução/Conclusão
25621432,Amendoeira,Terras de Trás-os-Montes,309,2025-07-03T16:42:00Z,25621432,Em Resolução/Conclusão,3103,Incêndio rural,0,2,0,7,2025-07-03T16:42:00Z,Macedo De Cavaleiros,Bragança,Norte,-6.990148,41.55541,Resolução/Conclusão
25621641,São Miguel do Rio Torto e Rossio Ao Sul do Tejo,Médio Tejo,311,2025-07-03T17:22:00Z,25621641,Em Resolução/Conclusão,3105,Incêndio rural,0,1,0,2,2025-07-03T17:22:00Z,Abrantes,Santarém,Centro,-8.196103,39.43087,Resolução/Conclusão
25622084,Golegã,Lezíria do Tejo,311,2025-07-03T19:00:00Z,25622084,Em Resolução/Conclusão,3103,Incêndio rural,0,0,0,0,2025-07-03T19:00:00Z,Golegã,Santarém,Alentejo,-8.47639,39.42748,Resolução/Conclusão
25622352,Colares,Grande Lisboa,311,2025-07-03T19:58:00Z,25622352,Em Despacho,3103,Incêndio rural,0,4,0,17,2025-07-03T19:58:00Z,Sintra,Lisboa,Área Metropolitana De Lisboa,-9.461505,38.840719,Despacho
25622354,Livração,Tâmega e Sousa,309,2025-07-03T19:50:00Z,25622354,Em Despacho,3103,Incêndio rural,0,1,0,5,2025-07-03T19:50:00Z,Marco De Canaveses,Porto,Norte,-8.142672,41.207286,Despacho
