id,address,subregion,neighborhood,date,id.1,state,nature,nature_description,aerial_means,terrestrial_means,aquatic_means,operational,date.1,Concelho,Distrito,NUTII_DSG,longitude,latitude
25506318,"Cristelos, Boim e Ordem",Tâmega e Sousa,309,2025-06-10T17:00:00Z,25506318,Em conclusão,3103,Incêndio rural,0,3,0,15,2025-06-10T17:00:00Z,Lousada,Porto,Norte,-8.287668,41.259327999999996
25506336,Monte Redondo,Alto Minho,309,2025-06-10T17:02:00Z,25506336,Em conclusão,3103,Incêndio rural,0,1,0,5,2025-06-10T17:02:00Z,Arcos De Valdevez,Viana Do Castelo,Norte,-8.444893,41.832723
25506559,Esgueira,Região de Aveiro,310,2025-06-10T18:06:00Z,25506559,Em conclusão,3103,Incêndio rural,0,3,0,9,2025-06-10T18:06:00Z,Aveiro,Aveiro,Centro,-8.613518,40.64458
25506602,Fragoso,Cávado,309,2025-06-10T18:00:00Z,25506602,Em conclusão,3111,Queima,0,2,0,7,2025-06-10T18:00:00Z,Barcelos,Braga,Norte,-8.718363,41.614113
25506679,Vila Caiz,Tâmega e Sousa,309,2025-06-10T18:48:00Z,25506679,Em despacho,3103,Incêndio rural,1,4,0,23,2025-06-10T18:48:00Z,Amarante,Porto,Norte,-8.123593,41.229797
25505106,Baixa da Banheira e Vale da Amoreira,Península de Setúbal,311,2025-06-10T12:00:00Z,25505106,Em conclusão,2101,Incêndio em edifícios habitacionais,0,2,0,7,2025-06-10T12:00:00Z,Moita,Setúbal,Área Metropolitana De Lisboa,-9.03699,38.64298
25506110,Panoias e Conceição,Baixo Alentejo,312,2025-06-10T16:05:00Z,25506110,Em conclusão,3105,Incêndio rural,0,13,0,35,2025-06-10T16:05:00Z,Ourique,Beja,Alentejo,-8.329668,37.786143
25506746,Encarnação,Grande Lisboa,311,2025-06-10T18:58:00Z,25506746,Em despacho,3103,Incêndio rural,0,4,0,16,2025-06-10T18:58:00Z,Mafra,Lisboa,Área Metropolitana De Lisboa,-9.422835,39.018906
25506500,Ferreira-a-Nova,Região de Coimbra,310,2025-06-10T17:45:00Z,25506500,Em conclusão,3103,Incêndio rural,0,5,0,19,2025-06-10T17:45:00Z,Figueira Da Foz,Coimbra,Centro,-8.74139,40.23806
25506698,Malveira e São Miguel de Alcainça,Grande Lisboa,311,2025-06-10T18:43:00Z,25506698,Em conclusão,3201,Detritos não confinados,0,2,0,7,2025-06-10T18:43:00Z,Mafra,Lisboa,Área Metropolitana De Lisboa,-9.263823,38.93042
25506406,Freiriz,Cávado,309,2025-06-10T17:20:00Z,25506406,Em conclusão,3103,Incêndio rural,0,6,0,19,2025-06-10T17:20:00Z,Vila Verde,Braga,Norte,-8.51158,41.6519
25506589,Cascais e Estoril,Grande Lisboa,311,2025-06-10T18:16:00Z,25506589,Em conclusão,2201,Incêndio em equipamentos ou produtos,0,3,0,8,2025-06-10T18:16:00Z,Cascais,Lisboa,Área Metropolitana De Lisboa,-9.43406,38.70796
25506755,"St.tirso, Couto (S.cristina e S.miguel) e Burgães",Area M. Porto,309,2025-06-10T19:00:00Z,25506755,Em curso,3103,Incêndio rural,0,1,0,5,2025-06-10T19:00:00Z,Santo Tirso,Porto,Norte,-8.474679,41.335886
25506775,"Braga (Maximinos, Sé e Cividade)",Cávado,309,2025-06-10T19:07:00Z,25506775,Em despacho,2101,Incêndio em edifícios habitacionais,0,0,0,0,2025-06-10T19:07:00Z,Braga,Braga,Norte,-8.43536,41.55011
