id,address,subregion,neighborhood,date,id.1,state,nature,nature_description,aerial_means,terrestrial_means,aquatic_means,operational,date.1,Concelho,Distrito,NUTII_DSG,longitude,latitude
25486979,Caparica e Trafaria,Península de Setúbal,311,2025-06-06T16:34:00Z,25486979,Em conclusão,2127,"Incêndio em edifícios e recintos industriais, oficinas e armazéns",0,4,0,12,2025-06-06T16:34:00Z,Almada,Setúbal,Área Metropolitana De Lisboa,-9.198172,38.665376
25487879,Alcabideche,Grande Lisboa,311,2025-06-06T19:55:00Z,25487879,Em conclusão,3103,Incêndio rural,0,7,0,26,2025-06-06T19:55:00Z,Sintra,Lisboa,Área Metropolitana De Lisboa,-9.375643,38.750903
25488350,"Perafita, Lavra e Santa Cruz do Bispo",Area M. Porto,309,2025-06-06T21:44:00Z,25488350,Em despacho,2127,"Incêndio em edifícios e recintos industriais, oficinas e armazéns",0,1,0,4,2025-06-06T21:44:00Z,Matosinhos,Porto,Norte,-8.69749,41.25021
25488227,Vidigueira,Baixo Alentejo,312,2025-06-06T21:10:00Z,25488227,Em conclusão,3105,Incêndio rural,0,5,0,19,2025-06-06T21:10:00Z,Vidigueira,Beja,Alentejo,-7.775978,38.197335
25488311,Pinhal Novo,Península de Setúbal,311,2025-06-06T21:33:00Z,25488311,Em conclusão,3103,Incêndio rural,0,2,0,7,2025-06-06T21:33:00Z,Palmela,Setúbal,Área Metropolitana De Lisboa,-8.89899,38.65111
25487371,São João Dos Caldeireiros,Baixo Alentejo,312,2025-06-06T18:02:00Z,25487371,Em conclusão,3105,Incêndio rural,0,19,0,51,2025-06-06T18:02:00Z,Mértola,Beja,Alentejo,-7.804608,37.600808
25488341,Nossa Senhora da Expectação,Alto Alentejo,312,2025-06-06T21:36:00Z,25488341,Em despacho,3105,Incêndio rural,0,4,0,9,2025-06-06T21:36:00Z,Campo Maior,Portalegre,Alentejo,-7.063944,39.014855
25488060,Nogueira e Silva Escura,Area M. Porto,309,2025-06-06T20:37:00Z,25488060,Em conclusão,3103,Incêndio rural,0,2,0,9,2025-06-06T20:37:00Z,Maia,Porto,Norte,-8.583952,41.25995
25488251,Mouçós e Lamares,Douro,309,2025-06-06T21:19:00Z,25488251,Em curso,2301,Incêndio em transporte rodoviário,0,4,0,14,2025-06-06T21:19:00Z,Vila Real,Vila Real,Norte,-7.63496,41.337674
