id,address,subregion,neighborhood,date,id.1,state,nature,nature_description,aerial_means,terrestrial_means,aquatic_means,operational,date.1,Concelho,Distrito,NUTII_DSG,longitude,latitude
25464149,Cascais e Estoril,Grande Lisboa,311,2025-06-02T06:08:00Z,25464149,Em conclusão,2129,Incêndio em edifícios degradados ou devolutos,0,3,0,9,2025-06-02T06:08:00Z,Cascais,Lisboa,Área Metropolitana De Lisboa,-9.39923,38.71103
25464547,Montijo e Afonsoeiro,Península de Setúbal,311,2025-06-02T08:27:00Z,25464547,Em conclusão,3203,Detritos confinados,0,2,0,10,2025-06-02T08:27:00Z,Montijo,Setúbal,Área Metropolitana De Lisboa,-8.975715,38.702323
25464654,Tarouca e Dálvares,Douro,309,2025-06-02T08:46:00Z,25464654,Em resolução,2301,Incêndio em transporte rodoviário,0,1,0,5,2025-06-02T08:46:00Z,Tarouca,Viseu,Norte,-7.768998,41.022175
25457724,Santo André,Alentejo Litoral,312,2025-05-31T18:30:00Z,25457724,Em conclusão,2127,"Incêndio em edifícios e recintos industriais, oficinas e armazéns",0,1,0,2,2025-05-31T18:30:00Z,Santiago Do Cacém,Setúbal,Alentejo,-8.784407,38.048083
25464290,Abrantes (São Vicente e São João) e Alferrarede,Médio Tejo,311,2025-06-02T07:36:00Z,25464290,Em conclusão,2301,Incêndio em transporte rodoviário,0,2,0,7,2025-06-02T07:36:00Z,Abrantes,Santarém,Centro,-8.181432,39.493835
