id,address,subregion,neighborhood,date,id.1,state,nature,nature_description,aerial_means,terrestrial_means,aquatic_means,operational,date.1,Concelho,Distrito,NUTII_DSG,longitude,latitude
25552625,Idanha-a-Nova e Alcafozes,Beira Baixa,310,2025-06-20T10:38:00Z,25552625,Em conclusão,3105,Incêndio rural,0,3,0,6,2025-06-20T10:38:00Z,Idanha-a-Nova,Castelo Branco,Centro,-7.156743,39.833192
25553443,Semide e Rio Vide,Região de Coimbra,310,2025-06-20T13:21:00Z,25553443,Em conclusão,3101,Incêndio rural,0,11,0,35,2025-06-20T13:21:00Z,Miranda Do Corvo,Coimbra,Centro,-8.353843,40.177798
25553679,Lomba,Area M. Porto,309,2025-06-20T14:12:00Z,25553679,Em conclusão,3103,Incêndio rural,0,4,0,14,2025-06-20T14:12:00Z,Gondomar,Porto,Norte,-8.405722,41.033878
25554043,Alcains,Beira Baixa,310,2025-06-20T15:15:00Z,25554043,Em conclusão,3103,Incêndio rural,0,8,0,24,2025-06-20T15:15:00Z,Castelo Branco,Castelo Branco,Centro,-7.466145,39.930763
25554060,"Silvares, Pias, Nogueira e Alvarenga",Tâmega e Sousa,309,2025-06-20T15:19:00Z,25554060,Em conclusão,3103,Incêndio rural,0,2,0,10,2025-06-20T15:19:00Z,Lousada,Porto,Norte,-8.25661,41.272575
25554211,Ruivães e Novais,Ave,309,2025-06-20T15:47:00Z,25554211,Em curso,3107,Consolidação de rescaldo de incêndio rural,0,0,0,0,2025-06-20T15:47:00Z,Vila Nova De Famalicão,Braga,Norte,-8.42914,41.39405
25554344,"Manique do Intendente, V. N. de São Pedro e Maçussa",Lezíria do Tejo,311,2025-06-20T16:16:00Z,25554344,Em conclusão,3105,Incêndio rural,0,5,0,16,2025-06-20T16:16:00Z,Azambuja,Lisboa,Alentejo,-8.950777,39.21144
25553182,Ceivães e Badim,Alto Minho,309,2025-06-20T12:26:00Z,25553182,Em conclusão,3103,Incêndio rural,0,2,0,6,2025-06-20T12:26:00Z,Monção,Viana Do Castelo,Norte,-8.37627,42.074267
25553364,Carregosa,Area M. Porto,309,2025-06-20T13:00:00Z,25553364,Em conclusão,3101,Incêndio rural,0,8,0,30,2025-06-20T13:00:00Z,Oliveira De Azeméis,Aveiro,Norte,-8.413127,40.881882
25553471,Samora Correia,Lezíria do Tejo,311,2025-06-20T13:30:00Z,25553471,Em conclusão,3103,Incêndio rural,0,0,0,0,2025-06-20T13:30:00Z,Benavente,Santarém,Alentejo,-8.916393,38.756655
25553864,Caldas de São Jorge e Pigeiros,Area M. Porto,309,2025-06-20T14:30:00Z,25553864,Em conclusão,3103,Incêndio rural,0,1,0,5,2025-06-20T14:30:00Z,Santa Maria Da Feira,Aveiro,Norte,-8.48706,40.951914
25553875,Ermelo e Pardelhas,Ave,309,2025-06-20T14:38:00Z,25553875,Em resolução,3107,Consolidação de rescaldo de incêndio rural,0,2,0,10,2025-06-20T14:38:00Z,Mondim De Basto,Vila Real,Norte,-7.870974,41.353823
25554198,Beduído e Veiros,Região de Aveiro,310,2025-06-20T15:44:00Z,25554198,Em resolução,3105,Incêndio rural,0,3,0,9,2025-06-20T15:44:00Z,Estarreja,Aveiro,Centro,-8.561683,40.773818
25554363,Lomba,Area M. Porto,309,2025-06-20T16:19:00Z,25554363,Em despacho,3103,Incêndio rural,0,1,0,5,2025-06-20T16:19:00Z,Gondomar,Porto,Norte,-8.42169,41.03197
25552515,Idanha-a-Nova e Alcafozes,Beira Baixa,310,2025-06-20T10:26:00Z,25552515,Em conclusão,3105,Incêndio rural,0,3,0,12,2025-06-20T10:26:00Z,Idanha-a-Nova,Castelo Branco,Centro,-7.161587,39.83646
25553236,Sabadim,Alto Minho,309,2025-06-20T12:39:00Z,25553236,Em conclusão,3101,Incêndio rural,0,3,0,8,2025-06-20T12:39:00Z,Arcos De Valdevez,Viana Do Castelo,Norte,-8.461455,41.907618
25553383,Ladoeiro,Beira Baixa,310,2025-06-20T13:10:00Z,25553383,Em conclusão,3105,Incêndio rural,0,0,0,0,2025-06-20T13:10:00Z,Idanha-a-Nova,Castelo Branco,Centro,-7.275773,39.826375
25553468,Benquerenças,Beira Baixa,310,2025-06-20T13:26:00Z,25553468,Em conclusão,3101,Incêndio rural,0,6,0,21,2025-06-20T13:26:00Z,Castelo Branco,Castelo Branco,Centro,-7.5872,39.835847
25553969,"Esposende, Marinhas e Gandra",Cávado,309,2025-06-20T14:55:00Z,25553969,Em despacho,3107,Consolidação de rescaldo de incêndio rural,0,1,0,5,2025-06-20T14:55:00Z,Esposende,Braga,Norte,-8.783658,41.557894
25554419,Ruivães e Novais,Ave,309,2025-06-20T16:29:00Z,25554419,Em despacho,3103,Incêndio rural,1,1,0,10,2025-06-20T16:29:00Z,Vila Nova De Famalicão,Braga,Norte,-8.436758,41.397085
25552413,Vila Chã (São João Baptista e Santiago),Alto Minho,309,2025-06-20T10:11:00Z,25552413,Em curso,3107,Consolidação de rescaldo de incêndio rural,0,1,0,5,2025-06-20T10:11:00Z,Ponte Da Barca,Viana Do Castelo,Norte,-8.321927,41.809178
25553154,Pedrógão,Baixo Alentejo,312,2025-06-20T12:23:00Z,25553154,Em resolução,3105,Incêndio rural,0,59,0,178,2025-06-20T12:23:00Z,Vidigueira,Beja,Alentejo,-7.61775,38.179483
25553508,São João da Ribeira e Ribeira de São João,Lezíria do Tejo,311,2025-06-20T13:33:00Z,25553508,Em conclusão,3103,Incêndio rural,0,0,0,0,2025-06-20T13:33:00Z,Rio Maior,Santarém,Alentejo,-8.878438,39.290003
25553715,Ferreira do Alentejo e Canhestros,Baixo Alentejo,312,2025-06-20T14:07:00Z,25553715,Em conclusão,3105,Incêndio rural,0,0,0,0,2025-06-20T14:07:00Z,Ferreira Do Alentejo,Beja,Alentejo,-8.119798,38.056325
25553792,Canelas e Fermelã,Região de Aveiro,310,2025-06-20T14:30:00Z,25553792,Em conclusão,3103,Incêndio rural,0,5,0,17,2025-06-20T14:30:00Z,Estarreja,Aveiro,Centro,-8.540262,40.696283
25553824,Monsanto e Idanha-a-Velha,Beira Baixa,310,2025-06-20T14:34:00Z,25553824,Em conclusão,3105,Incêndio rural,0,2,0,6,2025-06-20T14:34:00Z,Idanha-a-Nova,Castelo Branco,Centro,-7.10684,40.045652
25554201,Vila Boa,Beiras e Serra da Estrela,310,2025-06-20T15:45:00Z,25554201,Em resolução,3103,Incêndio rural,0,4,0,17,2025-06-20T15:45:00Z,Sabugal,Guarda,Centro,-7.016902,40.384167
25554250,Montijo e Afonsoeiro,Península de Setúbal,311,2025-06-20T15:57:00Z,25554250,Em conclusão,3203,Detritos confinados,0,1,0,4,2025-06-20T15:57:00Z,Montijo,Setúbal,Área Metropolitana De Lisboa,-8.99121,38.70935
25554293,"Margaride (Santa Eulália), Várzea, Lagares, Varziela e Moure",Tâmega e Sousa,309,2025-06-20T16:00:00Z,25554293,Em conclusão,3107,Consolidação de rescaldo de incêndio rural,0,2,0,5,2025-06-20T16:00:00Z,Felgueiras,Porto,Norte,-8.202168,41.375503
25554325,Vialonga,Grande Lisboa,311,2025-06-20T16:12:00Z,25554325,Em conclusão,3203,Detritos confinados,0,0,0,0,2025-06-20T16:12:00Z,Vila Franca De Xira,Lisboa,Área Metropolitana De Lisboa,-9.092067,38.8759
