id,address,subregion,neighborhood,date,id.1,state,nature,nature_description,aerial_means,terrestrial_means,aquatic_means,operational,date.1,Concelho,Distrito,NUTII_DSG,longitude,latitude,state_2
25686799,Souto Maior,Douro,309,2025-07-16T13:19:00Z,25686799,Em Resolução/Conclusão,3101,Incêndio rural,0,13,0,39,2025-07-16T13:19:00Z,Sabrosa,Vila Real,Norte,-7.57839,41.287518,Resolução/Conclusão
25702609,"Margaride (Santa Eulália), Várzea, Lagares, Varziela e Moure",Tâmega e Sousa,309,2025-07-19T16:42:00Z,25702609,Em Resolução/Conclusão,3105,Incêndio rural,0,0,0,0,2025-07-19T16:42:00Z,Felgueiras,Porto,Norte,-8.21827,41.34448,Resolução/Conclusão
25702611,Tavira (Santa Maria e Santiago),Algarve,313,2025-07-19T16:42:00Z,25702611,Em Resolução/Conclusão,3105,Incêndio rural,0,2,0,7,2025-07-19T16:42:00Z,Tavira,Faro,Algarve,-7.64691,37.130442,Resolução/Conclusão
25703047,Azias,Alto Minho,309,2025-07-19T18:30:00Z,25703047,Em Despacho,3103,Incêndio rural,1,1,0,11,2025-07-19T18:30:00Z,Ponte Da Barca,Viana Do Castelo,Norte,-8.356847,41.772504,Despacho
25703063,Santa Comba de Vilariça,Terras de Trás-os-Montes,309,2025-07-19T18:34:00Z,25703063,Em Resolução/Conclusão,3103,Incêndio rural,0,5,0,18,2025-07-19T18:34:00Z,Vila Flor,Bragança,Norte,-7.061203,41.353252,Resolução/Conclusão
25703112,Rio Mau e Arcos,Area M. Porto,309,2025-07-19T18:43:00Z,25703112,Em Resolução/Conclusão,3101,Incêndio rural,1,1,0,11,2025-07-19T18:43:00Z,Vila Do Conde,Porto,Norte,-8.680828,41.401365,Resolução/Conclusão
25701864,Bordonhos,Viseu Dão Lafões,310,2025-07-19T13:53:00Z,25701864,Em Resolução/Conclusão,3103,Incêndio rural,0,3,0,9,2025-07-19T13:53:00Z,São Pedro Do Sul,Viseu,Centro,-8.088672,40.765902,Resolução/Conclusão
25702273,Selmes,Baixo Alentejo,312,2025-07-19T15:16:00Z,25702273,Em Resolução/Conclusão,3105,Incêndio rural,0,10,0,32,2025-07-19T15:16:00Z,Vidigueira,Beja,Alentejo,-7.771817,38.209072,Resolução/Conclusão
25702598,Ericeira,Grande Lisboa,311,2025-07-19T16:40:00Z,25702598,Em Resolução/Conclusão,3101,Incêndio rural,0,4,0,13,2025-07-19T16:40:00Z,Mafra,Lisboa,Área Metropolitana De Lisboa,-9.388492,38.966247,Resolução/Conclusão
25702621,Lavradas,Alto Minho,309,2025-07-19T16:46:00Z,25702621,Em Resolução/Conclusão,3103,Incêndio rural,0,0,0,0,2025-07-19T16:46:00Z,Ponte Da Barca,Viana Do Castelo,Norte,-8.46866,41.796438,Resolução/Conclusão
25702864,Tarouquela,Tâmega e Sousa,309,2025-07-19T16:36:00Z,25702864,Em Resolução/Conclusão,3103,Incêndio rural,0,3,0,12,2025-07-19T16:36:00Z,Cinfães,Viseu,Norte,-8.178045,41.06971,Resolução/Conclusão
25702975,Ermida e Figueiredo,Beira Baixa,310,2025-07-19T18:13:00Z,25702975,Em Resolução/Conclusão,3101,Incêndio rural,0,11,0,37,2025-07-19T18:13:00Z,Sertã,Castelo Branco,Centro,-7.982773,39.84015,Resolução/Conclusão
25703066,Albufeira e Olhos de Água,Algarve,313,2025-07-19T18:35:00Z,25703066,Em Resolução/Conclusão,3103,Incêndio rural,0,5,0,19,2025-07-19T18:35:00Z,Albufeira,Faro,Algarve,-8.239625,37.089,Resolução/Conclusão
25696955,"Vilela, Seramil e Paredes Secas",Cávado,309,2025-07-18T13:36:00Z,25696955,Em Resolução/Conclusão,3101,Incêndio rural,0,2,0,10,2025-07-18T13:36:00Z,Amares,Braga,Norte,-8.309448,41.67517,Resolução/Conclusão
25702437,Lomba,Area M. Porto,309,2025-07-19T16:02:00Z,25702437,Em Resolução/Conclusão,3103,Incêndio rural,0,1,0,5,2025-07-19T16:02:00Z,Gondomar,Porto,Norte,-8.406542,41.033288,Resolução/Conclusão
25703020,Alcanede,Lezíria do Tejo,311,2025-07-19T18:24:00Z,25703020,Em Resolução/Conclusão,3103,Incêndio rural,3,42,0,167,2025-07-19T18:24:00Z,Santarém,Santarém,Alentejo,-8.8021,39.403117,Resolução/Conclusão
25703086,"Ponte da Barca, V. N. Muía e Paço Vedro Magalhães",Alto Minho,309,2025-07-19T18:45:00Z,25703086,Em Curso,3103,Incêndio rural,0,3,0,9,2025-07-19T18:45:00Z,Ponte Da Barca,Viana Do Castelo,Norte,-8.393265,41.801573,Curso
25702890,Ventosa,Oeste,311,2025-07-19T17:52:00Z,25702890,Em Resolução/Conclusão,3103,Incêndio rural,0,7,0,20,2025-07-19T17:52:00Z,Torres Vedras,Lisboa,Centro,-9.34374,39.07182,Resolução/Conclusão
25703184,Faro (Sé e São Pedro),Algarve,313,2025-07-19T19:03:00Z,25703184,Em Curso,3103,Incêndio rural,0,5,0,17,2025-07-19T19:03:00Z,Faro,Faro,Algarve,-7.942032,37.01865,Curso
25703207,Gulpilhares e Valadares,Area M. Porto,309,2025-07-19T19:11:00Z,25703207,Em Despacho,3103,Incêndio rural,0,0,0,0,2025-07-19T19:11:00Z,Vila Nova De Gaia,Porto,Norte,-8.65236,41.09458,Despacho
