id,address,subregion,neighborhood,date,id.1,state,nature,nature_description,aerial_means,terrestrial_means,aquatic_means,operational,date.1,Concelho,Distrito,NUTII_DSG,longitude,latitude
25063232,Santa Maria do Castelo e Santiago e Santa Susana,Alentejo Litoral,312,2025-03-09T19:02:00Z,25063232,Em conclusão,1101,Cheia,0,0,0,0,2025-03-09T19:02:00Z,Alcácer Do Sal,Setúbal,Alentejo,-8.48167,38.29806
25127944,Colares,Grande Lisboa,311,2025-03-21T14:29:00Z,25127944,Em curso,3301,Queda de árvore,0,2,0,7,2025-03-21T14:29:00Z,Sintra,Lisboa,Área Metropolitana De Lisboa,-9.432326,38.780106
25134280,Eiras e São Paulo de Frades,Região de Coimbra,310,2025-03-22T18:00:00Z,25134280,Em despacho,3313,Deslizamento de terras,0,1,0,3,2025-03-22T18:00:00Z,Coimbra,Coimbra,Centro,-8.384643,40.251582
25134396,Cascais e Estoril,Grande Lisboa,311,2025-03-22T18:35:00Z,25134396,Em conclusão,3301,Queda de árvore,0,2,0,3,2025-03-22T18:35:00Z,Cascais,Lisboa,Área Metropolitana De Lisboa,-9.38142,38.71536
25134662,Areias de Vilar e Encourados,Cávado,309,2025-03-22T19:32:00Z,25134662,Em despacho,3301,Queda de árvore,0,1,0,2,2025-03-22T19:32:00Z,Barcelos,Braga,Norte,-8.556725,41.540326
25134714,"Pinheiro da Bemposta, Travanca e Palmaz",Area M. Porto,309,2025-03-22T19:37:00Z,25134714,Em despacho,3313,Deslizamento de terras,0,1,0,2,2025-03-22T19:37:00Z,Oliveira De Azeméis,Aveiro,Norte,-8.468107,40.789674
25059714,Torrão,Alentejo Litoral,312,2025-03-08T22:10:00Z,25059714,Em curso,1101,Cheia,0,1,0,2,2025-03-08T22:10:00Z,Alcácer Do Sal,Setúbal,Alentejo,-8.359133,38.252053
25070044,Praia do Ribatejo,Médio Tejo,311,2025-03-10T19:30:00Z,25070044,Em curso,1101,Cheia,0,0,0,0,2025-03-10T19:30:00Z,Vila Nova Da Barquinha,Santarém,Centro,-8.357309,39.485638
25071496,São Manços e São Vicente do Pigeiro,Alentejo Central,312,2025-03-11T13:18:00Z,25071496,Em curso,1101,Cheia,0,2,0,4,2025-03-11T13:18:00Z,Évora,Évora,Alentejo,-7.713313,38.513673
25130358,Grândola e Santa Margarida da Serra,Alentejo Litoral,312,2025-03-21T22:53:00Z,25130358,Em curso,3313,Deslizamento de terras,0,0,0,0,2025-03-21T22:53:00Z,Grândola,Setúbal,Alentejo,-8.621172,38.121494
25131211,"Custóias, Leça do Balio e Guifões",Area M. Porto,309,2025-03-22T07:57:00Z,25131211,Em curso,3315,Inundação de estruturas por precipitação intensa,0,14,0,26,2025-03-22T07:57:00Z,Matosinhos,Porto,Norte,-8.632716,41.208899
25132347,Trouxemil e Torre de Vilela,Região de Coimbra,310,2025-03-22T11:34:00Z,25132347,Em curso,3315,Inundação de estruturas por precipitação intensa,0,2,0,3,2025-03-22T11:34:00Z,Coimbra,Coimbra,Centro,-8.452804,40.249612
25132814,"S.maria, S.miguel, S.martinho, S.pedro Penaferrim",Grande Lisboa,311,2025-03-22T12:55:00Z,25132814,Em curso,3301,Queda de árvore,0,1,0,4,2025-03-22T12:55:00Z,Sintra,Lisboa,Área Metropolitana De Lisboa,-9.362223,38.785369
25133333,Carvalhal,Alentejo Litoral,312,2025-03-22T14:17:00Z,25133333,Em despacho,3301,Queda de árvore,0,2,0,6,2025-03-22T14:17:00Z,Grândola,Setúbal,Alentejo,-8.853697,38.456316
25133533,Parreira e Chouto,Lezíria do Tejo,311,2025-03-22T15:23:00Z,25133533,Em despacho,3301,Queda de árvore,0,1,0,1,2025-03-22T15:23:00Z,Chamusca,Santarém,Alentejo,-8.35511,39.25229
25134201,Azueira e Sobral da Abelheira,Grande Lisboa,311,2025-03-22T17:31:00Z,25134201,Em resolução,3301,Queda de árvore,0,1,0,1,2025-03-22T17:31:00Z,Mafra,Lisboa,Área Metropolitana De Lisboa,-9.264294,38.996233
25134219,Almalaguês,Região de Coimbra,310,2025-03-22T17:45:00Z,25134219,Em despacho,3313,Deslizamento de terras,0,1,0,3,2025-03-22T17:45:00Z,Coimbra,Coimbra,Centro,-8.393658,40.150697
25134704,"S.maria, S.miguel, S.martinho, S.pedro Penaferrim",Grande Lisboa,311,2025-03-22T19:09:00Z,25134704,Em despacho,3301,Queda de árvore,0,1,0,5,2025-03-22T19:09:00Z,Sintra,Lisboa,Área Metropolitana De Lisboa,-9.385912,38.758094
25134789,"Oeiras e S. Julião da Barra, Paço de Arcos e Caxias",Grande Lisboa,311,2025-03-22T20:02:00Z,25134789,Em despacho,3317,Inundação de estruturas por água canalizada,0,1,0,2,2025-03-22T20:02:00Z,Oeiras,Lisboa,Área Metropolitana De Lisboa,-9.290593,38.696925
25087162,Pedrógão,Baixo Alentejo,312,2025-03-14T17:00:00Z,25087162,Em curso,1101,Cheia,0,0,0,0,2025-03-14T17:00:00Z,Vidigueira,Beja,Alentejo,-7.630327,38.110775
25128056,Santa Maria do Castelo e Santiago e Santa Susana,Alentejo Litoral,312,2025-03-21T14:41:00Z,25128056,Em curso,1101,Cheia,0,0,0,0,2025-03-21T14:41:00Z,Alcácer Do Sal,Setúbal,Alentejo,-8.434671,38.401157
25132043,Miranda do Corvo,Região de Coimbra,310,2025-03-22T10:30:00Z,25132043,Em curso,3315,Inundação de estruturas por precipitação intensa,0,0,0,0,2025-03-22T10:30:00Z,Miranda Do Corvo,Coimbra,Centro,-8.339499,40.09407
25133922,"S.maria, S.miguel, S.martinho, S.pedro Penaferrim",Grande Lisboa,311,2025-03-22T16:41:00Z,25133922,Em despacho,3301,Queda de árvore,0,1,0,4,2025-03-22T16:41:00Z,Sintra,Lisboa,Área Metropolitana De Lisboa,-9.38075,38.77495
25134324,Eiras e São Paulo de Frades,Região de Coimbra,310,2025-03-22T18:13:00Z,25134324,Em despacho,3311,Queda de elementos de estruturas edificados,0,2,0,4,2025-03-22T18:13:00Z,Coimbra,Coimbra,Centro,-8.439766,40.225332
25134381,Alverca do Ribatejo e Sobralinho,Grande Lisboa,311,2025-03-22T18:26:00Z,25134381,Em curso,3301,Queda de árvore,0,0,0,0,2025-03-22T18:26:00Z,Vila Franca De Xira,Lisboa,Área Metropolitana De Lisboa,-9.046012,38.896362
25134615,Penafiel,Tâmega e Sousa,309,2025-03-22T19:17:00Z,25134615,Em conclusão,3301,Queda de árvore,0,1,0,1,2025-03-22T19:17:00Z,Penafiel,Porto,Norte,-8.296498,41.215273
25068300,Almeirim,Lezíria do Tejo,311,2025-03-10T20:52:00Z,25068300,Em curso,1101,Cheia,0,0,0,0,2025-03-10T20:52:00Z,Almeirim,Santarém,Alentejo,-8.635002,39.187436
25121298,Gafanhoeira (São Pedro) e Sabugueiro,Alentejo Central,312,2025-03-20T14:26:00Z,25121298,Em resolução,3301,Queda de árvore,0,0,0,0,2025-03-20T14:26:00Z,Arraiolos,Évora,Alentejo,-8.088754,38.754507
25129636,"S.maria, S.miguel, S.martinho, S.pedro Penaferrim",Grande Lisboa,311,2025-03-21T19:25:00Z,25129636,Em despacho,3301,Queda de árvore,0,1,0,5,2025-03-21T19:25:00Z,Sintra,Lisboa,Área Metropolitana De Lisboa,-9.366763,38.781718
25133437,Azeitão (São Lourenço e São Simão),Península de Setúbal,311,2025-03-22T14:45:00Z,25133437,Em despacho,3301,Queda de árvore,0,1,0,5,2025-03-22T14:45:00Z,Setúbal,Setúbal,Área Metropolitana De Lisboa,-9.04265,38.541479
25133932,Lousã e Vilarinho,Região de Coimbra,310,2025-03-22T16:36:00Z,25133932,Em despacho,3315,Inundação de estruturas por precipitação intensa,0,1,0,2,2025-03-22T16:36:00Z,Lousã,Coimbra,Centro,-8.243385,40.12032
25134350,Nogueira do Cravo,Região de Coimbra,310,2025-03-22T18:22:00Z,25134350,Em despacho,3321,Dano na rede de fornecimento de eletricidade ,0,1,0,1,2025-03-22T18:22:00Z,Oliveira Do Hospital,Coimbra,Centro,-7.888405,40.333686
25134700,Silgueiros,Viseu Dão Lafões,310,2025-03-22T19:37:00Z,25134700,Em despacho,3301,Queda de árvore,0,1,0,2,2025-03-22T19:37:00Z,Viseu,Viseu,Centro,-7.954081,40.566544
25134707,São Martinho do Bispo e Ribeira de Frades,Região de Coimbra,310,2025-03-22T19:40:00Z,25134707,Em despacho,3315,Inundação de estruturas por precipitação intensa,0,1,0,2,2025-03-22T19:40:00Z,Coimbra,Coimbra,Centro,-8.483143,40.207197
25134777,Vila Cova e Feitos,Cávado,309,2025-03-22T20:09:00Z,25134777,Em despacho,3301,Queda de árvore,0,1,0,2,2025-03-22T20:09:00Z,Barcelos,Braga,Norte,-8.688002,41.573305
