id,address,subregion,neighborhood,date,id.1,state,nature,nature_description,aerial_means,terrestrial_means,aquatic_means,operational,date.1,Concelho,Distrito,NUTII_DSG,longitude,latitude,state_2
25686799,Souto Maior,Douro,309,2025-07-16T13:19:00Z,25686799,Em Resolução/Conclusão,3101,Incêndio rural,0,21,0,61,2025-07-16T13:19:00Z,Sabrosa,Vila Real,Norte,-7.57839,41.287518,Resolução/Conclusão
25697898,Penha de França,Grande Lisboa,311,2025-07-18T16:51:00Z,25697898,Em Resolução/Conclusão,3103,Incêndio rural,0,0,0,0,2025-07-18T16:51:00Z,Lisboa,Lisboa,Área Metropolitana De Lisboa,-9.1233,38.723984,Resolução/Conclusão
25698400,Alcaria Ruiva,Baixo Alentejo,312,2025-07-18T18:37:00Z,25698400,Em Resolução/Conclusão,3105,Incêndio rural,0,9,0,27,2025-07-18T18:37:00Z,Mértola,Beja,Alentejo,-7.784537,37.770317,Resolução/Conclusão
25698451,Arnóia,Tâmega e Sousa,309,2025-07-18T18:50:00Z,25698451,Em Resolução/Conclusão,3101,Incêndio rural,0,6,0,19,2025-07-18T18:50:00Z,Celorico De Basto,Braga,Norte,-8.017128,41.37511,Resolução/Conclusão
25699370,Cascais e Estoril,Grande Lisboa,311,2025-07-18T22:43:00Z,25699370,Em Resolução/Conclusão,3103,Incêndio rural,0,2,0,7,2025-07-18T22:43:00Z,Cascais,Lisboa,Área Metropolitana De Lisboa,-9.45121,38.71706,Resolução/Conclusão
25699434,Faíl e Vila Chã de Sá,Viseu Dão Lafões,310,2025-07-18T23:03:00Z,25699434,Em Despacho,3103,Incêndio rural,0,5,0,17,2025-07-18T23:03:00Z,Viseu,Viseu,Centro,-7.960711,40.59818,Despacho
25695378,Refóios do Lima,Alto Minho,309,2025-07-18T08:35:00Z,25695378,Em Resolução/Conclusão,3103,Incêndio rural,0,1,0,5,2025-07-18T08:35:00Z,Ponte De Lima,Viana Do Castelo,Norte,-8.52127,41.804412,Resolução/Conclusão
25699122,Castêlo da Maia,Area M. Porto,309,2025-07-18T21:25:00Z,25699122,Em Resolução/Conclusão,3103,Incêndio rural,0,1,0,5,2025-07-18T21:25:00Z,Maia,Porto,Norte,-8.637523,41.27563,Resolução/Conclusão
25699154,Laranjeiro e Feijó,Península de Setúbal,311,2025-07-18T21:30:00Z,25699154,Em Resolução/Conclusão,3103,Incêndio rural,0,2,0,10,2025-07-18T21:30:00Z,Almada,Setúbal,Área Metropolitana De Lisboa,-9.169192,38.659475,Resolução/Conclusão
25692814,Tolosa,Alto Alentejo,312,2025-07-17T16:23:00Z,25692814,Em Resolução/Conclusão,3103,Incêndio rural,0,1,0,5,2025-07-17T16:23:00Z,Nisa,Portalegre,Alentejo,-7.635642,39.486993,Resolução/Conclusão
25698687,Repeses e São Salvador,Viseu Dão Lafões,310,2025-07-18T19:44:00Z,25698687,Em Resolução/Conclusão,3103,Incêndio rural,0,0,0,0,2025-07-18T19:44:00Z,Viseu,Viseu,Centro,-7.922508,40.643612,Resolução/Conclusão
25699421,Beja (Santiago Maior e São João Baptista),Baixo Alentejo,312,2025-07-18T22:55:00Z,25699421,Em Curso,3105,Incêndio rural,0,5,0,20,2025-07-18T22:55:00Z,Beja,Beja,Alentejo,-7.902989,38.011769,Curso
25696955,"Vilela, Seramil e Paredes Secas",Cávado,309,2025-07-18T13:36:00Z,25696955,Em Resolução/Conclusão,3101,Incêndio rural,0,6,0,25,2025-07-18T13:36:00Z,Amares,Braga,Norte,-8.309448,41.67517,Resolução/Conclusão
25699425,Tarouquela,Tâmega e Sousa,309,2025-07-18T23:01:00Z,25699425,Em Despacho,3103,Incêndio rural,0,4,0,20,2025-07-18T23:01:00Z,Cinfães,Viseu,Norte,-8.174778,41.075815,Despacho
25699427,Amor,Região de Leiria,310,2025-07-18T23:01:00Z,25699427,Em Curso,3105,Incêndio rural,0,4,0,17,2025-07-18T23:01:00Z,Leiria,Leiria,Centro,-8.877624,39.80124,Curso
25699444,Louredo,Tâmega e Sousa,309,2025-07-18T23:04:00Z,25699444,Em Despacho,3103,Incêndio rural,0,1,0,5,2025-07-18T23:04:00Z,Amarante,Porto,Norte,-8.116431,41.254107,Despacho
25699476,Travancas e Roriz,Alto Tâmega e Barroso,309,2025-07-18T23:16:00Z,25699476,Em Despacho,3103,Incêndio rural,0,0,0,0,2025-07-18T23:16:00Z,Chaves,Vila Real,Norte,-7.31463,41.81636,Despacho
