id,address,subregion,neighborhood,date,id.1,state,nature,nature_description,aerial_means,terrestrial_means,aquatic_means,operational,date.1,Concelho,Distrito,NUTII_DSG,longitude,latitude,state_2
26047987,"Cambeses do Rio, Donões e Mourilhe",Alto Tâmega e Barroso,309,2025-09-26T13:14:00Z,26047987,Em Resolução/Conclusão,3103,Incêndio rural,4,35,0,108,2025-09-26T13:14:00Z,Montalegre,Vila Real,Norte,-7.849698,41.843018,Resolução/Conclusão
26050704,Tortosendo,Beiras e Serra da Estrela,310,2025-09-26T23:04:00Z,26050704,Em Resolução/Conclusão,3103,Incêndio rural,0,23,0,87,2025-09-26T23:04:00Z,Covilhã,Castelo Branco,Centro,-7.521592,40.251592,Resolução/Conclusão
26052397,"Aboadela, Sanche e Várzea",Tâmega e Sousa,309,2025-09-27T10:55:00Z,26052397,Em Resolução/Conclusão,3105,Incêndio rural,0,1,0,5,2025-09-27T10:55:00Z,Amarante,Porto,Norte,-8.00993,41.26211,Resolução/Conclusão
25951176,Sandomil,Beiras e Serra da Estrela,310,2025-09-06T10:29:00Z,25951176,Em Resolução/Conclusão,3103,Incêndio rural,0,2,0,10,2025-09-06T10:29:00Z,Seia,Guarda,Centro,-7.76001,40.351547,Resolução/Conclusão
26052638,Lordelo,Area M. Porto,309,2025-09-27T11:46:00Z,26052638,Em Resolução/Conclusão,3103,Incêndio rural,0,2,0,8,2025-09-27T11:46:00Z,Paredes,Porto,Norte,-8.43634,41.249252,Resolução/Conclusão
26052652,Mosteiro,Beira Baixa,310,2025-09-27T11:49:00Z,26052652,Em Curso,3103,Incêndio rural,4,21,0,94,2025-09-27T11:49:00Z,Oleiros,Castelo Branco,Centro,-7.981143,39.878911,Curso
26013065,Mezio e Moura Morta,Viseu Dão Lafões,310,2025-09-19T11:05:00Z,26013065,Em Resolução/Conclusão,3103,Incêndio rural,0,0,0,0,2025-09-19T11:05:00Z,Castro Daire,Viseu,Centro,-7.878187,40.98632,Resolução/Conclusão
26031908,Arcozelo Das Maias,Viseu Dão Lafões,310,2025-09-23T10:21:00Z,26031908,Em Resolução/Conclusão,3103,Incêndio rural,0,0,0,0,2025-09-23T10:21:00Z,Oliveira De Frades,Viseu,Centro,-8.27871,40.723646,Resolução/Conclusão
26052348,Azias,Alto Minho,309,2025-09-27T10:46:00Z,26052348,Em Resolução/Conclusão,3103,Incêndio rural,0,0,0,0,2025-09-27T10:46:00Z,Ponte Da Barca,Viana Do Castelo,Norte,-8.364072,41.774435,Resolução/Conclusão
26052634,Mafamude e Vilar do Paraíso,Area M. Porto,309,2025-09-27T11:40:00Z,26052634,Em Resolução/Conclusão,3103,Incêndio rural,0,1,0,5,2025-09-27T11:40:00Z,Vila Nova De Gaia,Porto,Norte,-8.611105,41.107184,Resolução/Conclusão
26022995,Bordeira,Algarve,313,2025-09-21T12:21:00Z,26022995,Em Resolução/Conclusão,3103,Incêndio rural,1,10,0,35,2025-09-21T12:21:00Z,Aljezur,Faro,Algarve,-8.825374,37.23495,Resolução/Conclusão
26051256,São João de Ver,Area M. Porto,309,2025-09-27T04:46:00Z,26051256,Em Resolução/Conclusão,3103,Incêndio rural,0,1,0,5,2025-09-27T04:46:00Z,Santa Maria Da Feira,Aveiro,Norte,-8.543754,40.96695,Resolução/Conclusão
26052728,Póvoa de Santa Iria e Forte da Casa,Grande Lisboa,311,2025-09-27T12:01:00Z,26052728,Em Resolução/Conclusão,3103,Incêndio rural,0,1,0,5,2025-09-27T12:01:00Z,Vila Franca De Xira,Lisboa,Área Metropolitana De Lisboa,-9.051508,38.875602,Resolução/Conclusão
26052730,Alvite,Douro,309,2025-09-27T12:05:00Z,26052730,Em Despacho,3103,Incêndio rural,1,4,0,26,2025-09-27T12:05:00Z,Moimenta Da Beira,Viseu,Norte,-7.71847,40.976933,Despacho
