id,address,subregion,neighborhood,date,id.1,state,nature,nature_description,aerial_means,terrestrial_means,aquatic_means,operational,date.1,Concelho,Distrito,NUTII_DSG,longitude,latitude
25552515,Idanha-a-Nova e Alcafozes,Beira Baixa,310,2025-06-20T10:26:00Z,25552515,Em conclusão,3105,Incêndio rural,0,3,0,12,2025-06-20T10:26:00Z,Idanha-a-Nova,Castelo Branco,Centro,-7.161587,39.83646
25553202,Lindoso,Alto Minho,309,2025-06-20T12:29:00Z,25553202,Em conclusão,3103,Incêndio rural,0,2,0,8,2025-06-20T12:29:00Z,Ponte Da Barca,Viana Do Castelo,Norte,-8.24121,41.861148
25553236,Sabadim,Alto Minho,309,2025-06-20T12:39:00Z,25553236,Em conclusão,3101,Incêndio rural,0,3,0,8,2025-06-20T12:39:00Z,Arcos De Valdevez,Viana Do Castelo,Norte,-8.461455,41.907618
25553352,Lomba,Area M. Porto,309,2025-06-20T13:03:00Z,25553352,Em conclusão,3103,Incêndio rural,0,2,0,7,2025-06-20T13:03:00Z,Gondomar,Porto,Norte,-8.425987,41.029597
25553383,Ladoeiro,Beira Baixa,310,2025-06-20T13:10:00Z,25553383,Em conclusão,3105,Incêndio rural,0,1,0,2,2025-06-20T13:10:00Z,Idanha-a-Nova,Castelo Branco,Centro,-7.275773,39.826375
25553468,Benquerenças,Beira Baixa,310,2025-06-20T13:26:00Z,25553468,Em resolução,3101,Incêndio rural,0,10,0,33,2025-06-20T13:26:00Z,Castelo Branco,Castelo Branco,Centro,-7.5872,39.835847
25553485,Nossa Senhora da Tourega e Nossa Senhora de Guadalupe,Alentejo Central,312,2025-06-20T13:29:00Z,25553485,Em conclusão,3105,Incêndio rural,0,0,0,0,2025-06-20T13:29:00Z,Évora,Évora,Alentejo,-8.076643,38.395753
25553888,Massamá e Monte Abraão,Grande Lisboa,311,2025-06-20T14:45:00Z,25553888,Em curso,2101,Incêndio em edifícios habitacionais,0,3,0,9,2025-06-20T14:45:00Z,Sintra,Lisboa,Área Metropolitana De Lisboa,-9.286405,38.749866
25552953,Ameixial,Algarve,313,2025-06-20T11:43:00Z,25552953,Em conclusão,3103,Incêndio rural,0,7,0,15,2025-06-20T11:43:00Z,Loulé,Faro,Algarve,-7.960556,37.36167
25553182,Ceivães e Badim,Alto Minho,309,2025-06-20T12:26:00Z,25553182,Em conclusão,3103,Incêndio rural,0,2,0,6,2025-06-20T12:26:00Z,Monção,Viana Do Castelo,Norte,-8.37627,42.074267
25553364,Carregosa,Area M. Porto,309,2025-06-20T13:00:00Z,25553364,Em conclusão,3101,Incêndio rural,0,8,0,30,2025-06-20T13:00:00Z,Oliveira De Azeméis,Aveiro,Norte,-8.413127,40.881882
25553448,Ruivães e Novais,Ave,309,2025-06-20T13:22:00Z,25553448,Em conclusão,3103,Incêndio rural,0,3,0,11,2025-06-20T13:22:00Z,Vila Nova De Famalicão,Braga,Norte,-8.426976,41.394524
25553455,Belmonte e Colmeal da Torre,Beiras e Serra da Estrela,310,2025-06-20T13:25:00Z,25553455,Em resolução,3103,Incêndio rural,0,6,0,24,2025-06-20T13:25:00Z,Covilhã,Castelo Branco,Centro,-7.352072,40.379908
25553471,Samora Correia,Lezíria do Tejo,311,2025-06-20T13:30:00Z,25553471,Em conclusão,3103,Incêndio rural,0,0,0,0,2025-06-20T13:30:00Z,Benavente,Santarém,Alentejo,-8.916393,38.756655
25553605,Lavradas,Alto Minho,309,2025-06-20T13:56:00Z,25553605,Em conclusão,3103,Incêndio rural,0,1,0,3,2025-06-20T13:56:00Z,Ponte Da Barca,Viana Do Castelo,Norte,-8.471142,41.794153
25553864,Caldas de São Jorge e Pigeiros,Area M. Porto,309,2025-06-20T14:30:00Z,25553864,Em conclusão,3103,Incêndio rural,0,1,0,5,2025-06-20T14:30:00Z,Santa Maria Da Feira,Aveiro,Norte,-8.48706,40.951914
25553875,Ermelo e Pardelhas,Ave,309,2025-06-20T14:38:00Z,25553875,Em curso,3107,Consolidação de rescaldo de incêndio rural,0,1,0,5,2025-06-20T14:38:00Z,Mondim De Basto,Vila Real,Norte,-7.870974,41.353823
25553938,Lomba,Area M. Porto,309,2025-06-20T14:53:00Z,25553938,Em conclusão,3103,Incêndio rural,0,1,0,5,2025-06-20T14:53:00Z,Gondomar,Porto,Norte,-8.398227,41.027647
25553969,"Esposende, Marinhas e Gandra",Cávado,309,2025-06-20T14:55:00Z,25553969,Em despacho,3107,Consolidação de rescaldo de incêndio rural,0,1,0,5,2025-06-20T14:55:00Z,Esposende,Braga,Norte,-8.783658,41.557894
25552413,Vila Chã (São João Baptista e Santiago),Alto Minho,309,2025-06-20T10:11:00Z,25552413,Em curso,3107,Consolidação de rescaldo de incêndio rural,0,1,0,5,2025-06-20T10:11:00Z,Ponte Da Barca,Viana Do Castelo,Norte,-8.321927,41.809178
25553154,Pedrógão,Baixo Alentejo,312,2025-06-20T12:23:00Z,25553154,Em curso,3105,Incêndio rural,6,55,0,174,2025-06-20T12:23:00Z,Vidigueira,Beja,Alentejo,-7.61775,38.179483
25553508,São João da Ribeira e Ribeira de São João,Lezíria do Tejo,311,2025-06-20T13:33:00Z,25553508,Em conclusão,3103,Incêndio rural,0,5,0,15,2025-06-20T13:33:00Z,Rio Maior,Santarém,Alentejo,-8.878438,39.290003
25553715,Ferreira do Alentejo e Canhestros,Baixo Alentejo,312,2025-06-20T14:07:00Z,25553715,Em conclusão,3105,Incêndio rural,0,3,0,11,2025-06-20T14:07:00Z,Ferreira Do Alentejo,Beja,Alentejo,-8.119798,38.056325
25553792,Canelas e Fermelã,Região de Aveiro,310,2025-06-20T14:30:00Z,25553792,Em curso,3103,Incêndio rural,1,3,0,19,2025-06-20T14:30:00Z,Estarreja,Aveiro,Centro,-8.540262,40.696283
25552625,Idanha-a-Nova e Alcafozes,Beira Baixa,310,2025-06-20T10:38:00Z,25552625,Em conclusão,3105,Incêndio rural,0,4,0,8,2025-06-20T10:38:00Z,Idanha-a-Nova,Castelo Branco,Centro,-7.156743,39.833192
25553409,Conceição e Estoi,Algarve,313,2025-06-20T13:13:00Z,25553409,Em conclusão,3103,Incêndio rural,0,5,0,18,2025-06-20T13:13:00Z,Faro,Faro,Algarve,-7.849255,37.082437
25553443,Semide e Rio Vide,Região de Coimbra,310,2025-06-20T13:21:00Z,25553443,Em conclusão,3101,Incêndio rural,0,17,0,59,2025-06-20T13:21:00Z,Miranda Do Corvo,Coimbra,Centro,-8.353843,40.177798
25553626,Samora Correia,Lezíria do Tejo,311,2025-06-20T13:59:00Z,25553626,Em conclusão,3103,Incêndio rural,0,6,0,21,2025-06-20T13:59:00Z,Benavente,Santarém,Alentejo,-8.872114,38.88719
25553679,Lomba,Area M. Porto,309,2025-06-20T14:12:00Z,25553679,Em conclusão,3103,Incêndio rural,0,4,0,17,2025-06-20T14:12:00Z,Gondomar,Porto,Norte,-8.405722,41.033878
25553793,Venteira,Grande Lisboa,311,2025-06-20T14:29:00Z,25553793,Em conclusão,2101,Incêndio em edifícios habitacionais,0,2,0,8,2025-06-20T14:29:00Z,Amadora,Lisboa,Área Metropolitana De Lisboa,-9.244828,38.758772
25553844,São Francisco,Península de Setúbal,311,2025-06-20T14:29:00Z,25553844,Em conclusão,2301,Incêndio em transporte rodoviário,0,1,0,5,2025-06-20T14:29:00Z,Alcochete,Setúbal,Área Metropolitana De Lisboa,-8.969176,38.732997
25553824,Monsanto e Idanha-a-Velha,Beira Baixa,310,2025-06-20T14:34:00Z,25553824,Em curso,3105,Incêndio rural,1,10,0,43,2025-06-20T14:34:00Z,Idanha-a-Nova,Castelo Branco,Centro,-7.10435,40.0447
