id,address,subregion,neighborhood,date,id.1,state,nature,nature_description,aerial_means,terrestrial_means,aquatic_means,operational,date.1,Concelho,Distrito,NUTII_DSG,longitude,latitude
25524712,Venda do Pinheiro e Santo Estêvão Das Galés,Grande Lisboa,311,2025-06-14T13:49:00Z,25524712,Em despacho,3103,Incêndio rural,0,2,0,7,2025-06-14T13:49:00Z,Mafra,Lisboa,Área Metropolitana De Lisboa,-9.258323,38.91072
25524520,Carvalhal,Oeste,311,2025-06-14T13:01:00Z,25524520,Em conclusão,3103,Incêndio rural,0,0,0,0,2025-06-14T13:01:00Z,Bombarral,Leiria,Centro,-9.15718,39.28312
25524575,São João de Lourosa,Viseu Dão Lafões,310,2025-06-14T13:00:00Z,25524575,Em resolução,2115,Incêndio em edifícios hoteleiros e de restauração,0,2,0,5,2025-06-14T13:00:00Z,Viseu,Viseu,Centro,-7.934606,40.611908
25524627,"Real, Ataíde e Oliveira",Tâmega e Sousa,309,2025-06-14T13:24:00Z,25524627,Em conclusão,3105,Incêndio rural,0,1,0,5,2025-06-14T13:24:00Z,Amarante,Porto,Norte,-8.171753,41.252003
25524650,Proença-a-Nova e Peral,Beira Baixa,310,2025-06-14T13:36:00Z,25524650,Em conclusão,2101,Incêndio em edifícios habitacionais,0,4,0,11,2025-06-14T13:36:00Z,Proença-a-Nova,Castelo Branco,Centro,-7.927113,39.753842
25524571,Ermelo e Pardelhas,Ave,309,2025-06-14T13:13:00Z,25524571,Em curso,3103,Incêndio rural,1,3,0,18,2025-06-14T13:13:00Z,Mondim De Basto,Vila Real,Norte,-7.83433,41.37101
25524640,Massamá e Monte Abraão,Grande Lisboa,311,2025-06-14T13:32:00Z,25524640,Em despacho,3103,Incêndio rural,0,2,0,7,2025-06-14T13:32:00Z,Sintra,Lisboa,Área Metropolitana De Lisboa,-9.26528,38.7605
25524479,Beja (Salvador e Santa Maria da Feira),Baixo Alentejo,312,2025-06-14T12:48:00Z,25524479,Em conclusão,3105,Incêndio rural,0,5,0,17,2025-06-14T12:48:00Z,Beja,Beja,Alentejo,-7.860455,38.026057
