id,address,subregion,neighborhood,date,id.1,state,nature,nature_description,aerial_means,terrestrial_means,aquatic_means,operational,date.1,Concelho,Distrito,NUTII_DSG,longitude,latitude,state_2
26120694,Esperança e Brunhais,Ave,309,2025-10-11T11:42:00Z,26120694,Em Resolução/Conclusão,3103,Incêndio rural,5,36,0,126,2025-10-11T11:42:00Z,Póvoa De Lanhoso,Braga,Norte,-8.173805,41.583791,Resolução/Conclusão
26120701,Meca,Oeste,311,2025-10-11T11:43:00Z,26120701,Em Resolução/Conclusão,3103,Incêndio rural,0,8,0,27,2025-10-11T11:43:00Z,Alenquer,Lisboa,Centro,-9.041827,39.087005,Resolução/Conclusão
26121530,Corroios,Península de Setúbal,311,2025-10-11T14:45:00Z,26121530,Em Resolução/Conclusão,3103,Incêndio rural,0,4,0,16,2025-10-11T14:45:00Z,Seixal,Setúbal,Área Metropolitana De Lisboa,-9.15707,38.60734,Resolução/Conclusão
26121737,Ferreiros de Tendais,Tâmega e Sousa,309,2025-10-11T15:26:00Z,26121737,Em Curso,3103,Incêndio rural,1,5,0,28,2025-10-11T15:26:00Z,Cinfães,Viseu,Norte,-8.004192,41.030787,Curso
26121814,Ceira,Região de Coimbra,310,2025-10-11T15:43:00Z,26121814,Em Resolução/Conclusão,3101,Incêndio rural,0,2,0,7,2025-10-11T15:43:00Z,Coimbra,Coimbra,Centro,-8.376144,40.175952,Resolução/Conclusão
26121871,Santa Catarina da Serra e Chainça,Região de Leiria,310,2025-10-11T15:59:00Z,26121871,Em Curso,3101,Incêndio rural,1,3,0,21,2025-10-11T15:59:00Z,Leiria,Leiria,Centro,-8.68881,39.6594,Curso
26119150,Prado (São Miguel),Cávado,309,2025-10-11T01:42:00Z,26119150,Em Resolução/Conclusão,3103,Incêndio rural,0,3,0,5,2025-10-11T01:42:00Z,Vila Verde,Braga,Norte,-8.437767,41.6985,Resolução/Conclusão
26121641,Alvarelhos e Guidões,Area M. Porto,309,2025-10-11T14:55:00Z,26121641,Em Resolução/Conclusão,3103,Incêndio rural,0,3,0,11,2025-10-11T14:55:00Z,Trofa,Porto,Norte,-8.614188,41.293968,Resolução/Conclusão
26121759,Vilela do Tâmega,Alto Tâmega e Barroso,309,2025-10-11T15:32:00Z,26121759,Em Resolução/Conclusão,3103,Incêndio rural,1,5,0,28,2025-10-11T15:32:00Z,Chaves,Vila Real,Norte,-7.545093,41.678248,Resolução/Conclusão
26121943,Afife,Alto Minho,309,2025-10-11T16:12:00Z,26121943,Em Despacho,3105,Incêndio rural,0,0,0,0,2025-10-11T16:12:00Z,Viana Do Castelo,Viana Do Castelo,Norte,-8.845865,41.773817,Despacho
26121945,Jugueiros,Tâmega e Sousa,309,2025-10-11T16:12:00Z,26121945,Em Despacho,3111,Queima,0,1,0,2,2025-10-11T16:12:00Z,Felgueiras,Porto,Norte,-8.201928,41.406052,Despacho
26121958,Valongo,Area M. Porto,309,2025-10-11T16:12:00Z,26121958,Em Despacho,3103,Incêndio rural,0,1,0,5,2025-10-11T16:12:00Z,Valongo,Porto,Norte,-8.48714,41.18783,Despacho
26121930,Cepães e Fareja,Ave,309,2025-10-11T16:08:00Z,26121930,Em Despacho,3111,Queima,0,2,0,7,2025-10-11T16:08:00Z,Fafe,Braga,Norte,-8.213839,41.424494,Despacho
26121932,Gafanha da Nazaré,Região de Aveiro,310,2025-10-11T16:07:00Z,26121932,Em Despacho,3103,Incêndio rural,0,1,0,5,2025-10-11T16:07:00Z,Ílhavo,Aveiro,Centro,-8.710282,40.632581,Despacho
26115854,Gralhas,Alto Tâmega e Barroso,309,2025-10-10T12:13:00Z,26115854,Em Resolução/Conclusão,3103,Incêndio rural,0,7,0,20,2025-10-10T12:13:00Z,Montalegre,Vila Real,Norte,-7.72346,41.854762,Resolução/Conclusão
26121127,Selmes,Baixo Alentejo,312,2025-10-11T13:17:00Z,26121127,Em Resolução/Conclusão,3105,Incêndio rural,0,0,0,0,2025-10-11T13:17:00Z,Vidigueira,Beja,Alentejo,-7.844697,38.190823,Resolução/Conclusão
26121770,Turcifal,Oeste,311,2025-10-11T15:35:00Z,26121770,Em Curso,3103,Incêndio rural,1,4,0,20,2025-10-11T15:35:00Z,Torres Vedras,Lisboa,Centro,-9.27923,39.05674,Curso
26121790,Nevogilde,Tâmega e Sousa,309,2025-10-11T15:39:00Z,26121790,Em Resolução/Conclusão,3105,Incêndio rural,0,1,0,5,2025-10-11T15:39:00Z,Lousada,Porto,Norte,-8.30903,41.25215,Resolução/Conclusão
26121795,Quinta do Conde,Península de Setúbal,311,2025-10-11T15:40:00Z,26121795,Em Resolução/Conclusão,3103,Incêndio rural,1,5,0,30,2025-10-11T15:40:00Z,Sesimbra,Setúbal,Área Metropolitana De Lisboa,-9.08062,38.55183,Resolução/Conclusão
26114630,Seixo da Beira,Região de Coimbra,310,2025-10-10T08:46:00Z,26114630,Em Resolução/Conclusão,3101,Incêndio rural,0,3,0,9,2025-10-10T08:46:00Z,Oliveira Do Hospital,Coimbra,Centro,-7.851872,40.421183,Resolução/Conclusão
26120931,Moimenta e Montouto,Terras de Trás-os-Montes,309,2025-10-11T12:31:00Z,26120931,Em Resolução/Conclusão,3103,Incêndio rural,0,10,0,34,2025-10-11T12:31:00Z,Vinhais,Bragança,Norte,-6.96733,41.954683,Resolução/Conclusão
26121816,Basto,Ave,309,2025-10-11T15:45:00Z,26121816,Em Curso,3103,Incêndio rural,1,3,0,13,2025-10-11T15:45:00Z,Cabeceiras De Basto,Braga,Norte,-7.99202,41.46255,Curso
26121856,"Sandim, Olival, Lever e Crestuma",Area M. Porto,309,2025-10-11T15:45:00Z,26121856,Em Resolução/Conclusão,3111,Queima,0,1,0,5,2025-10-11T15:45:00Z,Vila Nova De Gaia,Porto,Norte,-8.545846,41.046266,Resolução/Conclusão
