id,address,subregion,neighborhood,date,id.1,state,nature,nature_description,aerial_means,terrestrial_means,aquatic_means,operational,date.1,Concelho,Distrito,NUTII_DSG,longitude,latitude
24917165,Serpins,Região de Coimbra,310,2025-02-05T08:54:00Z,24917165,Em despacho,3301,Queda de árvore,0,2,0,2,2025-02-05T08:54:00Z,Lousã,Coimbra,Centro,-8.194131,40.137468
24916924,Azambuja,Lezíria do Tejo,311,2025-02-05T07:51:00Z,24916924,Em despacho,3301,Queda de árvore,0,1,0,2,2025-02-05T07:51:00Z,Azambuja,Lisboa,Alentejo,-8.864506,39.067885
24877003,Malagueira e Horta Das Figueiras,Alentejo Central,312,2025-01-27T11:41:00Z,24877003,Em conclusão,3315,Inundação de estruturas por precipitação intensa,0,0,0,0,2025-01-27T11:41:00Z,Évora,Évora,Alentejo,-7.924277,38.57285
24917095,Moledo e Cristelo,Alto Minho,309,2025-02-05T08:39:00Z,24917095,Em curso,3301,Queda de árvore,0,3,0,5,2025-02-05T08:39:00Z,Caminha,Viana Do Castelo,Norte,-8.855489,41.84725
24917035,Algueirão-Mem Martins,Grande Lisboa,311,2025-02-05T08:24:00Z,24917035,Em despacho,3317,Inundação de estruturas por água canalizada,0,1,0,2,2025-02-05T08:24:00Z,Sintra,Lisboa,Área Metropolitana De Lisboa,-9.3399,38.79855
