id,address,subregion,neighborhood,date,id.1,state,nature,nature_description,aerial_means,terrestrial_means,aquatic_means,operational,date.1,Concelho,Distrito,NUTII_DSG,longitude,latitude
25482200,São João Dos Caldeireiros,Baixo Alentejo,312,2025-06-05T17:13:00Z,25482200,Em conclusão,3105,Incêndio rural,0,15,0,40,2025-06-05T17:13:00Z,Mértola,Beja,Alentejo,-7.81599,37.59366
25483484,Alcanhões,Lezíria do Tejo,311,2025-06-05T23:10:00Z,25483484,Em conclusão,3111,Queima,0,5,0,16,2025-06-05T23:10:00Z,Santarém,Santarém,Alentejo,-8.658855,39.290321
25483532,"Braga (Maximinos, Sé e Cividade)",Cávado,309,2025-06-05T23:30:00Z,25483532,Em curso,3203,Detritos confinados,0,1,0,6,2025-06-05T23:30:00Z,Braga,Braga,Norte,-8.434341,41.5427
25483456,Ventosa e Cova,Ave,309,2025-06-05T22:54:00Z,25483456,Em resolução,3103,Incêndio rural,0,5,0,22,2025-06-05T22:54:00Z,Vieira Do Minho,Braga,Norte,-8.15785,41.668061
25483533,"Aldoar, Foz do Douro e Nevogilde",Area M. Porto,309,2025-06-05T23:31:00Z,25483533,Em curso,3203,Detritos confinados,0,1,0,5,2025-06-05T23:31:00Z,Porto,Porto,Norte,-8.663395,41.14782
