id,address,subregion,neighborhood,date,id.1,state,nature,nature_description,aerial_means,terrestrial_means,aquatic_means,operational,date.1,Concelho,Distrito,NUTII_DSG,longitude,latitude,state_2
26231650,Aljustrel e Rio de Moinhos,Baixo Alentejo,312,2025-11-03T17:56:00Z,26231650,Em Resolução/Conclusão,3103,Incêndio rural,0,5,0,9,2025-11-03T17:56:00Z,Aljustrel,Beja,Alentejo,-8.215128,37.890255,Resolução/Conclusão
26231818,Charneca de Caparica e Sobreda,Península de Setúbal,311,2025-11-03T18:28:00Z,26231818,Em Resolução/Conclusão,3105,Incêndio rural,0,1,0,3,2025-11-03T18:28:00Z,Almada,Setúbal,Área Metropolitana De Lisboa,-9.206824,38.629265,Resolução/Conclusão
26231497,Soajo,Alto Minho,309,2025-11-03T17:22:00Z,26231497,Em Resolução/Conclusão,3103,Incêndio rural,0,1,0,4,2025-11-03T17:22:00Z,Arcos De Valdevez,Viana Do Castelo,Norte,-8.312622,41.874268,Resolução/Conclusão
26231697,"S.maria, S.miguel, S.martinho, S.pedro Penaferrim",Grande Lisboa,311,2025-11-03T18:10:00Z,26231697,Em Despacho,3111,Queima,0,1,0,2,2025-11-03T18:10:00Z,Sintra,Lisboa,Área Metropolitana De Lisboa,-9.3627,38.77127,Despacho
26231646,Este (São Pedro e São Mamede),Cávado,309,2025-11-03T17:50:00Z,26231646,Em Resolução/Conclusão,3111,Queima,0,6,0,19,2025-11-03T17:50:00Z,Braga,Braga,Norte,-8.347967,41.569387999999996,Resolução/Conclusão
