id,address,subregion,neighborhood,date,id.1,state,nature,nature_description,aerial_means,terrestrial_means,aquatic_means,operational,date.1,Concelho,Distrito,NUTII_DSG,longitude,latitude
25497235,Sever do Vouga,Região de Aveiro,310,2025-06-08T19:43:00Z,25497235,Em curso,3101,Incêndio rural,0,4,0,17,2025-06-08T19:43:00Z,Sever Do Vouga,Aveiro,Centro,-8.34418,40.73221
25493974,Costa da Caparica,Península de Setúbal,311,2025-06-08T05:32:00Z,25493974,Em conclusão,3107,Consolidação de rescaldo de incêndio rural,0,5,0,14,2025-06-08T05:32:00Z,Almada,Setúbal,Área Metropolitana De Lisboa,-9.20088,38.58186
25495190,Peva e Segões,Douro,309,2025-06-08T11:17:00Z,25495190,Em conclusão,2127,"Incêndio em edifícios e recintos industriais, oficinas e armazéns",0,4,0,13,2025-06-08T11:17:00Z,Moimenta Da Beira,Viseu,Norte,-7.69063,40.890053
25497316,Gulpilhares e Valadares,Area M. Porto,309,2025-06-08T19:59:00Z,25497316,Em resolução,2301,Incêndio em transporte rodoviário,0,2,0,5,2025-06-08T19:59:00Z,Vila Nova De Gaia,Porto,Norte,-8.637978,41.084091
25496975,Sendim,Tâmega e Sousa,309,2025-06-08T18:32:00Z,25496975,Em conclusão,3103,Incêndio rural,0,5,0,19,2025-06-08T18:32:00Z,Felgueiras,Porto,Norte,-8.191015,41.392435
25497236,Alcabideche,Grande Lisboa,311,2025-06-08T19:42:00Z,25497236,Em resolução,3203,Detritos confinados,0,2,0,10,2025-06-08T19:42:00Z,Cascais,Lisboa,Área Metropolitana De Lisboa,-9.399427,38.741735
