id,address,subregion,neighborhood,date,id.1,state,nature,nature_description,aerial_means,terrestrial_means,aquatic_means,operational,date.1,Concelho,Distrito,NUTII_DSG,longitude,latitude,state_2
25774883,Arnóia,Tâmega e Sousa,309,2025-08-02T18:20:00Z,25774883,Em Resolução/Conclusão,3103,Incêndio rural,0,1,0,1,2025-08-02T18:20:00Z,Celorico De Basto,Braga,Norte,-7.998983,41.348727,Resolução/Conclusão
25818455,Sobral de São Miguel,Beiras e Serra da Estrela,310,2025-08-10T15:02:00Z,25818455,Em Resolução/Conclusão,3103,Incêndio rural,0,13,0,36,2025-08-10T15:02:00Z,Covilhã,Castelo Branco,Centro,-7.77307,40.200173,Resolução/Conclusão
25834631,Paços,Douro,309,2025-08-13T12:57:00Z,25834631,Em Resolução/Conclusão,3103,Incêndio rural,0,4,0,11,2025-08-13T12:57:00Z,Sabrosa,Vila Real,Norte,-7.620647,41.233283,Resolução/Conclusão
25834662,Safara e Santo Aleixo da Restauração,Baixo Alentejo,312,2025-08-13T12:57:00Z,25834662,Em Resolução/Conclusão,3101,Incêndio rural,0,11,0,26,2025-08-13T12:57:00Z,Moura,Beja,Alentejo,-7.02855,38.088503,Resolução/Conclusão
25837154,"Tavares (Chãs, Várzea e Travanca)",Viseu Dão Lafões,310,2025-08-13T21:27:00Z,25837154,Em Resolução/Conclusão,3103,Incêndio rural,0,1,0,5,2025-08-13T21:27:00Z,Mangualde,Viseu,Centro,-7.647492,40.608359,Resolução/Conclusão
25839745,Padroso,Alto Minho,309,2025-08-14T11:41:00Z,25839745,Em Resolução/Conclusão,3103,Incêndio rural,0,1,0,3,2025-08-14T11:41:00Z,Arcos De Valdevez,Viana Do Castelo,Norte,-8.482905,41.941188,Resolução/Conclusão
25839893,Loivos da Ribeira e Tresouras,Tâmega e Sousa,309,2025-08-14T12:07:00Z,25839893,Em Resolução/Conclusão,3103,Incêndio rural,0,1,0,5,2025-08-14T12:07:00Z,Baião,Porto,Norte,-7.92929,41.14354,Resolução/Conclusão
25775263,Torgueda,Douro,309,2025-08-02T19:49:00Z,25775263,Em Resolução/Conclusão,3101,Incêndio rural,0,4,0,15,2025-08-02T19:49:00Z,Vila Real,Vila Real,Norte,-7.785983,41.274952,Resolução/Conclusão
25807426,Alvite,Douro,309,2025-08-08T14:31:00Z,25807426,Em Resolução/Conclusão,3103,Incêndio rural,0,16,0,67,2025-08-08T14:31:00Z,Moimenta Da Beira,Viseu,Norte,-7.688727,40.96613,Resolução/Conclusão
25833839,"Aldeia do Bispo, Águas e Aldeia de João Pires",Beira Baixa,310,2025-08-13T10:37:00Z,25833839,Em Resolução/Conclusão,3103,Incêndio rural,0,6,0,16,2025-08-13T10:37:00Z,Penamacor,Castelo Branco,Centro,-7.165218,40.112668,Resolução/Conclusão
25839580,"Lobão, Gião, Louredo e Guisande",Area M. Porto,309,2025-08-14T11:16:00Z,25839580,Em Resolução/Conclusão,3103,Incêndio rural,0,3,0,11,2025-08-14T11:16:00Z,Santa Maria Da Feira,Aveiro,Norte,-8.478773,40.985247,Resolução/Conclusão
25839850,Cidade da Maia,Area M. Porto,309,2025-08-14T11:59:00Z,25839850,Em Resolução/Conclusão,3105,Incêndio rural,0,7,0,22,2025-08-14T11:59:00Z,Maia,Porto,Norte,-8.606545,41.247692,Resolução/Conclusão
25785983,Caçarilhe e Infesta,Tâmega e Sousa,309,2025-08-04T18:22:00Z,25785983,Em Resolução/Conclusão,3103,Incêndio rural,0,0,0,0,2025-08-04T18:22:00Z,Celorico De Basto,Braga,Norte,-8.04611,41.419858,Resolução/Conclusão
25792058,Cibões e Brufe,Cávado,309,2025-08-05T19:10:00Z,25792058,Em Resolução/Conclusão,3103,Incêndio rural,0,1,0,5,2025-08-05T19:10:00Z,Terras De Bouro,Braga,Norte,-8.293932,41.764918,Resolução/Conclusão
25820422,Távora e Pereiro,Douro,309,2025-08-10T22:27:00Z,25820422,Em Resolução/Conclusão,3103,Incêndio rural,0,83,0,246,2025-08-10T22:27:00Z,Tabuaço,Viseu,Norte,-7.55556,41.097602,Resolução/Conclusão
25832404,Ala e Vilarinho do Monte,Terras de Trás-os-Montes,309,2025-08-13T01:25:00Z,25832404,Em Resolução/Conclusão,3103,Incêndio rural,0,3,0,12,2025-08-13T01:25:00Z,Macedo De Cavaleiros,Bragança,Norte,-7.101645,41.632283,Resolução/Conclusão
25832672,Piódão,Região de Coimbra,310,2025-08-13T05:08:00Z,25832672,Em Curso,3103,Incêndio rural,11,297,0,904,2025-08-13T05:08:00Z,Arganil,Coimbra,Centro,-7.81972,40.23083,Curso
25833258,Vale de Espinho,Beiras e Serra da Estrela,310,2025-08-13T09:00:00Z,25833258,Em Resolução/Conclusão,3103,Incêndio rural,0,1,0,5,2025-08-13T09:00:00Z,Sabugal,Guarda,Centro,-6.92203,40.272065,Resolução/Conclusão
25835176,Faíl e Vila Chã de Sá,Viseu Dão Lafões,310,2025-08-13T14:35:00Z,25835176,Em Resolução/Conclusão,3103,Incêndio rural,0,12,0,40,2025-08-13T14:35:00Z,Viseu,Viseu,Centro,-7.951177,40.594167,Resolução/Conclusão
25836864,Vilarelho da Raia,Alto Tâmega e Barroso,309,2025-08-13T20:15:00Z,25836864,Em Resolução/Conclusão,3103,Incêndio rural,0,6,0,19,2025-08-13T20:15:00Z,Chaves,Vila Real,Norte,-7.499832,41.868443,Resolução/Conclusão
25776263,"Pena, Quintã e Vila Cova",Douro,309,2025-08-02T23:45:00Z,25776263,Em Resolução/Conclusão,3103,Incêndio rural,0,83,0,241,2025-08-02T23:45:00Z,Vila Real,Vila Real,Norte,-7.811902,41.317355,Resolução/Conclusão
25813482,Freches e Torres,Beiras e Serra da Estrela,310,2025-08-09T16:21:00Z,25813482,Em Curso,3103,Incêndio rural,5,145,0,457,2025-08-09T16:21:00Z,Trancoso,Guarda,Centro,-7.363745,40.709022,Curso
25830279,"Pena, Quintã e Vila Cova",Douro,309,2025-08-12T16:21:00Z,25830279,Em Resolução/Conclusão,3103,Incêndio rural,0,1,0,5,2025-08-12T16:21:00Z,Vila Real,Vila Real,Norte,-7.86331,41.318053,Resolução/Conclusão
25830378,Ermidas-Sado,Alentejo Litoral,312,2025-08-12T16:42:00Z,25830378,Em Resolução/Conclusão,3101,Incêndio rural,0,2,0,10,2025-08-12T16:42:00Z,Santiago Do Cacém,Setúbal,Alentejo,-8.407646,38.059897,Resolução/Conclusão
25832250,Ferreira de Aves,Viseu Dão Lafões,310,2025-08-13T00:03:00Z,25832250,Em Curso,3103,Incêndio rural,5,139,0,444,2025-08-13T00:03:00Z,Sátão,Viseu,Centro,-7.647793,40.79568,Curso
25835457,Quirás e Pinheiro Novo,Terras de Trás-os-Montes,309,2025-08-13T15:25:00Z,25835457,Em Resolução/Conclusão,3103,Incêndio rural,1,26,0,86,2025-08-13T15:25:00Z,Vinhais,Bragança,Norte,-7.170375,41.939618,Resolução/Conclusão
25835977,Miranda,Alto Minho,309,2025-08-13T17:03:00Z,25835977,Em Resolução/Conclusão,3103,Incêndio rural,0,0,0,0,2025-08-13T17:03:00Z,Arcos De Valdevez,Viana Do Castelo,Norte,-8.501393,41.825312,Resolução/Conclusão
25836309,Cinfães,Tâmega e Sousa,309,2025-08-13T18:17:00Z,25836309,Em Curso,3103,Incêndio rural,2,38,0,133,2025-08-13T18:17:00Z,Cinfães,Viseu,Norte,-8.071502,41.049757,Curso
25838899,Padreiro (Salvador e Santa Cristina),Alto Minho,309,2025-08-14T09:24:00Z,25838899,Em Resolução/Conclusão,3101,Incêndio rural,0,9,0,30,2025-08-14T09:24:00Z,Arcos De Valdevez,Viana Do Castelo,Norte,-8.495587,41.82739,Resolução/Conclusão
25839152,Boelhe,Tâmega e Sousa,309,2025-08-14T10:08:00Z,25839152,Em Resolução/Conclusão,3103,Incêndio rural,0,2,0,10,2025-08-14T10:08:00Z,Penafiel,Porto,Norte,-8.24862,41.124442,Resolução/Conclusão
25839717,Sobradelo da Goma,Ave,309,2025-08-14T11:40:00Z,25839717,Em Resolução/Conclusão,3103,Incêndio rural,0,1,0,5,2025-08-14T11:40:00Z,Póvoa De Lanhoso,Braga,Norte,-8.183233,41.56592,Resolução/Conclusão
25839974,Nossa Senhora da Graça do Divor,Alentejo Central,312,2025-08-14T12:24:00Z,25839974,Em Resolução/Conclusão,3103,Incêndio rural,1,9,0,42,2025-08-14T12:24:00Z,Évora,Évora,Alentejo,-7.985393,38.673215,Resolução/Conclusão
25839855,Monte e Queimadela,Ave,309,2025-08-14T11:59:00Z,25839855,Em Resolução/Conclusão,3103,Incêndio rural,0,1,0,3,2025-08-14T11:59:00Z,Fafe,Braga,Norte,-8.139465,41.511973,Resolução/Conclusão
25840002,Fânzeres e São Pedro da Cova,Area M. Porto,309,2025-08-14T12:29:00Z,25840002,Em Curso,3103,Incêndio rural,1,4,0,25,2025-08-14T12:29:00Z,Gondomar,Porto,Norte,-8.503951,41.16044,Curso
