id,address,subregion,neighborhood,date,id.1,state,nature,nature_description,aerial_means,terrestrial_means,aquatic_means,operational,date.1,Concelho,Distrito,NUTII_DSG,longitude,latitude,state_2
25749937,Tarouquela,Tâmega e Sousa,309,2025-07-29T04:11:00Z,25749937,Em Curso,3103,Incêndio rural,0,10,0,29,2025-07-29T04:11:00Z,Cinfães,Viseu,Norte,-8.173308,41.072792,Curso
25751046,Castelejo,Beiras e Serra da Estrela,310,2025-07-29T10:13:00Z,25751046,Em Resolução/Conclusão,3103,Incêndio rural,0,1,0,5,2025-07-29T10:13:00Z,Fundão,Castelo Branco,Centro,-7.604291,40.108879,Resolução/Conclusão
25751241,Molelos,Viseu Dão Lafões,310,2025-07-29T10:43:00Z,25751241,Em Resolução/Conclusão,3103,Incêndio rural,0,0,0,0,2025-07-29T10:43:00Z,Tondela,Viseu,Centro,-8.09574,40.551495,Resolução/Conclusão
25751355,"Crato e Mártires, Flor da Rosa e Vale do Peso",Alto Alentejo,312,2025-07-29T10:59:00Z,25751355,Em Resolução/Conclusão,3105,Incêndio rural,0,1,0,5,2025-07-29T10:59:00Z,Crato,Portalegre,Alentejo,-7.641857,39.351982,Resolução/Conclusão
25751893,"Espírito Santo, Nossa Senhora da Graça e São Simão",Alto Alentejo,312,2025-07-29T12:32:00Z,25751893,Em Resolução/Conclusão,3101,Incêndio rural,0,32,0,97,2025-07-29T12:32:00Z,Nisa,Portalegre,Alentejo,-7.634827,39.571162,Resolução/Conclusão
25753170,"Leiria, Pousos, Barreira e Cortes",Região de Leiria,310,2025-07-29T16:36:00Z,25753170,Em Resolução/Conclusão,3101,Incêndio rural,0,1,0,2,2025-07-29T16:36:00Z,Leiria,Leiria,Centro,-8.795755,39.709552,Resolução/Conclusão
25755083,Avelar,Região de Leiria,310,2025-07-30T00:57:00Z,25755083,Em Resolução/Conclusão,3103,Incêndio rural,0,1,0,2,2025-07-30T00:57:00Z,Ansião,Leiria,Centro,-8.341278,39.93576,Resolução/Conclusão
25755669,Lordelo,Area M. Porto,309,2025-07-30T07:51:00Z,25755669,Em Resolução/Conclusão,3103,Incêndio rural,0,1,0,5,2025-07-30T07:51:00Z,Paredes,Porto,Norte,-8.419573,41.244742,Resolução/Conclusão
25758986,São João de Areias,Viseu Dão Lafões,310,2025-07-30T18:19:00Z,25758986,Em Resolução/Conclusão,3103,Incêndio rural,0,0,0,0,2025-07-30T18:19:00Z,Santa Comba Dão,Viseu,Centro,-8.068341,40.390527,Resolução/Conclusão
25759920,Vila Boa do Bispo,Tâmega e Sousa,309,2025-07-30T22:00:00Z,25759920,Em Resolução/Conclusão,3103,Incêndio rural,0,2,0,7,2025-07-30T22:00:00Z,Marco De Canaveses,Porto,Norte,-8.203532,41.120443,Resolução/Conclusão
25760174,Águas Frias,Alto Tâmega e Barroso,309,2025-07-30T23:07:00Z,25760174,Em Resolução/Conclusão,3103,Incêndio rural,0,3,0,14,2025-07-30T23:07:00Z,Chaves,Vila Real,Norte,-7.340632,41.788825,Resolução/Conclusão
25738747,Lindoso,Alto Minho,309,2025-07-26T21:47:00Z,25738747,Em Curso,3103,Incêndio rural,0,151,0,435,2025-07-26T21:47:00Z,Ponte Da Barca,Viana Do Castelo,Norte,-8.220528,41.865272,Curso
25747773,Aranhas,Beira Baixa,310,2025-07-28T16:36:00Z,25747773,Em Resolução/Conclusão,3103,Incêndio rural,0,73,0,221,2025-07-28T16:36:00Z,Penamacor,Castelo Branco,Centro,-7.14438,40.117542,Resolução/Conclusão
25749611,Sameice e Santa Eulália,Beiras e Serra da Estrela,310,2025-07-29T00:44:00Z,25749611,Em Resolução/Conclusão,3103,Incêndio rural,0,1,0,5,2025-07-29T00:44:00Z,Seia,Guarda,Centro,-7.77621,40.42021,Resolução/Conclusão
25750845,Fornos,Tâmega e Sousa,309,2025-07-29T09:46:00Z,25750845,Em Resolução/Conclusão,3103,Incêndio rural,0,6,0,18,2025-07-29T09:46:00Z,Castelo De Paiva,Aveiro,Norte,-8.247077,41.050502,Resolução/Conclusão
25751999,Pombal,Região de Leiria,310,2025-07-29T12:53:00Z,25751999,Em Resolução/Conclusão,3101,Incêndio rural,0,1,0,2,2025-07-29T12:53:00Z,Pombal,Leiria,Centro,-8.6801,39.93227,Resolução/Conclusão
25752083,Alcanede,Lezíria do Tejo,311,2025-07-29T13:12:00Z,25752083,Em Resolução/Conclusão,3103,Incêndio rural,0,31,0,101,2025-07-29T13:12:00Z,Santarém,Santarém,Alentejo,-8.802682,39.405543,Resolução/Conclusão
25756620,Recarei,Area M. Porto,309,2025-07-30T10:47:00Z,25756620,Em Resolução/Conclusão,3103,Incêndio rural,0,68,0,213,2025-07-30T10:47:00Z,Paredes,Porto,Norte,-8.416721,41.151,Resolução/Conclusão
25759946,Santa Cruz,Baixo Alentejo,312,2025-07-30T22:07:00Z,25759946,Em Resolução/Conclusão,3101,Incêndio rural,0,28,0,76,2025-07-30T22:07:00Z,Almodôvar,Beja,Alentejo,-7.93484,37.499542,Resolução/Conclusão
25759957,Ribeira do Neiva,Cávado,309,2025-07-30T22:06:00Z,25759957,Em Resolução/Conclusão,3103,Incêndio rural,0,6,0,21,2025-07-30T22:06:00Z,Vila Verde,Braga,Norte,-8.516458,41.697369,Resolução/Conclusão
25760330,Estorãos,Ave,309,2025-07-31T00:13:00Z,25760330,Em Resolução/Conclusão,3103,Incêndio rural,0,1,0,5,2025-07-31T00:13:00Z,Fafe,Braga,Norte,-8.147223,41.468135,Resolução/Conclusão
25749681,Fornos de Maceira Dão,Viseu Dão Lafões,310,2025-07-29T01:19:00Z,25749681,Em Resolução/Conclusão,3103,Incêndio rural,0,0,0,0,2025-07-29T01:19:00Z,Mangualde,Viseu,Centro,-7.806963,40.617022,Resolução/Conclusão
25750701,Capela,Tâmega e Sousa,309,2025-07-29T09:26:00Z,25750701,Em Curso,3103,Incêndio rural,0,47,0,174,2025-07-29T09:26:00Z,Penafiel,Porto,Norte,-8.345202,41.09353,Curso
25755329,Ansião,Região de Leiria,310,2025-07-30T03:57:00Z,25755329,Em Resolução/Conclusão,3101,Incêndio rural,0,1,0,2,2025-07-30T03:57:00Z,Ansião,Leiria,Centro,-8.413872,39.930002,Resolução/Conclusão
25757286,Santa Cruz do Douro e São Tomé de Covelas,Tâmega e Sousa,309,2025-07-30T12:52:00Z,25757286,Em Curso,3103,Incêndio rural,0,10,0,35,2025-07-30T12:52:00Z,Baião,Porto,Norte,-7.971262,41.122462,Curso
25757971,Ninho do Açor e Sobral do Campo,Beira Baixa,310,2025-07-30T14:54:00Z,25757971,Em Resolução/Conclusão,3101,Incêndio rural,0,8,0,28,2025-07-30T14:54:00Z,Castelo Branco,Castelo Branco,Centro,-7.569988,39.996368,Resolução/Conclusão
25760310,Tendais,Tâmega e Sousa,309,2025-07-31T00:03:00Z,25760310,Em Resolução/Conclusão,3103,Incêndio rural,0,3,0,15,2025-07-31T00:03:00Z,Cinfães,Viseu,Norte,-8.068,41.03646,Resolução/Conclusão
25760312,Castelões,Tâmega e Sousa,309,2025-07-31T00:04:00Z,25760312,Em Resolução/Conclusão,3103,Incêndio rural,0,1,0,5,2025-07-31T00:04:00Z,Penafiel,Porto,Norte,-8.18224,41.219258,Resolução/Conclusão
25760179,Brinches,Baixo Alentejo,312,2025-07-30T22:09:00Z,25760179,Em Resolução/Conclusão,3105,Incêndio rural,0,11,0,33,2025-07-30T22:09:00Z,Serpa,Beja,Alentejo,-7.607163,38.0433,Resolução/Conclusão
25748118,Canelas e Espiunca,Area M. Porto,309,2025-07-28T17:16:00Z,25748118,Em Curso,3101,Incêndio rural,0,240,0,681,2025-07-28T17:16:00Z,Arouca,Aveiro,Norte,-8.212231,40.969918,Curso
25749320,Rebordões (Santa Maria),Alto Minho,309,2025-07-28T22:47:00Z,25749320,Em Curso,3103,Incêndio rural,0,52,0,155,2025-07-28T22:47:00Z,Ponte De Lima,Viana Do Castelo,Norte,-8.588365,41.729993,Curso
25749641,Silva Escura e Dornelas,Região de Aveiro,310,2025-07-29T01:02:00Z,25749641,Em Resolução/Conclusão,3101,Incêndio rural,0,17,0,52,2025-07-29T01:02:00Z,Sever Do Vouga,Aveiro,Centro,-8.399623,40.769354,Resolução/Conclusão
25753666,São Cristóvão de Nogueira,Tâmega e Sousa,309,2025-07-29T18:21:00Z,25753666,Em Curso,3103,Incêndio rural,0,10,0,37,2025-07-29T18:21:00Z,Cinfães,Viseu,Norte,-8.134771,41.05519,Curso
25755320,Aguda,Região de Leiria,310,2025-07-30T03:51:00Z,25755320,Em Resolução/Conclusão,3101,Incêndio rural,0,1,0,2,2025-07-30T03:51:00Z,Figueiró Dos Vinhos,Leiria,Centro,-8.325572,39.927893,Resolução/Conclusão
25756006,Pinhanços,Beiras e Serra da Estrela,310,2025-07-30T09:07:00Z,25756006,Em Resolução/Conclusão,3103,Incêndio rural,0,21,0,69,2025-07-30T09:07:00Z,Seia,Guarda,Centro,-7.708132,40.473517,Resolução/Conclusão
25756459,Nespereira,Tâmega e Sousa,309,2025-07-30T10:20:00Z,25756459,Em Curso,3103,Incêndio rural,0,15,0,62,2025-07-30T10:20:00Z,Cinfães,Viseu,Norte,-8.130378,41.039695,Curso
25758448,São Cristóvão de Nogueira,Tâmega e Sousa,309,2025-07-30T16:26:00Z,25758448,Em Resolução/Conclusão,3101,Incêndio rural,0,1,0,5,2025-07-30T16:26:00Z,Cinfães,Viseu,Norte,-8.12263,41.07751,Resolução/Conclusão
25759936,Almodôvar e Graça Dos Padrões,Baixo Alentejo,312,2025-07-30T22:00:00Z,25759936,Em Resolução/Conclusão,3105,Incêndio rural,0,5,0,16,2025-07-30T22:00:00Z,Almodôvar,Beja,Alentejo,-7.964508,37.526866,Resolução/Conclusão
25760086,Vila Seca,Cávado,309,2025-07-30T22:47:00Z,25760086,Em Resolução/Conclusão,3103,Incêndio rural,0,2,0,7,2025-07-30T22:47:00Z,Barcelos,Braga,Norte,-8.68122,41.49458,Resolução/Conclusão
