id,address,subregion,neighborhood,date,id.1,state,nature,nature_description,aerial_means,terrestrial_means,aquatic_means,operational,date.1,Concelho,Distrito,NUTII_DSG,longitude,latitude
25059714,Torrão,Alentejo Litoral,312,2025-03-08T22:10:00Z,25059714,Em curso,1101,Cheia,0,0,0,0,2025-03-08T22:10:00Z,Alcácer Do Sal,Setúbal,Alentejo,-8.359133,38.252053
25070044,Praia do Ribatejo,Médio Tejo,311,2025-03-10T19:30:00Z,25070044,Em curso,1101,Cheia,0,0,0,0,2025-03-10T19:30:00Z,Vila Nova Da Barquinha,Santarém,Centro,-8.357309,39.485638
25071496,São Manços e São Vicente do Pigeiro,Alentejo Central,312,2025-03-11T13:18:00Z,25071496,Em curso,1101,Cheia,0,2,0,4,2025-03-11T13:18:00Z,Évora,Évora,Alentejo,-7.713313,38.513673
25078452,Queluz e Belas,Grande Lisboa,311,2025-03-12T21:14:00Z,25078452,Em despacho,3321,Dano na rede de fornecimento de eletricidade ,0,1,0,2,2025-03-12T21:14:00Z,Sintra,Lisboa,Área Metropolitana De Lisboa,-9.253541,38.753134
25078454,Laranjeiro e Feijó,Península de Setúbal,311,2025-03-12T21:29:00Z,25078454,Em despacho,3321,Dano na rede de fornecimento de eletricidade ,0,1,0,5,2025-03-12T21:29:00Z,Almada,Setúbal,Área Metropolitana De Lisboa,-9.14957,38.65725
25067716,Salir,Algarve,313,2025-03-10T18:27:00Z,25067716,Em curso,3313,Deslizamento de terras,0,0,0,0,2025-03-10T18:27:00Z,Loulé,Faro,Algarve,-7.957935,37.23457
25068300,Almeirim,Lezíria do Tejo,311,2025-03-10T20:52:00Z,25068300,Em curso,1101,Cheia,0,0,0,0,2025-03-10T20:52:00Z,Almeirim,Santarém,Alentejo,-8.635002,39.187436
25077460,"Évora (São Mamede, Sé, São Pedro e Santo Antão)",Alentejo Central,312,2025-03-12T17:05:00Z,25077460,Em resolução,3315,Inundação de estruturas por precipitação intensa,0,1,0,2,2025-03-12T17:05:00Z,Évora,Évora,Alentejo,-7.907024,38.574532
25077771,Charneca de Caparica e Sobreda,Península de Setúbal,311,2025-03-12T18:25:00Z,25077771,Em curso,3301,Queda de árvore,0,3,0,7,2025-03-12T18:25:00Z,Almada,Setúbal,Área Metropolitana De Lisboa,-9.16783,38.57955
25078060,Lousã e Vilarinho,Região de Coimbra,310,2025-03-12T19:35:00Z,25078060,Em despacho,3313,Deslizamento de terras,0,0,0,0,2025-03-12T19:35:00Z,Lousã,Coimbra,Centro,-8.243385,40.12032
25057015,Santa Maria do Castelo e Santiago e Santa Susana,Alentejo Litoral,312,2025-03-08T10:20:00Z,25057015,Em curso,1101,Cheia,0,0,0,0,2025-03-08T10:20:00Z,Alcácer Do Sal,Setúbal,Alentejo,-8.432801,38.398147
25063232,Santa Maria do Castelo e Santiago e Santa Susana,Alentejo Litoral,312,2025-03-09T19:02:00Z,25063232,Em curso,1101,Cheia,0,0,0,0,2025-03-09T19:02:00Z,Alcácer Do Sal,Setúbal,Alentejo,-8.48167,38.29806
