id,address,subregion,neighborhood,date,id.1,state,nature,nature_description,aerial_means,terrestrial_means,aquatic_means,operational,date.1,Concelho,Distrito,NUTII_DSG,longitude,latitude
25273380,Azeitão (São Lourenço e São Simão),Península de Setúbal,311,2025-04-22T18:26:00Z,25273380,Em despacho,3301,Queda de árvore,0,1,0,5,2025-04-22T18:26:00Z,Setúbal,Setúbal,Área Metropolitana De Lisboa,-9.033171,38.51723
25273389,Gafanha da Nazaré,Região de Aveiro,310,2025-04-22T18:31:00Z,25273389,Em despacho,3317,Inundação de estruturas por água canalizada,0,1,0,4,2025-04-22T18:31:00Z,Ílhavo,Aveiro,Centro,-8.756128,40.641907
25071496,São Manços e São Vicente do Pigeiro,Alentejo Central,312,2025-03-11T13:18:00Z,25071496,Em conclusão,1101,Cheia,0,0,0,0,2025-03-11T13:18:00Z,Évora,Évora,Alentejo,-7.713313,38.513673
25273101,Arrifana,Região de Coimbra,310,2025-04-22T17:20:00Z,25273101,Em despacho,3301,Queda de árvore,0,1,0,2,2025-04-22T17:20:00Z,Vila Nova De Poiares,Coimbra,Centro,-8.28706,40.239146
25273232,Souto da Carpalhosa e Ortigosa,Região de Leiria,310,2025-04-22T17:48:00Z,25273232,Em despacho,3317,Inundação de estruturas por água canalizada,0,1,0,2,2025-04-22T17:48:00Z,Leiria,Leiria,Centro,-8.790918,39.845615
