id,address,subregion,neighborhood,date,id.1,state,nature,nature_description,aerial_means,terrestrial_means,aquatic_means,operational,date.1,Concelho,Distrito,NUTII_DSG,longitude,latitude,state_2
25832672,Piódão,Região de Coimbra,310,2025-08-13T05:08:00Z,25832672,Em Resolução/Conclusão,3103,Incêndio rural,0,19,0,57,2025-08-13T05:08:00Z,Arganil,Coimbra,Centro,-7.81972,40.23083,Resolução/Conclusão
25840417,Lousã e Vilarinho,Região de Coimbra,310,2025-08-14T13:46:00Z,25840417,Em Resolução/Conclusão,3101,Incêndio rural,0,1,0,1,2025-08-14T13:46:00Z,Lousã,Coimbra,Centro,-8.201561,40.080016,Resolução/Conclusão
25929520,Pitões Das Junias,Alto Tâmega e Barroso,309,2025-09-01T16:18:00Z,25929520,Em Resolução/Conclusão,3103,Incêndio rural,0,1,0,2,2025-09-01T16:18:00Z,Montalegre,Vila Real,Norte,-7.949417,41.807492,Resolução/Conclusão
25932417,Nossa Senhora de Fátima,Médio Tejo,311,2025-09-02T10:23:00Z,25932417,Em Resolução/Conclusão,3103,Incêndio rural,0,1,0,2,2025-09-02T10:23:00Z,Entroncamento,Santarém,Centro,-8.48924,39.458562,Resolução/Conclusão
25928763,Calvão e Soutelinho da Raia,Alto Tâmega e Barroso,309,2025-09-01T13:46:00Z,25928763,Em Resolução/Conclusão,3103,Incêndio rural,0,7,0,15,2025-09-01T13:46:00Z,Chaves,Vila Real,Norte,-7.570508,41.805473,Resolução/Conclusão
25932474,Vaiamonte,Alto Alentejo,312,2025-09-02T10:30:00Z,25932474,Em Resolução/Conclusão,3103,Incêndio rural,1,8,0,41,2025-09-02T10:30:00Z,Monforte,Portalegre,Alentejo,-7.47818,39.12844,Resolução/Conclusão
