id,address,subregion,neighborhood,date,id.1,state,nature,nature_description,aerial_means,terrestrial_means,aquatic_means,operational,date.1,Concelho,Distrito,NUTII_DSG,longitude,latitude,state_2
26140802,Talhadas,Região de Aveiro,310,2025-10-15T13:42:00Z,26140802,Em Resolução/Conclusão,3101,Incêndio rural,0,1,0,5,2025-10-15T13:42:00Z,Sever Do Vouga,Aveiro,Centro,-8.320335,40.682953,Resolução/Conclusão
26143696,Guarda,Beiras e Serra da Estrela,310,2025-10-16T05:20:00Z,26143696,Em Resolução/Conclusão,3103,Incêndio rural,0,4,0,13,2025-10-16T05:20:00Z,Guarda,Guarda,Centro,-7.275577,40.531809,Resolução/Conclusão
26143684,Rio Douro,Ave,309,2025-10-16T05:05:00Z,26143684,Em Resolução/Conclusão,3103,Incêndio rural,0,2,0,8,2025-10-16T05:05:00Z,Cabeceiras De Basto,Braga,Norte,-7.91014,41.586105,Resolução/Conclusão
26143768,"Geraz do Lima (S.maria, S.leocádia, Moreira), Deão",Alto Minho,309,2025-10-16T06:20:00Z,26143768,Em Resolução/Conclusão,3103,Incêndio rural,0,3,0,7,2025-10-16T06:20:00Z,Viana Do Castelo,Viana Do Castelo,Norte,-8.671058,41.6898,Resolução/Conclusão
26144336,Fornos,Tâmega e Sousa,309,2025-10-16T09:25:00Z,26144336,Em Resolução/Conclusão,3103,Incêndio rural,0,3,0,9,2025-10-16T09:25:00Z,Castelo De Paiva,Aveiro,Norte,-8.240985,41.055373,Resolução/Conclusão
26142678,Basto (São Clemente),Tâmega e Sousa,309,2025-10-15T20:09:00Z,26142678,Em Resolução/Conclusão,3103,Incêndio rural,0,2,0,7,2025-10-15T20:09:00Z,Celorico De Basto,Braga,Norte,-8.069937,41.46891,Resolução/Conclusão
26143700,Eiras e Mei,Alto Minho,309,2025-10-16T07:00:00Z,26143700,Em Resolução/Conclusão,3103,Incêndio rural,0,3,0,9,2025-10-16T07:00:00Z,Arcos De Valdevez,Viana Do Castelo,Norte,-8.467538,41.929205,Resolução/Conclusão
26144800,Cedovim,Douro,309,2025-10-16T10:44:00Z,26144800,Em Despacho,3103,Incêndio rural,1,3,0,16,2025-10-16T10:44:00Z,Vila Nova De Foz Côa,Guarda,Norte,-7.280503,41.04329,Despacho
