id,address,subregion,neighborhood,date,id.1,state,nature,nature_description,aerial_means,terrestrial_means,aquatic_means,operational,date.1,Concelho,Distrito,NUTII_DSG,longitude,latitude,state_2
26022995,Bordeira,Algarve,313,2025-09-21T12:21:00Z,26022995,Em Resolução/Conclusão,3103,Incêndio rural,0,4,0,13,2025-09-21T12:21:00Z,Aljezur,Faro,Algarve,-8.825374,37.23495,Resolução/Conclusão
26077823,São Cipriano e Vil de Souto,Viseu Dão Lafões,310,2025-10-02T14:18:00Z,26077823,Em Resolução/Conclusão,3103,Incêndio rural,0,1,0,2,2025-10-02T14:18:00Z,Viseu,Viseu,Centro,-7.953868,40.632302,Resolução/Conclusão
26085644,Rio de Moinhos,Tâmega e Sousa,309,2025-10-04T06:25:00Z,26085644,Em Resolução/Conclusão,3103,Incêndio rural,0,1,0,5,2025-10-04T06:25:00Z,Penafiel,Porto,Norte,-8.265274,41.106361,Resolução/Conclusão
26086080,Sebal e Belide,Região de Coimbra,310,2025-10-04T09:02:00Z,26086080,Em Despacho,3101,Incêndio rural,1,6,0,26,2025-10-04T09:02:00Z,Condeixa-a-Nova,Coimbra,Centro,-8.536649,40.118765,Despacho
26078806,"Tavares (Chãs, Várzea e Travanca)",Viseu Dão Lafões,310,2025-10-02T17:31:00Z,26078806,Em Resolução/Conclusão,3103,Incêndio rural,0,2,0,7,2025-10-02T17:31:00Z,Mangualde,Viseu,Centro,-7.638958,40.609205,Resolução/Conclusão
26086056,Água Longa,Area M. Porto,309,2025-10-04T08:57:00Z,26086056,Em Despacho,3103,Incêndio rural,0,1,0,5,2025-10-04T08:57:00Z,Santo Tirso,Porto,Norte,-8.50627,41.26086,Despacho
