id,address,subregion,neighborhood,date,id.1,state,nature,nature_description,aerial_means,terrestrial_means,aquatic_means,operational,date.1,Concelho,Distrito,NUTII_DSG,longitude,latitude
25192272,"S. Mig. Pinheiro, S. Pedro Solis e S. Sebastião Carros",Baixo Alentejo,312,2025-04-04T02:18:00Z,25192272,Em despacho,3301,Queda de árvore,0,2,0,4,2025-04-04T02:18:00Z,Mértola,Beja,Alentejo,-7.823645,37.529984
25113184,Castanheira do Ribatejo e Cachoeiras,Grande Lisboa,311,2025-03-20T01:20:00Z,25113184,Em despacho,3301,Queda de árvore,0,0,0,0,2025-03-20T01:20:00Z,Vila Franca De Xira,Lisboa,Área Metropolitana De Lisboa,-8.979234,38.999552
25192264,Queluz e Belas,Grande Lisboa,311,2025-04-04T02:15:00Z,25192264,Em conclusão,3321,Dano na rede de fornecimento de eletricidade ,0,1,0,2,2025-04-04T02:15:00Z,Sintra,Lisboa,Área Metropolitana De Lisboa,-9.27025,38.7769
25070044,Praia do Ribatejo,Médio Tejo,311,2025-03-10T19:30:00Z,25070044,Em curso,1101,Cheia,0,0,0,0,2025-03-10T19:30:00Z,Vila Nova Da Barquinha,Santarém,Centro,-8.357309,39.485638
25071496,São Manços e São Vicente do Pigeiro,Alentejo Central,312,2025-03-11T13:18:00Z,25071496,Em conclusão,1101,Cheia,0,0,0,0,2025-03-11T13:18:00Z,Évora,Évora,Alentejo,-7.713313,38.513673
25137544,Dois Portos e Runa,Oeste,311,2025-03-23T13:41:00Z,25137544,Em conclusão,3313,Deslizamento de terras,0,0,0,0,2025-03-23T13:41:00Z,Torres Vedras,Lisboa,Centro,-9.178343,39.036686
25068300,Almeirim,Lezíria do Tejo,311,2025-03-10T20:52:00Z,25068300,Em curso,1101,Cheia,0,0,0,0,2025-03-10T20:52:00Z,Almeirim,Santarém,Alentejo,-8.635002,39.187436
25192233,São Luís,Alentejo Litoral,312,2025-04-04T01:20:00Z,25192233,Em despacho,3301,Queda de árvore,0,2,0,4,2025-04-04T01:20:00Z,Odemira,Beja,Alentejo,-8.672918,37.714048
