id,address,subregion,neighborhood,date,id.1,state,nature,nature_description,aerial_means,terrestrial_means,aquatic_means,operational,date.1,Concelho,Distrito,NUTII_DSG,longitude,latitude,state_2
25749681,Fornos de Maceira Dão,Viseu Dão Lafões,310,2025-07-29T01:19:00Z,25749681,Em Resolução/Conclusão,3103,Incêndio rural,0,5,0,16,2025-07-29T01:19:00Z,Mangualde,Viseu,Centro,-7.806963,40.617022,Resolução/Conclusão
25750701,Capela,Tâmega e Sousa,309,2025-07-29T09:26:00Z,25750701,Em Curso,3103,Incêndio rural,2,43,0,159,2025-07-29T09:26:00Z,Penafiel,Porto,Norte,-8.345202,41.09353,Curso
25755329,Ansião,Região de Leiria,310,2025-07-30T03:57:00Z,25755329,Em Resolução/Conclusão,3101,Incêndio rural,0,1,0,2,2025-07-30T03:57:00Z,Ansião,Leiria,Centro,-8.413872,39.930002,Resolução/Conclusão
25756750,Rates,Area M. Porto,309,2025-07-30T11:07:00Z,25756750,Em Resolução/Conclusão,3103,Incêndio rural,0,1,0,3,2025-07-30T11:07:00Z,Póvoa De Varzim,Porto,Norte,-8.69194,41.4325,Resolução/Conclusão
25756817,"Lobão, Gião, Louredo e Guisande",Area M. Porto,309,2025-07-30T11:20:00Z,25756817,Em Despacho,3103,Incêndio rural,0,1,0,4,2025-07-30T11:20:00Z,Santa Maria Da Feira,Aveiro,Norte,-8.484031,40.98805,Despacho
25748118,Canelas e Espiunca,Area M. Porto,309,2025-07-28T17:16:00Z,25748118,Em Curso,3101,Incêndio rural,7,264,0,774,2025-07-28T17:16:00Z,Arouca,Aveiro,Norte,-8.212231,40.969918,Curso
25749320,Rebordões (Santa Maria),Alto Minho,309,2025-07-28T22:47:00Z,25749320,Em Curso,3103,Incêndio rural,0,52,0,167,2025-07-28T22:47:00Z,Ponte De Lima,Viana Do Castelo,Norte,-8.588365,41.729993,Curso
25749641,Silva Escura e Dornelas,Região de Aveiro,310,2025-07-29T01:02:00Z,25749641,Em Resolução/Conclusão,3101,Incêndio rural,0,27,0,77,2025-07-29T01:02:00Z,Sever Do Vouga,Aveiro,Centro,-8.399623,40.769354,Resolução/Conclusão
25753666,São Cristóvão de Nogueira,Tâmega e Sousa,309,2025-07-29T18:21:00Z,25753666,Em Curso,3103,Incêndio rural,0,5,0,16,2025-07-29T18:21:00Z,Cinfães,Viseu,Norte,-8.134771,41.05519,Curso
25755320,Aguda,Região de Leiria,310,2025-07-30T03:51:00Z,25755320,Em Resolução/Conclusão,3101,Incêndio rural,0,1,0,2,2025-07-30T03:51:00Z,Figueiró Dos Vinhos,Leiria,Centro,-8.325572,39.927893,Resolução/Conclusão
25755507,Antime e Silvares (São Clemente),Ave,309,2025-07-30T06:42:00Z,25755507,Em Resolução/Conclusão,3103,Incêndio rural,0,1,0,5,2025-07-30T06:42:00Z,Fafe,Braga,Norte,-8.16342,41.430679,Resolução/Conclusão
25755571,Maceira,Beiras e Serra da Estrela,310,2025-07-30T07:20:00Z,25755571,Em Resolução/Conclusão,3103,Incêndio rural,0,1,0,5,2025-07-30T07:20:00Z,Fornos De Algodres,Guarda,Centro,-7.475667,40.697278,Resolução/Conclusão
25756006,Pinhanços,Beiras e Serra da Estrela,310,2025-07-30T09:07:00Z,25756006,Em Curso,3103,Incêndio rural,5,54,0,182,2025-07-30T09:07:00Z,Seia,Guarda,Centro,-7.708132,40.473517,Curso
25756459,Santiago de Piães,Tâmega e Sousa,309,2025-07-30T10:20:00Z,25756459,Em Curso,3103,Incêndio rural,0,4,0,17,2025-07-30T10:20:00Z,Cinfães,Viseu,Norte,-8.142972,41.051255,Curso
25756626,Pinelo,Terras de Trás-os-Montes,309,2025-07-30T10:45:00Z,25756626,Em Resolução/Conclusão,3103,Incêndio rural,0,2,0,6,2025-07-30T10:45:00Z,Vimioso,Bragança,Norte,-6.545307,41.675165,Resolução/Conclusão
25757045,Fazendas de Almeirim,Lezíria do Tejo,311,2025-07-30T12:00:00Z,25757045,Em Resolução/Conclusão,3105,Incêndio rural,0,8,0,26,2025-07-30T12:00:00Z,Almeirim,Santarém,Alentejo,-8.59723,39.17913,Resolução/Conclusão
25757061,Fátima,Médio Tejo,311,2025-07-30T12:03:00Z,25757061,Em Resolução/Conclusão,3103,Incêndio rural,1,6,0,26,2025-07-30T12:03:00Z,Ourém,Santarém,Centro,-8.650169,39.617565,Resolução/Conclusão
25757075,"Enxara do Bispo, Gradil e Vila Franca do Rosário",Grande Lisboa,311,2025-07-30T11:56:00Z,25757075,Em Resolução/Conclusão,3103,Incêndio rural,0,2,0,10,2025-07-30T11:56:00Z,Mafra,Lisboa,Área Metropolitana De Lisboa,-9.267426,38.975485,Resolução/Conclusão
25756818,Beça,Alto Tâmega e Barroso,309,2025-07-30T11:19:00Z,25756818,Em Resolução/Conclusão,3101,Incêndio rural,1,6,0,28,2025-07-30T11:19:00Z,Boticas,Vila Real,Norte,-7.696038,41.690308,Resolução/Conclusão
25756967,Miragaia e Marteleira,Oeste,311,2025-07-30T11:44:00Z,25756967,Em Resolução/Conclusão,3103,Incêndio rural,0,1,0,5,2025-07-30T11:44:00Z,Lourinhã,Lisboa,Centro,-9.273663,39.219518,Resolução/Conclusão
25757067,Canas de Senhorim,Viseu Dão Lafões,310,2025-07-30T12:03:00Z,25757067,Em Despacho,3105,Incêndio rural,0,4,0,13,2025-07-30T12:03:00Z,Nelas,Viseu,Centro,-7.896051,40.486662,Despacho
25757118,Arouca e Burgo,Area M. Porto,309,2025-07-30T12:15:00Z,25757118,Em Despacho,3103,Incêndio rural,0,0,0,0,2025-07-30T12:15:00Z,Arouca,Aveiro,Norte,-8.239701,40.92879,Despacho
25749937,Tarouquela,Tâmega e Sousa,309,2025-07-29T04:11:00Z,25749937,Em Curso,3103,Incêndio rural,1,18,0,67,2025-07-29T04:11:00Z,Cinfães,Viseu,Norte,-8.173308,41.072792,Curso
25751046,Castelejo,Beiras e Serra da Estrela,310,2025-07-29T10:13:00Z,25751046,Em Resolução/Conclusão,3103,Incêndio rural,0,5,0,15,2025-07-29T10:13:00Z,Fundão,Castelo Branco,Centro,-7.604291,40.108879,Resolução/Conclusão
25751241,Molelos,Viseu Dão Lafões,310,2025-07-29T10:43:00Z,25751241,Em Resolução/Conclusão,3103,Incêndio rural,0,6,0,21,2025-07-29T10:43:00Z,Tondela,Viseu,Centro,-8.09574,40.551495,Resolução/Conclusão
25751355,"Crato e Mártires, Flor da Rosa e Vale do Peso",Alto Alentejo,312,2025-07-29T10:59:00Z,25751355,Em Resolução/Conclusão,3103,Incêndio rural,0,1,0,4,2025-07-29T10:59:00Z,Crato,Portalegre,Alentejo,-7.641857,39.351982,Resolução/Conclusão
25751893,"Espírito Santo, Nossa Senhora da Graça e São Simão",Alto Alentejo,312,2025-07-29T12:32:00Z,25751893,Em Resolução/Conclusão,3101,Incêndio rural,0,95,0,291,2025-07-29T12:32:00Z,Nisa,Portalegre,Alentejo,-7.634827,39.571162,Resolução/Conclusão
25753170,"Leiria, Pousos, Barreira e Cortes",Região de Leiria,310,2025-07-29T16:36:00Z,25753170,Em Resolução/Conclusão,3101,Incêndio rural,0,4,0,8,2025-07-29T16:36:00Z,Leiria,Leiria,Centro,-8.795755,39.709552,Resolução/Conclusão
25755083,Avelar,Região de Leiria,310,2025-07-30T00:57:00Z,25755083,Em Resolução/Conclusão,3103,Incêndio rural,0,1,0,2,2025-07-30T00:57:00Z,Ansião,Leiria,Centro,-8.341278,39.93576,Resolução/Conclusão
25755226,Rio Tinto,Area M. Porto,309,2025-07-30T02:30:00Z,25755226,Em Resolução/Conclusão,3103,Incêndio rural,0,4,0,14,2025-07-30T02:30:00Z,Gondomar,Porto,Norte,-8.566772,41.17757,Resolução/Conclusão
25755317,Oliveira do Douro,Tâmega e Sousa,309,2025-07-30T03:45:00Z,25755317,Em Resolução/Conclusão,3103,Incêndio rural,0,2,0,6,2025-07-30T03:45:00Z,Cinfães,Viseu,Norte,-8.075338,41.08348,Resolução/Conclusão
25755669,Lordelo,Area M. Porto,309,2025-07-30T07:51:00Z,25755669,Em Curso,3103,Incêndio rural,0,18,0,75,2025-07-30T07:51:00Z,Paredes,Porto,Norte,-8.419573,41.244742,Curso
25756355,Padreiro (Salvador e Santa Cristina),Alto Minho,309,2025-07-30T10:02:00Z,25756355,Em Resolução/Conclusão,3103,Incêndio rural,0,5,0,21,2025-07-30T10:02:00Z,Arcos De Valdevez,Viana Do Castelo,Norte,-8.492345,41.833095,Resolução/Conclusão
25756403,Charneca de Caparica e Sobreda,Península de Setúbal,311,2025-07-30T10:10:00Z,25756403,Em Resolução/Conclusão,3103,Incêndio rural,0,0,0,0,2025-07-30T10:10:00Z,Almada,Setúbal,Área Metropolitana De Lisboa,-9.183803,38.658318,Resolução/Conclusão
25756932,Samora Correia,Lezíria do Tejo,311,2025-07-30T11:38:00Z,25756932,Em Resolução/Conclusão,3105,Incêndio rural,0,3,0,7,2025-07-30T11:38:00Z,Benavente,Santarém,Alentejo,-8.866387,38.919452,Resolução/Conclusão
25756948,Guia,Algarve,313,2025-07-30T11:42:00Z,25756948,Em Resolução/Conclusão,3103,Incêndio rural,0,4,0,14,2025-07-30T11:42:00Z,Albufeira,Faro,Algarve,-8.28722,37.13778,Resolução/Conclusão
25756998,Soutelo de Aguiar,Alto Tâmega e Barroso,309,2025-07-30T11:50:00Z,25756998,Em Despacho,3103,Incêndio rural,0,2,0,10,2025-07-30T11:50:00Z,Vila Pouca De Aguiar,Vila Real,Norte,-7.657813,41.480932,Despacho
25757023,Pedrouços,Area M. Porto,309,2025-07-30T11:56:00Z,25757023,Em Curso,3103,Incêndio rural,0,1,0,6,2025-07-30T11:56:00Z,Maia,Porto,Norte,-8.59438,41.19943,Curso
25738747,Lindoso,Alto Minho,309,2025-07-26T21:47:00Z,25738747,Em Curso,3103,Incêndio rural,6,124,0,388,2025-07-26T21:47:00Z,Ponte Da Barca,Viana Do Castelo,Norte,-8.220528,41.865272,Curso
25747773,Aranhas,Beira Baixa,310,2025-07-28T16:36:00Z,25747773,Em Resolução/Conclusão,3103,Incêndio rural,1,114,0,348,2025-07-28T16:36:00Z,Penamacor,Castelo Branco,Centro,-7.14438,40.117542,Resolução/Conclusão
25749611,Sameice e Santa Eulália,Beiras e Serra da Estrela,310,2025-07-29T00:44:00Z,25749611,Em Resolução/Conclusão,3103,Incêndio rural,0,1,0,5,2025-07-29T00:44:00Z,Seia,Guarda,Centro,-7.77621,40.42021,Resolução/Conclusão
25750845,Fornos,Tâmega e Sousa,309,2025-07-29T09:46:00Z,25750845,Em Resolução/Conclusão,3103,Incêndio rural,0,13,0,43,2025-07-29T09:46:00Z,Castelo De Paiva,Aveiro,Norte,-8.247077,41.050502,Resolução/Conclusão
25751999,Pombal,Região de Leiria,310,2025-07-29T12:53:00Z,25751999,Em Resolução/Conclusão,3101,Incêndio rural,0,4,0,9,2025-07-29T12:53:00Z,Pombal,Leiria,Centro,-8.6801,39.93227,Resolução/Conclusão
25752083,Alcanede,Lezíria do Tejo,311,2025-07-29T13:12:00Z,25752083,Em Resolução/Conclusão,3103,Incêndio rural,0,86,0,267,2025-07-29T13:12:00Z,Santarém,Santarém,Alentejo,-8.802682,39.405543,Resolução/Conclusão
25755311,"Bagunte, Ferreiró, Outeiro Maior e Parada",Area M. Porto,309,2025-07-30T03:35:00Z,25755311,Em Resolução/Conclusão,3103,Incêndio rural,0,3,0,9,2025-07-30T03:35:00Z,Vila Do Conde,Porto,Norte,-8.679147,41.35679,Resolução/Conclusão
25755418,"Silvares, Pias, Nogueira e Alvarenga",Tâmega e Sousa,309,2025-07-30T05:16:00Z,25755418,Em Resolução/Conclusão,3103,Incêndio rural,0,8,0,30,2025-07-30T05:16:00Z,Lousada,Porto,Norte,-8.278102,41.301833,Resolução/Conclusão
25755452,Travancas e Roriz,Alto Tâmega e Barroso,309,2025-07-30T06:01:00Z,25755452,Em Resolução/Conclusão,3103,Incêndio rural,0,1,0,5,2025-07-30T06:01:00Z,Chaves,Vila Real,Norte,-7.319995,41.815377,Resolução/Conclusão
25755711,São Jorge e Ermelo,Alto Minho,309,2025-07-30T08:10:00Z,25755711,Em Resolução/Conclusão,3103,Incêndio rural,0,1,0,5,2025-07-30T08:10:00Z,Arcos De Valdevez,Viana Do Castelo,Norte,-8.35823,41.813058,Resolução/Conclusão
25756606,São João de Areias,Viseu Dão Lafões,310,2025-07-30T10:43:00Z,25756606,Em Resolução/Conclusão,3101,Incêndio rural,0,13,0,50,2025-07-30T10:43:00Z,Santa Comba Dão,Viseu,Centro,-8.093252,40.380433,Resolução/Conclusão
25756620,Recarei,Area M. Porto,309,2025-07-30T10:47:00Z,25756620,Em Despacho,3103,Incêndio rural,1,22,0,74,2025-07-30T10:47:00Z,Paredes,Porto,Norte,-8.416721,41.151,Despacho
25757104,Campo e Sobrado,Area M. Porto,309,2025-07-30T11:51:00Z,25757104,Em Despacho,3101,Incêndio rural,0,2,0,10,2025-07-30T11:51:00Z,Valongo,Porto,Norte,-8.468037,41.181584,Despacho
