id,address,subregion,neighborhood,date,id.1,state,nature,nature_description,aerial_means,terrestrial_means,aquatic_means,operational,date.1,Concelho,Distrito,NUTII_DSG,longitude,latitude
24888293,Pernes,Lezíria do Tejo,311,2025-01-29T16:41:00Z,24888293,Em curso,3301,Queda de árvore,0,0,0,0,2025-01-29T16:41:00Z,Santarém,Santarém,Alentejo,-8.658865,39.381547
24976978,Setúbal (São Sebastião),Península de Setúbal,311,2025-02-18T13:30:00Z,24976978,Em despacho,3315,Inundação de estruturas por precipitação intensa,0,1,0,5,2025-02-18T13:30:00Z,Setúbal,Setúbal,Área Metropolitana De Lisboa,-8.862337,38.527365
24877003,Malagueira e Horta Das Figueiras,Alentejo Central,312,2025-01-27T11:41:00Z,24877003,Em conclusão,3315,Inundação de estruturas por precipitação intensa,0,0,0,0,2025-01-27T11:41:00Z,Évora,Évora,Alentejo,-7.924277,38.57285
24977527,Ferragudo,Algarve,313,2025-02-18T15:08:00Z,24977527,Em curso,3329,Queda de estruturas temporárias ou móveis,0,1,0,4,2025-02-18T15:08:00Z,Lagoa,Faro,Algarve,-8.514204,37.11762
24976087,Alfândega da Fé,Terras de Trás-os-Montes,309,2025-02-18T10:33:00Z,24976087,Em despacho,3301,Queda de árvore,0,1,0,2,2025-02-18T10:33:00Z,Alfândega Da Fé,Bragança,Norte,-6.971876,41.341004
