id,address,subregion,neighborhood,date,id.1,state,nature,nature_description,aerial_means,terrestrial_means,aquatic_means,operational,date.1,Concelho,Distrito,NUTII_DSG,longitude,latitude,state_2
26156294,Calde,Viseu Dão Lafões,310,2025-10-18T15:50:00Z,26156294,Em Resolução/Conclusão,3101,Incêndio rural,0,0,0,0,2025-10-18T15:50:00Z,Viseu,Viseu,Centro,-7.940081,40.763201,Resolução/Conclusão
26157848,"Valença, Cristelo Covo e Arão",Alto Minho,309,2025-10-18T22:50:00Z,26157848,Em Resolução/Conclusão,3103,Incêndio rural,0,1,0,5,2025-10-18T22:50:00Z,Valença,Viana Do Castelo,Norte,-8.644383,42.018188,Resolução/Conclusão
26156265,Viade de Baixo e Fervidelas,Alto Tâmega e Barroso,309,2025-10-18T15:45:00Z,26156265,Em Curso,3103,Incêndio rural,0,6,0,18,2025-10-18T15:45:00Z,Montalegre,Vila Real,Norte,-7.834732,41.773632,Curso
26157385,"Algodres, Vale de Afonsinho e Vilar de Amargo",Beiras e Serra da Estrela,310,2025-10-18T20:18:00Z,26157385,Em Curso,3103,Incêndio rural,0,16,0,55,2025-10-18T20:18:00Z,Figueira De Castelo Rodrigo,Guarda,Centro,-7.026137,40.954202,Curso
26157762,Vilar e Mosteiró,Area M. Porto,309,2025-10-18T22:18:00Z,26157762,Em Resolução/Conclusão,3103,Incêndio rural,0,2,0,7,2025-10-18T22:18:00Z,Vila Do Conde,Porto,Norte,-8.679891,41.289721,Resolução/Conclusão
26157880,Santo Estêvão,Alto Tâmega e Barroso,309,2025-10-18T23:03:00Z,26157880,Em Resolução/Conclusão,3103,Incêndio rural,0,1,0,5,2025-10-18T23:03:00Z,Chaves,Vila Real,Norte,-7.435292,41.773337,Resolução/Conclusão
26156036,Vila Nova de São Bento e Vale de Vargo,Baixo Alentejo,312,2025-10-18T14:58:00Z,26156036,Em Resolução/Conclusão,3105,Incêndio rural,0,1,0,2,2025-10-18T14:58:00Z,Serpa,Beja,Alentejo,-7.379152,37.882523,Resolução/Conclusão
26156756,Monte Real e Carvide,Região de Leiria,310,2025-10-18T17:36:00Z,26156756,Em Resolução/Conclusão,3105,Incêndio rural,0,2,0,5,2025-10-18T17:36:00Z,Leiria,Leiria,Centro,-8.865167,39.827822,Resolução/Conclusão
26157757,Guilhofrei,Ave,309,2025-10-18T22:15:00Z,26157757,Em Resolução/Conclusão,3103,Incêndio rural,0,3,0,8,2025-10-18T22:15:00Z,Vieira Do Minho,Braga,Norte,-8.118023,41.585187,Resolução/Conclusão
26157343,Refóios do Lima,Alto Minho,309,2025-10-18T20:06:00Z,26157343,Em Curso,3103,Incêndio rural,0,4,0,17,2025-10-18T20:06:00Z,Ponte De Lima,Viana Do Castelo,Norte,-8.524077,41.818625,Curso
26157586,Montaria,Alto Minho,309,2025-10-18T21:08:00Z,26157586,Em Curso,3103,Incêndio rural,0,7,0,22,2025-10-18T21:08:00Z,Viana Do Castelo,Viana Do Castelo,Norte,-8.75187,41.81628,Curso
26157881,"Gondomar (São Cosme), Valbom e Jovim",Area M. Porto,309,2025-10-18T22:57:00Z,26157881,Em Despacho,3101,Incêndio rural,0,1,0,3,2025-10-18T22:57:00Z,Gondomar,Porto,Norte,-8.535295,41.129255,Despacho
26157920,Gralhas,Alto Tâmega e Barroso,309,2025-10-18T23:00:00Z,26157920,Em Despacho,3103,Incêndio rural,0,3,0,15,2025-10-18T23:00:00Z,Montalegre,Vila Real,Norte,-7.703256,41.851153,Despacho
