id,address,subregion,neighborhood,date,id.1,state,nature,nature_description,aerial_means,terrestrial_means,aquatic_means,operational,date.1,Concelho,Distrito,NUTII_DSG,longitude,latitude,state_2
26234973,Porto Covo,Alentejo Litoral,312,2025-11-04T13:36:00Z,26234973,Em Curso,3103,Incêndio rural,0,6,0,14,2025-11-04T13:36:00Z,Sines,Setúbal,Alentejo,-8.785338,37.854615,Curso
26234388,"Mogadouro, Valverde, Vale de Porco e Vilar de Rei",Terras de Trás-os-Montes,309,2025-11-04T11:20:00Z,26234388,Em Resolução/Conclusão,3103,Incêndio rural,0,4,0,8,2025-11-04T11:20:00Z,Mogadouro,Bragança,Norte,-6.80943,41.304492,Resolução/Conclusão
26234933,Gavião e Atalaia,Alto Alentejo,312,2025-11-04T13:24:00Z,26234933,Em Resolução/Conclusão,3111,Queima,0,4,0,14,2025-11-04T13:24:00Z,Gavião,Portalegre,Alentejo,-7.892987,39.453757,Resolução/Conclusão
26235133,"S.maria, S.miguel, S.martinho, S.pedro Penaferrim",Grande Lisboa,311,2025-11-04T14:07:00Z,26235133,Em Despacho,3111,Queima,0,1,0,5,2025-11-04T14:07:00Z,Sintra,Lisboa,Área Metropolitana De Lisboa,-9.380105,38.790996,Despacho
26235205,Vila Nova de São Bento e Vale de Vargo,Baixo Alentejo,312,2025-11-04T14:21:00Z,26235205,Em Despacho,3105,Incêndio rural,0,6,0,22,2025-11-04T14:21:00Z,Serpa,Beja,Alentejo,-7.47358,37.91981,Despacho
