id,address,subregion,neighborhood,date,id.1,state,nature,nature_description,aerial_means,terrestrial_means,aquatic_means,operational,date.1,Concelho,Distrito,NUTII_DSG,longitude,latitude
24877003,Malagueira e Horta Das Figueiras,Alentejo Central,312,2025-01-27T11:41:00Z,24877003,Em conclusão,3315,Inundação de estruturas por precipitação intensa,0,0,0,0,2025-01-27T11:41:00Z,Évora,Évora,Alentejo,-7.924277,38.57285
25018171,São Domingos de Rana,Grande Lisboa,311,2025-02-27T14:11:00Z,25018171,Em curso,3315,Inundação de estruturas por precipitação intensa,0,2,0,3,2025-02-27T14:11:00Z,Cascais,Lisboa,Área Metropolitana De Lisboa,-9.340115,38.702729
25019566,Charneca de Caparica e Sobreda,Península de Setúbal,311,2025-02-27T19:18:00Z,25019566,Em despacho,3315,Inundação de estruturas por precipitação intensa,0,2,0,8,2025-02-27T19:18:00Z,Almada,Setúbal,Área Metropolitana De Lisboa,-9.194473,38.648295
25005550,Sines,Alentejo Litoral,312,2025-02-24T19:12:00Z,25005550,Em conclusão,3313,Deslizamento de terras,0,0,0,0,2025-02-24T19:12:00Z,Sines,Setúbal,Alentejo,-8.849778,37.961314
25019055,Costa da Caparica,Península de Setúbal,311,2025-02-27T17:16:00Z,25019055,Em conclusão,3313,Deslizamento de terras,0,1,0,3,2025-02-27T17:16:00Z,Almada,Setúbal,Área Metropolitana De Lisboa,-9.220385,38.624272
25019891,"Oeiras e S. Julião da Barra, Paço de Arcos e Caxias",Grande Lisboa,311,2025-02-27T21:02:00Z,25019891,Em despacho,3315,Inundação de estruturas por precipitação intensa,0,1,0,6,2025-02-27T21:02:00Z,Oeiras,Lisboa,Área Metropolitana De Lisboa,-9.310159,38.698531
25019880,Alcabideche,Grande Lisboa,311,2025-02-27T20:52:00Z,25019880,Em despacho,3315,Inundação de estruturas por precipitação intensa,0,1,0,5,2025-02-27T20:52:00Z,Cascais,Lisboa,Área Metropolitana De Lisboa,-9.370587,38.736639
25019810,Queluz e Belas,Grande Lisboa,311,2025-02-27T20:41:00Z,25019810,Em curso,3315,Inundação de estruturas por precipitação intensa,0,1,0,4,2025-02-27T20:41:00Z,Sintra,Lisboa,Área Metropolitana De Lisboa,-9.27314,38.77344
25019844,Cacém e São Marcos,Grande Lisboa,311,2025-02-27T20:41:00Z,25019844,Em despacho,3315,Inundação de estruturas por precipitação intensa,0,1,0,4,2025-02-27T20:41:00Z,Sintra,Lisboa,Área Metropolitana De Lisboa,-9.296125,38.754519
