id,address,subregion,neighborhood,date,id.1,state,nature,nature_description,aerial_means,terrestrial_means,aquatic_means,operational,date.1,Concelho,Distrito,NUTII_DSG,longitude,latitude
24877003,Malagueira e Horta Das Figueiras,Alentejo Central,312,2025-01-27T11:41:00Z,24877003,Em conclusão,3315,Inundação de estruturas por precipitação intensa,0,0,0,0,2025-01-27T11:41:00Z,Évora,Évora,Alentejo,-7.924277,38.57285
24898436,Beja (Salvador e Santa Maria da Feira),Baixo Alentejo,312,2025-01-31T18:45:00Z,24898436,Em despacho,3301,Queda de árvore,0,1,0,4,2025-01-31T18:45:00Z,Beja,Beja,Alentejo,-7.84944,38.032328
24897610,Portimão,Algarve,313,2025-01-31T15:14:00Z,24897610,Em despacho,3311,Queda de elementos de estruturas edificados,0,1,0,1,2025-01-31T15:14:00Z,Portimão,Faro,Algarve,-8.532608,37.137966
24897162,Santa Cruz/Trindade e Sanjurge,Alto Tâmega e Barroso,309,2025-01-31T12:12:00Z,24897162,Em despacho,3301,Queda de árvore,0,1,0,3,2025-01-31T12:12:00Z,Chaves,Vila Real,Norte,-7.512531,41.774656
24898381,Pontével,Lezíria do Tejo,311,2025-01-31T18:31:00Z,24898381,Em despacho,3301,Queda de árvore,0,1,0,2,2025-01-31T18:31:00Z,Cartaxo,Santarém,Alentejo,-8.819392,39.122718
24851780,"São Miguel, Santa Eufémia e Rabaçal",Região de Coimbra,310,2025-01-21T23:25:00Z,24851780,Em curso,3315,Inundação de estruturas por precipitação intensa,0,0,0,0,2025-01-21T23:25:00Z,Penela,Coimbra,Centro,-8.399036,40.025502
24897736,São João de Lourosa,Viseu Dão Lafões,310,2025-01-31T15:56:00Z,24897736,Em despacho,3301,Queda de árvore,0,2,0,3,2025-01-31T15:56:00Z,Viseu,Viseu,Centro,-7.919233,40.615482
24898388,Cascais e Estoril,Grande Lisboa,311,2025-01-31T18:30:00Z,24898388,Em despacho,3301,Queda de árvore,0,1,0,2,2025-01-31T18:30:00Z,Cascais,Lisboa,Área Metropolitana De Lisboa,-9.389433,38.721326
24898410,Atouguia da Baleia,Oeste,311,2025-01-31T18:36:00Z,24898410,Em despacho,3321,Dano na rede de fornecimento de eletricidade ,0,1,0,2,2025-01-31T18:36:00Z,Peniche,Leiria,Centro,-9.355719,39.34388
