id,address,subregion,neighborhood,date,id.1,state,nature,nature_description,aerial_means,terrestrial_means,aquatic_means,operational,date.1,Concelho,Distrito,NUTII_DSG,longitude,latitude,state_2
25775263,Torgueda,Douro,309,2025-08-02T19:49:00Z,25775263,Em Resolução/Conclusão,3101,Incêndio rural,0,7,0,23,2025-08-02T19:49:00Z,Vila Real,Vila Real,Norte,-7.785983,41.274952,Resolução/Conclusão
25803707,Almofala e Escarigo,Beiras e Serra da Estrela,310,2025-08-07T20:50:00Z,25803707,Em Resolução/Conclusão,3103,Incêndio rural,0,1,0,5,2025-08-07T20:50:00Z,Figueira De Castelo Rodrigo,Guarda,Centro,-6.847203,40.887165,Resolução/Conclusão
25807426,Alvite,Douro,309,2025-08-08T14:31:00Z,25807426,Em Resolução/Conclusão,3103,Incêndio rural,0,38,0,127,2025-08-08T14:31:00Z,Moimenta Da Beira,Viseu,Norte,-7.688727,40.96613,Resolução/Conclusão
25812717,"Mangualde, Mesquitela e Cunha Alta",Viseu Dão Lafões,310,2025-08-09T12:50:00Z,25812717,Em Resolução/Conclusão,3103,Incêndio rural,0,4,0,14,2025-08-09T12:50:00Z,Mangualde,Viseu,Centro,-7.778468,40.59536,Resolução/Conclusão
25817277,Lorvão,Região de Coimbra,310,2025-08-10T11:09:00Z,25817277,Em Resolução/Conclusão,3101,Incêndio rural,0,2,0,10,2025-08-10T11:09:00Z,Penacova,Coimbra,Centro,-8.31417,40.23889,Resolução/Conclusão
25817913,Valpedre,Tâmega e Sousa,309,2025-08-10T13:18:00Z,25817913,Em Resolução/Conclusão,3103,Incêndio rural,0,6,0,16,2025-08-10T13:18:00Z,Penafiel,Porto,Norte,-8.311582,41.144047,Resolução/Conclusão
25823038,"Crasto, Ruivos e Grovelas",Alto Minho,309,2025-08-11T11:38:00Z,25823038,Em Resolução/Conclusão,3101,Incêndio rural,0,2,0,6,2025-08-11T11:38:00Z,Ponte Da Barca,Viana Do Castelo,Norte,-8.444263,41.762168,Resolução/Conclusão
25823188,Fornos,Tâmega e Sousa,309,2025-08-11T12:07:00Z,25823188,Em Resolução/Conclusão,3105,Incêndio rural,0,1,0,5,2025-08-11T12:07:00Z,Castelo De Paiva,Aveiro,Norte,-8.247402,41.051843,Resolução/Conclusão
25823454,Aguiar de Sousa,Area M. Porto,309,2025-08-11T12:53:00Z,25823454,Em Resolução/Conclusão,3103,Incêndio rural,0,3,0,13,2025-08-11T12:53:00Z,Paredes,Porto,Norte,-8.4251,41.127738,Resolução/Conclusão
25824172,Vila Boa de Quires e Maureles,Tâmega e Sousa,309,2025-08-11T15:04:00Z,25824172,Em Resolução/Conclusão,3103,Incêndio rural,0,4,0,18,2025-08-11T15:04:00Z,Marco De Canaveses,Porto,Norte,-8.209745,41.18909,Resolução/Conclusão
25785983,Caçarilhe e Infesta,Tâmega e Sousa,309,2025-08-04T18:22:00Z,25785983,Em Resolução/Conclusão,3103,Incêndio rural,0,5,0,15,2025-08-04T18:22:00Z,Celorico De Basto,Braga,Norte,-8.04611,41.419858,Resolução/Conclusão
25792058,Cibões e Brufe,Cávado,309,2025-08-05T19:10:00Z,25792058,Em Resolução/Conclusão,3103,Incêndio rural,0,1,0,5,2025-08-05T19:10:00Z,Terras De Bouro,Braga,Norte,-8.293932,41.764918,Resolução/Conclusão
25819818,Sobrado e Bairros,Tâmega e Sousa,309,2025-08-10T20:13:00Z,25819818,Em Resolução/Conclusão,3103,Incêndio rural,0,1,0,5,2025-08-10T20:13:00Z,Castelo De Paiva,Aveiro,Norte,-8.252268,41.018942,Resolução/Conclusão
25820422,Távora e Pereiro,Douro,309,2025-08-10T22:27:00Z,25820422,Em Curso,3103,Incêndio rural,3,68,0,222,2025-08-10T22:27:00Z,Tabuaço,Viseu,Norte,-7.55556,41.097602,Curso
25822776,Santos Evos,Viseu Dão Lafões,310,2025-08-11T11:05:00Z,25822776,Em Resolução/Conclusão,3103,Incêndio rural,0,0,0,0,2025-08-11T11:05:00Z,Viseu,Viseu,Centro,-7.810218,40.667813,Resolução/Conclusão
25822851,Salto,Alto Tâmega e Barroso,309,2025-08-11T11:14:00Z,25822851,Em Resolução/Conclusão,3103,Incêndio rural,0,15,0,55,2025-08-11T11:14:00Z,Montalegre,Vila Real,Norte,-7.976273,41.659475,Resolução/Conclusão
25823578,Vilela,Area M. Porto,309,2025-08-11T13:10:00Z,25823578,Em Resolução/Conclusão,3103,Incêndio rural,0,0,0,0,2025-08-11T13:10:00Z,Paredes,Porto,Norte,-8.393883,41.233295,Resolução/Conclusão
25823805,Sé e São Lourenço,Alto Alentejo,312,2025-08-11T13:59:00Z,25823805,Em Resolução/Conclusão,3105,Incêndio rural,0,1,0,5,2025-08-11T13:59:00Z,Portalegre,Portalegre,Alentejo,-7.458013,39.299598,Resolução/Conclusão
25824032,Ferreira do Alentejo e Canhestros,Baixo Alentejo,312,2025-08-11T14:34:00Z,25824032,Em Resolução/Conclusão,3103,Incêndio rural,0,14,0,31,2025-08-11T14:34:00Z,Ferreira Do Alentejo,Beja,Alentejo,-8.344453,38.025437,Resolução/Conclusão
25824216,Portela e Extremo,Alto Minho,309,2025-08-11T15:08:00Z,25824216,Em Curso,3101,Incêndio rural,0,12,0,36,2025-08-11T15:08:00Z,Arcos De Valdevez,Viana Do Castelo,Norte,-8.448272,41.954047,Curso
25824843,Cimo de Vila da Castanheira,Alto Tâmega e Barroso,309,2025-08-11T16:58:00Z,25824843,Em Resolução/Conclusão,3103,Incêndio rural,0,6,0,20,2025-08-11T16:58:00Z,Chaves,Vila Real,Norte,-7.30766,41.790605,Resolução/Conclusão
25825218,Panoias e Conceição,Baixo Alentejo,312,2025-08-11T18:07:00Z,25825218,Em Resolução/Conclusão,3103,Incêndio rural,0,13,0,26,2025-08-11T18:07:00Z,Ourique,Beja,Alentejo,-8.20824,37.767762,Resolução/Conclusão
25825359,Sousela,Tâmega e Sousa,309,2025-08-11T18:48:00Z,25825359,Em Resolução/Conclusão,3103,Incêndio rural,0,4,0,20,2025-08-11T18:48:00Z,Paços De Ferreira,Porto,Norte,-8.332593,41.297322,Resolução/Conclusão
25825779,Luzim e Vila Cova,Tâmega e Sousa,309,2025-08-11T20:12:00Z,25825779,Em Despacho,3103,Incêndio rural,0,0,0,0,2025-08-11T20:12:00Z,Penafiel,Porto,Norte,-8.245804,41.15166,Despacho
25825251,NA,NA,0,2025-08-11T18:18:00Z,25825251,Em Curso,3103,Incêndio rural,0,4,0,13,2025-08-11T18:18:00Z,NA,NA,NA,-6.11194,41.74139,Curso
25825592,"Ardegão, Arnozela e Seidões",Ave,309,2025-08-11T19:33:00Z,25825592,Em Resolução/Conclusão,3103,Incêndio rural,0,1,0,4,2025-08-11T19:33:00Z,Fafe,Braga,Norte,-8.113178,41.416155,Resolução/Conclusão
25825737,Pinhel,Beiras e Serra da Estrela,310,2025-08-11T20:04:00Z,25825737,Em Despacho,3103,Incêndio rural,0,1,0,5,2025-08-11T20:04:00Z,Pinhel,Guarda,Centro,-7.100701,40.744346,Despacho
25773830,Andrães,Douro,309,2025-08-02T14:23:00Z,25773830,Em Resolução/Conclusão,3103,Incêndio rural,0,0,0,0,2025-08-02T14:23:00Z,Vila Real,Vila Real,Norte,-7.671293,41.267593,Resolução/Conclusão
25774883,Arnóia,Tâmega e Sousa,309,2025-08-02T18:20:00Z,25774883,Em Resolução/Conclusão,3103,Incêndio rural,0,2,0,6,2025-08-02T18:20:00Z,Celorico De Basto,Braga,Norte,-7.998983,41.348727,Resolução/Conclusão
25804968,Alvadia,Alto Tâmega e Barroso,309,2025-08-08T07:21:00Z,25804968,Em Resolução/Conclusão,3103,Incêndio rural,0,24,0,82,2025-08-08T07:21:00Z,Ribeira De Pena,Vila Real,Norte,-7.782872,41.457452,Resolução/Conclusão
25814493,Cota,Viseu Dão Lafões,310,2025-08-09T20:08:00Z,25814493,Em Resolução/Conclusão,3101,Incêndio rural,0,0,0,0,2025-08-09T20:08:00Z,Viseu,Viseu,Centro,-7.80263,40.777299,Resolução/Conclusão
25818455,Sobral de São Miguel,Beiras e Serra da Estrela,310,2025-08-10T15:02:00Z,25818455,Em Curso,3103,Incêndio rural,4,145,0,471,2025-08-10T15:02:00Z,Covilhã,Castelo Branco,Centro,-7.77307,40.200173,Curso
25823732,Padreiro (Salvador e Santa Cristina),Alto Minho,309,2025-08-11T13:45:00Z,25823732,Em Resolução/Conclusão,3103,Incêndio rural,0,1,0,5,2025-08-11T13:45:00Z,Arcos De Valdevez,Viana Do Castelo,Norte,-8.493513,41.827053,Resolução/Conclusão
25825370,Calde,Viseu Dão Lafões,310,2025-08-11T18:47:00Z,25825370,Em Resolução/Conclusão,3103,Incêndio rural,0,3,0,12,2025-08-11T18:47:00Z,Viseu,Viseu,Centro,-7.928123,40.781748,Resolução/Conclusão
25825688,Paredes,Area M. Porto,309,2025-08-11T19:55:00Z,25825688,Em Curso,3103,Incêndio rural,0,1,0,5,2025-08-11T19:55:00Z,Paredes,Porto,Norte,-8.335908,41.225013,Curso
25776263,"Pena, Quintã e Vila Cova",Douro,309,2025-08-02T23:45:00Z,25776263,Em Curso,3103,Incêndio rural,4,108,0,337,2025-08-02T23:45:00Z,Vila Real,Vila Real,Norte,-7.811902,41.317355,Curso
25783717,Cunha Baixa,Viseu Dão Lafões,310,2025-08-04T11:48:00Z,25783717,Em Resolução/Conclusão,3101,Incêndio rural,0,1,0,2,2025-08-04T11:48:00Z,Mangualde,Viseu,Centro,-7.764411,40.559738,Resolução/Conclusão
25787860,Faíl e Vila Chã de Sá,Viseu Dão Lafões,310,2025-08-05T05:55:00Z,25787860,Em Resolução/Conclusão,3103,Incêndio rural,0,0,0,0,2025-08-05T05:55:00Z,Viseu,Viseu,Centro,-7.987877,40.601342,Resolução/Conclusão
25802450,Canas de Santa Maria,Viseu Dão Lafões,310,2025-08-07T16:14:00Z,25802450,Em Resolução/Conclusão,3103,Incêndio rural,0,1,0,2,2025-08-07T16:14:00Z,Tondela,Viseu,Centro,-8.032777,40.56017,Resolução/Conclusão
25808937,Abrunhosa-a-Velha,Viseu Dão Lafões,310,2025-08-08T19:26:00Z,25808937,Em Resolução/Conclusão,3103,Incêndio rural,0,2,0,7,2025-08-08T19:26:00Z,Mangualde,Viseu,Centro,-7.647667,40.572515,Resolução/Conclusão
25813482,Freches e Torres,Beiras e Serra da Estrela,310,2025-08-09T16:21:00Z,25813482,Em Curso,3103,Incêndio rural,4,247,0,738,2025-08-09T16:21:00Z,Trancoso,Guarda,Centro,-7.363745,40.709022,Curso
25823074,Vila Boa de Quires e Maureles,Tâmega e Sousa,309,2025-08-11T11:45:00Z,25823074,Em Resolução/Conclusão,3103,Incêndio rural,0,4,0,11,2025-08-11T11:45:00Z,Marco De Canaveses,Porto,Norte,-8.201422,41.213995,Resolução/Conclusão
25824945,Povolide,Viseu Dão Lafões,310,2025-08-11T17:17:00Z,25824945,Em Resolução/Conclusão,3103,Incêndio rural,0,1,0,4,2025-08-11T17:17:00Z,Viseu,Viseu,Centro,-7.79583,40.660003,Resolução/Conclusão
25825146,Quinta do Anjo,Península de Setúbal,311,2025-08-11T18:00:00Z,25825146,Em Resolução/Conclusão,3103,Incêndio rural,0,4,0,14,2025-08-11T18:00:00Z,Palmela,Setúbal,Área Metropolitana De Lisboa,-8.972823,38.610222,Resolução/Conclusão
25825362,Penafiel,Tâmega e Sousa,309,2025-08-11T18:33:00Z,25825362,Em Resolução/Conclusão,3103,Incêndio rural,0,2,0,10,2025-08-11T18:33:00Z,Penafiel,Porto,Norte,-8.267953,41.213848,Resolução/Conclusão
25825414,Canelas e Espiunca,Area M. Porto,309,2025-08-11T18:53:00Z,25825414,Em Resolução/Conclusão,3101,Incêndio rural,0,2,0,7,2025-08-11T18:53:00Z,Arouca,Aveiro,Norte,-8.212231,40.969918,Resolução/Conclusão
25825749,Termas de São Vicente,Tâmega e Sousa,309,2025-08-11T20:08:00Z,25825749,Em Despacho,3103,Incêndio rural,0,4,0,17,2025-08-11T20:08:00Z,Penafiel,Porto,Norte,-8.3048,41.12539,Despacho
25825764,Lajeosa do Mondego,Beiras e Serra da Estrela,310,2025-08-11T20:09:00Z,25825764,Em Despacho,3103,Incêndio rural,0,4,0,15,2025-08-11T20:09:00Z,Celorico Da Beira,Guarda,Centro,-7.355455,40.624775,Despacho
