id,address,subregion,neighborhood,date,id.1,state,nature,nature_description,aerial_means,terrestrial_means,aquatic_means,operational,date.1,Concelho,Distrito,NUTII_DSG,longitude,latitude,state_2
26091678,"Nogueira, Meixedo e Vilar de Murteda",Alto Minho,309,2025-10-05T13:48:00Z,26091678,Em Resolução/Conclusão,3103,Incêndio rural,0,1,0,5,2025-10-05T13:48:00Z,Viana Do Castelo,Viana Do Castelo,Norte,-8.736942,41.740565,Resolução/Conclusão
26092345,"Freixianda, Ribeira do Fárrio e Formigais",Médio Tejo,311,2025-10-05T16:18:00Z,26092345,Em Resolução/Conclusão,3105,Incêndio rural,0,6,0,23,2025-10-05T16:18:00Z,Ourém,Santarém,Centro,-8.452857,39.713988,Resolução/Conclusão
26092427,Alvites,Terras de Trás-os-Montes,309,2025-10-05T16:39:00Z,26092427,Em Despacho,3103,Incêndio rural,1,4,0,23,2025-10-05T16:39:00Z,Mirandela,Bragança,Norte,-7.049561,41.555147,Despacho
26092453,Telões,Alto Tâmega e Barroso,309,2025-10-05T16:46:00Z,26092453,Em Despacho,3103,Incêndio rural,1,0,0,1,2025-10-05T16:46:00Z,Vila Pouca De Aguiar,Vila Real,Norte,-7.680954,41.424301,Despacho
26092172,São João da Ribeira e Ribeira de São João,Lezíria do Tejo,311,2025-10-05T15:36:00Z,26092172,Em Resolução/Conclusão,3103,Incêndio rural,0,6,0,19,2025-10-05T15:36:00Z,Rio Maior,Santarém,Alentejo,-8.859135,39.288798,Resolução/Conclusão
26092242,Sesimbra (Castelo),Península de Setúbal,311,2025-10-05T15:51:00Z,26092242,Em Resolução/Conclusão,3103,Incêndio rural,0,4,0,14,2025-10-05T15:51:00Z,Sesimbra,Setúbal,Área Metropolitana De Lisboa,-9.102162,38.48242,Resolução/Conclusão
26092349,São João Baptista,Alto Alentejo,312,2025-10-05T16:09:00Z,26092349,Em Resolução/Conclusão,3105,Incêndio rural,0,6,0,24,2025-10-05T16:09:00Z,Campo Maior,Portalegre,Alentejo,-7.094067,38.998867,Resolução/Conclusão
