id,address,subregion,neighborhood,date,id.1,state,nature,nature_description,aerial_means,terrestrial_means,aquatic_means,operational,date.1,Concelho,Distrito,NUTII_DSG,longitude,latitude
25482200,São João Dos Caldeireiros,Baixo Alentejo,312,2025-06-05T17:13:00Z,25482200,Em conclusão,3105,Incêndio rural,0,12,0,31,2025-06-05T17:13:00Z,Mértola,Beja,Alentejo,-7.81599,37.59366
25483635,Arões (São Romão),Ave,309,2025-06-06T00:33:00Z,25483635,Em despacho,3111,Queima,0,1,0,2,2025-06-06T00:33:00Z,Fafe,Braga,Norte,-8.215388,41.45506
25483628,Alcochete,Península de Setúbal,311,2025-06-06T00:29:00Z,25483628,Em conclusão,2301,Incêndio em transporte rodoviário,0,2,0,7,2025-06-06T00:29:00Z,Alcochete,Setúbal,Área Metropolitana De Lisboa,-8.92518,38.74534
25483456,Ventosa e Cova,Ave,309,2025-06-05T22:54:00Z,25483456,Em conclusão,3103,Incêndio rural,0,1,0,5,2025-06-05T22:54:00Z,Vieira Do Minho,Braga,Norte,-8.178788,41.665873
25483665,Vila Nova de Famalicão e Calendário,Ave,309,2025-06-06T00:49:00Z,25483665,Em curso,2301,Incêndio em transporte rodoviário,0,5,0,17,2025-06-06T00:49:00Z,Vila Nova De Famalicão,Braga,Norte,-8.525567,41.403577
25483688,Mindelo,Area M. Porto,309,2025-06-06T01:01:00Z,25483688,Em despacho,2201,Incêndio em equipamentos ou produtos,0,0,0,0,2025-06-06T01:01:00Z,Vila Do Conde,Porto,Norte,-8.73027,41.30745
25483680,Loulé (São Clemente),Algarve,313,2025-06-06T00:58:00Z,25483680,Em despacho,2301,Incêndio em transporte rodoviário,0,3,0,8,2025-06-06T00:58:00Z,Loulé,Faro,Algarve,-8.00794,37.10705
