id,address,subregion,neighborhood,date,id.1,state,nature,nature_description,aerial_means,terrestrial_means,aquatic_means,operational,date.1,Concelho,Distrito,NUTII_DSG,longitude,latitude,state_2
25818455,Sobral de São Miguel,Beiras e Serra da Estrela,310,2025-08-10T15:02:00Z,25818455,Em Resolução/Conclusão,3103,Incêndio rural,0,1,0,1,2025-08-10T15:02:00Z,Covilhã,Castelo Branco,Centro,-7.77307,40.200173,Resolução/Conclusão
25846480,Sabugal e Aldeia de Santo António,Beiras e Serra da Estrela,310,2025-08-15T14:41:00Z,25846480,Em Resolução/Conclusão,3103,Incêndio rural,0,11,0,33,2025-08-15T14:41:00Z,Sabugal,Guarda,Centro,-7.125037,40.34023,Resolução/Conclusão
25891770,São Martinho de Antas e Paradela de Guiães,Douro,309,2025-08-24T15:06:00Z,25891770,Em Resolução/Conclusão,3101,Incêndio rural,0,23,0,81,2025-08-24T15:06:00Z,Sabrosa,Vila Real,Norte,-7.640418,41.23664,Resolução/Conclusão
25899274,Mouronho,Região de Coimbra,310,2025-08-26T07:23:00Z,25899274,Em Despacho,3111,Queima,0,0,0,0,2025-08-26T07:23:00Z,Tábua,Coimbra,Centro,-8.071963,40.291468,Despacho
25899323,Carvalhosa,Tâmega e Sousa,309,2025-08-26T07:43:00Z,25899323,Em Resolução/Conclusão,3103,Incêndio rural,0,2,0,7,2025-08-26T07:43:00Z,Paços De Ferreira,Porto,Norte,-8.36204,41.302723,Resolução/Conclusão
25899624,Aljustrel e Rio de Moinhos,Baixo Alentejo,312,2025-08-26T08:58:00Z,25899624,Em Curso,3105,Incêndio rural,1,6,0,30,2025-08-26T08:58:00Z,Aljustrel,Beja,Alentejo,-8.241166,37.90427,Curso
25813482,Freches e Torres,Beiras e Serra da Estrela,310,2025-08-09T16:21:00Z,25813482,Em Resolução/Conclusão,3103,Incêndio rural,0,2,0,10,2025-08-09T16:21:00Z,Trancoso,Guarda,Centro,-7.363745,40.709022,Resolução/Conclusão
25832250,Ferreira de Aves,Viseu Dão Lafões,310,2025-08-13T00:03:00Z,25832250,Em Resolução/Conclusão,3103,Incêndio rural,0,1,0,5,2025-08-13T00:03:00Z,Sátão,Viseu,Centro,-7.647793,40.79568,Resolução/Conclusão
25836309,Cinfães,Tâmega e Sousa,309,2025-08-13T18:17:00Z,25836309,Em Resolução/Conclusão,3103,Incêndio rural,0,1,0,2,2025-08-13T18:17:00Z,Cinfães,Viseu,Norte,-8.071502,41.049757,Resolução/Conclusão
25840505,Ribeira de Nisa e Carreiras,Alto Alentejo,312,2025-08-14T14:01:00Z,25840505,Em Resolução/Conclusão,3101,Incêndio rural,0,2,0,7,2025-08-14T14:01:00Z,Portalegre,Portalegre,Alentejo,-7.47009,39.374707,Resolução/Conclusão
25851721,Arnóia,Tâmega e Sousa,309,2025-08-16T14:24:00Z,25851721,Em Resolução/Conclusão,3103,Incêndio rural,0,6,0,25,2025-08-16T14:24:00Z,Celorico De Basto,Braga,Norte,-7.994469,41.369836,Resolução/Conclusão
25877725,São Cipriano e Vil de Souto,Viseu Dão Lafões,310,2025-08-21T16:05:00Z,25877725,Em Resolução/Conclusão,3103,Incêndio rural,0,0,0,0,2025-08-21T16:05:00Z,Viseu,Viseu,Centro,-7.959537,40.61783,Resolução/Conclusão
25882003,"Mamouros, Alva e Ribolhos",Viseu Dão Lafões,310,2025-08-22T13:50:00Z,25882003,Em Resolução/Conclusão,3103,Incêndio rural,0,0,0,0,2025-08-22T13:50:00Z,Castro Daire,Viseu,Centro,-7.972402,40.848113,Resolução/Conclusão
25891313,Cervães,Cávado,309,2025-08-24T13:23:00Z,25891313,Em Resolução/Conclusão,3103,Incêndio rural,0,1,0,4,2025-08-24T13:23:00Z,Vila Verde,Braga,Norte,-8.525457,41.612832,Resolução/Conclusão
25891462,Faíl e Vila Chã de Sá,Viseu Dão Lafões,310,2025-08-24T12:41:00Z,25891462,Em Resolução/Conclusão,3103,Incêndio rural,0,0,0,0,2025-08-24T12:41:00Z,Viseu,Viseu,Centro,-7.956645,40.601897,Resolução/Conclusão
25899067,"Aboadela, Sanche e Várzea",Tâmega e Sousa,309,2025-08-26T05:05:00Z,25899067,Em Resolução/Conclusão,3103,Incêndio rural,0,2,0,10,2025-08-26T05:05:00Z,Amarante,Porto,Norte,-7.997645,41.283608,Resolução/Conclusão
25861685,Santa Catarina da Serra e Chainça,Região de Leiria,310,2025-08-18T13:03:00Z,25861685,Em Resolução/Conclusão,3103,Incêndio rural,0,1,0,2,2025-08-18T13:03:00Z,Leiria,Leiria,Centro,-8.698656,39.708305,Resolução/Conclusão
25883011,Almofala,Viseu Dão Lafões,310,2025-08-22T17:00:00Z,25883011,Em Resolução/Conclusão,3103,Incêndio rural,0,1,0,4,2025-08-22T17:00:00Z,Castro Daire,Viseu,Centro,-7.767003,40.956183,Resolução/Conclusão
25887019,Pedrógão Grande,Região de Leiria,310,2025-08-23T14:27:00Z,25887019,Em Resolução/Conclusão,3101,Incêndio rural,0,41,0,138,2025-08-23T14:27:00Z,Pedrógão Grande,Leiria,Centro,-8.15364,39.9136,Resolução/Conclusão
25893480,Este (São Pedro e São Mamede),Cávado,309,2025-08-24T23:22:00Z,25893480,Em Resolução/Conclusão,3103,Incêndio rural,0,1,0,3,2025-08-24T23:22:00Z,Braga,Braga,Norte,-8.368823,41.555605,Resolução/Conclusão
25899103,São Gens,Ave,309,2025-08-26T05:33:00Z,25899103,Em Resolução/Conclusão,3103,Incêndio rural,0,5,0,13,2025-08-26T05:33:00Z,Celorico De Basto,Braga,Norte,-8.099648,41.434367,Resolução/Conclusão
25899512,Vale,Alto Minho,309,2025-08-26T08:33:00Z,25899512,Em Resolução/Conclusão,3105,Incêndio rural,0,1,0,5,2025-08-26T08:33:00Z,Arcos De Valdevez,Viana Do Castelo,Norte,-8.363097,41.841935,Resolução/Conclusão
25899623,Poiares e Canelas,Douro,309,2025-08-26T08:56:00Z,25899623,Em Curso,3103,Incêndio rural,1,2,0,14,2025-08-26T08:56:00Z,Peso Da Régua,Vila Real,Norte,-7.717383,41.180688,Curso
25899678,"Sande, Vilarinho, Barros e Gomide",Cávado,309,2025-08-26T09:05:00Z,25899678,Em Resolução/Conclusão,3103,Incêndio rural,0,4,0,17,2025-08-26T09:05:00Z,Vila Verde,Braga,Norte,-8.407267,41.72073,Resolução/Conclusão
25899737,"Aver-o-Mar, Amorim e Terroso",Area M. Porto,309,2025-08-26T09:16:00Z,25899737,Em Despacho,3103,Incêndio rural,0,1,0,5,2025-08-26T09:16:00Z,Póvoa De Varzim,Porto,Norte,-8.748024,41.41038,Despacho
25832672,Piódão,Região de Coimbra,310,2025-08-13T05:08:00Z,25832672,Em Resolução/Conclusão,3103,Incêndio rural,0,166,0,500,2025-08-13T05:08:00Z,Arganil,Coimbra,Centro,-7.81972,40.23083,Resolução/Conclusão
25840417,Lousã e Vilarinho,Região de Coimbra,310,2025-08-14T13:46:00Z,25840417,Em Resolução/Conclusão,3101,Incêndio rural,0,4,0,12,2025-08-14T13:46:00Z,Lousã,Coimbra,Centro,-8.201561,40.080016,Resolução/Conclusão
25896498,Esmolfe,Viseu Dão Lafões,310,2025-08-25T14:43:00Z,25896498,Em Resolução/Conclusão,3103,Incêndio rural,0,0,0,0,2025-08-25T14:43:00Z,Penalva Do Castelo,Viseu,Centro,-7.673287,40.679115,Resolução/Conclusão
25897250,Viade de Baixo e Fervidelas,Alto Tâmega e Barroso,309,2025-08-25T17:20:00Z,25897250,Em Resolução/Conclusão,3103,Incêndio rural,0,19,0,53,2025-08-25T17:20:00Z,Montalegre,Vila Real,Norte,-7.860477,41.725298,Resolução/Conclusão
25897768,"Juncais, Vila Ruiva e Vila Soeiro do Chão",Beiras e Serra da Estrela,310,2025-08-25T19:15:00Z,25897768,Em Resolução/Conclusão,3103,Incêndio rural,0,2,0,6,2025-08-25T19:15:00Z,Fornos De Algodres,Guarda,Centro,-7.503858,40.583345,Resolução/Conclusão
25898107,Mondrões,Douro,309,2025-08-25T20:46:00Z,25898107,Em Curso,3103,Incêndio rural,1,22,0,76,2025-08-25T20:46:00Z,Vila Real,Vila Real,Norte,-7.804065,41.318255,Curso
25899613,Macieira de Cambra,Area M. Porto,309,2025-08-26T08:53:00Z,25899613,Em Resolução/Conclusão,3103,Incêndio rural,0,1,0,5,2025-08-26T08:53:00Z,Vale De Cambra,Aveiro,Norte,-8.385739,40.855831,Resolução/Conclusão
