id,address,subregion,neighborhood,date,id.1,state,nature,nature_description,aerial_means,terrestrial_means,aquatic_means,operational,date.1,Concelho,Distrito,NUTII_DSG,longitude,latitude,state_2
25763650,Milagres,Região de Leiria,310,2025-07-31T15:58:00Z,25763650,Em Resolução/Conclusão,3101,Incêndio rural,0,1,0,2,2025-07-31T15:58:00Z,Leiria,Leiria,Centro,-8.792217,39.793427,Resolução/Conclusão
25781305,Tamel (Santa Leocádia) e Vilar do Monte,Cávado,309,2025-08-03T23:17:00Z,25781305,Em Resolução/Conclusão,3103,Incêndio rural,0,1,0,5,2025-08-03T23:17:00Z,Barcelos,Braga,Norte,-8.66043,41.566023,Resolução/Conclusão
25782109,Monte e Queimadela,Ave,309,2025-08-04T07:12:00Z,25782109,Em Resolução/Conclusão,3101,Incêndio rural,0,1,0,2,2025-08-04T07:12:00Z,Fafe,Braga,Norte,-8.133707,41.507367,Resolução/Conclusão
25784172,Lagoa,Terras de Trás-os-Montes,309,2025-08-04T13:01:00Z,25784172,Em Resolução/Conclusão,3103,Incêndio rural,0,3,0,8,2025-08-04T13:01:00Z,Macedo De Cavaleiros,Bragança,Norte,-6.771173,41.446867,Resolução/Conclusão
25785983,Caçarilhe e Infesta,Tâmega e Sousa,309,2025-08-04T18:22:00Z,25785983,Em Curso,3103,Incêndio rural,0,10,0,35,2025-08-04T18:22:00Z,Celorico De Basto,Braga,Norte,-8.04611,41.419858,Curso
25786312,Mões,Viseu Dão Lafões,310,2025-08-04T19:31:00Z,25786312,Em Resolução/Conclusão,3105,Incêndio rural,0,4,0,21,2025-08-04T19:31:00Z,Castro Daire,Viseu,Centro,-7.888317,40.866883,Resolução/Conclusão
25786321,Resende,Tâmega e Sousa,309,2025-08-04T19:19:00Z,25786321,Em Resolução/Conclusão,3103,Incêndio rural,0,2,0,10,2025-08-04T19:19:00Z,Resende,Viseu,Norte,-7.948585,41.118945,Resolução/Conclusão
25786980,São João de Ver,Area M. Porto,309,2025-08-04T21:56:00Z,25786980,Em Resolução/Conclusão,3103,Incêndio rural,0,1,0,5,2025-08-04T21:56:00Z,Santa Maria Da Feira,Aveiro,Norte,-8.550029,40.955305,Resolução/Conclusão
25787014,Esgueira,Região de Aveiro,310,2025-08-04T22:08:00Z,25787014,Em Resolução/Conclusão,3103,Incêndio rural,0,6,0,20,2025-08-04T22:08:00Z,Aveiro,Aveiro,Centro,-8.63362,40.64978,Resolução/Conclusão
25787021,Asseiceira,Médio Tejo,311,2025-08-04T22:10:00Z,25787021,Em Curso,3103,Incêndio rural,0,11,0,39,2025-08-04T22:10:00Z,Tomar,Santarém,Centro,-8.404032,39.511222,Curso
25787062,São Mamede,Região de Leiria,310,2025-08-04T22:21:00Z,25787062,Em Despacho,3101,Incêndio rural,0,11,0,37,2025-08-04T22:21:00Z,Batalha,Leiria,Centro,-8.703633,39.604705,Despacho
25750701,Capela,Tâmega e Sousa,309,2025-07-29T09:26:00Z,25750701,Em Resolução/Conclusão,3103,Incêndio rural,0,5,0,16,2025-07-29T09:26:00Z,Penafiel,Porto,Norte,-8.345202,41.09353,Resolução/Conclusão
25773830,Andrães,Douro,309,2025-08-02T14:23:00Z,25773830,Em Resolução/Conclusão,3103,Incêndio rural,0,31,0,104,2025-08-02T14:23:00Z,Vila Real,Vila Real,Norte,-7.671293,41.267593,Resolução/Conclusão
25774883,Arnóia,Tâmega e Sousa,309,2025-08-02T18:20:00Z,25774883,Em Resolução/Conclusão,3103,Incêndio rural,0,73,0,206,2025-08-02T18:20:00Z,Celorico De Basto,Braga,Norte,-7.998983,41.348727,Resolução/Conclusão
25775734,Sequeiros e Gradiz,Viseu Dão Lafões,310,2025-08-02T21:35:00Z,25775734,Em Resolução/Conclusão,3103,Incêndio rural,0,1,0,2,2025-08-02T21:35:00Z,Aguiar Da Beira,Guarda,Centro,-7.564515,40.858278,Resolução/Conclusão
25781884,Graça,Região de Leiria,310,2025-08-04T04:33:00Z,25781884,Em Resolução/Conclusão,3101,Incêndio rural,0,1,0,2,2025-08-04T04:33:00Z,Pedrógão Grande,Leiria,Centro,-8.204434,39.895198,Resolução/Conclusão
25784558,Portela e Extremo,Alto Minho,309,2025-08-04T14:10:00Z,25784558,Em Resolução/Conclusão,3103,Incêndio rural,0,2,0,7,2025-08-04T14:10:00Z,Arcos De Valdevez,Viana Do Castelo,Norte,-8.473775,41.956602,Resolução/Conclusão
25786651,Marinha Grande,Região de Leiria,310,2025-08-04T20:40:00Z,25786651,Em Resolução/Conclusão,3111,Queima,0,1,0,5,2025-08-04T20:40:00Z,Marinha Grande,Leiria,Centro,-8.95516,39.768006,Resolução/Conclusão
25738747,Lindoso,Alto Minho,309,2025-07-26T21:47:00Z,25738747,Em Resolução/Conclusão,3103,Incêndio rural,0,81,0,227,2025-07-26T21:47:00Z,Ponte Da Barca,Viana Do Castelo,Norte,-8.220528,41.865272,Resolução/Conclusão
25747773,Aranhas,Beira Baixa,310,2025-07-28T16:36:00Z,25747773,Em Resolução/Conclusão,3103,Incêndio rural,0,2,0,7,2025-07-28T16:36:00Z,Penamacor,Castelo Branco,Centro,-7.14438,40.117542,Resolução/Conclusão
25775263,Torgueda,Douro,309,2025-08-02T19:49:00Z,25775263,Em Resolução/Conclusão,3101,Incêndio rural,0,11,0,38,2025-08-02T19:49:00Z,Vila Real,Vila Real,Norte,-7.785983,41.274952,Resolução/Conclusão
25778337,Senhorim,Viseu Dão Lafões,310,2025-08-03T11:59:00Z,25778337,Em Resolução/Conclusão,3103,Incêndio rural,0,0,0,0,2025-08-03T11:59:00Z,Nelas,Viseu,Centro,-7.825723,40.54384,Resolução/Conclusão
25780418,Pias,Alto Minho,309,2025-08-03T19:32:00Z,25780418,Em Resolução/Conclusão,3103,Incêndio rural,0,3,0,9,2025-08-03T19:32:00Z,Monção,Viana Do Castelo,Norte,-8.529693,42.015753,Resolução/Conclusão
25780604,Rio Frio,Alto Minho,309,2025-08-03T20:13:00Z,25780604,Em Resolução/Conclusão,3103,Incêndio rural,0,12,0,29,2025-08-03T20:13:00Z,Arcos De Valdevez,Viana Do Castelo,Norte,-8.492232,41.868325,Resolução/Conclusão
25781822,São Gens,Ave,309,2025-08-04T03:44:00Z,25781822,Em Resolução/Conclusão,3103,Incêndio rural,0,26,0,78,2025-08-04T03:44:00Z,Fafe,Braga,Norte,-8.101607,41.44259,Resolução/Conclusão
25783846,"Provesende, Gouvães Douro, S.cristóvão Douro",Douro,309,2025-08-04T12:08:00Z,25783846,Em Resolução/Conclusão,3103,Incêndio rural,0,1,0,5,2025-08-04T12:08:00Z,Sabrosa,Vila Real,Norte,-7.569948,41.205103,Resolução/Conclusão
25785166,Correlhã,Alto Minho,309,2025-08-04T15:49:00Z,25785166,Em Resolução/Conclusão,3103,Incêndio rural,0,0,0,0,2025-08-04T15:49:00Z,Ponte De Lima,Viana Do Castelo,Norte,-8.607378,41.735812,Resolução/Conclusão
25785466,Caçarilhe e Infesta,Tâmega e Sousa,309,2025-08-04T16:48:00Z,25785466,Em Curso,3103,Incêndio rural,0,13,0,41,2025-08-04T16:48:00Z,Celorico De Basto,Braga,Norte,-8.035342,41.42903,Curso
25786286,Serpa (Salvador e Santa Maria),Baixo Alentejo,312,2025-08-04T19:26:00Z,25786286,Em Resolução/Conclusão,3105,Incêndio rural,0,1,0,5,2025-08-04T19:26:00Z,Serpa,Beja,Alentejo,-7.560878,37.974863,Resolução/Conclusão
25787017,Azias,Alto Minho,309,2025-08-04T21:57:00Z,25787017,Em Resolução/Conclusão,3103,Incêndio rural,0,3,0,9,2025-08-04T21:57:00Z,Ponte Da Barca,Viana Do Castelo,Norte,-8.361733,41.780962,Resolução/Conclusão
25787034,Anta e Guetim,Area M. Porto,309,2025-08-04T22:16:00Z,25787034,Em Curso,3103,Incêndio rural,0,1,0,5,2025-08-04T22:16:00Z,Espinho,Aveiro,Norte,-8.613376,41.00028,Curso
25786745,Caldas de São Jorge e Pigeiros,Area M. Porto,309,2025-08-04T21:10:00Z,25786745,Em Resolução/Conclusão,3103,Incêndio rural,0,1,0,5,2025-08-04T21:10:00Z,Santa Maria Da Feira,Aveiro,Norte,-8.499502,40.95705,Resolução/Conclusão
25786788,"Seixal, Arrentela e Aldeia de Paio Pires",Península de Setúbal,311,2025-08-04T21:18:00Z,25786788,Em Resolução/Conclusão,3103,Incêndio rural,0,1,0,5,2025-08-04T21:18:00Z,Seixal,Setúbal,Área Metropolitana De Lisboa,-9.06712,38.58599,Resolução/Conclusão
25748118,Canelas e Espiunca,Area M. Porto,309,2025-07-28T17:16:00Z,25748118,Em Resolução/Conclusão,3101,Incêndio rural,0,19,0,46,2025-07-28T17:16:00Z,Arouca,Aveiro,Norte,-8.212231,40.969918,Resolução/Conclusão
25749320,Rebordões (Santa Maria),Alto Minho,309,2025-07-28T22:47:00Z,25749320,Em Resolução/Conclusão,3103,Incêndio rural,0,2,0,10,2025-07-28T22:47:00Z,Ponte De Lima,Viana Do Castelo,Norte,-8.588365,41.729993,Resolução/Conclusão
25749641,Silva Escura e Dornelas,Região de Aveiro,310,2025-07-29T01:02:00Z,25749641,Em Resolução/Conclusão,3101,Incêndio rural,0,1,0,5,2025-07-29T01:02:00Z,Sever Do Vouga,Aveiro,Centro,-8.399623,40.769354,Resolução/Conclusão
25756006,Pinhanços,Beiras e Serra da Estrela,310,2025-07-30T09:07:00Z,25756006,Em Resolução/Conclusão,3103,Incêndio rural,0,1,0,5,2025-07-30T09:07:00Z,Seia,Guarda,Centro,-7.708132,40.473517,Resolução/Conclusão
25776263,"Pena, Quintã e Vila Cova",Douro,309,2025-08-02T23:45:00Z,25776263,Em Curso,3103,Incêndio rural,0,223,0,658,2025-08-02T23:45:00Z,Vila Real,Vila Real,Norte,-7.811902,41.317355,Curso
25779639,Senhorim,Viseu Dão Lafões,310,2025-08-03T16:28:00Z,25779639,Em Resolução/Conclusão,3103,Incêndio rural,0,2,0,6,2025-08-03T16:28:00Z,Nelas,Viseu,Centro,-7.81226,40.511713,Resolução/Conclusão
25781308,Beiral do Lima,Alto Minho,309,2025-08-03T23:18:00Z,25781308,Em Resolução/Conclusão,3103,Incêndio rural,0,3,0,6,2025-08-03T23:18:00Z,Ponte De Lima,Viana Do Castelo,Norte,-8.480692,41.758943,Resolução/Conclusão
25783717,Cunha Baixa,Viseu Dão Lafões,310,2025-08-04T11:48:00Z,25783717,Em Resolução/Conclusão,3101,Incêndio rural,0,7,0,25,2025-08-04T11:48:00Z,Mangualde,Viseu,Centro,-7.764411,40.559738,Resolução/Conclusão
25784751,"São Pedro do Sul, Várzea e Baiões",Viseu Dão Lafões,310,2025-08-04T14:36:00Z,25784751,Em Resolução/Conclusão,3103,Incêndio rural,0,1,0,1,2025-08-04T14:36:00Z,São Pedro Do Sul,Viseu,Centro,-8.098667,40.75791,Resolução/Conclusão
25784920,Castro Daire,Viseu Dão Lafões,310,2025-08-04T15:03:00Z,25784920,Em Resolução/Conclusão,3103,Incêndio rural,0,1,0,4,2025-08-04T15:03:00Z,Castro Daire,Viseu,Centro,-7.945405,40.912732,Resolução/Conclusão
25785204,Ribas,Tâmega e Sousa,309,2025-08-04T16:03:00Z,25785204,Em Curso,3103,Incêndio rural,0,18,0,60,2025-08-04T16:03:00Z,Celorico De Basto,Braga,Norte,-8.022547,41.449583,Curso
25786090,Eiras e Mei,Alto Minho,309,2025-08-04T18:46:00Z,25786090,Em Curso,3103,Incêndio rural,0,3,0,12,2025-08-04T18:46:00Z,Arcos De Valdevez,Viana Do Castelo,Norte,-8.480077,41.922108,Curso
25786725,Estômbar e Parchal,Algarve,313,2025-08-04T21:06:00Z,25786725,Em Resolução/Conclusão,3103,Incêndio rural,0,0,0,0,2025-08-04T21:06:00Z,Lagoa,Faro,Algarve,-8.517968,37.136212,Resolução/Conclusão
25786823,Pussos São Pedro,Região de Leiria,310,2025-08-04T21:18:00Z,25786823,Em Resolução/Conclusão,3105,Incêndio rural,0,6,0,20,2025-08-04T21:18:00Z,Alvaiázere,Leiria,Centro,-8.368707,39.80627,Resolução/Conclusão
