id,address,subregion,neighborhood,date,id.1,state,nature,nature_description,aerial_means,terrestrial_means,aquatic_means,operational,date.1,Concelho,Distrito,NUTII_DSG,longitude,latitude
24779825,Lamego (Almacave e Sé),Douro,309,2025-01-06T06:07:00Z,24779825,Em curso,3301,Queda de árvore,0,0,0,0,2025-01-06T06:07:00Z,Lamego,Viseu,Norte,-7.831513,41.089023
24777071,Pedrógão Grande,Região de Leiria,310,2025-01-05T13:18:00Z,24777071,Em conclusão,3309,Desabamento de estruturas edificadas,0,1,0,1,2025-01-05T13:18:00Z,Pedrógão Grande,Leiria,Centro,-8.177567,39.933038
24780495,Freixieiro de Soutelo,Alto Minho,309,2025-01-06T09:32:00Z,24780495,Em curso,3301,Queda de árvore,0,1,0,2,2025-01-06T09:32:00Z,Viana Do Castelo,Viana Do Castelo,Norte,-8.809416,41.791696
24780579,Benavente,Lezíria do Tejo,311,2025-01-06T09:53:00Z,24780579,Em despacho,3317,Inundação de estruturas por água canalizada,0,2,0,6,2025-01-06T09:53:00Z,Benavente,Santarém,Alentejo,-8.80975,38.979118
24780604,"Crasto, Ruivos e Grovelas",Alto Minho,309,2025-01-06T09:55:00Z,24780604,Em curso,3301,Queda de árvore,0,1,0,5,2025-01-06T09:55:00Z,Ponte Da Barca,Viana Do Castelo,Norte,-8.443349,41.753395
24780110,"Boa Aldeia, Farminhão e Torredeita",Viseu Dão Lafões,310,2025-01-06T08:25:00Z,24780110,Em despacho,3313,Deslizamento de terras,0,1,0,2,2025-01-06T08:25:00Z,Viseu,Viseu,Centro,-8.058655,40.633665
24780328,Campanhó e Paradança,Ave,309,2025-01-06T09:00:00Z,24780328,Em despacho,3313,Deslizamento de terras,0,5,0,8,2025-01-06T09:00:00Z,Mondim De Basto,Vila Real,Norte,-7.934488,41.349928
