id,address,subregion,neighborhood,date,id.1,state,nature,nature_description,aerial_means,terrestrial_means,aquatic_means,operational,date.1,Concelho,Distrito,NUTII_DSG,longitude,latitude
25071496,São Manços e São Vicente do Pigeiro,Alentejo Central,312,2025-03-11T13:18:00Z,25071496,Em conclusão,1101,Cheia,0,0,0,0,2025-03-11T13:18:00Z,Évora,Évora,Alentejo,-7.713313,38.513673
25202441,Serpa (Salvador e Santa Maria),Baixo Alentejo,312,2025-04-06T10:25:00Z,25202441,Em conclusão,1101,Cheia,0,0,0,0,2025-04-06T10:25:00Z,Serpa,Beja,Alentejo,-7.555783,37.88592
25261185,Arcos de Valdevez (São Paio) e Giela,Alto Minho,309,2025-04-19T19:18:00Z,25261185,Em conclusão,3301,Queda de árvore,0,0,0,0,2025-04-19T19:18:00Z,Arcos De Valdevez,Viana Do Castelo,Norte,-8.407297,41.847054
25261854,Pessegueiro do Vouga,Região de Aveiro,310,2025-04-19T23:03:00Z,25261854,Em resolução,3313,Deslizamento de terras,0,3,0,7,2025-04-19T23:03:00Z,Sever Do Vouga,Aveiro,Centro,-8.373747,40.71769
25261903,Lavos,Região de Coimbra,310,2025-04-19T23:24:00Z,25261903,Em conclusão,3301,Queda de árvore,0,2,0,8,2025-04-19T23:24:00Z,Figueira Da Foz,Coimbra,Centro,-8.827295,40.092169
25261823,São João da Madeira,Area M. Porto,309,2025-04-19T22:48:00Z,25261823,Em despacho,3315,Inundação de estruturas por precipitação intensa,0,1,0,3,2025-04-19T22:48:00Z,São João Da Madeira,Aveiro,Norte,-8.490365,40.895632
25261964,Ossela,Area M. Porto,309,2025-04-19T23:51:00Z,25261964,Em despacho,3313,Deslizamento de terras,0,1,0,2,2025-04-19T23:51:00Z,Oliveira De Azeméis,Aveiro,Norte,-8.428963,40.827387
25261966,Barcouço,Região de Coimbra,310,2025-04-19T23:58:00Z,25261966,Em despacho,3313,Deslizamento de terras,0,1,0,2,2025-04-19T23:58:00Z,Mealhada,Aveiro,Centro,-8.455348,40.290131
