id,address,subregion,neighborhood,date,id.1,state,nature,nature_description,aerial_means,terrestrial_means,aquatic_means,operational,date.1,Concelho,Distrito,NUTII_DSG,longitude,latitude,state_2
25959238,Ervedosa,Terras de Trás-os-Montes,309,2025-09-08T05:47:00Z,25959238,Em Resolução/Conclusão,3103,Incêndio rural,0,5,0,19,2025-09-08T05:47:00Z,Vinhais,Bragança,Norte,-7.089912,41.72798,Resolução/Conclusão
25832672,Piódão,Região de Coimbra,310,2025-08-13T05:08:00Z,25832672,Em Resolução/Conclusão,3103,Incêndio rural,0,14,0,41,2025-08-13T05:08:00Z,Arganil,Coimbra,Centro,-7.81972,40.23083,Resolução/Conclusão
25840417,Lousã e Vilarinho,Região de Coimbra,310,2025-08-14T13:46:00Z,25840417,Em Resolução/Conclusão,3101,Incêndio rural,0,0,0,0,2025-08-14T13:46:00Z,Lousã,Coimbra,Centro,-8.201561,40.080016,Resolução/Conclusão
25960606,Rio Mau e Arcos,Area M. Porto,309,2025-09-08T11:43:00Z,25960606,Em Despacho,3103,Incêndio rural,0,1,0,5,2025-09-08T11:43:00Z,Vila Do Conde,Porto,Norte,-8.68846,41.39834,Despacho
25951176,Sandomil,Beiras e Serra da Estrela,310,2025-09-06T10:29:00Z,25951176,Em Resolução/Conclusão,3103,Incêndio rural,2,17,0,61,2025-09-06T10:29:00Z,Seia,Guarda,Centro,-7.76001,40.351547,Resolução/Conclusão
25952858,Figueira de Castelo Rodrigo,Beiras e Serra da Estrela,310,2025-09-06T16:22:00Z,25952858,Em Resolução/Conclusão,3103,Incêndio rural,0,3,0,11,2025-09-06T16:22:00Z,Figueira De Castelo Rodrigo,Guarda,Centro,-6.934648,40.906778,Resolução/Conclusão
25953169,"Algodres, Vale de Afonsinho e Vilar de Amargo",Beiras e Serra da Estrela,310,2025-09-06T17:30:00Z,25953169,Em Resolução/Conclusão,3103,Incêndio rural,0,0,0,0,2025-09-06T17:30:00Z,Figueira De Castelo Rodrigo,Guarda,Centro,-6.99142,40.943735,Resolução/Conclusão
25960739,Vila Verde da Raia,Alto Tâmega e Barroso,309,2025-09-08T12:10:00Z,25960739,Em Despacho,3103,Incêndio rural,1,4,0,26,2025-09-08T12:10:00Z,Chaves,Vila Real,Norte,-7.420961,41.789431,Despacho
