id,address,subregion,neighborhood,date,id.1,state,nature,nature_description,aerial_means,terrestrial_means,aquatic_means,operational,date.1,Concelho,Distrito,NUTII_DSG,longitude,latitude,state_2
25775263,Torgueda,Douro,309,2025-08-02T19:49:00Z,25775263,Em Resolução/Conclusão,3101,Incêndio rural,0,3,0,10,2025-08-02T19:49:00Z,Vila Real,Vila Real,Norte,-7.785983,41.274952,Resolução/Conclusão
25807426,Alvite,Douro,309,2025-08-08T14:31:00Z,25807426,Em Resolução/Conclusão,3103,Incêndio rural,0,9,0,41,2025-08-08T14:31:00Z,Moimenta Da Beira,Viseu,Norte,-7.688727,40.96613,Resolução/Conclusão
25840502,Lousã e Vilarinho,Região de Coimbra,310,2025-08-14T14:00:00Z,25840502,Em Resolução/Conclusão,3105,Incêndio rural,0,0,0,0,2025-08-14T14:00:00Z,Lousã,Coimbra,Centro,-8.239893,40.137434,Resolução/Conclusão
25841363,Santar e Moreira,Viseu Dão Lafões,310,2025-08-14T16:28:00Z,25841363,Em Resolução/Conclusão,3103,Incêndio rural,0,2,0,6,2025-08-14T16:28:00Z,Nelas,Viseu,Centro,-7.883308,40.563075,Resolução/Conclusão
25842490,Miranda,Alto Minho,309,2025-08-14T19:55:00Z,25842490,Em Curso,3103,Incêndio rural,0,12,0,42,2025-08-14T19:55:00Z,Arcos De Valdevez,Viana Do Castelo,Norte,-8.511716,41.835944,Curso
25843101,Recezinhos (São Mamede),Tâmega e Sousa,309,2025-08-14T22:04:00Z,25843101,Em Resolução/Conclusão,3103,Incêndio rural,0,1,0,5,2025-08-14T22:04:00Z,Penafiel,Porto,Norte,-8.21924,41.24435,Resolução/Conclusão
25843108,Cinfães,Tâmega e Sousa,309,2025-08-14T22:03:00Z,25843108,Em Despacho,3103,Incêndio rural,0,1,0,5,2025-08-14T22:03:00Z,Cinfães,Viseu,Norte,-8.089113,41.062309,Despacho
25843151,Sapardos,Alto Minho,309,2025-08-14T22:10:00Z,25843151,Em Resolução/Conclusão,3103,Incêndio rural,0,11,0,27,2025-08-14T22:10:00Z,Vila Nova De Cerveira,Viana Do Castelo,Norte,-8.642262,41.924175,Resolução/Conclusão
25843285,Vilela,Area M. Porto,309,2025-08-14T22:44:00Z,25843285,Em Despacho,3103,Incêndio rural,0,1,0,5,2025-08-14T22:44:00Z,Paredes,Porto,Norte,-8.39433,41.23512,Despacho
25843351,Fervença,Tâmega e Sousa,309,2025-08-14T23:01:00Z,25843351,Em Despacho,3103,Incêndio rural,0,2,0,6,2025-08-14T23:01:00Z,Celorico De Basto,Braga,Norte,-8.092873,41.345897,Despacho
25843433,Tavira (Santa Maria e Santiago),Algarve,313,2025-08-14T23:28:00Z,25843433,Em Resolução/Conclusão,3103,Incêndio rural,0,4,0,16,2025-08-14T23:28:00Z,Tavira,Faro,Algarve,-7.62535,37.11932,Resolução/Conclusão
25843499,Cinfães,Tâmega e Sousa,309,2025-08-14T23:40:00Z,25843499,Em Despacho,3103,Incêndio rural,0,2,0,7,2025-08-14T23:40:00Z,Cinfães,Viseu,Norte,-8.086727,41.072213,Despacho
25774883,Arnóia,Tâmega e Sousa,309,2025-08-02T18:20:00Z,25774883,Em Resolução/Conclusão,3103,Incêndio rural,0,2,0,6,2025-08-02T18:20:00Z,Celorico De Basto,Braga,Norte,-7.998983,41.348727,Resolução/Conclusão
25818455,Sobral de São Miguel,Beiras e Serra da Estrela,310,2025-08-10T15:02:00Z,25818455,Em Resolução/Conclusão,3103,Incêndio rural,0,13,0,36,2025-08-10T15:02:00Z,Covilhã,Castelo Branco,Centro,-7.77307,40.200173,Resolução/Conclusão
25834631,Paços,Douro,309,2025-08-13T12:57:00Z,25834631,Em Resolução/Conclusão,3103,Incêndio rural,0,2,0,6,2025-08-13T12:57:00Z,Sabrosa,Vila Real,Norte,-7.620647,41.233283,Resolução/Conclusão
25837154,"Tavares (Chãs, Várzea e Travanca)",Viseu Dão Lafões,310,2025-08-13T21:27:00Z,25837154,Em Resolução/Conclusão,3103,Incêndio rural,0,0,0,0,2025-08-13T21:27:00Z,Mangualde,Viseu,Centro,-7.647492,40.608359,Resolução/Conclusão
25840833,Ala e Vilarinho do Monte,Terras de Trás-os-Montes,309,2025-08-14T14:49:00Z,25840833,Em Resolução/Conclusão,3103,Incêndio rural,0,6,0,20,2025-08-14T14:49:00Z,Macedo De Cavaleiros,Bragança,Norte,-7.015958,41.59749,Resolução/Conclusão
25841466,São Miguel do Mato,Viseu Dão Lafões,310,2025-08-14T16:48:00Z,25841466,Em Resolução/Conclusão,3103,Incêndio rural,0,3,0,10,2025-08-14T16:48:00Z,Vouzela,Viseu,Centro,-8.0267,40.71845,Resolução/Conclusão
25842553,Vilar de Perdizes e Meixide,Alto Tâmega e Barroso,309,2025-08-14T20:05:00Z,25842553,Em Curso,3103,Incêndio rural,0,7,0,24,2025-08-14T20:05:00Z,NA,NA,NA,-7.586628,41.88778,Curso
25843072,Asseiceira,Lezíria do Tejo,311,2025-08-14T21:57:00Z,25843072,Em Resolução/Conclusão,3103,Incêndio rural,0,5,0,16,2025-08-14T21:57:00Z,Rio Maior,Santarém,Alentejo,-8.926243,39.269065,Resolução/Conclusão
25843371,"Custóias, Leça do Balio e Guifões",Area M. Porto,309,2025-08-14T22:58:00Z,25843371,Em Despacho,3103,Incêndio rural,0,1,0,4,2025-08-14T22:58:00Z,Matosinhos,Porto,Norte,-8.643123,41.208539,Despacho
25843437,Bico e Cristelo,Alto Minho,309,2025-08-14T23:28:00Z,25843437,Em Despacho,3103,Incêndio rural,0,1,0,5,2025-08-14T23:28:00Z,Paredes De Coura,Viana Do Castelo,Norte,-8.532125,41.87566,Despacho
25843470,Sanguedo,Area M. Porto,309,2025-08-14T23:38:00Z,25843470,Em Despacho,3103,Incêndio rural,0,1,0,5,2025-08-14T23:38:00Z,Santa Maria Da Feira,Aveiro,Norte,-8.52765,40.99883,Despacho
25785983,Caçarilhe e Infesta,Tâmega e Sousa,309,2025-08-04T18:22:00Z,25785983,Em Resolução/Conclusão,3103,Incêndio rural,0,1,0,5,2025-08-04T18:22:00Z,Celorico De Basto,Braga,Norte,-8.04611,41.419858,Resolução/Conclusão
25792058,Cibões e Brufe,Cávado,309,2025-08-05T19:10:00Z,25792058,Em Resolução/Conclusão,3103,Incêndio rural,0,1,0,5,2025-08-05T19:10:00Z,Terras De Bouro,Braga,Norte,-8.293932,41.764918,Resolução/Conclusão
25820422,Távora e Pereiro,Douro,309,2025-08-10T22:27:00Z,25820422,Em Resolução/Conclusão,3103,Incêndio rural,0,75,0,213,2025-08-10T22:27:00Z,Tabuaço,Viseu,Norte,-7.55556,41.097602,Resolução/Conclusão
25832672,Piódão,Região de Coimbra,310,2025-08-13T05:08:00Z,25832672,Em Curso,3103,Incêndio rural,0,288,0,826,2025-08-13T05:08:00Z,Arganil,Coimbra,Centro,-7.81972,40.23083,Curso
25833258,Vale de Espinho,Beiras e Serra da Estrela,310,2025-08-13T09:00:00Z,25833258,Em Resolução/Conclusão,3103,Incêndio rural,0,1,0,5,2025-08-13T09:00:00Z,Sabugal,Guarda,Centro,-6.92203,40.272065,Resolução/Conclusão
25835176,Faíl e Vila Chã de Sá,Viseu Dão Lafões,310,2025-08-13T14:35:00Z,25835176,Em Resolução/Conclusão,3103,Incêndio rural,0,2,0,6,2025-08-13T14:35:00Z,Viseu,Viseu,Centro,-7.951177,40.594167,Resolução/Conclusão
25836864,Vilarelho da Raia,Alto Tâmega e Barroso,309,2025-08-13T20:15:00Z,25836864,Em Resolução/Conclusão,3103,Incêndio rural,0,8,0,23,2025-08-13T20:15:00Z,Chaves,Vila Real,Norte,-7.499832,41.868443,Resolução/Conclusão
25840417,Lousã e Vilarinho,Região de Coimbra,310,2025-08-14T13:46:00Z,25840417,Em Curso,3101,Incêndio rural,0,92,0,315,2025-08-14T13:46:00Z,Lousã,Coimbra,Centro,-8.201561,40.080016,Curso
25841546,São João de Lourosa,Viseu Dão Lafões,310,2025-08-14T16:55:00Z,25841546,Em Resolução/Conclusão,3103,Incêndio rural,0,0,0,0,2025-08-14T16:55:00Z,Viseu,Viseu,Centro,-7.9337,40.6126,Resolução/Conclusão
25843309,Cela,Oeste,311,2025-08-14T22:51:00Z,25843309,Em Resolução/Conclusão,3103,Incêndio rural,0,6,0,20,2025-08-14T22:51:00Z,Alcobaça,Leiria,Centro,-9.05561,39.55066,Resolução/Conclusão
25843434,Eiras e Mei,Alto Minho,309,2025-08-14T23:28:00Z,25843434,Em Despacho,3103,Incêndio rural,0,1,0,5,2025-08-14T23:28:00Z,Arcos De Valdevez,Viana Do Castelo,Norte,-8.481517,41.918044,Despacho
25843459,"Seia, São Romão e Lapa Dos Dinheiros",Beiras e Serra da Estrela,310,2025-08-14T23:34:00Z,25843459,Em Despacho,3103,Incêndio rural,0,3,0,12,2025-08-14T23:34:00Z,Seia,Guarda,Centro,-7.686216,40.399317,Despacho
25776263,"Pena, Quintã e Vila Cova",Douro,309,2025-08-02T23:45:00Z,25776263,Em Resolução/Conclusão,3103,Incêndio rural,0,62,0,184,2025-08-02T23:45:00Z,Vila Real,Vila Real,Norte,-7.811902,41.317355,Resolução/Conclusão
25813482,Freches e Torres,Beiras e Serra da Estrela,310,2025-08-09T16:21:00Z,25813482,Em Curso,3103,Incêndio rural,0,174,0,508,2025-08-09T16:21:00Z,Trancoso,Guarda,Centro,-7.363745,40.709022,Curso
25830378,Ermidas-Sado,Alentejo Litoral,312,2025-08-12T16:42:00Z,25830378,Em Resolução/Conclusão,3101,Incêndio rural,0,0,0,0,2025-08-12T16:42:00Z,Santiago Do Cacém,Setúbal,Alentejo,-8.407646,38.059897,Resolução/Conclusão
25832250,Ferreira de Aves,Viseu Dão Lafões,310,2025-08-13T00:03:00Z,25832250,Em Curso,3103,Incêndio rural,0,255,0,762,2025-08-13T00:03:00Z,Sátão,Viseu,Centro,-7.647793,40.79568,Curso
25835457,Quirás e Pinheiro Novo,Terras de Trás-os-Montes,309,2025-08-13T15:25:00Z,25835457,Em Resolução/Conclusão,3103,Incêndio rural,0,16,0,51,2025-08-13T15:25:00Z,Vinhais,Bragança,Norte,-7.170375,41.939618,Resolução/Conclusão
25835977,Miranda,Alto Minho,309,2025-08-13T17:03:00Z,25835977,Em Resolução/Conclusão,3103,Incêndio rural,0,0,0,0,2025-08-13T17:03:00Z,Arcos De Valdevez,Viana Do Castelo,Norte,-8.501393,41.825312,Resolução/Conclusão
25836309,Cinfães,Tâmega e Sousa,309,2025-08-13T18:17:00Z,25836309,Em Resolução/Conclusão,3103,Incêndio rural,0,41,0,141,2025-08-13T18:17:00Z,Cinfães,Viseu,Norte,-8.071502,41.049757,Resolução/Conclusão
25840505,Ribeira de Nisa e Carreiras,Alto Alentejo,312,2025-08-14T14:01:00Z,25840505,Em Curso,3101,Incêndio rural,0,97,0,308,2025-08-14T14:01:00Z,Portalegre,Portalegre,Alentejo,-7.47009,39.374707,Curso
25840858,Moreira de Rei,Beiras e Serra da Estrela,310,2025-08-14T14:53:00Z,25840858,Em Curso,3103,Incêndio rural,0,18,0,70,2025-08-14T14:53:00Z,Trancoso,Guarda,Centro,-7.31259,40.870748,Curso
25842258,Duas Igrejas,Area M. Porto,309,2025-08-14T19:09:00Z,25842258,Em Resolução/Conclusão,3103,Incêndio rural,0,0,0,0,2025-08-14T19:09:00Z,Paredes,Porto,Norte,-8.37107,41.222357,Resolução/Conclusão
25843445,Valongo,Area M. Porto,309,2025-08-14T23:31:00Z,25843445,Em Despacho,3103,Incêndio rural,0,1,0,5,2025-08-14T23:31:00Z,Valongo,Porto,Norte,-8.498295,41.191956,Despacho
25843462,Alvite e Passos,Ave,309,2025-08-14T23:37:00Z,25843462,Em Despacho,3103,Incêndio rural,0,4,0,15,2025-08-14T23:37:00Z,Cabeceiras De Basto,Braga,Norte,-8.024378,41.489009,Despacho
