id,address,subregion,neighborhood,date,id.1,state,nature,nature_description,aerial_means,terrestrial_means,aquatic_means,operational,date.1,Concelho,Distrito,NUTII_DSG,longitude,latitude
25057015,Santa Maria do Castelo e Santiago e Santa Susana,Alentejo Litoral,312,2025-03-08T10:20:00Z,25057015,Em curso,1101,Cheia,0,2,0,3,2025-03-08T10:20:00Z,Alcácer Do Sal,Setúbal,Alentejo,-8.432801,38.398147
25062800,Melides,Alentejo Litoral,312,2025-03-09T16:35:00Z,25062800,Em resolução,1101,Cheia,0,4,0,6,2025-03-09T16:35:00Z,Grândola,Setúbal,Alentejo,-8.76281,38.13827
25063232,Santa Maria do Castelo e Santiago e Santa Susana,Alentejo Litoral,312,2025-03-09T19:02:00Z,25063232,Em curso,1101,Cheia,0,1,0,1,2025-03-09T19:02:00Z,Alcácer Do Sal,Setúbal,Alentejo,-8.48167,38.29806
25064402,Salvaterra de Magos e Foros de Salvaterra,Lezíria do Tejo,311,2025-03-10T06:06:00Z,25064402,Em conclusão,3317,Inundação de estruturas por água canalizada,0,0,0,0,2025-03-10T06:06:00Z,Salvaterra De Magos,Santarém,Alentejo,-8.758893,39.005458
25060596,Santo André,Alentejo Litoral,312,2025-03-09T07:42:00Z,25060596,Em curso,1101,Cheia,0,2,0,3,2025-03-09T07:42:00Z,Santiago Do Cacém,Setúbal,Alentejo,-8.766964,38.100976
25059714,Torrão,Alentejo Litoral,312,2025-03-08T22:10:00Z,25059714,Em curso,1101,Cheia,0,0,0,0,2025-03-08T22:10:00Z,Alcácer Do Sal,Setúbal,Alentejo,-8.359133,38.252053
25063971,"Querença, Tôr e Benafim",Algarve,313,2025-03-09T23:45:00Z,25063971,Em conclusão,3313,Deslizamento de terras,0,0,0,0,2025-03-09T23:45:00Z,Loulé,Faro,Algarve,-7.955522,37.235
25064489,Vialonga,Grande Lisboa,311,2025-03-10T06:46:00Z,25064489,Em despacho,3315,Inundação de estruturas por precipitação intensa,0,1,0,4,2025-03-10T06:46:00Z,Vila Franca De Xira,Lisboa,Área Metropolitana De Lisboa,-9.087262,38.878017
