id,address,subregion,neighborhood,date,id.1,state,nature,nature_description,aerial_means,terrestrial_means,aquatic_means,operational,date.1,Concelho,Distrito,NUTII_DSG,longitude,latitude,state_2
26130044,Santo Aleixo,Alto Alentejo,312,2025-10-13T11:46:00Z,26130044,Em Resolução/Conclusão,3105,Incêndio rural,0,13,0,47,2025-10-13T11:46:00Z,Monforte,Portalegre,Alentejo,-7.396498,38.966055,Resolução/Conclusão
26130196,Sardoal,Médio Tejo,311,2025-10-13T11:45:00Z,26130196,Em Resolução/Conclusão,3101,Incêndio rural,0,26,0,90,2025-10-13T11:45:00Z,Sardoal,Santarém,Centro,-8.119095,39.515667,Resolução/Conclusão
26131007,Prozelo,Alto Minho,309,2025-10-13T14:42:00Z,26131007,Em Resolução/Conclusão,3103,Incêndio rural,0,3,0,7,2025-10-13T14:42:00Z,Arcos De Valdevez,Viana Do Castelo,Norte,-8.439773,41.863392,Resolução/Conclusão
26131191,Mondrões,Douro,309,2025-10-13T15:10:00Z,26131191,Em Resolução/Conclusão,3103,Incêndio rural,1,4,0,23,2025-10-13T15:10:00Z,Vila Real,Vila Real,Norte,-7.802441,41.292354,Resolução/Conclusão
26126383,Mouriscas,Médio Tejo,311,2025-10-12T15:59:00Z,26126383,Em Resolução/Conclusão,3103,Incêndio rural,0,1,0,4,2025-10-12T15:59:00Z,Abrantes,Santarém,Centro,-8.11638,39.518325,Resolução/Conclusão
26128884,"Vilela, São Cosme e São Damião e Sá",Alto Minho,309,2025-10-13T08:30:00Z,26128884,Em Resolução/Conclusão,3101,Incêndio rural,0,0,0,0,2025-10-13T08:30:00Z,Arcos De Valdevez,Viana Do Castelo,Norte,-8.42571,41.916205,Resolução/Conclusão
26130104,Melides,Alentejo Litoral,312,2025-10-13T12:00:00Z,26130104,Em Resolução/Conclusão,3103,Incêndio rural,0,5,0,14,2025-10-13T12:00:00Z,Grândola,Setúbal,Alentejo,-8.73051,38.18903,Resolução/Conclusão
26130536,Santa Marinha,Alto Tâmega e Barroso,309,2025-10-13T13:23:00Z,26130536,Em Resolução/Conclusão,3103,Incêndio rural,0,11,0,36,2025-10-13T13:23:00Z,Ribeira De Pena,Vila Real,Norte,-7.784483,41.526403,Resolução/Conclusão
26130706,"Alto do Seixalinho, Santo André e Verderena",Península de Setúbal,311,2025-10-13T13:46:00Z,26130706,Em Resolução/Conclusão,3103,Incêndio rural,0,1,0,2,2025-10-13T13:46:00Z,Barreiro,Setúbal,Área Metropolitana De Lisboa,-9.056708,38.653969,Resolução/Conclusão
26130922,Pegões,Península de Setúbal,311,2025-10-13T14:24:00Z,26130922,Em Resolução/Conclusão,3103,Incêndio rural,0,2,0,7,2025-10-13T14:24:00Z,Montijo,Setúbal,Área Metropolitana De Lisboa,-8.703682,38.715903,Resolução/Conclusão
26130963,Serpins,Região de Coimbra,310,2025-10-13T14:32:00Z,26130963,Em Resolução/Conclusão,3101,Incêndio rural,0,0,0,0,2025-10-13T14:32:00Z,Lousã,Coimbra,Centro,-8.173011,40.140179,Resolução/Conclusão
26130599,São Matias,Alto Alentejo,312,2025-10-13T13:32:00Z,26130599,Em Resolução/Conclusão,3105,Incêndio rural,0,7,0,26,2025-10-13T13:32:00Z,Nisa,Portalegre,Alentejo,-7.68394,39.543642,Resolução/Conclusão
26131133,"Crasto, Ruivos e Grovelas",Alto Minho,309,2025-10-13T15:01:00Z,26131133,Em Curso,3103,Incêndio rural,1,3,0,15,2025-10-13T15:01:00Z,Ponte Da Barca,Viana Do Castelo,Norte,-8.472334,41.744971,Curso
26130541,Anissó e Soutelo,Ave,309,2025-10-13T13:24:00Z,26130541,Em Resolução/Conclusão,3103,Incêndio rural,0,5,0,19,2025-10-13T13:24:00Z,Vieira Do Minho,Braga,Norte,-8.187045,41.59913,Resolução/Conclusão
26131126,Castêlo da Maia,Area M. Porto,309,2025-10-13T15:00:00Z,26131126,Em Resolução/Conclusão,3101,Incêndio rural,0,1,0,5,2025-10-13T15:00:00Z,Maia,Porto,Norte,-8.601285,41.266077,Resolução/Conclusão
26131243,Recezinhos (São Mamede),Tâmega e Sousa,309,2025-10-13T15:16:00Z,26131243,Em Resolução/Conclusão,3103,Incêndio rural,0,2,0,10,2025-10-13T15:16:00Z,Penafiel,Porto,Norte,-8.224468,41.24055,Resolução/Conclusão
26131072,Muge,Lezíria do Tejo,311,2025-10-13T14:52:00Z,26131072,Em Resolução/Conclusão,3105,Incêndio rural,0,6,0,16,2025-10-13T14:52:00Z,Salvaterra De Magos,Santarém,Alentejo,-8.717363,39.096347,Resolução/Conclusão
26131349,Gralhas,Alto Tâmega e Barroso,309,2025-10-13T15:42:00Z,26131349,Em Despacho,3103,Incêndio rural,1,3,0,21,2025-10-13T15:42:00Z,Montalegre,Vila Real,Norte,-7.703256,41.851153,Despacho
26131374,Vila Verde e Barbudo,Cávado,309,2025-10-13T15:47:00Z,26131374,Em Despacho,3111,Queima,0,2,0,7,2025-10-13T15:47:00Z,Vila Verde,Braga,Norte,-8.440603,41.647592,Despacho
