id,address,subregion,neighborhood,date,id.1,state,nature,nature_description,aerial_means,terrestrial_means,aquatic_means,operational,date.1,Concelho,Distrito,NUTII_DSG,longitude,latitude,state_2
25773830,Andrães,Douro,309,2025-08-02T14:23:00Z,25773830,Em Resolução/Conclusão,3103,Incêndio rural,0,13,0,51,2025-08-02T14:23:00Z,Vila Real,Vila Real,Norte,-7.671293,41.267593,Resolução/Conclusão
25774883,Arnóia,Tâmega e Sousa,309,2025-08-02T18:20:00Z,25774883,Em Resolução/Conclusão,3103,Incêndio rural,0,6,0,22,2025-08-02T18:20:00Z,Celorico De Basto,Braga,Norte,-7.998983,41.348727,Resolução/Conclusão
25804968,Alvadia,Alto Tâmega e Barroso,309,2025-08-08T07:21:00Z,25804968,Em Curso,3103,Incêndio rural,0,77,0,226,2025-08-08T07:21:00Z,Ribeira De Pena,Vila Real,Norte,-7.782872,41.457452,Curso
25809228,Alvarenga,Area M. Porto,309,2025-08-08T20:22:00Z,25809228,Em Resolução/Conclusão,3101,Incêndio rural,0,0,0,0,2025-08-08T20:22:00Z,Arouca,Aveiro,Norte,-8.16915,40.97689,Resolução/Conclusão
25809413,São Pedro de Sarracenos,Terras de Trás-os-Montes,309,2025-08-08T20:53:00Z,25809413,Em Resolução/Conclusão,3103,Incêndio rural,0,2,0,7,2025-08-08T20:53:00Z,Bragança,Bragança,Norte,-6.793528,41.754195,Resolução/Conclusão
25809527,Cedovim,Douro,309,2025-08-08T21:29:00Z,25809527,Em Resolução/Conclusão,3103,Incêndio rural,0,6,0,23,2025-08-08T21:29:00Z,Vila Nova De Foz Côa,Guarda,Norte,-7.292598,41.031448,Resolução/Conclusão
25810064,Conceição e Estoi,Algarve,313,2025-08-09T00:04:00Z,25810064,Em Resolução/Conclusão,3103,Incêndio rural,0,1,0,2,2025-08-09T00:04:00Z,Faro,Faro,Algarve,-7.876347,37.094970000000004,Resolução/Conclusão
25775263,Torgueda,Douro,309,2025-08-02T19:49:00Z,25775263,Em Resolução/Conclusão,3101,Incêndio rural,0,4,0,15,2025-08-02T19:49:00Z,Vila Real,Vila Real,Norte,-7.785983,41.274952,Resolução/Conclusão
25785466,Caçarilhe e Infesta,Tâmega e Sousa,309,2025-08-04T16:48:00Z,25785466,Em Resolução/Conclusão,3103,Incêndio rural,0,5,0,21,2025-08-04T16:48:00Z,Celorico De Basto,Braga,Norte,-8.035342,41.42903,Resolução/Conclusão
25800301,Alvão,Alto Tâmega e Barroso,309,2025-08-07T10:03:00Z,25800301,Em Resolução/Conclusão,3103,Incêndio rural,0,8,0,20,2025-08-07T10:03:00Z,Vila Pouca De Aguiar,Vila Real,Norte,-7.74157,41.466742000000004,Resolução/Conclusão
25802248,Graça,Região de Leiria,310,2025-08-07T15:30:00Z,25802248,Em Resolução/Conclusão,3101,Incêndio rural,0,1,0,2,2025-08-07T15:30:00Z,Pedrógão Grande,Leiria,Centro,-8.217915,39.911242,Resolução/Conclusão
25803707,Almofala e Escarigo,Beiras e Serra da Estrela,310,2025-08-07T20:50:00Z,25803707,Em Curso,3103,Incêndio rural,0,52,0,170,2025-08-07T20:50:00Z,Figueira De Castelo Rodrigo,Guarda,Centro,-6.847203,40.887165,Curso
25807426,Alvite,Douro,309,2025-08-08T14:31:00Z,25807426,Em Curso,3103,Incêndio rural,0,89,0,300,2025-08-08T14:31:00Z,Moimenta Da Beira,Viseu,Norte,-7.688727,40.96613,Curso
25808055,Caíde de Rei,Tâmega e Sousa,309,2025-08-08T16:40:00Z,25808055,Em Resolução/Conclusão,3103,Incêndio rural,0,2,0,10,2025-08-08T16:40:00Z,Lousada,Porto,Norte,-8.227563,41.255248,Resolução/Conclusão
25810034,Painho e Figueiros,Oeste,311,2025-08-08T23:46:00Z,25810034,Em Resolução/Conclusão,3103,Incêndio rural,0,4,0,14,2025-08-08T23:46:00Z,Cadaval,Lisboa,Centro,-9.043065,39.295408,Resolução/Conclusão
25810250,"Margaride (Santa Eulália), Várzea, Lagares, Varziela e Moure",Tâmega e Sousa,309,2025-08-09T01:21:00Z,25810250,Em Resolução/Conclusão,3103,Incêndio rural,0,1,0,5,2025-08-09T01:21:00Z,Felgueiras,Porto,Norte,-8.176427,41.358893,Resolução/Conclusão
25810147,Vila Boa de Quires e Maureles,Tâmega e Sousa,309,2025-08-09T00:43:00Z,25810147,Em Resolução/Conclusão,3103,Incêndio rural,0,1,0,5,2025-08-09T00:43:00Z,Marco De Canaveses,Porto,Norte,-8.207032,41.196193,Resolução/Conclusão
25810262,São Pedro da Torre,Alto Minho,309,2025-08-09T01:28:00Z,25810262,Em Resolução/Conclusão,3103,Incêndio rural,0,2,0,7,2025-08-09T01:28:00Z,Valença,Viana Do Castelo,Norte,-8.679747,41.986827,Resolução/Conclusão
25810316,Alguber,Oeste,311,2025-08-09T01:50:00Z,25810316,Em Despacho,3101,Incêndio rural,0,3,0,9,2025-08-09T01:50:00Z,Cadaval,Lisboa,Centro,-9.027952,39.291923,Despacho
25776263,"Pena, Quintã e Vila Cova",Douro,309,2025-08-02T23:45:00Z,25776263,Em Resolução/Conclusão,3103,Incêndio rural,0,20,0,59,2025-08-02T23:45:00Z,Vila Real,Vila Real,Norte,-7.811902,41.317355,Resolução/Conclusão
25783717,Cunha Baixa,Viseu Dão Lafões,310,2025-08-04T11:48:00Z,25783717,Em Resolução/Conclusão,3101,Incêndio rural,0,1,0,2,2025-08-04T11:48:00Z,Mangualde,Viseu,Centro,-7.764411,40.559738,Resolução/Conclusão
25785204,Ribas,Tâmega e Sousa,309,2025-08-04T16:03:00Z,25785204,Em Resolução/Conclusão,3103,Incêndio rural,0,0,0,0,2025-08-04T16:03:00Z,Celorico De Basto,Braga,Norte,-8.022547,41.449583,Resolução/Conclusão
25787860,Faíl e Vila Chã de Sá,Viseu Dão Lafões,310,2025-08-05T05:55:00Z,25787860,Em Resolução/Conclusão,3103,Incêndio rural,0,1,0,4,2025-08-05T05:55:00Z,Viseu,Viseu,Centro,-7.987877,40.601342,Resolução/Conclusão
25802450,Canas de Santa Maria,Viseu Dão Lafões,310,2025-08-07T16:14:00Z,25802450,Em Resolução/Conclusão,3103,Incêndio rural,0,1,0,2,2025-08-07T16:14:00Z,Tondela,Viseu,Centro,-8.032777,40.56017,Resolução/Conclusão
25808770,Pindo,Viseu Dão Lafões,310,2025-08-08T18:52:00Z,25808770,Em Resolução/Conclusão,3103,Incêndio rural,0,1,0,2,2025-08-08T18:52:00Z,Penalva Do Castelo,Viseu,Centro,-7.763725,40.674402,Resolução/Conclusão
25808836,Rebordãos,Terras de Trás-os-Montes,309,2025-08-08T19:04:00Z,25808836,Em Resolução/Conclusão,3101,Incêndio rural,0,11,0,25,2025-08-08T19:04:00Z,Bragança,Bragança,Norte,-6.784815,41.736842,Resolução/Conclusão
25808937,Abrunhosa-a-Velha,Viseu Dão Lafões,310,2025-08-08T19:26:00Z,25808937,Em Resolução/Conclusão,3103,Incêndio rural,0,11,0,30,2025-08-08T19:26:00Z,Mangualde,Viseu,Centro,-7.647667,40.572515,Resolução/Conclusão
25785983,Caçarilhe e Infesta,Tâmega e Sousa,309,2025-08-04T18:22:00Z,25785983,Em Resolução/Conclusão,3103,Incêndio rural,0,15,0,47,2025-08-04T18:22:00Z,Celorico De Basto,Braga,Norte,-8.04611,41.419858,Resolução/Conclusão
25792058,Cibões e Brufe,Cávado,309,2025-08-05T19:10:00Z,25792058,Em Resolução/Conclusão,3103,Incêndio rural,0,1,0,5,2025-08-05T19:10:00Z,Terras De Bouro,Braga,Norte,-8.293932,41.764918,Resolução/Conclusão
25807250,Nave de Haver,Beiras e Serra da Estrela,310,2025-08-08T14:05:00Z,25807250,Em Resolução/Conclusão,3103,Incêndio rural,0,4,0,17,2025-08-08T14:05:00Z,Almeida,Guarda,Centro,-6.839848,40.52156,Resolução/Conclusão
25809058,Duas Igrejas,Area M. Porto,309,2025-08-08T19:52:00Z,25809058,Em Resolução/Conclusão,3103,Incêndio rural,0,3,0,9,2025-08-08T19:52:00Z,Paredes,Porto,Norte,-8.370133,41.221488,Resolução/Conclusão
25809994,Quirás e Pinheiro Novo,Terras de Trás-os-Montes,309,2025-08-08T23:38:00Z,25809994,Em Resolução/Conclusão,3103,Incêndio rural,0,4,0,14,2025-08-08T23:38:00Z,Vinhais,Bragança,Norte,-7.149913,41.912422,Resolução/Conclusão
25810237,"Sé, Santa Maria e Meixedo",Terras de Trás-os-Montes,309,2025-08-09T01:15:00Z,25810237,Em Resolução/Conclusão,3101,Incêndio rural,0,4,0,14,2025-08-09T01:15:00Z,Bragança,Bragança,Norte,-6.768228,41.81736,Resolução/Conclusão
25810240,Vilela,Area M. Porto,309,2025-08-09T01:13:00Z,25810240,Em Resolução/Conclusão,3103,Incêndio rural,0,1,0,5,2025-08-09T01:13:00Z,Paredes,Porto,Norte,-8.381106,41.242851,Resolução/Conclusão
