id,address,subregion,neighborhood,date,id.1,state,nature,nature_description,aerial_means,terrestrial_means,aquatic_means,operational,date.1,Concelho,Distrito,NUTII_DSG,longitude,latitude,state_2
26077823,São Cipriano e Vil de Souto,Viseu Dão Lafões,310,2025-10-02T14:18:00Z,26077823,Em Resolução/Conclusão,3103,Incêndio rural,0,1,0,2,2025-10-02T14:18:00Z,Viseu,Viseu,Centro,-7.953868,40.632302,Resolução/Conclusão
26087315,Queluz e Belas,Grande Lisboa,311,2025-10-04T13:37:00Z,26087315,Em Resolução/Conclusão,3103,Incêndio rural,0,2,0,7,2025-10-04T13:37:00Z,Sintra,Lisboa,Área Metropolitana De Lisboa,-9.25375,38.773547,Resolução/Conclusão
26087095,Sambade,Terras de Trás-os-Montes,309,2025-10-04T13:02:00Z,26087095,Em Resolução/Conclusão,3103,Incêndio rural,0,3,0,9,2025-10-04T13:02:00Z,Alfândega Da Fé,Bragança,Norte,-7.006517,41.411763,Resolução/Conclusão
26087518,Capeludos,Alto Tâmega e Barroso,309,2025-10-04T14:36:00Z,26087518,Em Despacho,3103,Incêndio rural,0,3,0,12,2025-10-04T14:36:00Z,Vila Pouca De Aguiar,Vila Real,Norte,-7.6159,41.63573,Despacho
26087638,São Miguel do Souto e Mosteirô,Area M. Porto,309,2025-10-04T15:04:00Z,26087638,Em Despacho,3103,Incêndio rural,0,1,0,5,2025-10-04T15:04:00Z,Santa Maria Da Feira,Aveiro,Norte,-8.569675,40.88823,Despacho
26078806,"Tavares (Chãs, Várzea e Travanca)",Viseu Dão Lafões,310,2025-10-02T17:31:00Z,26078806,Em Resolução/Conclusão,3103,Incêndio rural,0,2,0,7,2025-10-02T17:31:00Z,Mangualde,Viseu,Centro,-7.638958,40.609205,Resolução/Conclusão
26086458,Mondrões,Douro,309,2025-10-04T10:37:00Z,26086458,Em Resolução/Conclusão,3103,Incêndio rural,0,5,0,19,2025-10-04T10:37:00Z,Vila Real,Vila Real,Norte,-7.796993,41.305473,Resolução/Conclusão
26087471,Salir de Matos,Oeste,311,2025-10-04T14:22:00Z,26087471,Em Resolução/Conclusão,3111,Queima,0,4,0,14,2025-10-04T14:22:00Z,Caldas Da Rainha,Leiria,Centro,-9.086948,39.453577,Resolução/Conclusão
26022995,Bordeira,Algarve,313,2025-09-21T12:21:00Z,26022995,Em Resolução/Conclusão,3103,Incêndio rural,0,4,0,13,2025-09-21T12:21:00Z,Aljezur,Faro,Algarve,-8.825374,37.23495,Resolução/Conclusão
26087491,São João de Loure e Frossos,Região de Aveiro,310,2025-10-04T14:32:00Z,26087491,Em Resolução/Conclusão,3101,Incêndio rural,1,4,0,22,2025-10-04T14:32:00Z,Albergaria-a-Velha,Aveiro,Centro,-8.544717,40.661733,Resolução/Conclusão
