id,address,subregion,neighborhood,date,id.1,state,nature,nature_description,aerial_means,terrestrial_means,aquatic_means,operational,date.1,Concelho,Distrito,NUTII_DSG,longitude,latitude
25588005,Carregosa,Area M. Porto,309,2025-06-27T13:21:00Z,25588005,Em conclusão,3103,Incêndio rural,0,3,0,15,2025-06-27T13:21:00Z,Oliveira De Azeméis,Aveiro,Norte,-8.403096,40.871929
25588157,Miranda do Corvo,Região de Coimbra,310,2025-06-27T13:52:00Z,25588157,Em conclusão,2101,Incêndio em edifícios habitacionais,0,2,0,6,2025-06-27T13:52:00Z,Miranda Do Corvo,Coimbra,Centro,-8.339499,40.09407
25588223,Coronado (São Romão e São Mamede),Area M. Porto,309,2025-06-27T14:10:00Z,25588223,Em conclusão,3103,Incêndio rural,0,3,0,13,2025-06-27T14:10:00Z,Trofa,Porto,Norte,-8.562313,41.290082
25588307,Sobrosa,Area M. Porto,309,2025-06-27T14:24:00Z,25588307,Em despacho,3103,Incêndio rural,1,3,0,20,2025-06-27T14:24:00Z,Paredes,Porto,Norte,-8.359266,41.25526
25588394,Gâmbia-Pontes-Alto da Guerra,Península de Setúbal,311,2025-06-27T14:39:00Z,25588394,Em despacho,3111,Queima,0,5,0,19,2025-06-27T14:39:00Z,Setúbal,Setúbal,Área Metropolitana De Lisboa,-8.83096,38.55857
25587394,Cervães,Cávado,309,2025-06-27T11:22:00Z,25587394,Em conclusão,3107,Consolidação de rescaldo de incêndio rural,0,2,0,7,2025-06-27T11:22:00Z,Vila Verde,Braga,Norte,-8.513008,41.595517
25587411,Quinchães,Ave,309,2025-06-27T11:26:00Z,25587411,Em conclusão,3103,Incêndio rural,0,2,0,10,2025-06-27T11:26:00Z,Fafe,Braga,Norte,-8.115693,41.443828
25587579,"Mangualde, Mesquitela e Cunha Alta",Viseu Dão Lafões,310,2025-06-27T11:55:00Z,25587579,Em conclusão,2301,Incêndio em transporte rodoviário,0,3,0,10,2025-06-27T11:55:00Z,Mangualde,Viseu,Centro,-7.759645,40.616647
25587679,Vandoma,Area M. Porto,309,2025-06-27T12:15:00Z,25587679,Em conclusão,3101,Incêndio rural,0,8,0,19,2025-06-27T12:15:00Z,Paredes,Porto,Norte,-8.380961,41.20623
25588364,"Sé Nova, Santa Cruz, Almedina e São Bartolomeu",Região de Coimbra,310,2025-06-27T14:34:00Z,25588364,Em despacho,3105,Incêndio rural,0,5,0,19,2025-06-27T14:34:00Z,Coimbra,Coimbra,Centro,-8.425582,40.205556
25587425,Vendas Novas,Alentejo Central,312,2025-06-27T11:16:00Z,25587425,Em conclusão,2127,"Incêndio em edifícios e recintos industriais, oficinas e armazéns",0,4,0,11,2025-06-27T11:16:00Z,Vendas Novas,Évora,Alentejo,-8.434022,38.6723
25587516,Nespereira,Ave,309,2025-06-27T11:40:00Z,25587516,Em despacho,3107,Consolidação de rescaldo de incêndio rural,0,3,0,9,2025-06-27T11:40:00Z,Guimarães,Braga,Norte,-8.328117,41.411398
25588218,Bacelo e Senhora da Saúde,Alentejo Central,312,2025-06-27T14:09:00Z,25588218,Em conclusão,2101,Incêndio em edifícios habitacionais,0,4,0,11,2025-06-27T14:09:00Z,Évora,Évora,Alentejo,-7.90786,38.58807
