id,address,subregion,neighborhood,date,id.1,state,nature,nature_description,aerial_means,terrestrial_means,aquatic_means,operational,date.1,Concelho,Distrito,NUTII_DSG,longitude,latitude,state_2
25737642,Aboim da Nóbrega e Gondomar,Cávado,309,2025-07-26T17:54:00Z,25737642,Em Resolução/Conclusão,3103,Incêndio rural,0,8,0,31,2025-07-26T17:54:00Z,Vila Verde,Braga,Norte,-8.38607,41.734402,Resolução/Conclusão
25739123,Vale,Alto Minho,309,2025-07-26T23:23:00Z,25739123,Em Resolução/Conclusão,3103,Incêndio rural,0,4,0,14,2025-07-26T23:23:00Z,Arcos De Valdevez,Viana Do Castelo,Norte,-8.374215,41.83279,Resolução/Conclusão
25741940,"Aldeia do Bispo, Águas e Aldeia de João Pires",Beira Baixa,310,2025-07-27T14:45:00Z,25741940,Em Resolução/Conclusão,3105,Incêndio rural,0,4,0,15,2025-07-27T14:45:00Z,Penamacor,Castelo Branco,Centro,-7.213632,40.123598,Resolução/Conclusão
25742163,Beiral do Lima,Alto Minho,309,2025-07-27T15:41:00Z,25742163,Em Resolução/Conclusão,3103,Incêndio rural,0,7,0,24,2025-07-27T15:41:00Z,Ponte De Lima,Viana Do Castelo,Norte,-8.492615,41.770398,Resolução/Conclusão
25742517,Anhões e Luzio,Alto Minho,309,2025-07-27T17:08:00Z,25742517,Em Curso,3103,Incêndio rural,0,23,0,73,2025-07-27T17:08:00Z,Monção,Viana Do Castelo,Norte,-8.452967,41.97745,Curso
25742681,"Esqueiros, Nevogilde e Travassós",Cávado,309,2025-07-27T17:50:00Z,25742681,Em Resolução/Conclusão,3103,Incêndio rural,0,1,0,2,2025-07-27T17:50:00Z,Vila Verde,Braga,Norte,-8.43976,41.666935,Resolução/Conclusão
25742851,Poiares e Canelas,Douro,309,2025-07-27T18:34:00Z,25742851,Em Resolução/Conclusão,3103,Incêndio rural,0,4,0,14,2025-07-27T18:34:00Z,Peso Da Régua,Vila Real,Norte,-7.724845,41.192663,Resolução/Conclusão
25742958,Oldrões,Tâmega e Sousa,309,2025-07-27T19:02:00Z,25742958,Em Resolução/Conclusão,3103,Incêndio rural,0,7,0,28,2025-07-27T19:02:00Z,Penafiel,Porto,Norte,-8.307408,41.150973,Resolução/Conclusão
25743803,Malagueira e Horta Das Figueiras,Alentejo Central,312,2025-07-27T22:50:00Z,25743803,Em Resolução/Conclusão,3103,Incêndio rural,0,1,0,2,2025-07-27T22:50:00Z,Évora,Évora,Alentejo,-7.913763,38.582185,Resolução/Conclusão
25743951,Lustosa e Barrosas (Santo Estêvão),Tâmega e Sousa,309,2025-07-27T23:46:00Z,25743951,Em Curso,3103,Incêndio rural,0,3,0,15,2025-07-27T23:46:00Z,Lousada,Porto,Norte,-8.31317,41.33071,Curso
25742518,Nogueira e Ermida,Douro,309,2025-07-27T17:08:00Z,25742518,Em Resolução/Conclusão,3103,Incêndio rural,0,2,0,4,2025-07-27T17:08:00Z,Vila Real,Vila Real,Norte,-7.735753,41.216252,Resolução/Conclusão
25742969,Santalha,Terras de Trás-os-Montes,309,2025-07-27T19:01:00Z,25742969,Em Resolução/Conclusão,3103,Incêndio rural,0,1,0,2,2025-07-27T19:01:00Z,Vinhais,Bragança,Norte,-7.158082,41.862533,Resolução/Conclusão
25743788,Meinedo,Tâmega e Sousa,309,2025-07-27T22:50:00Z,25743788,Em Resolução/Conclusão,3103,Incêndio rural,0,2,0,10,2025-07-27T22:50:00Z,Lousada,Porto,Norte,-8.23296,41.247842,Resolução/Conclusão
25743958,Bacelo e Senhora da Saúde,Alentejo Central,312,2025-07-27T23:50:00Z,25743958,Em Resolução/Conclusão,3103,Incêndio rural,0,5,0,12,2025-07-27T23:50:00Z,Évora,Évora,Alentejo,-7.869122,38.593644,Resolução/Conclusão
25743992,Portela e Extremo,Alto Minho,309,2025-07-28T00:01:00Z,25743992,Em Despacho,3101,Incêndio rural,0,0,0,0,2025-07-28T00:01:00Z,Arcos De Valdevez,Viana Do Castelo,Norte,-8.462649,41.957455,Despacho
25741525,Vela,Beiras e Serra da Estrela,310,2025-07-27T13:16:00Z,25741525,Em Resolução/Conclusão,3103,Incêndio rural,0,4,0,16,2025-07-27T13:16:00Z,Guarda,Guarda,Centro,-7.287277,40.438025,Resolução/Conclusão
25743582,Fervença,Tâmega e Sousa,309,2025-07-27T21:51:00Z,25743582,Em Resolução/Conclusão,3105,Incêndio rural,0,3,0,12,2025-07-27T21:51:00Z,Celorico De Basto,Braga,Norte,-8.09323,41.3457,Resolução/Conclusão
25730832,Aveleda e Rio de Onor,Terras de Trás-os-Montes,309,2025-07-25T12:07:00Z,25730832,Em Resolução/Conclusão,3103,Incêndio rural,0,0,0,0,2025-07-25T12:07:00Z,Bragança,Bragança,Norte,-6.707873,41.891435,Resolução/Conclusão
25738747,Lindoso,Alto Minho,309,2025-07-26T21:47:00Z,25738747,Em Curso,3103,Incêndio rural,0,78,0,229,2025-07-26T21:47:00Z,Ponte Da Barca,Viana Do Castelo,Norte,-8.220528,41.865272,Curso
25741880,Benavila e Valongo,Alto Alentejo,312,2025-07-27T14:31:00Z,25741880,Em Resolução/Conclusão,3105,Incêndio rural,0,36,0,113,2025-07-27T14:31:00Z,Avis,Portalegre,Alentejo,-7.866293,39.19533,Resolução/Conclusão
25742993,Cervães,Cávado,309,2025-07-27T19:08:00Z,25742993,Em Resolução/Conclusão,3103,Incêndio rural,0,1,0,3,2025-07-27T19:08:00Z,Vila Verde,Braga,Norte,-8.524465,41.61316,Resolução/Conclusão
25743677,Portela,Alto Minho,309,2025-07-27T22:05:00Z,25743677,Em Curso,3101,Incêndio rural,0,9,0,19,2025-07-27T22:05:00Z,Monção,Viana Do Castelo,Norte,-8.481475,41.977915,Curso
25743786,Portela,Alto Minho,309,2025-07-27T00:13:00Z,25743786,Em Despacho,3101,Incêndio rural,0,4,0,10,2025-07-27T00:13:00Z,Monção,Viana Do Castelo,Norte,-8.477957,41.971388,Despacho
