id,address,subregion,neighborhood,date,id.1,state,nature,nature_description,aerial_means,terrestrial_means,aquatic_means,operational,date.1,Concelho,Distrito,NUTII_DSG,longitude,latitude
24877003,Malagueira e Horta Das Figueiras,Alentejo Central,312,2025-01-27T11:41:00Z,24877003,Em conclusão,3315,Inundação de estruturas por precipitação intensa,0,0,0,0,2025-01-27T11:41:00Z,Évora,Évora,Alentejo,-7.924277,38.57285
25016908,Barcarena,Grande Lisboa,311,2025-02-27T10:14:00Z,25016908,Em conclusão,3315,Inundação de estruturas por precipitação intensa,0,1,0,5,2025-02-27T10:14:00Z,Oeiras,Lisboa,Área Metropolitana De Lisboa,-9.282164,38.744749
25016991,Corroios,Península de Setúbal,311,2025-02-27T10:26:00Z,25016991,Em despacho,3317,Inundação de estruturas por água canalizada,0,1,0,3,2025-02-27T10:26:00Z,Seixal,Setúbal,Área Metropolitana De Lisboa,-9.155796,38.618466
25005550,Sines,Alentejo Litoral,312,2025-02-24T19:12:00Z,25005550,Em conclusão,3313,Deslizamento de terras,0,0,0,0,2025-02-24T19:12:00Z,Sines,Setúbal,Alentejo,-8.849778,37.961314
24888293,Pernes,Lezíria do Tejo,311,2025-01-29T16:41:00Z,24888293,Em curso,3301,Queda de árvore,0,0,0,0,2025-01-29T16:41:00Z,Santarém,Santarém,Alentejo,-8.658865,39.381547
