id,address,subregion,neighborhood,date,id.1,state,nature,nature_description,aerial_means,terrestrial_means,aquatic_means,operational,date.1,Concelho,Distrito,NUTII_DSG,longitude,latitude
25064774,Aljezur,Algarve,313,2025-03-10T08:41:00Z,25064774,Em curso,3301,Queda de árvore,0,1,0,4,2025-03-10T08:41:00Z,Aljezur,Faro,Algarve,-8.803144,37.313343
25064801,Mira,Região de Coimbra,310,2025-03-10T08:34:00Z,25064801,Em despacho,3315,Inundação de estruturas por precipitação intensa,0,1,0,1,2025-03-10T08:34:00Z,Mira,Coimbra,Centro,-8.734102,40.4268
25065403,Marmelete,Algarve,313,2025-03-10T10:26:00Z,25065403,Em despacho,3313,Deslizamento de terras,0,1,0,2,2025-03-10T10:26:00Z,Monchique,Faro,Algarve,-8.697881,37.26614
25065460,Sado,Península de Setúbal,311,2025-03-10T10:41:00Z,25065460,Em despacho,3301,Queda de árvore,0,1,0,5,2025-03-10T10:41:00Z,Setúbal,Setúbal,Área Metropolitana De Lisboa,-8.830049,38.498799
25065803,Arranhó,Oeste,311,2025-03-10T11:40:00Z,25065803,Em resolução,3315,Inundação de estruturas por precipitação intensa,0,2,0,3,2025-03-10T11:40:00Z,Arruda Dos Vinhos,Lisboa,Centro,-9.132157,38.956907
25065880,"Almargem do Bispo, Pêro Pinheiro e Montelavar",Grande Lisboa,311,2025-03-10T11:31:00Z,25065880,Em despacho,3315,Inundação de estruturas por precipitação intensa,0,1,0,2,2025-03-10T11:31:00Z,Sintra,Lisboa,Área Metropolitana De Lisboa,-9.335912,38.863107
25065928,Fortios,Alto Alentejo,312,2025-03-10T12:15:00Z,25065928,Em despacho,3309,Desabamento de estruturas edificadas,0,1,0,2,2025-03-10T12:15:00Z,Portalegre,Portalegre,Alentejo,-7.48984,39.31824
25063232,Santa Maria do Castelo e Santiago e Santa Susana,Alentejo Litoral,312,2025-03-09T19:02:00Z,25063232,Em curso,1101,Cheia,0,1,0,1,2025-03-09T19:02:00Z,Alcácer Do Sal,Setúbal,Alentejo,-8.48167,38.29806
25064922,Arruda Dos Vinhos,Oeste,311,2025-03-10T09:03:00Z,25064922,Em curso,3315,Inundação de estruturas por precipitação intensa,0,1,0,1,2025-03-10T09:03:00Z,Arruda Dos Vinhos,Lisboa,Centro,-9.098654,39.001645
25065657,Gavião e Atalaia,Alto Alentejo,312,2025-03-10T11:23:00Z,25065657,Em curso,3309,Desabamento de estruturas edificadas,0,3,0,5,2025-03-10T11:23:00Z,Gavião,Portalegre,Alentejo,-7.950913,39.428242
25065805,Bucelas,Grande Lisboa,311,2025-03-10T11:43:00Z,25065805,Em conclusão,3315,Inundação de estruturas por precipitação intensa,0,1,0,4,2025-03-10T11:43:00Z,Loures,Lisboa,Área Metropolitana De Lisboa,-9.168413,38.911553
25065842,Almeirim,Lezíria do Tejo,311,2025-03-10T11:57:00Z,25065842,Em resolução,3315,Inundação de estruturas por precipitação intensa,0,0,0,0,2025-03-10T11:57:00Z,Almeirim,Santarém,Alentejo,-8.588832,39.142251
25065874,Maceira,Região de Leiria,310,2025-03-10T11:57:00Z,25065874,Em curso,3315,Inundação de estruturas por precipitação intensa,0,2,0,4,2025-03-10T11:57:00Z,Leiria,Leiria,Centro,-8.916737,39.710638
25065891,"Almargem do Bispo, Pêro Pinheiro e Montelavar",Grande Lisboa,311,2025-03-10T11:33:00Z,25065891,Em despacho,3315,Inundação de estruturas por precipitação intensa,0,1,0,3,2025-03-10T11:33:00Z,Sintra,Lisboa,Área Metropolitana De Lisboa,-9.332865,38.860267
25059714,Torrão,Alentejo Litoral,312,2025-03-08T22:10:00Z,25059714,Em curso,1101,Cheia,0,2,0,3,2025-03-08T22:10:00Z,Alcácer Do Sal,Setúbal,Alentejo,-8.359133,38.252053
25065647,Alverca do Ribatejo e Sobralinho,Grande Lisboa,311,2025-03-10T11:22:00Z,25065647,Em conclusão,3301,Queda de árvore,0,1,0,5,2025-03-10T11:22:00Z,Vila Franca De Xira,Lisboa,Área Metropolitana De Lisboa,-9.04568,38.90465
25065700,São Salvador e Santa Maria,Alentejo Litoral,312,2025-03-10T09:00:00Z,25065700,Em curso,3313,Deslizamento de terras,0,2,0,3,2025-03-10T09:00:00Z,Odemira,Beja,Alentejo,-8.643495,37.596661
25066049,"Alto do Seixalinho, Santo André e Verderena",Península de Setúbal,311,2025-03-10T12:33:00Z,25066049,Em despacho,3315,Inundação de estruturas por precipitação intensa,0,1,0,5,2025-03-10T12:33:00Z,Barreiro,Setúbal,Área Metropolitana De Lisboa,-9.056708,38.653969
25066051,Caparica e Trafaria,Península de Setúbal,311,2025-03-10T12:36:00Z,25066051,Em despacho,3301,Queda de árvore,0,1,0,3,2025-03-10T12:36:00Z,Almada,Setúbal,Área Metropolitana De Lisboa,-9.205904,38.644587
25065953,Sé e São Lourenço,Alto Alentejo,312,2025-03-10T12:21:00Z,25065953,Em curso,3301,Queda de árvore,0,5,0,8,2025-03-10T12:21:00Z,Portalegre,Portalegre,Alentejo,-7.405434,39.281244
25066010,Marrazes e Barosa,Região de Leiria,310,2025-03-10T12:28:00Z,25066010,Em conclusão,3309,Desabamento de estruturas edificadas,0,1,0,4,2025-03-10T12:28:00Z,Leiria,Leiria,Centro,-8.821706,39.769783
25066078,Aljezur,Algarve,313,2025-03-10T12:40:00Z,25066078,Em despacho,3301,Queda de árvore,0,2,0,6,2025-03-10T12:40:00Z,Aljezur,Faro,Algarve,-8.803144,37.313343
25066112,Fazendas de Almeirim,Lezíria do Tejo,311,2025-03-10T12:55:00Z,25066112,Em curso,3315,Inundação de estruturas por precipitação intensa,0,1,0,4,2025-03-10T12:55:00Z,Almeirim,Santarém,Alentejo,-8.576336,39.178329
25065922,São João de Lourosa,Viseu Dão Lafões,310,2025-03-10T12:00:00Z,25065922,Em curso,3313,Deslizamento de terras,0,0,0,0,2025-03-10T12:00:00Z,Viseu,Viseu,Centro,-7.888486,40.621725
25066008,Alpiarça,Lezíria do Tejo,311,2025-03-10T12:31:00Z,25066008,Em resolução,3315,Inundação de estruturas por precipitação intensa,0,1,0,1,2025-03-10T12:31:00Z,Alpiarça,Santarém,Alentejo,-8.595402,39.262022
25066023,"Alhandra, São João Dos Montes e Calhandriz",Grande Lisboa,311,2025-03-10T12:30:00Z,25066023,Em despacho,3315,Inundação de estruturas por precipitação intensa,0,1,0,5,2025-03-10T12:30:00Z,Vila Franca De Xira,Lisboa,Área Metropolitana De Lisboa,-9.029303,38.94243
25066025,Santo Antão e São Julião do Tojal,Grande Lisboa,311,2025-03-10T12:30:00Z,25066025,Em despacho,3315,Inundação de estruturas por precipitação intensa,0,1,0,5,2025-03-10T12:30:00Z,Loures,Lisboa,Área Metropolitana De Lisboa,-9.160833,38.865682
25066057,Agualva e Mira-Sintra,Grande Lisboa,311,2025-03-10T12:22:00Z,25066057,Em despacho,3301,Queda de árvore,0,1,0,5,2025-03-10T12:22:00Z,Sintra,Lisboa,Área Metropolitana De Lisboa,-9.297451,38.765315
25066125,Amora,Península de Setúbal,311,2025-03-10T11:40:00Z,25066125,Em despacho,3301,Queda de árvore,0,1,0,3,2025-03-10T11:40:00Z,Seixal,Setúbal,Área Metropolitana De Lisboa,-9.137467,38.596552
25066126,Sé e São Lourenço,Alto Alentejo,312,2025-03-10T12:30:00Z,25066126,Em despacho,3301,Queda de árvore,0,1,0,5,2025-03-10T12:30:00Z,Portalegre,Portalegre,Alentejo,-7.4259829999999996,39.295933
25066100,Carvoeira,Grande Lisboa,311,2025-03-10T12:45:00Z,25066100,Em despacho,3315,Inundação de estruturas por precipitação intensa,0,1,0,3,2025-03-10T12:45:00Z,Mafra,Lisboa,Área Metropolitana De Lisboa,-9.39494,38.94355
25063971,Salir,Algarve,313,2025-03-09T23:45:00Z,25063971,Em resolução,3313,Deslizamento de terras,0,3,0,3,2025-03-09T23:45:00Z,Loulé,Faro,Algarve,-7.945758,37.230723
25065325,Odeceixe,Algarve,313,2025-03-10T10:09:00Z,25065325,Em curso,3301,Queda de árvore,0,1,0,4,2025-03-10T10:09:00Z,Aljezur,Faro,Algarve,-8.742576,37.399882
25065377,Fazendas de Almeirim,Lezíria do Tejo,311,2025-03-10T10:37:00Z,25065377,Em curso,3321,Dano na rede de fornecimento de eletricidade ,0,1,0,2,2025-03-10T10:37:00Z,Almeirim,Santarém,Alentejo,-8.538074,39.165858
25065720,Gavião e Atalaia,Alto Alentejo,312,2025-03-10T11:35:00Z,25065720,Em despacho,3313,Deslizamento de terras,0,0,0,0,2025-03-10T11:35:00Z,Gavião,Portalegre,Alentejo,-7.960047,39.430351
25066004,Salvaterra de Magos e Foros de Salvaterra,Lezíria do Tejo,311,2025-03-10T12:31:00Z,25066004,Em curso,3315,Inundação de estruturas por precipitação intensa,0,2,0,3,2025-03-10T12:31:00Z,Salvaterra De Magos,Santarém,Alentejo,-8.790194,39.028695
25066020,Salvaterra de Magos e Foros de Salvaterra,Lezíria do Tejo,311,2025-03-10T12:35:00Z,25066020,Em conclusão,3315,Inundação de estruturas por precipitação intensa,0,1,0,5,2025-03-10T12:35:00Z,Salvaterra De Magos,Santarém,Alentejo,-8.73342,39.006483
25066045,Azueira e Sobral da Abelheira,Grande Lisboa,311,2025-03-10T12:32:00Z,25066045,Em despacho,3315,Inundação de estruturas por precipitação intensa,0,1,0,1,2025-03-10T12:32:00Z,Mafra,Lisboa,Área Metropolitana De Lisboa,-9.288867,39.016708
25066104,Guarda,Beiras e Serra da Estrela,310,2025-03-10T12:54:00Z,25066104,Em despacho,3315,Inundação de estruturas por precipitação intensa,0,1,0,3,2025-03-10T12:54:00Z,Guarda,Guarda,Centro,-7.260869,40.536751
25066136,Sardoal,Médio Tejo,311,2025-03-10T13:01:00Z,25066136,Em despacho,3315,Inundação de estruturas por precipitação intensa,0,2,0,4,2025-03-10T13:01:00Z,Sardoal,Santarém,Centro,-8.158693,39.533153
