id,address,subregion,neighborhood,date,id.1,state,nature,nature_description,aerial_means,terrestrial_means,aquatic_means,operational,date.1,Concelho,Distrito,NUTII_DSG,longitude,latitude,state_2
26137442,Cabril,Viseu Dão Lafões,310,2025-10-14T19:16:00Z,26137442,Em Resolução/Conclusão,3103,Incêndio rural,0,9,0,38,2025-10-14T19:16:00Z,Castro Daire,Viseu,Centro,-8.059472,40.970448,Resolução/Conclusão
26137777,Monte e Queimadela,Ave,309,2025-10-14T20:54:00Z,26137777,Em Resolução/Conclusão,3103,Incêndio rural,0,3,0,15,2025-10-14T20:54:00Z,Fafe,Braga,Norte,-8.154765,41.528335,Resolução/Conclusão
26138113,"S.maria, S.miguel, S.martinho, S.pedro Penaferrim",Grande Lisboa,311,2025-10-14T22:44:00Z,26138113,Em Resolução/Conclusão,3101,Incêndio rural,0,23,0,86,2025-10-14T22:44:00Z,Sintra,Lisboa,Área Metropolitana De Lisboa,-9.38831,38.76601,Resolução/Conclusão
26138185,Cristelo,Cávado,309,2025-10-14T23:16:00Z,26138185,Em Despacho,3105,Incêndio rural,0,1,0,5,2025-10-14T23:16:00Z,Barcelos,Braga,Norte,-8.70694,41.46178,Despacho
26138192,Cavez,Ave,309,2025-10-14T23:19:00Z,26138192,Em Despacho,3103,Incêndio rural,0,2,0,10,2025-10-14T23:19:00Z,Cabeceiras De Basto,Braga,Norte,-7.884216,41.514775,Despacho
26137682,Cabril,Viseu Dão Lafões,310,2025-10-14T20:26:00Z,26137682,Em Resolução/Conclusão,3103,Incêndio rural,0,6,0,20,2025-10-14T20:26:00Z,Castro Daire,Viseu,Centro,-8.09192,40.961935,Resolução/Conclusão
26137818,"Veade, Gagos e Molares",Tâmega e Sousa,309,2025-10-14T21:05:00Z,26137818,Em Resolução/Conclusão,3103,Incêndio rural,0,3,0,14,2025-10-14T21:05:00Z,Celorico De Basto,Braga,Norte,-7.993718,41.42042,Resolução/Conclusão
