id,address,subregion,neighborhood,date,id.1,state,nature,nature_description,aerial_means,terrestrial_means,aquatic_means,operational,date.1,Concelho,Distrito,NUTII_DSG,longitude,latitude
25087162,Pedrógão,Baixo Alentejo,312,2025-03-14T17:00:00Z,25087162,Em curso,1101,Cheia,0,0,0,0,2025-03-14T17:00:00Z,Vidigueira,Beja,Alentejo,-7.630327,38.110775
25128056,Santa Maria do Castelo e Santiago e Santa Susana,Alentejo Litoral,312,2025-03-21T14:41:00Z,25128056,Em curso,1101,Cheia,0,0,0,0,2025-03-21T14:41:00Z,Alcácer Do Sal,Setúbal,Alentejo,-8.434671,38.401157
25129578,Brotas,Alentejo Central,312,2025-03-21T19:13:00Z,25129578,Em curso,3301,Queda de árvore,0,2,0,4,2025-03-21T19:13:00Z,Mora,Évora,Alentejo,-8.176946,38.899781
25130882,Praia de Mira,Região de Coimbra,310,2025-03-22T05:11:00Z,25130882,Em despacho,3301,Queda de árvore,0,1,0,2,2025-03-22T05:11:00Z,Mira,Coimbra,Centro,-8.788778,40.475131
25130923,Carcavelos e Parede,Grande Lisboa,311,2025-03-22T05:50:00Z,25130923,Em despacho,3301,Queda de árvore,0,0,0,0,2025-03-22T05:50:00Z,Cascais,Lisboa,Área Metropolitana De Lisboa,-9.35906,38.68988
25063232,Santa Maria do Castelo e Santiago e Santa Susana,Alentejo Litoral,312,2025-03-09T19:02:00Z,25063232,Em conclusão,1101,Cheia,0,0,0,0,2025-03-09T19:02:00Z,Alcácer Do Sal,Setúbal,Alentejo,-8.48167,38.29806
25127944,Colares,Grande Lisboa,311,2025-03-21T14:29:00Z,25127944,Em curso,3301,Queda de árvore,0,1,0,6,2025-03-21T14:29:00Z,Sintra,Lisboa,Área Metropolitana De Lisboa,-9.432326,38.780106
25130567,Manteigas (Santa Maria),Beiras e Serra da Estrela,310,2025-03-22T00:50:00Z,25130567,Em curso,3313,Deslizamento de terras,0,1,0,2,2025-03-22T00:50:00Z,Manteigas,Guarda,Centro,-7.537826,40.403513
25130752,Vendas Novas,Alentejo Central,312,2025-03-22T03:00:00Z,25130752,Em despacho,3301,Queda de árvore,0,2,0,4,2025-03-22T03:00:00Z,Vendas Novas,Évora,Alentejo,-8.44928,38.67854
25130867,Roliça,Oeste,311,2025-03-22T04:47:00Z,25130867,Em curso,3301,Queda de árvore,0,3,0,8,2025-03-22T04:47:00Z,Bombarral,Leiria,Centro,-9.181897,39.315603
25130884,Queluz e Belas,Grande Lisboa,311,2025-03-22T05:15:00Z,25130884,Em despacho,3315,Inundação de estruturas por precipitação intensa,0,1,0,2,2025-03-22T05:15:00Z,Sintra,Lisboa,Área Metropolitana De Lisboa,-9.253541,38.753134
25130885,Mogege,Ave,309,2025-03-22T05:13:00Z,25130885,Em despacho,3301,Queda de árvore,0,1,0,2,2025-03-22T05:13:00Z,Vila Nova De Famalicão,Braga,Norte,-8.411237,41.422789
25059714,Torrão,Alentejo Litoral,312,2025-03-08T22:10:00Z,25059714,Em curso,1101,Cheia,0,1,0,2,2025-03-08T22:10:00Z,Alcácer Do Sal,Setúbal,Alentejo,-8.359133,38.252053
25070044,Praia do Ribatejo,Médio Tejo,311,2025-03-10T19:30:00Z,25070044,Em curso,1101,Cheia,0,0,0,0,2025-03-10T19:30:00Z,Vila Nova Da Barquinha,Santarém,Centro,-8.357309,39.485638
25071496,São Manços e São Vicente do Pigeiro,Alentejo Central,312,2025-03-11T13:18:00Z,25071496,Em curso,1101,Cheia,0,2,0,4,2025-03-11T13:18:00Z,Évora,Évora,Alentejo,-7.713313,38.513673
25130894,Pombal,Região de Leiria,310,2025-03-22T05:06:00Z,25130894,Em despacho,3301,Queda de árvore,0,1,0,3,2025-03-22T05:06:00Z,Pombal,Leiria,Centro,-8.636102,39.924746
25130929,Quiaios,Região de Coimbra,310,2025-03-22T05:50:00Z,25130929,Em despacho,3301,Queda de árvore,0,1,0,3,2025-03-22T05:50:00Z,Figueira Da Foz,Coimbra,Centro,-8.86,40.190131
25068300,Almeirim,Lezíria do Tejo,311,2025-03-10T20:52:00Z,25068300,Em curso,1101,Cheia,0,0,0,0,2025-03-10T20:52:00Z,Almeirim,Santarém,Alentejo,-8.635002,39.187436
25121298,Gafanhoeira (São Pedro) e Sabugueiro,Alentejo Central,312,2025-03-20T14:26:00Z,25121298,Em resolução,3301,Queda de árvore,0,0,0,0,2025-03-20T14:26:00Z,Arraiolos,Évora,Alentejo,-8.088754,38.754507
25129636,"S.maria, S.miguel, S.martinho, S.pedro Penaferrim",Grande Lisboa,311,2025-03-21T19:25:00Z,25129636,Em despacho,3301,Queda de árvore,0,1,0,5,2025-03-21T19:25:00Z,Sintra,Lisboa,Área Metropolitana De Lisboa,-9.366763,38.781718
25130479,"S.maria, S.miguel, S.martinho, S.pedro Penaferrim",Grande Lisboa,311,2025-03-21T23:50:00Z,25130479,Em despacho,3301,Queda de árvore,0,1,0,1,2025-03-21T23:50:00Z,Sintra,Lisboa,Área Metropolitana De Lisboa,-9.366763,38.781718
25130931,Porto de Mós - São João Baptista e São Pedro,Região de Leiria,310,2025-03-22T05:55:00Z,25130931,Em despacho,3313,Deslizamento de terras,0,0,0,0,2025-03-22T05:55:00Z,Porto De Mós,Leiria,Centro,-8.808595,39.58359
