id,address,subregion,neighborhood,date,id.1,state,nature,nature_description,aerial_means,terrestrial_means,aquatic_means,operational,date.1,Concelho,Distrito,NUTII_DSG,longitude,latitude
25319004,Nossa Senhora da Graça Dos Degolados,Alto Alentejo,312,2025-05-02T14:42:00Z,25319004,Em conclusão,3321,Dano na rede de fornecimento de eletricidade ,0,0,0,0,2025-05-02T14:42:00Z,Campo Maior,Portalegre,Alentejo,-7.121187,39.061476999999996
25071496,São Manços e São Vicente do Pigeiro,Alentejo Central,312,2025-03-11T13:18:00Z,25071496,Em conclusão,1101,Cheia,0,0,0,0,2025-03-11T13:18:00Z,Évora,Évora,Alentejo,-7.713313,38.513673
25318424,Nossa Senhora da Graça Dos Degolados,Alto Alentejo,312,2025-05-02T13:10:00Z,25318424,Em conclusão,1103,Vento forte,0,0,0,0,2025-05-02T13:10:00Z,Campo Maior,Portalegre,Alentejo,-7.12147,39.062622
25319125,Nossa Senhora da Graça Dos Degolados,Alto Alentejo,312,2025-05-02T14:30:00Z,25319125,Em conclusão,3309,Desabamento de estruturas edificadas,0,0,0,0,2025-05-02T14:30:00Z,Campo Maior,Portalegre,Alentejo,-7.11959,39.058483
25319813,Escalhão,Beiras e Serra da Estrela,310,2025-05-02T18:01:00Z,25319813,Em conclusão,3301,Queda de árvore,0,2,0,5,2025-05-02T18:01:00Z,Figueira De Castelo Rodrigo,Guarda,Centro,-6.94033,41.02794
25320430,Braga (São José de São Lázaro e São João do Souto),Cávado,309,2025-05-02T20:18:00Z,25320430,Em despacho,3317,Inundação de estruturas por água canalizada,0,1,0,2,2025-05-02T20:18:00Z,Braga,Braga,Norte,-8.418676,41.544237
25320632,"Algés, Linda-a-Velha e Cruz Quebrada-Dafundo",Grande Lisboa,311,2025-05-02T20:40:00Z,25320632,Em conclusão,3301,Queda de árvore,0,1,0,4,2025-05-02T20:40:00Z,Oeiras,Lisboa,Área Metropolitana De Lisboa,-9.250524,38.707224
25316776,Guarda,Beiras e Serra da Estrela,310,2025-05-02T07:17:00Z,25316776,Em conclusão,3311,Queda de elementos de estruturas edificados,0,9,0,18,2025-05-02T07:17:00Z,Guarda,Guarda,Centro,-7.269039,40.539292
25320566,Arrifana,Area M. Porto,309,2025-05-02T21:03:00Z,25320566,Em curso,3321,Dano na rede de fornecimento de eletricidade ,0,2,0,5,2025-05-02T21:03:00Z,Santa Maria Da Feira,Aveiro,Norte,-8.50336,40.92114
