id,address,subregion,neighborhood,date,id.1,state,nature,nature_description,aerial_means,terrestrial_means,aquatic_means,operational,date.1,Concelho,Distrito,NUTII_DSG,longitude,latitude
25071496,São Manços e São Vicente do Pigeiro,Alentejo Central,312,2025-03-11T13:18:00Z,25071496,Em conclusão,1101,Cheia,0,0,0,0,2025-03-11T13:18:00Z,Évora,Évora,Alentejo,-7.713313,38.513673
25446976,"Ponte de Sor, Tramaga e Vale de Açor",Alto Alentejo,312,2025-05-29T17:07:00Z,25446976,Em curso,3317,Inundação de estruturas por água canalizada,0,3,0,7,2025-05-29T17:07:00Z,Ponte De Sor,Portalegre,Alentejo,-8.058712,39.204097
25447393,Alenquer (Santo Estêvão e Triana),Oeste,311,2025-05-29T18:37:00Z,25447393,Em curso,3317,Inundação de estruturas por água canalizada,0,2,0,4,2025-05-29T18:37:00Z,Alenquer,Lisboa,Centro,-9.007918,39.054242
25447673,Campanhã,Area M. Porto,309,2025-05-29T19:48:00Z,25447673,Em despacho,3317,Inundação de estruturas por água canalizada,0,1,0,5,2025-05-29T19:48:00Z,Porto,Porto,Norte,-8.57972,41.14502
25447733,Esmoriz,Região de Aveiro,310,2025-05-29T19:54:00Z,25447733,Em conclusão,3321,Dano na rede de fornecimento de eletricidade ,0,1,0,5,2025-05-29T19:54:00Z,Ovar,Aveiro,Centro,-8.624955,40.955757
