id,address,subregion,neighborhood,date,id.1,state,nature,nature_description,aerial_means,terrestrial_means,aquatic_means,operational,date.1,Concelho,Distrito,NUTII_DSG,longitude,latitude
24799476,Sertã,Beira Baixa,310,2025-01-10T09:40:00Z,24799476,Em curso,3301,Queda de árvore,0,0,0,0,2025-01-10T09:40:00Z,Sertã,Castelo Branco,Centro,-8.084891,39.824425
24800120,Canidelo,Area M. Porto,309,2025-01-10T11:31:00Z,24800120,Em despacho,3311,Queda de elementos de estruturas edificados,0,1,0,3,2025-01-10T11:31:00Z,Vila Nova De Gaia,Porto,Norte,-8.652723,41.127681
24800610,Marmelete,Algarve,313,2025-01-10T13:00:00Z,24800610,Em curso,3301,Queda de árvore,0,1,0,3,2025-01-10T13:00:00Z,Monchique,Faro,Algarve,-8.666635,37.311336
24800609,Massamá e Monte Abraão,Grande Lisboa,311,2025-01-10T13:00:00Z,24800609,Em despacho,3317,Inundação de estruturas por água canalizada,0,1,0,2,2025-01-10T13:00:00Z,Sintra,Lisboa,Área Metropolitana De Lisboa,-9.27045,38.75541
24800686,Vila Praia de Âncora,Alto Minho,309,2025-01-10T13:24:00Z,24800686,Em despacho,3311,Queda de elementos de estruturas edificados,0,1,0,2,2025-01-10T13:24:00Z,Caminha,Viana Do Castelo,Norte,-8.853052,41.820795
