id,address,subregion,neighborhood,date,id.1,state,nature,nature_description,aerial_means,terrestrial_means,aquatic_means,operational,date.1,Concelho,Distrito,NUTII_DSG,longitude,latitude,state_2
25773830,Andrães,Douro,309,2025-08-02T14:23:00Z,25773830,Em Resolução/Conclusão,3103,Incêndio rural,0,15,0,58,2025-08-02T14:23:00Z,Vila Real,Vila Real,Norte,-7.671293,41.267593,Resolução/Conclusão
25774883,Arnóia,Tâmega e Sousa,309,2025-08-02T18:20:00Z,25774883,Em Resolução/Conclusão,3103,Incêndio rural,0,7,0,24,2025-08-02T18:20:00Z,Celorico De Basto,Braga,Norte,-7.998983,41.348727,Resolução/Conclusão
25804968,Alvadia,Alto Tâmega e Barroso,309,2025-08-08T07:21:00Z,25804968,Em Curso,3103,Incêndio rural,6,72,0,207,2025-08-08T07:21:00Z,Ribeira De Pena,Vila Real,Norte,-7.782872,41.457452,Curso
25807188,Mouçós e Lamares,Douro,309,2025-08-08T13:55:00Z,25807188,Em Resolução/Conclusão,3103,Incêndio rural,0,2,0,5,2025-08-08T13:55:00Z,Vila Real,Vila Real,Norte,-7.686102,41.300525,Resolução/Conclusão
25807656,Campo e Sobrado,Area M. Porto,309,2025-08-08T15:11:00Z,25807656,Em Resolução/Conclusão,3103,Incêndio rural,0,5,0,19,2025-08-08T15:11:00Z,Valongo,Porto,Norte,-8.444532,41.218148,Resolução/Conclusão
25807657,Briteiros São Salvador e Briteiros Santa Leocádia,Ave,309,2025-08-08T15:12:00Z,25807657,Em Resolução/Conclusão,3103,Incêndio rural,0,5,0,19,2025-08-08T15:12:00Z,Guimarães,Braga,Norte,-8.314807,41.530502,Resolução/Conclusão
25807691,Vila Boa de Quires e Maureles,Tâmega e Sousa,309,2025-08-08T15:29:00Z,25807691,Em Curso,3103,Incêndio rural,1,5,0,25,2025-08-08T15:29:00Z,Marco De Canaveses,Porto,Norte,-8.208015,41.213712,Curso
25807807,Luzim e Vila Cova,Tâmega e Sousa,309,2025-08-08T15:36:00Z,25807807,Em Resolução/Conclusão,3103,Incêndio rural,0,1,0,5,2025-08-08T15:36:00Z,Penafiel,Porto,Norte,-8.24685,41.15104,Resolução/Conclusão
25807857,Nossa Senhora Das Misericórdias,Médio Tejo,311,2025-08-08T15:46:00Z,25807857,Em Resolução/Conclusão,3103,Incêndio rural,0,0,0,0,2025-08-08T15:46:00Z,Ourém,Santarém,Centro,-8.591082,39.643242,Resolução/Conclusão
25808039,Cascais e Estoril,Grande Lisboa,311,2025-08-08T16:25:00Z,25808039,Em Resolução/Conclusão,3103,Incêndio rural,0,1,0,5,2025-08-08T16:25:00Z,Cascais,Lisboa,Área Metropolitana De Lisboa,-9.371838,38.707008,Resolução/Conclusão
25776263,"Pena, Quintã e Vila Cova",Douro,309,2025-08-02T23:45:00Z,25776263,Em Resolução/Conclusão,3103,Incêndio rural,0,39,0,119,2025-08-02T23:45:00Z,Vila Real,Vila Real,Norte,-7.811902,41.317355,Resolução/Conclusão
25783717,Cunha Baixa,Viseu Dão Lafões,310,2025-08-04T11:48:00Z,25783717,Em Resolução/Conclusão,3101,Incêndio rural,0,1,0,2,2025-08-04T11:48:00Z,Mangualde,Viseu,Centro,-7.764411,40.559738,Resolução/Conclusão
25785204,Ribas,Tâmega e Sousa,309,2025-08-04T16:03:00Z,25785204,Em Resolução/Conclusão,3103,Incêndio rural,0,3,0,4,2025-08-04T16:03:00Z,Celorico De Basto,Braga,Norte,-8.022547,41.449583,Resolução/Conclusão
25787860,Faíl e Vila Chã de Sá,Viseu Dão Lafões,310,2025-08-05T05:55:00Z,25787860,Em Resolução/Conclusão,3103,Incêndio rural,0,2,0,9,2025-08-05T05:55:00Z,Viseu,Viseu,Centro,-7.987877,40.601342,Resolução/Conclusão
25801784,Vila Flor e Nabo,Terras de Trás-os-Montes,309,2025-08-07T14:20:00Z,25801784,Em Resolução/Conclusão,3103,Incêndio rural,0,3,0,11,2025-08-07T14:20:00Z,Vila Flor,Bragança,Norte,-7.152188,41.313323,Resolução/Conclusão
25802450,Canas de Santa Maria,Viseu Dão Lafões,310,2025-08-07T16:14:00Z,25802450,Em Resolução/Conclusão,3103,Incêndio rural,0,4,0,9,2025-08-07T16:14:00Z,Tondela,Viseu,Centro,-8.032777,40.56017,Resolução/Conclusão
25807446,São Manços e São Vicente do Pigeiro,Alentejo Central,312,2025-08-08T14:36:00Z,25807446,Em Resolução/Conclusão,3105,Incêndio rural,0,8,0,30,2025-08-08T14:36:00Z,Évora,Évora,Alentejo,-7.756067,38.463087,Resolução/Conclusão
25807697,São João da Boa Vista,Região de Coimbra,310,2025-08-08T15:18:00Z,25807697,Em Resolução/Conclusão,3101,Incêndio rural,0,0,0,0,2025-08-08T15:18:00Z,Tábua,Coimbra,Centro,-7.991932,40.320217,Resolução/Conclusão
25785983,Caçarilhe e Infesta,Tâmega e Sousa,309,2025-08-04T18:22:00Z,25785983,Em Resolução/Conclusão,3103,Incêndio rural,0,16,0,48,2025-08-04T18:22:00Z,Celorico De Basto,Braga,Norte,-8.04611,41.419858,Resolução/Conclusão
25790229,Galegos,Tâmega e Sousa,309,2025-08-05T13:59:00Z,25790229,Em Resolução/Conclusão,3103,Incêndio rural,0,3,0,15,2025-08-05T13:59:00Z,Penafiel,Porto,Norte,-8.31029,41.153427,Resolução/Conclusão
25792058,Cibões e Brufe,Cávado,309,2025-08-05T19:10:00Z,25792058,Em Resolução/Conclusão,3103,Incêndio rural,0,7,0,28,2025-08-05T19:10:00Z,Terras De Bouro,Braga,Norte,-8.293932,41.764918,Resolução/Conclusão
25807009,"Messegães, Valadares e Sá",Alto Minho,309,2025-08-08T13:22:00Z,25807009,Em Resolução/Conclusão,3103,Incêndio rural,0,7,0,22,2025-08-08T13:22:00Z,Monção,Viana Do Castelo,Norte,-8.371598,42.076435,Resolução/Conclusão
25807250,Nave de Haver,Beiras e Serra da Estrela,310,2025-08-08T14:05:00Z,25807250,Em Resolução/Conclusão,3103,Incêndio rural,0,13,0,48,2025-08-08T14:05:00Z,Almeida,Guarda,Centro,-6.839848,40.52156,Resolução/Conclusão
25807445,Cabanelas,Cávado,309,2025-08-08T14:37:00Z,25807445,Em Curso,3103,Incêndio rural,1,12,0,43,2025-08-08T14:37:00Z,Vila Verde,Braga,Norte,-8.500835,41.597463,Curso
25807629,Duas Igrejas,Area M. Porto,309,2025-08-08T14:36:00Z,25807629,Em Resolução/Conclusão,3103,Incêndio rural,0,1,0,2,2025-08-08T14:36:00Z,Paredes,Porto,Norte,-8.353262,41.222407,Resolução/Conclusão
25807661,Alcafache,Viseu Dão Lafões,310,2025-08-08T15:03:00Z,25807661,Em Resolução/Conclusão,3103,Incêndio rural,0,4,0,14,2025-08-08T15:03:00Z,Mangualde,Viseu,Centro,-7.839012,40.586922,Resolução/Conclusão
25807827,Boelhe,Tâmega e Sousa,309,2025-08-08T15:08:00Z,25807827,Em Resolução/Conclusão,3103,Incêndio rural,0,1,0,5,2025-08-08T15:08:00Z,Penafiel,Porto,Norte,-8.242282,41.129318,Resolução/Conclusão
25808061,Reboreda e Nogueira,Alto Minho,309,2025-08-08T16:24:00Z,25808061,Em Resolução/Conclusão,3103,Incêndio rural,0,3,0,11,2025-08-08T16:24:00Z,Vila Nova De Cerveira,Viana Do Castelo,Norte,-8.698147,41.964115,Resolução/Conclusão
25738747,Lindoso,Alto Minho,309,2025-07-26T21:47:00Z,25738747,Em Resolução/Conclusão,3103,Incêndio rural,0,8,0,35,2025-07-26T21:47:00Z,Ponte Da Barca,Viana Do Castelo,Norte,-8.220528,41.865272,Resolução/Conclusão
25775263,Torgueda,Douro,309,2025-08-02T19:49:00Z,25775263,Em Resolução/Conclusão,3101,Incêndio rural,0,4,0,15,2025-08-02T19:49:00Z,Vila Real,Vila Real,Norte,-7.785983,41.274952,Resolução/Conclusão
25785466,Caçarilhe e Infesta,Tâmega e Sousa,309,2025-08-04T16:48:00Z,25785466,Em Resolução/Conclusão,3103,Incêndio rural,0,5,0,21,2025-08-04T16:48:00Z,Celorico De Basto,Braga,Norte,-8.035342,41.42903,Resolução/Conclusão
25800301,Alvão,Alto Tâmega e Barroso,309,2025-08-07T10:03:00Z,25800301,Em Resolução/Conclusão,3103,Incêndio rural,0,22,0,71,2025-08-07T10:03:00Z,Vila Pouca De Aguiar,Vila Real,Norte,-7.74157,41.466742000000004,Resolução/Conclusão
25802248,Graça,Região de Leiria,310,2025-08-07T15:30:00Z,25802248,Em Resolução/Conclusão,3101,Incêndio rural,0,2,0,3,2025-08-07T15:30:00Z,Pedrógão Grande,Leiria,Centro,-8.217915,39.911242,Resolução/Conclusão
25803707,Almofala e Escarigo,Beiras e Serra da Estrela,310,2025-08-07T20:50:00Z,25803707,Em Curso,3103,Incêndio rural,8,44,0,186,2025-08-07T20:50:00Z,Figueira De Castelo Rodrigo,Guarda,Centro,-6.847203,40.887165,Curso
25806022,Alvadia,Alto Tâmega e Barroso,309,2025-08-08T10:29:00Z,25806022,Em Resolução/Conclusão,3103,Incêndio rural,0,2,0,8,2025-08-08T10:29:00Z,Ribeira De Pena,Vila Real,Norte,-7.782797,41.449458,Resolução/Conclusão
25807426,Alvite,Douro,309,2025-08-08T14:31:00Z,25807426,Em Curso,3103,Incêndio rural,7,29,0,124,2025-08-08T14:31:00Z,Moimenta Da Beira,Viseu,Norte,-7.688727,40.96613,Curso
25807494,Melres e Medas,Area M. Porto,309,2025-08-08T14:44:00Z,25807494,Em Resolução/Conclusão,3103,Incêndio rural,0,1,0,5,2025-08-08T14:44:00Z,Gondomar,Porto,Norte,-8.450463,41.072543,Resolução/Conclusão
25807800,Ramalhal,Oeste,311,2025-08-08T15:36:00Z,25807800,Em Resolução/Conclusão,3101,Incêndio rural,0,10,0,39,2025-08-08T15:36:00Z,Torres Vedras,Lisboa,Centro,-9.209563,39.15254,Resolução/Conclusão
25807850,Vila Boa de Quires e Maureles,Tâmega e Sousa,309,2025-08-08T15:42:00Z,25807850,Em Curso,3103,Incêndio rural,0,10,0,33,2025-08-08T15:42:00Z,Marco De Canaveses,Porto,Norte,-8.201095,41.207266,Curso
25807901,Borba de Montanha,Tâmega e Sousa,309,2025-08-08T15:54:00Z,25807901,Em Resolução/Conclusão,3103,Incêndio rural,0,3,0,13,2025-08-08T15:54:00Z,Celorico De Basto,Braga,Norte,-8.101315,41.379825,Resolução/Conclusão
25807967,Fornelos,Tâmega e Sousa,309,2025-08-08T15:56:00Z,25807967,Em Resolução/Conclusão,3103,Incêndio rural,0,2,0,7,2025-08-08T15:56:00Z,Cinfães,Viseu,Norte,-8.21597,41.018097,Resolução/Conclusão
25808268,Castelo,Douro,309,2025-08-08T17:13:00Z,25808268,Em Despacho,3103,Incêndio rural,0,0,0,0,2025-08-08T17:13:00Z,Moimenta Da Beira,Viseu,Norte,-7.622581,41.03732,Despacho
25807719,São Jorge e Ermelo,Alto Minho,309,2025-08-08T15:24:00Z,25807719,Em Resolução/Conclusão,3103,Incêndio rural,0,2,0,6,2025-08-08T15:24:00Z,Arcos De Valdevez,Viana Do Castelo,Norte,-8.370972,41.81813,Resolução/Conclusão
25807935,Paredes,Area M. Porto,309,2025-08-08T16:02:00Z,25807935,Em Resolução/Conclusão,3103,Incêndio rural,0,10,0,34,2025-08-08T16:02:00Z,Paredes,Porto,Norte,-8.32628,41.205322,Resolução/Conclusão
25808044,Figueiras e Covas,Tâmega e Sousa,309,2025-08-08T16:32:00Z,25808044,Em Resolução/Conclusão,3103,Incêndio rural,0,1,0,5,2025-08-08T16:32:00Z,Lousada,Porto,Norte,-8.32567,41.284,Resolução/Conclusão
25808055,Caíde de Rei,Tâmega e Sousa,309,2025-08-08T16:40:00Z,25808055,Em Despacho,3103,Incêndio rural,1,4,0,16,2025-08-08T16:40:00Z,Lousada,Porto,Norte,-8.22907,41.25458,Despacho
25808064,"Alhandra, São João Dos Montes e Calhandriz",Grande Lisboa,311,2025-08-08T16:26:00Z,25808064,Em Resolução/Conclusão,3103,Incêndio rural,0,5,0,17,2025-08-08T16:26:00Z,Vila Franca De Xira,Lisboa,Área Metropolitana De Lisboa,-9.006082,38.929996,Resolução/Conclusão
25808096,Castêlo da Maia,Area M. Porto,309,2025-08-08T16:36:00Z,25808096,Em Resolução/Conclusão,3103,Incêndio rural,0,4,0,14,2025-08-08T16:36:00Z,Maia,Porto,Norte,-8.6227,41.24583,Resolução/Conclusão
25808205,Nossa Senhora Das Misericórdias,Médio Tejo,311,2025-08-08T16:59:00Z,25808205,Em Resolução/Conclusão,3103,Incêndio rural,1,8,0,40,2025-08-08T16:59:00Z,Ourém,Santarém,Centro,-8.561638,39.613423,Resolução/Conclusão
