id,address,subregion,neighborhood,date,id.1,state,nature,nature_description,aerial_means,terrestrial_means,aquatic_means,operational,date.1,Concelho,Distrito,NUTII_DSG,longitude,latitude,state_2
25741525,Vela,Beiras e Serra da Estrela,310,2025-07-27T13:16:00Z,25741525,Em Resolução/Conclusão,3103,Incêndio rural,0,3,0,11,2025-07-27T13:16:00Z,Guarda,Guarda,Centro,-7.287277,40.438025,Resolução/Conclusão
25745468,Alcaria,Beiras e Serra da Estrela,310,2025-07-28T10:09:00Z,25745468,Em Resolução/Conclusão,3103,Incêndio rural,0,6,0,17,2025-07-28T10:09:00Z,Fundão,Castelo Branco,Centro,-7.507897,40.202007,Resolução/Conclusão
25746206,Recarei,Area M. Porto,309,2025-07-28T11:55:00Z,25746206,Em Resolução/Conclusão,3103,Incêndio rural,0,5,0,22,2025-07-28T11:55:00Z,Paredes,Porto,Norte,-8.413702,41.145152,Resolução/Conclusão
25746254,Alverca do Ribatejo e Sobralinho,Grande Lisboa,311,2025-07-28T11:59:00Z,25746254,Em Resolução/Conclusão,3105,Incêndio rural,0,1,0,5,2025-07-28T11:59:00Z,Vila Franca De Xira,Lisboa,Área Metropolitana De Lisboa,-9.045947,38.897267,Resolução/Conclusão
25744340,"Lebução, Fiães e Nozelos",Alto Tâmega e Barroso,309,2025-07-28T04:18:00Z,25744340,Em Resolução/Conclusão,3103,Incêndio rural,0,3,0,8,2025-07-28T04:18:00Z,Valpaços,Vila Real,Norte,-7.240383,41.755678,Resolução/Conclusão
25746063,Moreira,Area M. Porto,309,2025-07-28T11:30:00Z,25746063,Em Resolução/Conclusão,3103,Incêndio rural,0,2,0,7,2025-07-28T11:30:00Z,Maia,Porto,Norte,-8.634895,41.248952,Resolução/Conclusão
25737642,Aboim da Nóbrega e Gondomar,Cávado,309,2025-07-26T17:54:00Z,25737642,Em Resolução/Conclusão,3103,Incêndio rural,0,3,0,10,2025-07-26T17:54:00Z,Vila Verde,Braga,Norte,-8.38607,41.734402,Resolução/Conclusão
25741940,"Aldeia do Bispo, Águas e Aldeia de João Pires",Beira Baixa,310,2025-07-27T14:45:00Z,25741940,Em Resolução/Conclusão,3105,Incêndio rural,0,5,0,24,2025-07-27T14:45:00Z,Penamacor,Castelo Branco,Centro,-7.213632,40.123598,Resolução/Conclusão
25742517,Anhões e Luzio,Alto Minho,309,2025-07-27T17:08:00Z,25742517,Em Resolução/Conclusão,3103,Incêndio rural,0,3,0,4,2025-07-27T17:08:00Z,Monção,Viana Do Castelo,Norte,-8.452967,41.97745,Resolução/Conclusão
25744321,Gestaçô,Tâmega e Sousa,309,2025-07-28T03:55:00Z,25744321,Em Resolução/Conclusão,3103,Incêndio rural,0,2,0,7,2025-07-28T03:55:00Z,Baião,Porto,Norte,-7.951497,41.164208,Resolução/Conclusão
25744328,Vila Facaia,Região de Leiria,310,2025-07-28T04:00:00Z,25744328,Em Resolução/Conclusão,3101,Incêndio rural,0,1,0,2,2025-07-28T04:00:00Z,Pedrógão Grande,Leiria,Centro,-8.197592,39.93944,Resolução/Conclusão
25744346,Pedrógão Grande,Região de Leiria,310,2025-07-28T04:18:00Z,25744346,Em Resolução/Conclusão,3101,Incêndio rural,0,2,0,7,2025-07-28T04:18:00Z,Pedrógão Grande,Leiria,Centro,-8.18142,39.926725,Resolução/Conclusão
25745907,Faro (Sé e São Pedro),Algarve,313,2025-07-28T11:10:00Z,25745907,Em Resolução/Conclusão,3103,Incêndio rural,0,4,0,10,2025-07-28T11:10:00Z,Faro,Faro,Algarve,-7.936787,37.054112,Resolução/Conclusão
25745950,Pombal,Região de Leiria,310,2025-07-28T09:10:00Z,25745950,Em Resolução/Conclusão,3105,Incêndio rural,0,0,0,0,2025-07-28T09:10:00Z,Pombal,Leiria,Centro,-8.641815,39.886697,Resolução/Conclusão
25746280,Lavradas,Alto Minho,309,2025-07-28T12:09:00Z,25746280,Em Resolução/Conclusão,3103,Incêndio rural,0,1,0,3,2025-07-28T12:09:00Z,Ponte Da Barca,Viana Do Castelo,Norte,-8.468568,41.796737,Resolução/Conclusão
25746297,Venteira,Grande Lisboa,311,2025-07-28T12:17:00Z,25746297,Em Curso,3103,Incêndio rural,1,6,0,25,2025-07-28T12:17:00Z,Amadora,Lisboa,Área Metropolitana De Lisboa,-9.250113,38.73696,Curso
25746250,Loulé (São Sebastião),Algarve,313,2025-07-28T12:07:00Z,25746250,Em Resolução/Conclusão,3103,Incêndio rural,0,3,0,12,2025-07-28T12:07:00Z,Loulé,Faro,Algarve,-8.054298,37.121497,Resolução/Conclusão
25738747,Lindoso,Alto Minho,309,2025-07-26T21:47:00Z,25738747,Em Curso,3103,Incêndio rural,9,103,0,325,2025-07-26T21:47:00Z,Ponte Da Barca,Viana Do Castelo,Norte,-8.220528,41.865272,Curso
25741880,Benavila e Valongo,Alto Alentejo,312,2025-07-27T14:31:00Z,25741880,Em Resolução/Conclusão,3101,Incêndio rural,0,8,0,29,2025-07-27T14:31:00Z,Avis,Portalegre,Alentejo,-7.866293,39.19533,Resolução/Conclusão
25743677,Portela,Alto Minho,309,2025-07-27T22:05:00Z,25743677,Em Resolução/Conclusão,3101,Incêndio rural,0,6,0,11,2025-07-27T22:05:00Z,Monção,Viana Do Castelo,Norte,-8.481475,41.977915,Resolução/Conclusão
25743786,Portela,Alto Minho,309,2025-07-28T00:13:00Z,25743786,Em Curso,3101,Incêndio rural,0,21,0,62,2025-07-28T00:13:00Z,Monção,Viana Do Castelo,Norte,-8.480967,41.97155,Curso
25745576,Colmeal e Vilar Torpim,Beiras e Serra da Estrela,310,2025-07-28T10:23:00Z,25745576,Em Resolução/Conclusão,3105,Incêndio rural,0,12,0,43,2025-07-28T10:23:00Z,Figueira De Castelo Rodrigo,Guarda,Centro,-6.916033,40.829685,Resolução/Conclusão
25745915,Rio Frio,Alto Minho,309,2025-07-28T11:11:00Z,25745915,Em Resolução/Conclusão,3103,Incêndio rural,0,2,0,7,2025-07-28T11:11:00Z,Arcos De Valdevez,Viana Do Castelo,Norte,-8.460668,41.848027,Resolução/Conclusão
