id,address,subregion,neighborhood,date,id.1,state,nature,nature_description,aerial_means,terrestrial_means,aquatic_means,operational,date.1,Concelho,Distrito,NUTII_DSG,longitude,latitude
25596213,Ramada e Caneças,Grande Lisboa,311,2025-06-29T01:36:00Z,25596213,Em conclusão,3103,Incêndio rural,0,5,0,19,2025-06-29T01:36:00Z,Odivelas,Lisboa,Área Metropolitana De Lisboa,-9.197767,38.8119
25596358,Pedrouços,Area M. Porto,309,2025-06-29T03:09:00Z,25596358,Em resolução,3103,Incêndio rural,0,1,0,2,2025-06-29T03:09:00Z,Maia,Porto,Norte,-8.59368,41.19203
25596255,Bonfim,Area M. Porto,309,2025-06-29T02:03:00Z,25596255,Em curso,2129,Incêndio em edifícios degradados ou devolutos,0,4,0,17,2025-06-29T02:03:00Z,Porto,Porto,Norte,-8.60155,41.15811
25593470,Duas Igrejas,Tâmega e Sousa,309,2025-06-28T14:16:00Z,25593470,Em conclusão,3103,Incêndio rural,0,1,0,5,2025-06-28T14:16:00Z,Penafiel,Porto,Norte,-8.278005,41.170128
25596242,Penacova,Tâmega e Sousa,309,2025-06-29T01:57:00Z,25596242,Em resolução,3103,Incêndio rural,0,1,0,5,2025-06-29T01:57:00Z,Felgueiras,Porto,Norte,-8.25192,41.369067
25596334,Meinedo,Tâmega e Sousa,309,2025-06-29T02:54:00Z,25596334,Em resolução,3103,Incêndio rural,0,1,0,5,2025-06-29T02:54:00Z,Lousada,Porto,Norte,-8.23275,41.246805
25596369,Fazendas de Almeirim,Lezíria do Tejo,311,2025-06-29T03:15:00Z,25596369,Em conclusão,3103,Incêndio rural,0,3,0,9,2025-06-29T03:15:00Z,Almeirim,Santarém,Alentejo,-8.591232,39.186342
