id,address,subregion,neighborhood,date,id.1,state,nature,nature_description,aerial_means,terrestrial_means,aquatic_means,operational,date.1,Concelho,Distrito,NUTII_DSG,longitude,latitude,state_2
25941113,Pedrouços,Area M. Porto,309,2025-09-04T08:39:00Z,25941113,Em Despacho,3103,Incêndio rural,0,0,0,0,2025-09-04T08:39:00Z,Maia,Porto,Norte,-8.596108,41.1978,Despacho
25941090,Pinheiro,Viseu Dão Lafões,310,2025-09-04T08:33:00Z,25941090,Em Curso,3103,Incêndio rural,1,5,0,28,2025-09-04T08:33:00Z,Aguiar Da Beira,Guarda,Centro,-7.601045,40.803562,Curso
25832672,Piódão,Região de Coimbra,310,2025-08-13T05:08:00Z,25832672,Em Resolução/Conclusão,3103,Incêndio rural,0,17,0,47,2025-08-13T05:08:00Z,Arganil,Coimbra,Centro,-7.81972,40.23083,Resolução/Conclusão
25840417,Lousã e Vilarinho,Região de Coimbra,310,2025-08-14T13:46:00Z,25840417,Em Resolução/Conclusão,3101,Incêndio rural,0,1,0,1,2025-08-14T13:46:00Z,Lousã,Coimbra,Centro,-8.201561,40.080016,Resolução/Conclusão
25935529,Vermoil,Região de Leiria,310,2025-09-02T22:56:00Z,25935529,Em Resolução/Conclusão,3101,Incêndio rural,0,3,0,7,2025-09-02T22:56:00Z,Pombal,Leiria,Centro,-8.673463,39.83745,Resolução/Conclusão
25941102,Corroios,Península de Setúbal,311,2025-09-04T08:37:00Z,25941102,Em Despacho,3103,Incêndio rural,0,5,0,22,2025-09-04T08:37:00Z,Seixal,Setúbal,Área Metropolitana De Lisboa,-9.151863,38.63641,Despacho
