id,address,subregion,neighborhood,date,id.1,state,nature,nature_description,aerial_means,terrestrial_means,aquatic_means,operational,date.1,Concelho,Distrito,NUTII_DSG,longitude,latitude,state_2
25951176,Sandomil,Beiras e Serra da Estrela,310,2025-09-06T10:29:00Z,25951176,Em Resolução/Conclusão,3103,Incêndio rural,0,17,0,59,2025-09-06T10:29:00Z,Seia,Guarda,Centro,-7.76001,40.351547,Resolução/Conclusão
25961053,Santo António de Monforte,Alto Tâmega e Barroso,309,2025-09-08T13:20:00Z,25961053,Em Curso,3103,Incêndio rural,0,81,0,250,2025-09-08T13:20:00Z,Chaves,Vila Real,Norte,-7.339083,41.787585,Curso
25962908,Vale da Porca,Terras de Trás-os-Montes,309,2025-09-08T20:13:00Z,25962908,Em Resolução/Conclusão,3103,Incêndio rural,0,10,0,26,2025-09-08T20:13:00Z,Macedo De Cavaleiros,Bragança,Norte,-6.873435,41.529718,Resolução/Conclusão
25952858,Figueira de Castelo Rodrigo,Beiras e Serra da Estrela,310,2025-09-06T16:22:00Z,25952858,Em Resolução/Conclusão,3103,Incêndio rural,0,7,0,28,2025-09-06T16:22:00Z,Figueira De Castelo Rodrigo,Guarda,Centro,-6.934648,40.906778,Resolução/Conclusão
25832672,Piódão,Região de Coimbra,310,2025-08-13T05:08:00Z,25832672,Em Resolução/Conclusão,3103,Incêndio rural,0,14,0,41,2025-08-13T05:08:00Z,Arganil,Coimbra,Centro,-7.81972,40.23083,Resolução/Conclusão
25840417,Lousã e Vilarinho,Região de Coimbra,310,2025-08-14T13:46:00Z,25840417,Em Resolução/Conclusão,3101,Incêndio rural,0,0,0,0,2025-08-14T13:46:00Z,Lousã,Coimbra,Centro,-8.201561,40.080016,Resolução/Conclusão
25963178,Parada e Faílde,Terras de Trás-os-Montes,309,2025-09-08T21:27:00Z,25963178,Em Curso,3103,Incêndio rural,0,11,0,44,2025-09-08T21:27:00Z,Bragança,Bragança,Norte,-6.704427,41.69414,Curso
25963296,"Vale (São Cosme), Telhado e Portela",Ave,309,2025-09-08T22:08:00Z,25963296,Em Resolução/Conclusão,3103,Incêndio rural,0,1,0,5,2025-09-08T22:08:00Z,Vila Nova De Famalicão,Braga,Norte,-8.476955,41.454817,Resolução/Conclusão
25961645,Marmelete,Algarve,313,2025-09-08T15:20:00Z,25961645,Em Resolução/Conclusão,3103,Incêndio rural,0,1,0,2,2025-09-08T15:20:00Z,Monchique,Faro,Algarve,-8.72393,37.23772,Resolução/Conclusão
25963384,Cossourado,Cávado,309,2025-09-08T22:36:00Z,25963384,Em Resolução/Conclusão,3103,Incêndio rural,0,2,0,7,2025-09-08T22:36:00Z,Barcelos,Braga,Norte,-8.62055,41.63996,Resolução/Conclusão
