id,address,subregion,neighborhood,date,id.1,state,nature,nature_description,aerial_means,terrestrial_means,aquatic_means,operational,date.1,Concelho,Distrito,NUTII_DSG,longitude,latitude
25591884,Alvalade,Alentejo Litoral,312,2025-06-28T08:40:00Z,25591884,Em conclusão,2201,Incêndio em equipamentos ou produtos,0,2,0,4,2025-06-28T08:40:00Z,Santiago Do Cacém,Setúbal,Alentejo,-8.390153,37.933937
25592017,Quinchães,Ave,309,2025-06-28T09:11:00Z,25592017,Em despacho,3107,Consolidação de rescaldo de incêndio rural,0,1,0,5,2025-06-28T09:11:00Z,Fafe,Braga,Norte,-8.135626,41.431551
25592184,Alcabideche,Grande Lisboa,311,2025-06-28T09:47:00Z,25592184,Em despacho,3201,Detritos não confinados,0,1,0,5,2025-06-28T09:47:00Z,Cascais,Lisboa,Área Metropolitana De Lisboa,-9.437127,38.727808
25591521,Cidade da Maia,Area M. Porto,309,2025-06-28T07:30:00Z,25591521,Em conclusão,3103,Incêndio rural,0,1,0,5,2025-06-28T07:30:00Z,Maia,Porto,Norte,-8.598963,41.234208
25591942,Folhadela,Douro,309,2025-06-28T08:59:00Z,25591942,Em conclusão,2301,Incêndio em transporte rodoviário,0,2,0,7,2025-06-28T08:59:00Z,Vila Real,Vila Real,Norte,-7.739234,41.281351
25591359,Labruja,Alto Minho,309,2025-06-28T05:31:00Z,25591359,Em conclusão,3103,Incêndio rural,0,4,0,9,2025-06-28T05:31:00Z,Ponte De Lima,Viana Do Castelo,Norte,-8.591233,41.835535
25592122,Boelhe,Tâmega e Sousa,309,2025-06-28T09:36:00Z,25592122,Em despacho,2301,Incêndio em transporte rodoviário,0,1,0,5,2025-06-28T09:36:00Z,Penafiel,Porto,Norte,-8.248699,41.12754
