id,address,subregion,neighborhood,date,id.1,state,nature,nature_description,aerial_means,terrestrial_means,aquatic_means,operational,date.1,Concelho,Distrito,NUTII_DSG,longitude,latitude
25063232,Santa Maria do Castelo e Santiago e Santa Susana,Alentejo Litoral,312,2025-03-09T19:02:00Z,25063232,Em conclusão,1101,Cheia,0,0,0,0,2025-03-09T19:02:00Z,Alcácer Do Sal,Setúbal,Alentejo,-8.48167,38.29806
25127944,Colares,Grande Lisboa,311,2025-03-21T14:29:00Z,25127944,Em curso,3301,Queda de árvore,0,1,0,6,2025-03-21T14:29:00Z,Sintra,Lisboa,Área Metropolitana De Lisboa,-9.432326,38.780106
25130567,Manteigas (Santa Maria),Beiras e Serra da Estrela,310,2025-03-22T00:50:00Z,25130567,Em curso,3313,Deslizamento de terras,0,1,0,2,2025-03-22T00:50:00Z,Manteigas,Guarda,Centro,-7.537826,40.403513
25130867,Roliça,Oeste,311,2025-03-22T04:47:00Z,25130867,Em conclusão,3301,Queda de árvore,0,3,0,8,2025-03-22T04:47:00Z,Bombarral,Leiria,Centro,-9.181897,39.315603
25130968,Alcabideche,Grande Lisboa,311,2025-03-22T06:17:00Z,25130968,Em curso,3301,Queda de árvore,0,2,0,7,2025-03-22T06:17:00Z,Cascais,Lisboa,Área Metropolitana De Lisboa,-9.471803,38.734028
25131002,"Aldoar, Foz do Douro e Nevogilde",Area M. Porto,309,2025-03-22T06:53:00Z,25131002,Em despacho,3301,Queda de árvore,0,1,0,5,2025-03-22T06:53:00Z,Porto,Porto,Norte,-8.676494,41.168181
25131036,Santa Eufémia e Boa Vista,Região de Leiria,310,2025-03-22T07:06:00Z,25131036,Em despacho,3301,Queda de árvore,0,1,0,2,2025-03-22T07:06:00Z,Leiria,Leiria,Centro,-8.750347,39.751272
25131052,Eixo e Eirol,Região de Aveiro,310,2025-03-22T07:10:00Z,25131052,Em despacho,3301,Queda de árvore,0,1,0,3,2025-03-22T07:10:00Z,Aveiro,Aveiro,Centro,-8.539589,40.608655
25131069,Massamá e Monte Abraão,Grande Lisboa,311,2025-03-22T07:11:00Z,25131069,Em despacho,3329,Queda de estruturas temporárias ou móveis,0,1,0,2,2025-03-22T07:11:00Z,Sintra,Lisboa,Área Metropolitana De Lisboa,-9.280008,38.753778
25068300,Almeirim,Lezíria do Tejo,311,2025-03-10T20:52:00Z,25068300,Em curso,1101,Cheia,0,0,0,0,2025-03-10T20:52:00Z,Almeirim,Santarém,Alentejo,-8.635002,39.187436
25121298,Gafanhoeira (São Pedro) e Sabugueiro,Alentejo Central,312,2025-03-20T14:26:00Z,25121298,Em resolução,3301,Queda de árvore,0,0,0,0,2025-03-20T14:26:00Z,Arraiolos,Évora,Alentejo,-8.088754,38.754507
25127907,Águeda e Borralha,Região de Aveiro,310,2025-03-21T14:25:00Z,25127907,Em curso,1101,Cheia,0,1,0,2,2025-03-21T14:25:00Z,Águeda,Aveiro,Centro,-8.444879,40.569328
25129636,"S.maria, S.miguel, S.martinho, S.pedro Penaferrim",Grande Lisboa,311,2025-03-21T19:25:00Z,25129636,Em despacho,3301,Queda de árvore,0,1,0,5,2025-03-21T19:25:00Z,Sintra,Lisboa,Área Metropolitana De Lisboa,-9.366763,38.781718
25130479,"S.maria, S.miguel, S.martinho, S.pedro Penaferrim",Grande Lisboa,311,2025-03-21T23:50:00Z,25130479,Em despacho,3301,Queda de árvore,0,1,0,1,2025-03-21T23:50:00Z,Sintra,Lisboa,Área Metropolitana De Lisboa,-9.366763,38.781718
25130931,Porto de Mós - São João Baptista e São Pedro,Região de Leiria,310,2025-03-22T05:55:00Z,25130931,Em conclusão,3313,Deslizamento de terras,0,0,0,0,2025-03-22T05:55:00Z,Porto De Mós,Leiria,Centro,-8.808657,39.583827
25087162,Pedrógão,Baixo Alentejo,312,2025-03-14T17:00:00Z,25087162,Em curso,1101,Cheia,0,0,0,0,2025-03-14T17:00:00Z,Vidigueira,Beja,Alentejo,-7.630327,38.110775
25128056,Santa Maria do Castelo e Santiago e Santa Susana,Alentejo Litoral,312,2025-03-21T14:41:00Z,25128056,Em curso,1101,Cheia,0,0,0,0,2025-03-21T14:41:00Z,Alcácer Do Sal,Setúbal,Alentejo,-8.434671,38.401157
25130882,Praia de Mira,Região de Coimbra,310,2025-03-22T05:11:00Z,25130882,Em despacho,3301,Queda de árvore,0,1,0,2,2025-03-22T05:11:00Z,Mira,Coimbra,Centro,-8.788778,40.475131
25130923,Carcavelos e Parede,Grande Lisboa,311,2025-03-22T05:50:00Z,25130923,Em despacho,3301,Queda de árvore,0,0,0,0,2025-03-22T05:50:00Z,Cascais,Lisboa,Área Metropolitana De Lisboa,-9.35906,38.68988
25130941,Pernes,Lezíria do Tejo,311,2025-03-22T06:06:00Z,25130941,Em resolução,3311,Queda de elementos de estruturas edificados,0,2,0,7,2025-03-22T06:06:00Z,Santarém,Santarém,Alentejo,-8.658865,39.381547
25131023,Âncora,Alto Minho,309,2025-03-22T07:07:00Z,25131023,Em despacho,3301,Queda de árvore,0,0,0,0,2025-03-22T07:07:00Z,Caminha,Viana Do Castelo,Norte,-8.864743,41.79703
25131075,Vila Velha de Ródão,Beira Baixa,310,2025-03-22T07:24:00Z,25131075,Em curso,3313,Deslizamento de terras,0,2,0,6,2025-03-22T07:24:00Z,Vila Velha De Ródão,Castelo Branco,Centro,-7.699634,39.658447
25059714,Torrão,Alentejo Litoral,312,2025-03-08T22:10:00Z,25059714,Em curso,1101,Cheia,0,1,0,2,2025-03-08T22:10:00Z,Alcácer Do Sal,Setúbal,Alentejo,-8.359133,38.252053
25070044,Praia do Ribatejo,Médio Tejo,311,2025-03-10T19:30:00Z,25070044,Em curso,1101,Cheia,0,0,0,0,2025-03-10T19:30:00Z,Vila Nova Da Barquinha,Santarém,Centro,-8.357309,39.485638
25071496,São Manços e São Vicente do Pigeiro,Alentejo Central,312,2025-03-11T13:18:00Z,25071496,Em curso,1101,Cheia,0,2,0,4,2025-03-11T13:18:00Z,Évora,Évora,Alentejo,-7.713313,38.513673
25131044,Benfeita,Região de Coimbra,310,2025-03-22T07:05:00Z,25131044,Em despacho,3301,Queda de árvore,0,1,0,2,2025-03-22T07:05:00Z,Arganil,Coimbra,Centro,-7.941588,40.231889
25131060,"Santa Iria de Azoia, São João da Talha e Bobadela",Grande Lisboa,311,2025-03-22T07:13:00Z,25131060,Em despacho,3321,Dano na rede de fornecimento de eletricidade ,0,1,0,4,2025-03-22T07:13:00Z,Loures,Lisboa,Área Metropolitana De Lisboa,-9.098065,38.824783
25131033,Almalaguês,Região de Coimbra,310,2025-03-22T07:00:00Z,25131033,Em despacho,3309,Desabamento de estruturas edificadas,0,1,0,3,2025-03-22T07:00:00Z,Coimbra,Coimbra,Centro,-8.390062,40.130893
25131065,Santo Quintino,Oeste,311,2025-03-22T07:11:00Z,25131065,Em despacho,3301,Queda de árvore,0,1,0,4,2025-03-22T07:11:00Z,Sobral De Monte Agraço,Lisboa,Centro,-9.19148,38.989711
