id,address,subregion,neighborhood,date,id.1,state,nature,nature_description,aerial_means,terrestrial_means,aquatic_means,operational,date.1,Concelho,Distrito,NUTII_DSG,longitude,latitude
25059714,Torrão,Alentejo Litoral,312,2025-03-08T22:10:00Z,25059714,Em curso,1101,Cheia,0,2,0,3,2025-03-08T22:10:00Z,Alcácer Do Sal,Setúbal,Alentejo,-8.359133,38.252053
25070044,Praia do Ribatejo,Médio Tejo,311,2025-03-10T19:30:00Z,25070044,Em curso,1101,Cheia,0,0,0,0,2025-03-10T19:30:00Z,Vila Nova Da Barquinha,Santarém,Centro,-8.357309,39.485638
25071496,São Manços e São Vicente do Pigeiro,Alentejo Central,312,2025-03-11T13:18:00Z,25071496,Em curso,1101,Cheia,0,2,0,4,2025-03-11T13:18:00Z,Évora,Évora,Alentejo,-7.713313,38.513673
25110573,Cantanhede e Pocariça,Região de Coimbra,310,2025-03-19T17:33:00Z,25110573,Em conclusão,3321,Dano na rede de fornecimento de eletricidade ,0,3,0,8,2025-03-19T17:33:00Z,Cantanhede,Coimbra,Centro,-8.59414,40.35176
25110707,Salvaterra de Magos e Foros de Salvaterra,Lezíria do Tejo,311,2025-03-19T18:03:00Z,25110707,Em curso,3301,Queda de árvore,0,6,0,16,2025-03-19T18:03:00Z,Salvaterra De Magos,Santarém,Alentejo,-8.708643,38.995437
25063232,Santa Maria do Castelo e Santiago e Santa Susana,Alentejo Litoral,312,2025-03-09T19:02:00Z,25063232,Em curso,1101,Cheia,0,0,0,0,2025-03-09T19:02:00Z,Alcácer Do Sal,Setúbal,Alentejo,-8.48167,38.29806
25111080,Alcabideche,Grande Lisboa,311,2025-03-19T19:27:00Z,25111080,Em despacho,3301,Queda de árvore,0,1,0,5,2025-03-19T19:27:00Z,Cascais,Lisboa,Área Metropolitana De Lisboa,-9.438785,38.755713
25111163,"S.maria, S.miguel, S.martinho, S.pedro Penaferrim",Grande Lisboa,311,2025-03-19T19:39:00Z,25111163,Em conclusão,3301,Queda de árvore,0,2,0,5,2025-03-19T19:39:00Z,Sintra,Lisboa,Área Metropolitana De Lisboa,-9.427226,38.816192
25111280,Esmolfe,Viseu Dão Lafões,310,2025-03-19T20:20:00Z,25111280,Em despacho,3301,Queda de árvore,0,1,0,2,2025-03-19T20:20:00Z,Penalva Do Castelo,Viseu,Centro,-7.653005,40.69284
25087162,Pedrógão,Baixo Alentejo,312,2025-03-14T17:00:00Z,25087162,Em curso,1101,Cheia,0,0,0,0,2025-03-14T17:00:00Z,Vidigueira,Beja,Alentejo,-7.630327,38.110775
25110106,São Teotónio,Alentejo Litoral,312,2025-03-19T15:54:00Z,25110106,Em conclusão,3301,Queda de árvore,0,1,0,1,2025-03-19T15:54:00Z,Odemira,Beja,Alentejo,-8.807968,37.597892
25111028,Caparica e Trafaria,Península de Setúbal,311,2025-03-19T19:05:00Z,25111028,Em curso,3329,Queda de estruturas temporárias ou móveis,0,1,0,4,2025-03-19T19:05:00Z,Almada,Setúbal,Área Metropolitana De Lisboa,-9.215111,38.660442
25068300,Almeirim,Lezíria do Tejo,311,2025-03-10T20:52:00Z,25068300,Em curso,1101,Cheia,0,0,0,0,2025-03-10T20:52:00Z,Almeirim,Santarém,Alentejo,-8.635002,39.187436
25110532,Loulé (São Clemente),Algarve,313,2025-03-19T16:20:00Z,25110532,Em despacho,3317,Inundação de estruturas por água canalizada,0,1,0,2,2025-03-19T16:20:00Z,Loulé,Faro,Algarve,-8.018267,37.137687
25110734,"Torres Novas (Santa Maria, Salvador e Santiago)",Médio Tejo,311,2025-03-19T18:10:00Z,25110734,Em conclusão,3301,Queda de árvore,0,0,0,0,2025-03-19T18:10:00Z,Torres Novas,Santarém,Centro,-8.493655,39.4882
25110827,"S.julião, N.s. da Anunciada e S. Maria da Graça",Península de Setúbal,311,2025-03-19T18:25:00Z,25110827,Em curso,3329,Queda de estruturas temporárias ou móveis,0,1,0,5,2025-03-19T18:25:00Z,Setúbal,Setúbal,Área Metropolitana De Lisboa,-8.89348,38.535337
25110977,Arganil,Região de Coimbra,310,2025-03-19T19:05:00Z,25110977,Em despacho,3311,Queda de elementos de estruturas edificados,0,1,0,2,2025-03-19T19:05:00Z,Arganil,Coimbra,Centro,-8.049704,40.220309
25110955,Barcarena,Grande Lisboa,311,2025-03-19T19:01:00Z,25110955,Em curso,3315,Inundação de estruturas por precipitação intensa,0,2,0,6,2025-03-19T19:01:00Z,Oeiras,Lisboa,Área Metropolitana De Lisboa,-9.282164,38.744749
25111207,Braga (São José de São Lázaro e São João do Souto),Cávado,309,2025-03-19T19:45:00Z,25111207,Em despacho,3329,Queda de estruturas temporárias ou móveis,0,1,0,2,2025-03-19T19:45:00Z,Braga,Braga,Norte,-8.419101,41.543217
25111239,São Brás de Alportel,Algarve,313,2025-03-19T20:01:00Z,25111239,Em curso,3301,Queda de árvore,0,1,0,4,2025-03-19T20:01:00Z,São Brás De Alportel,Faro,Algarve,-7.897656,37.197881
25111288,Monte Redondo e Carreira,Região de Leiria,310,2025-03-19T20:19:00Z,25111288,Em despacho,3301,Queda de árvore,0,1,0,2,2025-03-19T20:19:00Z,Leiria,Leiria,Centro,-8.847483,39.892112
25111307,Pousaflores,Região de Leiria,310,2025-03-19T20:25:00Z,25111307,Em despacho,3309,Desabamento de estruturas edificadas,0,1,0,4,2025-03-19T20:25:00Z,Ansião,Leiria,Centro,-8.452183,39.866859
25111322,Freiria,Oeste,311,2025-03-19T20:29:00Z,25111322,Em despacho,3301,Queda de árvore,0,0,0,0,2025-03-19T20:29:00Z,Torres Vedras,Lisboa,Centro,-9.351589,39.038587
25111324,"Pinheiro da Bemposta, Travanca e Palmaz",Area M. Porto,309,2025-03-19T20:01:00Z,25111324,Em despacho,3301,Queda de árvore,0,1,0,2,2025-03-19T20:01:00Z,Oliveira De Azeméis,Aveiro,Norte,-8.468107,40.789674
25111178,Carnaxide e Queijas,Grande Lisboa,311,2025-03-19T19:45:00Z,25111178,Em despacho,3311,Queda de elementos de estruturas edificados,0,2,0,6,2025-03-19T19:45:00Z,Oeiras,Lisboa,Área Metropolitana De Lisboa,-9.233587,38.727201
25111244,Podentes,Região de Coimbra,310,2025-03-19T20:12:00Z,25111244,Em despacho,3329,Queda de estruturas temporárias ou móveis,0,1,0,2,2025-03-19T20:12:00Z,Penela,Coimbra,Centro,-8.40783,40.05458
25111296,Espariz e Sinde,Região de Coimbra,310,2025-03-19T20:21:00Z,25111296,Em despacho,3301,Queda de árvore,0,1,0,2,2025-03-19T20:21:00Z,Tábua,Coimbra,Centro,-8.023694,40.322952
25111034,Montargil,Alto Alentejo,312,2025-03-19T19:15:00Z,25111034,Em conclusão,3301,Queda de árvore,0,0,0,0,2025-03-19T19:15:00Z,Ponte De Sor,Portalegre,Alentejo,-8.140132,39.03404
25111136,Montargil,Alto Alentejo,312,2025-03-19T19:44:00Z,25111136,Em resolução,3301,Queda de árvore,0,1,0,3,2025-03-19T19:44:00Z,Ponte De Sor,Portalegre,Alentejo,-8.249731,39.02689
25111170,"Oeiras e S. Julião da Barra, Paço de Arcos e Caxias",Grande Lisboa,311,2025-03-19T19:47:00Z,25111170,Em conclusão,3321,Dano na rede de fornecimento de eletricidade ,0,1,0,5,2025-03-19T19:47:00Z,Oeiras,Lisboa,Área Metropolitana De Lisboa,-9.310159,38.698531
25111204,Atouguia da Baleia,Oeste,311,2025-03-19T19:57:00Z,25111204,Em curso,3301,Queda de árvore,0,4,0,9,2025-03-19T19:57:00Z,Peniche,Leiria,Centro,-9.293139,39.353139
25111209,Colares,Grande Lisboa,311,2025-03-19T19:57:00Z,25111209,Em despacho,3301,Queda de árvore,0,1,0,2,2025-03-19T19:57:00Z,Sintra,Lisboa,Área Metropolitana De Lisboa,-9.486381,38.778591
25111254,Ovoa e Vimieiro,Viseu Dão Lafões,310,2025-03-19T20:13:00Z,25111254,Em despacho,3301,Queda de árvore,0,0,0,0,2025-03-19T20:13:00Z,Santa Comba Dão,Viseu,Centro,-8.111923,40.377935
25111284,"Manique do Intendente, V. N. de São Pedro e Maçussa",Lezíria do Tejo,311,2025-03-19T20:22:00Z,25111284,Em despacho,3329,Queda de estruturas temporárias ou móveis,0,2,0,6,2025-03-19T20:22:00Z,Azambuja,Lisboa,Alentejo,-8.89127,39.22225
25111304,Algueirão-Mem Martins,Grande Lisboa,311,2025-03-19T20:26:00Z,25111304,Em despacho,3321,Dano na rede de fornecimento de eletricidade ,0,0,0,0,2025-03-19T20:26:00Z,Sintra,Lisboa,Área Metropolitana De Lisboa,-9.34455,38.80527
