id,address,subregion,neighborhood,date,id.1,state,nature,nature_description,aerial_means,terrestrial_means,aquatic_means,operational,date.1,Concelho,Distrito,NUTII_DSG,longitude,latitude
25483680,Loulé (São Clemente),Algarve,313,2025-06-06T00:58:00Z,25483680,Em conclusão,2301,Incêndio em transporte rodoviário,0,0,0,0,2025-06-06T00:58:00Z,Loulé,Faro,Algarve,-8.00794,37.10705
25482200,São João Dos Caldeireiros,Baixo Alentejo,312,2025-06-05T17:13:00Z,25482200,Em conclusão,3105,Incêndio rural,0,3,0,7,2025-06-05T17:13:00Z,Mértola,Beja,Alentejo,-7.81599,37.59366
25483665,Vila Nova de Famalicão e Calendário,Ave,309,2025-06-06T00:49:00Z,25483665,Em conclusão,2301,Incêndio em transporte rodoviário,0,3,0,10,2025-06-06T00:49:00Z,Vila Nova De Famalicão,Braga,Norte,-8.525567,41.403577
25483688,Mindelo,Area M. Porto,309,2025-06-06T01:01:00Z,25483688,Em conclusão,2201,Incêndio em equipamentos ou produtos,0,1,0,5,2025-06-06T01:01:00Z,Vila Do Conde,Porto,Norte,-8.730293,41.3097
25483628,Alcochete,Península de Setúbal,311,2025-06-06T00:29:00Z,25483628,Em conclusão,2301,Incêndio em transporte rodoviário,0,3,0,9,2025-06-06T00:29:00Z,Alcochete,Setúbal,Área Metropolitana De Lisboa,-8.92518,38.74534
25483712,Marinha Grande,Região de Leiria,310,2025-06-06T01:03:00Z,25483712,Em despacho,3203,Detritos confinados,0,1,0,2,2025-06-06T01:03:00Z,Marinha Grande,Leiria,Centro,-8.919612,39.758352
25483743,"Almada, Cova da Piedade, Pragal e Cacilhas",Península de Setúbal,311,2025-06-06T01:29:00Z,25483743,Em despacho,2127,"Incêndio em edifícios e recintos industriais, oficinas e armazéns",0,4,0,14,2025-06-06T01:29:00Z,Almada,Setúbal,Área Metropolitana De Lisboa,-9.173069,38.677312
