id,address,subregion,neighborhood,date,id.1,state,nature,nature_description,aerial_means,terrestrial_means,aquatic_means,operational,date.1,Concelho,Distrito,NUTII_DSG,longitude,latitude,state_2
25640886,Póvoa do Concelho,Beiras e Serra da Estrela,310,2025-07-07T11:39:00Z,25640886,Em Resolução/Conclusão,3103,Incêndio rural,0,4,0,14,2025-07-07T11:39:00Z,Trancoso,Guarda,Centro,-7.265382,40.770737,Resolução/Conclusão
25640911,Alvarenga,Area M. Porto,309,2025-07-07T11:35:00Z,25640911,Em Resolução/Conclusão,3101,Incêndio rural,0,3,0,12,2025-07-07T11:35:00Z,Arouca,Aveiro,Norte,-8.16796,40.976703,Resolução/Conclusão
25641081,"Crato e Mártires, Flor da Rosa e Vale do Peso",Alto Alentejo,312,2025-07-07T12:10:00Z,25641081,Em Resolução/Conclusão,3103,Incêndio rural,1,4,0,23,2025-07-07T12:10:00Z,Crato,Portalegre,Alentejo,-7.651358,39.265818,Resolução/Conclusão
25641086,"Aboim, Felgueiras, Gontim e Pedraído",Ave,309,2025-07-07T12:17:00Z,25641086,Em Resolução/Conclusão,3103,Incêndio rural,0,1,0,5,2025-07-07T12:17:00Z,Fafe,Braga,Norte,-8.096953,41.535452,Resolução/Conclusão
25641154,Urra,Alto Alentejo,312,2025-07-07T12:29:00Z,25641154,Em Resolução/Conclusão,3105,Incêndio rural,2,21,0,76,2025-07-07T12:29:00Z,Portalegre,Portalegre,Alentejo,-7.46314,39.23684,Resolução/Conclusão
25641606,Alfeizerão,Oeste,311,2025-07-07T13:53:00Z,25641606,Em Despacho,3111,Queima,0,1,0,1,2025-07-07T13:53:00Z,Alcobaça,Leiria,Centro,-9.110786,39.496611,Despacho
25641624,Figueiró da Serra e Freixo da Serra,Beiras e Serra da Estrela,310,2025-07-07T13:59:00Z,25641624,Em Despacho,3103,Incêndio rural,1,4,0,23,2025-07-07T13:59:00Z,Gouveia,Guarda,Centro,-7.505502,40.528873,Despacho
25639989,Luso,Região de Coimbra,310,2025-07-07T09:24:00Z,25639989,Em Resolução/Conclusão,3101,Incêndio rural,0,0,0,0,2025-07-07T09:24:00Z,Mealhada,Aveiro,Centro,-8.36167,40.38667,Resolução/Conclusão
25640258,Andrães,Douro,309,2025-07-07T10:02:00Z,25640258,Em Resolução/Conclusão,3103,Incêndio rural,0,8,0,20,2025-07-07T10:02:00Z,Vila Real,Vila Real,Norte,-7.719448,41.248428,Resolução/Conclusão
25641261,"Crato e Mártires, Flor da Rosa e Vale do Peso",Alto Alentejo,312,2025-07-07T12:51:00Z,25641261,Em Resolução/Conclusão,3105,Incêndio rural,0,7,0,26,2025-07-07T12:51:00Z,Crato,Portalegre,Alentejo,-7.558015,39.310169,Resolução/Conclusão
25641335,"Crato e Mártires, Flor da Rosa e Vale do Peso",Alto Alentejo,312,2025-07-07T13:08:00Z,25641335,Em Resolução/Conclusão,3103,Incêndio rural,0,2,0,7,2025-07-07T13:08:00Z,Crato,Portalegre,Alentejo,-7.605477,39.258982,Resolução/Conclusão
25641383,Mafra,Grande Lisboa,311,2025-07-07T13:13:00Z,25641383,Em Curso,3101,Incêndio rural,1,18,0,68,2025-07-07T13:13:00Z,Mafra,Lisboa,Área Metropolitana De Lisboa,-9.337252,38.942359,Curso
25641484,Serpa (Salvador e Santa Maria),Baixo Alentejo,312,2025-07-07T13:29:00Z,25641484,Em Resolução/Conclusão,3105,Incêndio rural,0,6,0,17,2025-07-07T13:29:00Z,Serpa,Beja,Alentejo,-7.53462,37.895487,Resolução/Conclusão
25636341,Navió e Vitorino Dos Piães,Alto Minho,309,2025-07-06T13:36:00Z,25636341,Em Resolução/Conclusão,3103,Incêndio rural,0,23,0,66,2025-07-06T13:36:00Z,Ponte De Lima,Viana Do Castelo,Norte,-8.636015,41.674557,Resolução/Conclusão
25636995,Graça,Região de Leiria,310,2025-07-06T16:00:00Z,25636995,Em Resolução/Conclusão,3101,Incêndio rural,0,1,0,2,2025-07-06T16:00:00Z,Pedrógão Grande,Leiria,Centro,-8.220789,39.883478,Resolução/Conclusão
25637334,São Miguel de Acha,Beira Baixa,310,2025-07-06T17:22:00Z,25637334,Em Resolução/Conclusão,3105,Incêndio rural,0,2,0,10,2025-07-06T17:22:00Z,Idanha-a-Nova,Castelo Branco,Centro,-7.277732,39.997078,Resolução/Conclusão
25640880,Loureira,Cávado,309,2025-07-07T11:39:00Z,25640880,Em Resolução/Conclusão,3103,Incêndio rural,0,6,0,19,2025-07-07T11:39:00Z,Vila Verde,Braga,Norte,-8.42475,41.626072,Resolução/Conclusão
25641053,Água Longa,Area M. Porto,309,2025-07-07T12:10:00Z,25641053,Em Resolução/Conclusão,3103,Incêndio rural,0,5,0,18,2025-07-07T12:10:00Z,Santo Tirso,Porto,Norte,-8.50936,41.251045,Resolução/Conclusão
25641230,Vilarinho,Area M. Porto,309,2025-07-07T12:43:00Z,25641230,Em Resolução/Conclusão,3103,Incêndio rural,0,1,0,5,2025-07-07T12:43:00Z,Santo Tirso,Porto,Norte,-8.32829,41.35118,Resolução/Conclusão
25641432,Cercal,Alentejo Litoral,312,2025-07-07T13:24:00Z,25641432,Em Despacho,3103,Incêndio rural,0,4,0,18,2025-07-07T13:24:00Z,Santiago Do Cacém,Setúbal,Alentejo,-8.72123,37.86678,Despacho
25641520,"Nossa Senhora da Conceição, São Pedro e São Dinis",Douro,309,2025-07-07T13:40:00Z,25641520,Em Resolução/Conclusão,3103,Incêndio rural,0,5,0,18,2025-07-07T13:40:00Z,Vila Real,Vila Real,Norte,-7.734417,41.307712,Resolução/Conclusão
25641584,Cidade da Maia,Area M. Porto,309,2025-07-07T13:52:00Z,25641584,Em Despacho,3103,Incêndio rural,0,2,0,8,2025-07-07T13:52:00Z,Maia,Porto,Norte,-8.599655,41.23267,Despacho
25641650,Gulpilhares e Valadares,Area M. Porto,309,2025-07-07T14:01:00Z,25641650,Em Curso,3103,Incêndio rural,0,1,0,4,2025-07-07T14:01:00Z,Vila Nova De Gaia,Porto,Norte,-8.63728,41.10093,Curso
