id,address,subregion,neighborhood,date,id.1,state,nature,nature_description,aerial_means,terrestrial_means,aquatic_means,operational,date.1,Concelho,Distrito,NUTII_DSG,longitude,latitude,state_2
25713352,Ferreira do Alentejo e Canhestros,Baixo Alentejo,312,2025-07-21T21:41:00Z,25713352,Em Resolução/Conclusão,3105,Incêndio rural,0,0,0,0,2025-07-21T21:41:00Z,Ferreira Do Alentejo,Beja,Alentejo,-8.339778,38.035552,Resolução/Conclusão
25713797,"S.maria, S.miguel, S.martinho, S.pedro Penaferrim",Grande Lisboa,311,2025-07-22T00:48:00Z,25713797,Em Resolução/Conclusão,3103,Incêndio rural,0,2,0,10,2025-07-22T00:48:00Z,Sintra,Lisboa,Área Metropolitana De Lisboa,-9.349444,38.77333,Resolução/Conclusão
25708284,Bogas de Cima,Beiras e Serra da Estrela,310,2025-07-20T21:26:00Z,25708284,Em Resolução/Conclusão,3103,Incêndio rural,0,1,0,5,2025-07-20T21:26:00Z,Fundão,Castelo Branco,Centro,-7.707703,40.064562,Resolução/Conclusão
25712338,Cercal,Alentejo Litoral,312,2025-07-21T17:38:00Z,25712338,Em Resolução/Conclusão,3103,Incêndio rural,0,25,0,65,2025-07-21T17:38:00Z,Santiago Do Cacém,Setúbal,Alentejo,-8.682272,37.791582,Resolução/Conclusão
25713740,Almancil,Algarve,313,2025-07-22T00:09:00Z,25713740,Em Resolução/Conclusão,3103,Incêndio rural,0,0,0,0,2025-07-22T00:09:00Z,Loulé,Faro,Algarve,-8.052091,37.080047,Resolução/Conclusão
25713806,Guarda,Beiras e Serra da Estrela,310,2025-07-22T00:53:00Z,25713806,Em Resolução/Conclusão,3103,Incêndio rural,0,7,0,26,2025-07-22T00:53:00Z,Guarda,Guarda,Centro,-7.234302,40.561717,Resolução/Conclusão
25713826,Rossas,Ave,309,2025-07-22T01:11:00Z,25713826,Em Resolução/Conclusão,3103,Incêndio rural,0,4,0,20,2025-07-22T01:11:00Z,Vieira Do Minho,Braga,Norte,-8.073845,41.586948,Resolução/Conclusão
25711397,Vale da Pedra,Lezíria do Tejo,311,2025-07-21T14:16:00Z,25711397,Em Resolução/Conclusão,3103,Incêndio rural,0,3,0,8,2025-07-21T14:16:00Z,Cartaxo,Santarém,Alentejo,-8.783137,39.110872,Resolução/Conclusão
