id,address,subregion,neighborhood,date,id.1,state,nature,nature_description,aerial_means,terrestrial_means,aquatic_means,operational,date.1,Concelho,Distrito,NUTII_DSG,longitude,latitude
24875758,Valhelhas,Beiras e Serra da Estrela,310,2025-01-27T08:41:00Z,24875758,Em curso,3301,Queda de árvore,0,1,0,2,2025-01-27T08:41:00Z,Guarda,Guarda,Centro,-7.405093,40.406271
24877003,Malagueira e Horta Das Figueiras,Alentejo Central,312,2025-01-27T11:41:00Z,24877003,Em conclusão,3315,Inundação de estruturas por precipitação intensa,0,1,0,2,2025-01-27T11:41:00Z,Évora,Évora,Alentejo,-7.924277,38.57285
24878057,Salto,Alto Tâmega e Barroso,309,2025-01-27T14:42:00Z,24878057,Em despacho,3301,Queda de árvore,0,1,0,4,2025-01-27T14:42:00Z,Montalegre,Vila Real,Norte,-7.929191,41.611383
24878657,"S.maria, S.miguel, S.martinho, S.pedro Penaferrim",Grande Lisboa,311,2025-01-27T16:38:00Z,24878657,Em despacho,3321,Dano na rede de fornecimento de eletricidade ,0,1,0,2,2025-01-27T16:38:00Z,Sintra,Lisboa,Área Metropolitana De Lisboa,-9.363811,38.743917
24878882,Poceirão e Marateca,Península de Setúbal,311,2025-01-27T17:16:00Z,24878882,Em conclusão,3301,Queda de árvore,0,3,0,5,2025-01-27T17:16:00Z,Palmela,Setúbal,Área Metropolitana De Lisboa,-8.741193,38.629608
24878984,"Sé, Santa Maria e Meixedo",Terras de Trás-os-Montes,309,2025-01-27T17:32:00Z,24878984,Em curso,3315,Inundação de estruturas por precipitação intensa,0,1,0,2,2025-01-27T17:32:00Z,Bragança,Bragança,Norte,-6.761223,41.813164
24879064,Navió e Vitorino Dos Piães,Alto Minho,309,2025-01-27T17:48:00Z,24879064,Em conclusão,3301,Queda de árvore,0,0,0,0,2025-01-27T17:48:00Z,Ponte De Lima,Viana Do Castelo,Norte,-8.613623,41.68979
24879277,Foz de Arouce e Casal de Ermio,Região de Coimbra,310,2025-01-27T18:30:00Z,24879277,Em despacho,3301,Queda de árvore,0,1,0,3,2025-01-27T18:30:00Z,Lousã,Coimbra,Centro,-8.25635,40.153628
24879284,a Dos Cunhados e Maceira,Oeste,311,2025-01-27T18:32:00Z,24879284,Em resolução,3309,Desabamento de estruturas edificadas,0,1,0,1,2025-01-27T18:32:00Z,Torres Vedras,Lisboa,Centro,-9.336366,39.162143
24879409,"Sandim, Olival, Lever e Crestuma",Area M. Porto,309,2025-01-27T19:00:00Z,24879409,Em despacho,3315,Inundação de estruturas por precipitação intensa,0,1,0,2,2025-01-27T19:00:00Z,Vila Nova De Gaia,Porto,Norte,-8.507685,41.028387
24874564,"Sé, Santa Maria e Meixedo",Terras de Trás-os-Montes,309,2025-01-26T21:55:00Z,24874564,Em curso,3315,Inundação de estruturas por precipitação intensa,0,1,0,2,2025-01-26T21:55:00Z,Bragança,Bragança,Norte,-6.761223,41.813164
24875382,Pampilhosa da Serra,Região de Coimbra,310,2025-01-27T06:56:00Z,24875382,Em curso,3315,Inundação de estruturas por precipitação intensa,0,0,0,0,2025-01-27T06:56:00Z,Pampilhosa Da Serra,Coimbra,Centro,-7.953077,40.054967
24876200,Ceira,Região de Coimbra,310,2025-01-27T09:56:00Z,24876200,Em despacho,3315,Inundação de estruturas por precipitação intensa,0,1,0,2,2025-01-27T09:56:00Z,Coimbra,Coimbra,Centro,-8.376144,40.175952
24876893,"Sé, Santa Maria e Meixedo",Terras de Trás-os-Montes,309,2025-01-27T11:22:00Z,24876893,Em curso,3315,Inundação de estruturas por precipitação intensa,0,1,0,1,2025-01-27T11:22:00Z,Bragança,Bragança,Norte,-6.761223,41.813164
24878747,Costa da Caparica,Península de Setúbal,311,2025-01-27T16:45:00Z,24878747,Em despacho,3301,Queda de árvore,0,1,0,3,2025-01-27T16:45:00Z,Almada,Setúbal,Área Metropolitana De Lisboa,-9.227696,38.642583
24878958,"Mogadouro, Valverde, Vale de Porco e Vilar de Rei",Terras de Trás-os-Montes,309,2025-01-27T17:29:00Z,24878958,Em curso,3315,Inundação de estruturas por precipitação intensa,0,1,0,2,2025-01-27T17:29:00Z,Mogadouro,Bragança,Norte,-6.706687,41.339826
24879090,"N. S. da Vila, N. S. do Bispo e Silveiras",Alentejo Central,312,2025-01-27T17:53:00Z,24879090,Em despacho,3301,Queda de árvore,0,1,0,2,2025-01-27T17:53:00Z,Montemor-o-Novo,Évora,Alentejo,-8.206765,38.623083
24879099,Azambuja,Lezíria do Tejo,311,2025-01-27T17:56:00Z,24879099,Em conclusão,3301,Queda de árvore,0,2,0,6,2025-01-27T17:56:00Z,Azambuja,Lisboa,Alentejo,-8.913008,39.088283
24875937,Açores e Velosa,Beiras e Serra da Estrela,310,2025-01-27T09:15:00Z,24875937,Em despacho,3301,Queda de árvore,0,2,0,4,2025-01-27T09:15:00Z,Celorico Da Beira,Guarda,Centro,-7.293622,40.654959
24878043,Salto,Alto Tâmega e Barroso,309,2025-01-27T14:30:00Z,24878043,Em despacho,3301,Queda de árvore,0,1,0,4,2025-01-27T14:30:00Z,Montalegre,Vila Real,Norte,-7.930242,41.659104
24879177,Lavos,Região de Coimbra,310,2025-01-27T18:13:00Z,24879177,Em despacho,3301,Queda de árvore,0,2,0,7,2025-01-27T18:13:00Z,Figueira Da Foz,Coimbra,Centro,-8.827295,40.092169
24879228,Santa Maria Maior e Monserrate e Meadela,Alto Minho,309,2025-01-27T18:00:00Z,24879228,Em despacho,3301,Queda de árvore,0,1,0,3,2025-01-27T18:00:00Z,Viana Do Castelo,Viana Do Castelo,Norte,-8.81652,41.703882
24879264,Canaviais,Alentejo Central,312,2025-01-27T18:15:00Z,24879264,Em resolução,3301,Queda de árvore,0,4,0,8,2025-01-27T18:15:00Z,Évora,Évora,Alentejo,-7.89873,38.595183
24879313,"Almada, Cova da Piedade, Pragal e Cacilhas",Península de Setúbal,311,2025-01-27T18:30:00Z,24879313,Em conclusão,3329,Queda de estruturas temporárias ou móveis,0,2,0,6,2025-01-27T18:30:00Z,Almada,Setúbal,Área Metropolitana De Lisboa,-9.173069,38.677312
24851780,"São Miguel, Santa Eufémia e Rabaçal",Região de Coimbra,310,2025-01-21T23:25:00Z,24851780,Em curso,3315,Inundação de estruturas por precipitação intensa,0,0,0,0,2025-01-21T23:25:00Z,Penela,Coimbra,Centro,-8.399036,40.025502
24878704,Salto,Alto Tâmega e Barroso,309,2025-01-27T16:44:00Z,24878704,Em despacho,1107,Nevão,0,3,0,6,2025-01-27T16:44:00Z,Montalegre,Vila Real,Norte,-7.953108,41.639334
24879336,Santo Estêvão,Lezíria do Tejo,311,2025-01-27T18:47:00Z,24879336,Em resolução,3301,Queda de árvore,0,1,0,5,2025-01-27T18:47:00Z,Benavente,Santarém,Alentejo,-8.679095,38.897528
24879405,Cinco Vilas e Reigada,Beiras e Serra da Estrela,310,2025-01-27T19:03:00Z,24879405,Em resolução,3311,Queda de elementos de estruturas edificados,0,3,0,5,2025-01-27T19:03:00Z,Figueira De Castelo Rodrigo,Guarda,Centro,-6.955238,40.802385
24879149,Soure,Região de Coimbra,310,2025-01-27T18:00:00Z,24879149,Em despacho,3315,Inundação de estruturas por precipitação intensa,0,1,0,2,2025-01-27T18:00:00Z,Soure,Coimbra,Centro,-8.639406,40.055319
24879183,Santo António Dos Olivais,Região de Coimbra,310,2025-01-27T17:59:00Z,24879183,Em despacho,3315,Inundação de estruturas por precipitação intensa,0,1,0,3,2025-01-27T17:59:00Z,Coimbra,Coimbra,Centro,-8.426807,40.217261
24879424,"Boa Aldeia, Farminhão e Torredeita",Viseu Dão Lafões,310,2025-01-27T18:57:00Z,24879424,Em despacho,3301,Queda de árvore,0,1,0,2,2025-01-27T18:57:00Z,Viseu,Viseu,Centro,-8.019635,40.641738
24879467,"Sé, Santa Maria e Meixedo",Terras de Trás-os-Montes,309,2025-01-27T19:20:00Z,24879467,Em curso,3315,Inundação de estruturas por precipitação intensa,0,1,0,1,2025-01-27T19:20:00Z,Bragança,Bragança,Norte,-6.76794,41.81097
24879428,Montijo e Afonsoeiro,Península de Setúbal,311,2025-01-27T19:00:00Z,24879428,Em despacho,3301,Queda de árvore,0,1,0,5,2025-01-27T19:00:00Z,Montijo,Setúbal,Área Metropolitana De Lisboa,-8.975715,38.702323
24879461,Caparica e Trafaria,Península de Setúbal,311,2025-01-27T18:15:00Z,24879461,Em curso,3301,Queda de árvore,0,0,0,0,2025-01-27T18:15:00Z,Almada,Setúbal,Área Metropolitana De Lisboa,-9.198172,38.665376
24879464,Mafamude e Vilar do Paraíso,Area M. Porto,309,2025-01-27T19:16:00Z,24879464,Em despacho,3311,Queda de elementos de estruturas edificados,0,1,0,5,2025-01-27T19:16:00Z,Vila Nova De Gaia,Porto,Norte,-8.611105,41.107184
24879421,Carregado e Cadafais,Oeste,311,2025-01-27T19:09:00Z,24879421,Em despacho,3301,Queda de árvore,0,3,0,5,2025-01-27T19:09:00Z,Alenquer,Lisboa,Centro,-8.98,39.0264
