id,address,subregion,neighborhood,date,id.1,state,nature,nature_description,aerial_means,terrestrial_means,aquatic_means,operational,date.1,Concelho,Distrito,NUTII_DSG,longitude,latitude,state_2
25599382,Almaceda,Beira Baixa,310,2025-06-29T17:03:00Z,25599382,Em Resolução/Conclusão,3101,Incêndio rural,0,23,0,66,2025-06-29T17:03:00Z,Castelo Branco,Castelo Branco,Centro,-7.65644,39.97,Resolução/Conclusão
25606759,São Miguel do Outeiro e Sabugosa,Viseu Dão Lafões,310,2025-07-01T00:26:00Z,25606759,Em Resolução/Conclusão,3101,Incêndio rural,0,1,0,1,2025-07-01T00:26:00Z,Tondela,Viseu,Centro,-8.056143,40.560622,Resolução/Conclusão
25608406,Pias,Baixo Alentejo,312,2025-07-01T10:36:00Z,25608406,Em Resolução/Conclusão,3105,Incêndio rural,0,5,0,14,2025-07-01T10:36:00Z,Serpa,Beja,Alentejo,-7.512387,38.016925,Resolução/Conclusão
25608967,Alvite,Douro,309,2025-07-01T12:19:00Z,25608967,Em Resolução/Conclusão,3103,Incêndio rural,0,8,0,28,2025-07-01T12:19:00Z,Moimenta Da Beira,Viseu,Norte,-7.741182,40.9536,Resolução/Conclusão
25609076,Santa Bárbara de Nexe,Algarve,313,2025-07-01T12:35:00Z,25609076,Em Resolução/Conclusão,3103,Incêndio rural,0,0,0,0,2025-07-01T12:35:00Z,Faro,Faro,Algarve,-7.974543,37.097958,Resolução/Conclusão
25611082,Ventosa e Cova,Ave,309,2025-07-01T18:40:00Z,25611082,Em Resolução/Conclusão,3105,Incêndio rural,0,1,0,5,2025-07-01T18:40:00Z,Vieira Do Minho,Braga,Norte,-8.169463,41.678263,Resolução/Conclusão
25611589,Salvaterra de Magos e Foros de Salvaterra,Lezíria do Tejo,311,2025-07-01T20:26:00Z,25611589,Em Resolução/Conclusão,3111,Queima,0,5,0,15,2025-07-01T20:26:00Z,Salvaterra De Magos,Santarém,Alentejo,-8.765528,39.00642,Resolução/Conclusão
25610953,Barbacena e Vila Fernando,Alto Alentejo,312,2025-07-01T18:18:00Z,25610953,Em Resolução/Conclusão,3101,Incêndio rural,0,29,0,99,2025-07-01T18:18:00Z,Elvas,Portalegre,Alentejo,-7.318435,38.920227,Resolução/Conclusão
25611083,Almancil,Algarve,313,2025-07-01T18:43:00Z,25611083,Em Resolução/Conclusão,3103,Incêndio rural,0,0,0,0,2025-07-01T18:43:00Z,Loulé,Faro,Algarve,-8.027713,37.081247,Resolução/Conclusão
25611134,Moimenta e Montouto,Terras de Trás-os-Montes,309,2025-07-01T18:49:00Z,25611134,Em Curso,3103,Incêndio rural,1,3,0,11,2025-07-01T18:49:00Z,NA,NA,NA,-7.043042,41.965998,Curso
25611284,Viana do Alentejo,Alentejo Central,312,2025-07-01T19:22:00Z,25611284,Em Resolução/Conclusão,3105,Incêndio rural,0,0,0,0,2025-07-01T19:22:00Z,Viana Do Alentejo,Évora,Alentejo,-7.993643,38.352662,Resolução/Conclusão
25611301,"Algodres, Vale de Afonsinho e Vilar de Amargo",Beiras e Serra da Estrela,310,2025-07-01T19:25:00Z,25611301,Em Resolução/Conclusão,3103,Incêndio rural,0,15,0,60,2025-07-01T19:25:00Z,Figueira De Castelo Rodrigo,Guarda,Centro,-7.002512,40.960853,Resolução/Conclusão
25611598,Cachopo,Algarve,313,2025-07-01T20:28:00Z,25611598,Em Resolução/Conclusão,3103,Incêndio rural,0,0,0,0,2025-07-01T20:28:00Z,Tavira,Faro,Algarve,-7.861326,37.277996,Resolução/Conclusão
25611732,Serdedelo,Alto Minho,309,2025-07-01T20:57:00Z,25611732,Em Curso,3103,Incêndio rural,0,2,0,7,2025-07-01T20:57:00Z,Ponte De Lima,Viana Do Castelo,Norte,-8.541939,41.753085,Curso
25611720,Luz de Tavira e Santo Estêvão,Algarve,313,2025-07-01T21:01:00Z,25611720,Em Resolução/Conclusão,3103,Incêndio rural,0,1,0,5,2025-07-01T21:01:00Z,Tavira,Faro,Algarve,-7.731069,37.0754,Resolução/Conclusão
25608554,Brinches,Baixo Alentejo,312,2025-07-01T11:00:00Z,25608554,Em Resolução/Conclusão,3105,Incêndio rural,0,0,0,0,2025-07-01T11:00:00Z,Serpa,Beja,Alentejo,-7.526577,38.015208,Resolução/Conclusão
25609774,Meinedo,Tâmega e Sousa,309,2025-07-01T14:32:00Z,25609774,Em Resolução/Conclusão,3103,Incêndio rural,0,4,0,15,2025-07-01T14:32:00Z,Lousada,Porto,Norte,-8.24293,41.25225,Resolução/Conclusão
25611092,Barbacena e Vila Fernando,Alto Alentejo,312,2025-07-01T18:35:00Z,25611092,Em Resolução/Conclusão,3105,Incêndio rural,0,6,0,17,2025-07-01T18:35:00Z,Elvas,Portalegre,Alentejo,-7.30867,38.937875,Resolução/Conclusão
25611277,Pinela,Terras de Trás-os-Montes,309,2025-07-01T19:27:00Z,25611277,Em Resolução/Conclusão,3103,Incêndio rural,0,11,0,39,2025-07-01T19:27:00Z,Bragança,Bragança,Norte,-6.781113,41.671907,Resolução/Conclusão
25611445,Almendra,Douro,309,2025-07-01T19:48:00Z,25611445,Em Curso,3103,Incêndio rural,0,5,0,18,2025-07-01T19:48:00Z,Vila Nova De Foz Côa,Guarda,Norte,-7.055158,40.97822,Curso
25603618,Messejana,Baixo Alentejo,312,2025-06-30T13:09:00Z,25603618,Em Resolução/Conclusão,3101,Incêndio rural,0,23,0,60,2025-06-30T13:09:00Z,Aljustrel,Beja,Alentejo,-8.169013,37.814978,Resolução/Conclusão
25604086,Alvarenga,Area M. Porto,309,2025-06-30T14:23:00Z,25604086,Em Resolução/Conclusão,3103,Incêndio rural,0,0,0,0,2025-06-30T14:23:00Z,Arouca,Aveiro,Norte,-8.16662,40.977807,Resolução/Conclusão
25604815,Ermidas-Sado,Alentejo Litoral,312,2025-06-30T16:36:00Z,25604815,Em Resolução/Conclusão,3103,Incêndio rural,0,0,0,0,2025-06-30T16:36:00Z,Santiago Do Cacém,Setúbal,Alentejo,-8.353481,38.015813,Resolução/Conclusão
25605147,Vale do Côa,Beiras e Serra da Estrela,310,2025-06-30T17:42:00Z,25605147,Em Resolução/Conclusão,3103,Incêndio rural,0,12,0,44,2025-06-30T17:42:00Z,Pinhel,Guarda,Centro,-7.114995,40.946045,Resolução/Conclusão
25606628,Lobão da Beira,Viseu Dão Lafões,310,2025-06-30T23:39:00Z,25606628,Em Resolução/Conclusão,3103,Incêndio rural,0,1,0,1,2025-06-30T23:39:00Z,Tondela,Viseu,Centro,-8.04042,40.571925,Resolução/Conclusão
25606803,Canas de Santa Maria,Viseu Dão Lafões,310,2025-07-01T00:36:00Z,25606803,Em Resolução/Conclusão,3101,Incêndio rural,0,2,0,3,2025-07-01T00:36:00Z,Tondela,Viseu,Centro,-8.056338,40.560735,Resolução/Conclusão
25610143,Nossa Senhora Das Misericórdias,Médio Tejo,311,2025-07-01T15:32:00Z,25610143,Em Resolução/Conclusão,3103,Incêndio rural,0,4,0,8,2025-07-01T15:32:00Z,Ourém,Santarém,Centro,-8.600277,39.655883,Resolução/Conclusão
25611622,Campo e Sobrado,Area M. Porto,309,2025-07-01T20:33:00Z,25611622,Em Resolução/Conclusão,3103,Incêndio rural,0,5,0,19,2025-07-01T20:33:00Z,Valongo,Porto,Norte,-8.47232,41.233148,Resolução/Conclusão
25611851,Queluz e Belas,Grande Lisboa,311,2025-07-01T21:22:00Z,25611851,Em Despacho,3103,Incêndio rural,0,1,0,5,2025-07-01T21:22:00Z,Sintra,Lisboa,Área Metropolitana De Lisboa,-9.270072,38.779997,Despacho
25611712,Odiáxere,Algarve,313,2025-07-01T20:58:00Z,25611712,Em Resolução/Conclusão,3103,Incêndio rural,0,4,0,17,2025-07-01T20:58:00Z,Lagos,Faro,Algarve,-8.66638,37.13218,Resolução/Conclusão
25611827,Luz de Tavira e Santo Estêvão,Algarve,313,2025-07-01T21:18:00Z,25611827,Em Curso,3111,Queima,0,4,0,13,2025-07-01T21:18:00Z,Tavira,Faro,Algarve,-7.74,37.07139,Curso
25611846,Alcabideche,Grande Lisboa,311,2025-07-01T21:26:00Z,25611846,Em Despacho,3103,Incêndio rural,0,3,0,12,2025-07-01T21:26:00Z,Cascais,Lisboa,Área Metropolitana De Lisboa,-9.430278,38.730587,Despacho
25611878,Talhadas,Região de Aveiro,310,2025-07-01T21:33:00Z,25611878,Em Despacho,3101,Incêndio rural,0,3,0,12,2025-07-01T21:33:00Z,Sever Do Vouga,Aveiro,Centro,-8.325914,40.674949,Despacho
