id,address,subregion,neighborhood,date,id.1,state,nature,nature_description,aerial_means,terrestrial_means,aquatic_means,operational,date.1,Concelho,Distrito,NUTII_DSG,longitude,latitude
25469121,Vila Verde e Barbudo,Cávado,309,2025-06-03T02:50:00Z,25469121,Em despacho,2101,Incêndio em edifícios habitacionais,0,1,0,5,2025-06-03T02:50:00Z,Vila Verde,Braga,Norte,-8.440603,41.647592
25466369,Melides,Alentejo Litoral,312,2025-06-02T13:27:00Z,25466369,Em conclusão,3103,Incêndio rural,0,4,0,6,2025-06-02T13:27:00Z,Grândola,Setúbal,Alentejo,-8.754243,38.19534
25467128,Monte Redondo e Carreira,Região de Leiria,310,2025-06-02T15:48:00Z,25467128,Em conclusão,3103,Incêndio rural,0,1,0,2,2025-06-02T15:48:00Z,Leiria,Leiria,Centro,-8.860783,39.89848
25468964,Macieira da Lixa e Caramos,Tâmega e Sousa,309,2025-06-03T00:35:00Z,25468964,Em conclusão,2101,Incêndio em edifícios habitacionais,0,4,0,9,2025-06-03T00:35:00Z,Felgueiras,Porto,Norte,-8.148803,41.345133
25469032,Póvoa de Santo Adrião e Olival Basto,Grande Lisboa,311,2025-06-03T01:27:00Z,25469032,Em conclusão,2301,Incêndio em transporte rodoviário,0,2,0,8,2025-06-03T01:27:00Z,Odivelas,Lisboa,Área Metropolitana De Lisboa,-9.16432,38.80494
