id,address,subregion,neighborhood,date,id.1,state,nature,nature_description,aerial_means,terrestrial_means,aquatic_means,operational,date.1,Concelho,Distrito,NUTII_DSG,longitude,latitude,state_2
25774883,Arnóia,Tâmega e Sousa,309,2025-08-02T18:20:00Z,25774883,Em Resolução/Conclusão,3103,Incêndio rural,0,2,0,6,2025-08-02T18:20:00Z,Celorico De Basto,Braga,Norte,-7.998983,41.348727,Resolução/Conclusão
25818455,Sobral de São Miguel,Beiras e Serra da Estrela,310,2025-08-10T15:02:00Z,25818455,Em Resolução/Conclusão,3103,Incêndio rural,0,13,0,36,2025-08-10T15:02:00Z,Covilhã,Castelo Branco,Centro,-7.77307,40.200173,Resolução/Conclusão
25834631,Paços,Douro,309,2025-08-13T12:57:00Z,25834631,Em Resolução/Conclusão,3103,Incêndio rural,0,2,0,6,2025-08-13T12:57:00Z,Sabrosa,Vila Real,Norte,-7.620647,41.233283,Resolução/Conclusão
25837154,"Tavares (Chãs, Várzea e Travanca)",Viseu Dão Lafões,310,2025-08-13T21:27:00Z,25837154,Em Resolução/Conclusão,3103,Incêndio rural,0,0,0,0,2025-08-13T21:27:00Z,Mangualde,Viseu,Centro,-7.647492,40.608359,Resolução/Conclusão
25841466,São Miguel do Mato,Viseu Dão Lafões,310,2025-08-14T16:48:00Z,25841466,Em Resolução/Conclusão,3103,Incêndio rural,0,1,0,4,2025-08-14T16:48:00Z,Vouzela,Viseu,Centro,-8.0267,40.71845,Resolução/Conclusão
25842553,Vilar de Perdizes e Meixide,Alto Tâmega e Barroso,309,2025-08-14T20:05:00Z,25842553,Em Curso,3103,Incêndio rural,0,7,0,24,2025-08-14T20:05:00Z,NA,NA,NA,-7.586628,41.88778,Curso
25843437,Bico e Cristelo,Alto Minho,309,2025-08-14T23:28:00Z,25843437,Em Curso,3103,Incêndio rural,0,7,0,22,2025-08-14T23:28:00Z,Paredes De Coura,Viana Do Castelo,Norte,-8.518738,41.877917,Curso
25843470,Sanguedo,Area M. Porto,309,2025-08-14T23:38:00Z,25843470,Em Resolução/Conclusão,3103,Incêndio rural,0,0,0,0,2025-08-14T23:38:00Z,Santa Maria Da Feira,Aveiro,Norte,-8.52577,40.999865,Resolução/Conclusão
25843556,Soalhães,Tâmega e Sousa,309,2025-08-15T00:09:00Z,25843556,Em Resolução/Conclusão,3103,Incêndio rural,0,1,0,5,2025-08-15T00:09:00Z,Marco De Canaveses,Porto,Norte,-8.0828,41.16856,Resolução/Conclusão
25775263,Torgueda,Douro,309,2025-08-02T19:49:00Z,25775263,Em Resolução/Conclusão,3101,Incêndio rural,0,4,0,15,2025-08-02T19:49:00Z,Vila Real,Vila Real,Norte,-7.785983,41.274952,Resolução/Conclusão
25807426,Alvite,Douro,309,2025-08-08T14:31:00Z,25807426,Em Resolução/Conclusão,3103,Incêndio rural,0,9,0,41,2025-08-08T14:31:00Z,Moimenta Da Beira,Viseu,Norte,-7.688727,40.96613,Resolução/Conclusão
25840502,Lousã e Vilarinho,Região de Coimbra,310,2025-08-14T14:00:00Z,25840502,Em Resolução/Conclusão,3105,Incêndio rural,0,0,0,0,2025-08-14T14:00:00Z,Lousã,Coimbra,Centro,-8.239893,40.137434,Resolução/Conclusão
25841363,Santar e Moreira,Viseu Dão Lafões,310,2025-08-14T16:28:00Z,25841363,Em Resolução/Conclusão,3103,Incêndio rural,0,1,0,4,2025-08-14T16:28:00Z,Nelas,Viseu,Centro,-7.883308,40.563075,Resolução/Conclusão
25842490,Padreiro (Salvador e Santa Cristina),Alto Minho,309,2025-08-14T19:55:00Z,25842490,Em Curso,3103,Incêndio rural,0,14,0,43,2025-08-14T19:55:00Z,Arcos De Valdevez,Viana Do Castelo,Norte,-8.48996,41.821413,Curso
25843151,Sapardos,Alto Minho,309,2025-08-14T22:10:00Z,25843151,Em Resolução/Conclusão,3103,Incêndio rural,0,6,0,13,2025-08-14T22:10:00Z,Vila Nova De Cerveira,Viana Do Castelo,Norte,-8.642262,41.924175,Resolução/Conclusão
25843499,Souselo,Tâmega e Sousa,309,2025-08-14T23:40:00Z,25843499,Em Resolução/Conclusão,3103,Incêndio rural,0,3,0,9,2025-08-14T23:40:00Z,Cinfães,Viseu,Norte,-8.235738,41.052485,Resolução/Conclusão
25843601,Vila Nova de Foz Côa,Douro,309,2025-08-15T00:24:00Z,25843601,Em Curso,3103,Incêndio rural,0,9,0,33,2025-08-15T00:24:00Z,Vila Nova De Foz Côa,Guarda,Norte,-7.123077,41.12966,Curso
25785983,Caçarilhe e Infesta,Tâmega e Sousa,309,2025-08-04T18:22:00Z,25785983,Em Resolução/Conclusão,3103,Incêndio rural,0,3,0,11,2025-08-04T18:22:00Z,Celorico De Basto,Braga,Norte,-8.04611,41.419858,Resolução/Conclusão
25792058,Cibões e Brufe,Cávado,309,2025-08-05T19:10:00Z,25792058,Em Resolução/Conclusão,3103,Incêndio rural,0,1,0,5,2025-08-05T19:10:00Z,Terras De Bouro,Braga,Norte,-8.293932,41.764918,Resolução/Conclusão
25820422,Távora e Pereiro,Douro,309,2025-08-10T22:27:00Z,25820422,Em Resolução/Conclusão,3103,Incêndio rural,0,69,0,205,2025-08-10T22:27:00Z,Tabuaço,Viseu,Norte,-7.55556,41.097602,Resolução/Conclusão
25832672,Piódão,Região de Coimbra,310,2025-08-13T05:08:00Z,25832672,Em Curso,3103,Incêndio rural,0,287,0,830,2025-08-13T05:08:00Z,Arganil,Coimbra,Centro,-7.81972,40.23083,Curso
25835176,Faíl e Vila Chã de Sá,Viseu Dão Lafões,310,2025-08-13T14:35:00Z,25835176,Em Resolução/Conclusão,3103,Incêndio rural,0,2,0,6,2025-08-13T14:35:00Z,Viseu,Viseu,Centro,-7.951177,40.594167,Resolução/Conclusão
25836864,Vilarelho da Raia,Alto Tâmega e Barroso,309,2025-08-13T20:15:00Z,25836864,Em Resolução/Conclusão,3103,Incêndio rural,0,6,0,19,2025-08-13T20:15:00Z,Chaves,Vila Real,Norte,-7.499832,41.868443,Resolução/Conclusão
25840417,Lousã e Vilarinho,Região de Coimbra,310,2025-08-14T13:46:00Z,25840417,Em Curso,3101,Incêndio rural,0,90,0,308,2025-08-14T13:46:00Z,Lousã,Coimbra,Centro,-8.201561,40.080016,Curso
25841546,São João de Lourosa,Viseu Dão Lafões,310,2025-08-14T16:55:00Z,25841546,Em Resolução/Conclusão,3103,Incêndio rural,0,0,0,0,2025-08-14T16:55:00Z,Viseu,Viseu,Centro,-7.9337,40.6126,Resolução/Conclusão
25843434,Eiras e Mei,Alto Minho,309,2025-08-14T23:28:00Z,25843434,Em Curso,3103,Incêndio rural,0,3,0,11,2025-08-14T23:28:00Z,Arcos De Valdevez,Viana Do Castelo,Norte,-8.484592,41.917162,Curso
25843725,Lousa,Douro,309,2025-08-15T01:14:00Z,25843725,Em Despacho,3103,Incêndio rural,0,2,0,6,2025-08-15T01:14:00Z,Torre De Moncorvo,Bragança,Norte,-7.176134,41.13881,Despacho
25843741,Ferral,Alto Tâmega e Barroso,309,2025-08-15T01:20:00Z,25843741,Em Despacho,3103,Incêndio rural,0,2,0,10,2025-08-15T01:20:00Z,Montalegre,Vila Real,Norte,-7.997404,41.693415,Despacho
25843752,Samões,Terras de Trás-os-Montes,309,2025-08-15T01:27:00Z,25843752,Em Despacho,3103,Incêndio rural,0,8,0,30,2025-08-15T01:27:00Z,Vila Flor,Bragança,Norte,-7.191067,41.29461,Despacho
25843811,Moura Morta e Vinhós,Douro,309,2025-08-15T01:54:00Z,25843811,Em Despacho,3103,Incêndio rural,0,2,0,7,2025-08-15T01:54:00Z,Peso Da Régua,Vila Real,Norte,-7.832706,41.200595,Despacho
25776263,"Pena, Quintã e Vila Cova",Douro,309,2025-08-02T23:45:00Z,25776263,Em Resolução/Conclusão,3103,Incêndio rural,0,60,0,178,2025-08-02T23:45:00Z,Vila Real,Vila Real,Norte,-7.811902,41.317355,Resolução/Conclusão
25813482,Freches e Torres,Beiras e Serra da Estrela,310,2025-08-09T16:21:00Z,25813482,Em Curso,3103,Incêndio rural,0,174,0,503,2025-08-09T16:21:00Z,Trancoso,Guarda,Centro,-7.363745,40.709022,Curso
25830378,Ermidas-Sado,Alentejo Litoral,312,2025-08-12T16:42:00Z,25830378,Em Resolução/Conclusão,3101,Incêndio rural,0,0,0,0,2025-08-12T16:42:00Z,Santiago Do Cacém,Setúbal,Alentejo,-8.407646,38.059897,Resolução/Conclusão
25832250,Ferreira de Aves,Viseu Dão Lafões,310,2025-08-13T00:03:00Z,25832250,Em Curso,3103,Incêndio rural,0,267,0,809,2025-08-13T00:03:00Z,Sátão,Viseu,Centro,-7.647793,40.79568,Curso
25835457,Quirás e Pinheiro Novo,Terras de Trás-os-Montes,309,2025-08-13T15:25:00Z,25835457,Em Resolução/Conclusão,3103,Incêndio rural,0,16,0,51,2025-08-13T15:25:00Z,Vinhais,Bragança,Norte,-7.170375,41.939618,Resolução/Conclusão
25835977,Miranda,Alto Minho,309,2025-08-13T17:03:00Z,25835977,Em Resolução/Conclusão,3103,Incêndio rural,0,0,0,0,2025-08-13T17:03:00Z,Arcos De Valdevez,Viana Do Castelo,Norte,-8.501393,41.825312,Resolução/Conclusão
25836309,Cinfães,Tâmega e Sousa,309,2025-08-13T18:17:00Z,25836309,Em Curso,3103,Incêndio rural,0,32,0,109,2025-08-13T18:17:00Z,Cinfães,Viseu,Norte,-8.071502,41.049757,Curso
25840505,Ribeira de Nisa e Carreiras,Alto Alentejo,312,2025-08-14T14:01:00Z,25840505,Em Curso,3101,Incêndio rural,0,94,0,296,2025-08-14T14:01:00Z,Portalegre,Portalegre,Alentejo,-7.47009,39.374707,Curso
25840858,Moreira de Rei,Beiras e Serra da Estrela,310,2025-08-14T14:53:00Z,25840858,Em Curso,3103,Incêndio rural,0,18,0,70,2025-08-14T14:53:00Z,Trancoso,Guarda,Centro,-7.31259,40.870748,Curso
25843729,Bacelo e Senhora da Saúde,Alentejo Central,312,2025-08-15T01:15:00Z,25843729,Em Resolução/Conclusão,3103,Incêndio rural,0,3,0,5,2025-08-15T01:15:00Z,Évora,Évora,Alentejo,-7.90511,38.587827,Resolução/Conclusão
25843746,"Lobão, Gião, Louredo e Guisande",Area M. Porto,309,2025-08-15T01:25:00Z,25843746,Em Curso,3103,Incêndio rural,0,1,0,5,2025-08-15T01:25:00Z,Santa Maria Da Feira,Aveiro,Norte,-8.48108,40.98545,Curso
