id,address,subregion,neighborhood,date,id.1,state,nature,nature_description,aerial_means,terrestrial_means,aquatic_means,operational,date.1,Concelho,Distrito,NUTII_DSG,longitude,latitude
25059714,Torrão,Alentejo Litoral,312,2025-03-08T22:10:00Z,25059714,Em curso,1101,Cheia,0,0,0,0,2025-03-08T22:10:00Z,Alcácer Do Sal,Setúbal,Alentejo,-8.359133,38.252053
25070044,Praia do Ribatejo,Médio Tejo,311,2025-03-10T19:30:00Z,25070044,Em curso,1101,Cheia,0,0,0,0,2025-03-10T19:30:00Z,Vila Nova Da Barquinha,Santarém,Centro,-8.357309,39.485638
25071496,São Manços e São Vicente do Pigeiro,Alentejo Central,312,2025-03-11T13:18:00Z,25071496,Em curso,1101,Cheia,0,0,0,0,2025-03-11T13:18:00Z,Évora,Évora,Alentejo,-7.713313,38.513673
25069971,"São Miguel, Santa Eufémia e Rabaçal",Região de Coimbra,310,2025-03-11T08:40:00Z,25069971,Em despacho,3301,Queda de árvore,0,1,0,3,2025-03-11T08:40:00Z,Penela,Coimbra,Centro,-8.399036,40.025502
25067716,Salir,Algarve,313,2025-03-10T18:27:00Z,25067716,Em curso,3313,Deslizamento de terras,0,0,0,0,2025-03-10T18:27:00Z,Loulé,Faro,Algarve,-7.957935,37.23457
25068300,Almeirim,Lezíria do Tejo,311,2025-03-10T20:52:00Z,25068300,Em curso,1101,Cheia,0,0,0,0,2025-03-10T20:52:00Z,Almeirim,Santarém,Alentejo,-8.635002,39.187436
25071183,Guia,Algarve,313,2025-03-11T12:19:00Z,25071183,Em conclusão,3311,Queda de elementos de estruturas edificados,0,7,0,16,2025-03-11T12:19:00Z,Albufeira,Faro,Algarve,-8.298486,37.126812
25071726,Azambuja,Lezíria do Tejo,311,2025-03-11T14:04:00Z,25071726,Em despacho,3301,Queda de árvore,0,1,0,5,2025-03-11T14:04:00Z,Azambuja,Lisboa,Alentejo,-8.864506,39.067885
25057015,Santa Maria do Castelo e Santiago e Santa Susana,Alentejo Litoral,312,2025-03-08T10:20:00Z,25057015,Em curso,1101,Cheia,0,0,0,0,2025-03-08T10:20:00Z,Alcácer Do Sal,Setúbal,Alentejo,-8.432801,38.398147
25063232,Santa Maria do Castelo e Santiago e Santa Susana,Alentejo Litoral,312,2025-03-09T19:02:00Z,25063232,Em curso,1101,Cheia,0,0,0,0,2025-03-09T19:02:00Z,Alcácer Do Sal,Setúbal,Alentejo,-8.48167,38.29806
25069918,Envendos,Médio Tejo,311,2025-03-11T08:48:00Z,25069918,Em despacho,3311,Queda de elementos de estruturas edificados,0,1,0,1,2025-03-11T08:48:00Z,Mação,Santarém,Centro,-7.840018,39.526485
25070053,Vila Marim,Douro,309,2025-03-11T09:11:00Z,25070053,Em despacho,3309,Desabamento de estruturas edificadas,0,1,0,2,2025-03-11T09:11:00Z,Vila Real,Vila Real,Norte,-7.788045,41.305818
25071807,Cascais e Estoril,Grande Lisboa,311,2025-03-11T14:09:00Z,25071807,Em conclusão,3301,Queda de árvore,0,1,0,5,2025-03-11T14:09:00Z,Cascais,Lisboa,Área Metropolitana De Lisboa,-9.419397,38.700982
