id,address,subregion,neighborhood,date,id.1,state,nature,nature_description,aerial_means,terrestrial_means,aquatic_means,operational,date.1,Concelho,Distrito,NUTII_DSG,longitude,latitude
25473551,Lanheses,Alto Minho,309,2025-06-03T22:29:00Z,25473551,Em conclusão,2301,Incêndio em transporte rodoviário,0,0,0,0,2025-06-03T22:29:00Z,Viana Do Castelo,Viana Do Castelo,Norte,-8.691265,41.733723
25473277,Beja (Salvador e Santa Maria da Feira),Baixo Alentejo,312,2025-06-03T21:05:00Z,25473277,Em resolução,3201,Detritos não confinados,0,2,0,7,2025-06-03T21:05:00Z,Beja,Beja,Alentejo,-7.866362,38.029073
25466369,Melides,Alentejo Litoral,312,2025-06-02T13:27:00Z,25466369,Em conclusão,3103,Incêndio rural,0,1,0,2,2025-06-02T13:27:00Z,Grândola,Setúbal,Alentejo,-8.754243,38.19534
25467128,Monte Redondo e Carreira,Região de Leiria,310,2025-06-02T15:48:00Z,25467128,Em conclusão,3103,Incêndio rural,0,1,0,2,2025-06-02T15:48:00Z,Leiria,Leiria,Centro,-8.860783,39.89848
25473380,Ervões,Alto Tâmega e Barroso,309,2025-06-03T21:35:00Z,25473380,Em conclusão,2301,Incêndio em transporte rodoviário,0,3,0,11,2025-06-03T21:35:00Z,Valpaços,Vila Real,Norte,-7.372995,41.651507
25473578,Sobral da Adiça,Baixo Alentejo,312,2025-06-03T22:44:00Z,25473578,Em conclusão,2129,Incêndio em edifícios degradados ou devolutos,0,6,0,18,2025-06-03T22:44:00Z,Moura,Beja,Alentejo,-7.26113,38.02311
