id,address,subregion,neighborhood,date,id.1,state,nature,nature_description,aerial_means,terrestrial_means,aquatic_means,operational,date.1,Concelho,Distrito,NUTII_DSG,longitude,latitude
24874428,Donai,Terras de Trás-os-Montes,309,2025-01-26T21:18:00Z,24874428,Em despacho,3315,Inundação de estruturas por precipitação intensa,0,1,0,2,2025-01-26T21:18:00Z,Bragança,Bragança,Norte,-6.805385,41.830788
24874519,"Areias, Sequeiró, Lama e Palmeira",Area M. Porto,309,2025-01-26T21:45:00Z,24874519,Em curso,3329,Queda de estruturas temporárias ou móveis,0,5,0,8,2025-01-26T21:45:00Z,Santo Tirso,Porto,Norte,-8.475731,41.362274
24874564,"Sé, Santa Maria e Meixedo",Terras de Trás-os-Montes,309,2025-01-26T21:55:00Z,24874564,Em despacho,3315,Inundação de estruturas por precipitação intensa,0,1,0,2,2025-01-26T21:55:00Z,Bragança,Bragança,Norte,-6.761223,41.813164
24874630,Abraveses,Viseu Dão Lafões,310,2025-01-26T22:20:00Z,24874630,Em despacho,3315,Inundação de estruturas por precipitação intensa,0,1,0,2,2025-01-26T22:20:00Z,Viseu,Viseu,Centro,-7.94029,40.690261
24874703,Vilar de Nantes,Alto Tâmega e Barroso,309,2025-01-26T22:55:00Z,24874703,Em despacho,3315,Inundação de estruturas por precipitação intensa,0,1,0,4,2025-01-26T22:55:00Z,Chaves,Vila Real,Norte,-7.447093,41.70766
24874769,"Sé, Santa Maria e Meixedo",Terras de Trás-os-Montes,309,2025-01-26T23:19:00Z,24874769,Em despacho,3315,Inundação de estruturas por precipitação intensa,0,1,0,2,2025-01-26T23:19:00Z,Bragança,Bragança,Norte,-6.761223,41.813164
24874796,Freixiel,Terras de Trás-os-Montes,309,2025-01-26T23:36:00Z,24874796,Em despacho,3301,Queda de árvore,0,2,0,4,2025-01-26T23:36:00Z,Vila Flor,Bragança,Norte,-7.228889,41.30833
24874805,Valadares,Viseu Dão Lafões,310,2025-01-26T23:41:00Z,24874805,Em curso,3301,Queda de árvore,0,1,0,2,2025-01-26T23:41:00Z,São Pedro Do Sul,Viseu,Centro,-8.189972,40.761545
24874871,Portela e Extremo,Alto Minho,309,2025-01-27T00:11:00Z,24874871,Em conclusão,3301,Queda de árvore,0,3,0,7,2025-01-27T00:11:00Z,Arcos De Valdevez,Viana Do Castelo,Norte,-8.476755,41.970357
24874878,Alvão,Alto Tâmega e Barroso,309,2025-01-27T00:10:00Z,24874878,Em despacho,3315,Inundação de estruturas por precipitação intensa,0,1,0,5,2025-01-27T00:10:00Z,Vila Pouca De Aguiar,Vila Real,Norte,-7.697172,41.503597
24874833,Fermentões,Ave,309,2025-01-26T23:35:00Z,24874833,Em despacho,3315,Inundação de estruturas por precipitação intensa,0,1,0,2,2025-01-26T23:35:00Z,Guimarães,Braga,Norte,-8.314269,41.456141
24874852,Barcarena,Grande Lisboa,311,2025-01-26T23:56:00Z,24874852,Em conclusão,3301,Queda de árvore,0,3,0,6,2025-01-26T23:56:00Z,Oeiras,Lisboa,Área Metropolitana De Lisboa,-9.275236,38.743015
24874901,"Oliveira de Frades, Souto de Lafões e Sejães",Viseu Dão Lafões,310,2025-01-26T23:49:00Z,24874901,Em curso,3315,Inundação de estruturas por precipitação intensa,0,1,0,4,2025-01-26T23:49:00Z,Oliveira De Frades,Viseu,Centro,-8.200579,40.712012
24873550,"Sé, Santa Maria e Meixedo",Terras de Trás-os-Montes,309,2025-01-26T17:46:00Z,24873550,Em curso,3315,Inundação de estruturas por precipitação intensa,0,1,0,2,2025-01-26T17:46:00Z,Bragança,Bragança,Norte,-6.761223,41.813164
24874227,Leomil,Douro,309,2025-01-26T20:35:00Z,24874227,Em resolução,3313,Deslizamento de terras,0,2,0,4,2025-01-26T20:35:00Z,Moimenta Da Beira,Viseu,Norte,-7.738242,40.958563
24874277,Fornelo e Vairão,Area M. Porto,309,2025-01-26T20:50:00Z,24874277,Em curso,3309,Desabamento de estruturas edificadas,0,2,0,4,2025-01-26T20:50:00Z,Vila Do Conde,Porto,Norte,-8.645789,41.33489
24874313,Parreira e Chouto,Lezíria do Tejo,311,2025-01-26T20:59:00Z,24874313,Em despacho,3301,Queda de árvore,0,2,0,4,2025-01-26T20:59:00Z,Chamusca,Santarém,Alentejo,-8.356501,39.193372
24874872,Arcozelo Das Maias,Viseu Dão Lafões,310,2025-01-27T00:05:00Z,24874872,Em despacho,3315,Inundação de estruturas por precipitação intensa,0,1,0,3,2025-01-27T00:05:00Z,Oliveira De Frades,Viseu,Centro,-8.276324,40.714644
24874886,"São Pedro do Sul, Várzea e Baiões",Viseu Dão Lafões,310,2025-01-27T00:10:00Z,24874886,Em despacho,3315,Inundação de estruturas por precipitação intensa,0,2,0,4,2025-01-27T00:10:00Z,São Pedro Do Sul,Viseu,Centro,-8.083385,40.76155
24874880,Vouzela e Paços de Vilharigues,Viseu Dão Lafões,310,2025-01-27T00:13:00Z,24874880,Em despacho,3315,Inundação de estruturas por precipitação intensa,0,2,0,3,2025-01-27T00:13:00Z,Vouzela,Viseu,Centro,-8.133125,40.716535
24874896,Paranhos,Area M. Porto,309,2025-01-27T00:28:00Z,24874896,Em despacho,3315,Inundação de estruturas por precipitação intensa,0,1,0,3,2025-01-27T00:28:00Z,Porto,Porto,Norte,-8.60766,41.16788
24874928,Salvador e Santo Aleixo de Além-Tâmega,Alto Tâmega e Barroso,309,2025-01-27T00:38:00Z,24874928,Em despacho,3313,Deslizamento de terras,0,1,0,2,2025-01-27T00:38:00Z,Ribeira De Pena,Vila Real,Norte,-7.843199,41.524764
24874948,"Seixal, Arrentela e Aldeia de Paio Pires",Península de Setúbal,311,2025-01-27T00:53:00Z,24874948,Em despacho,3329,Queda de estruturas temporárias ou móveis,0,1,0,4,2025-01-27T00:53:00Z,Seixal,Setúbal,Área Metropolitana De Lisboa,-9.103194,38.608552
24851780,"São Miguel, Santa Eufémia e Rabaçal",Região de Coimbra,310,2025-01-21T23:25:00Z,24851780,Em curso,3315,Inundação de estruturas por precipitação intensa,0,0,0,0,2025-01-21T23:25:00Z,Penela,Coimbra,Centro,-8.399036,40.025502
24874106,Queluz e Belas,Grande Lisboa,311,2025-01-26T20:03:00Z,24874106,Em conclusão,3321,Dano na rede de fornecimento de eletricidade ,0,1,0,4,2025-01-26T20:03:00Z,Sintra,Lisboa,Área Metropolitana De Lisboa,-9.271079,38.77098
24874743,Infantas,Ave,309,2025-01-26T23:11:00Z,24874743,Em despacho,3311,Queda de elementos de estruturas edificados,0,1,0,2,2025-01-26T23:11:00Z,Guimarães,Braga,Norte,-8.25677,41.43192
24874808,Lousã e Vilarinho,Região de Coimbra,310,2025-01-26T23:44:00Z,24874808,Em despacho,3301,Queda de árvore,0,1,0,5,2025-01-26T23:44:00Z,Lousã,Coimbra,Centro,-8.23726,40.10982
24874809,Mouçós e Lamares,Douro,309,2025-01-26T23:40:00Z,24874809,Em despacho,3315,Inundação de estruturas por precipitação intensa,0,1,0,5,2025-01-26T23:40:00Z,Vila Real,Vila Real,Norte,-7.700831,41.312728
24874843,Arganil,Região de Coimbra,310,2025-01-26T23:42:00Z,24874843,Em despacho,3301,Queda de árvore,0,1,0,2,2025-01-26T23:42:00Z,Arganil,Coimbra,Centro,-8.049704,40.220309
24874894,Milheirós,Area M. Porto,309,2025-01-27T00:26:00Z,24874894,Em despacho,3311,Queda de elementos de estruturas edificados,0,1,0,2,2025-01-27T00:26:00Z,Maia,Porto,Norte,-8.5861,41.22062
24874909,Vilarinho Dos Freires,Douro,309,2025-01-27T00:30:00Z,24874909,Em despacho,3311,Queda de elementos de estruturas edificados,0,1,0,3,2025-01-27T00:30:00Z,Peso Da Régua,Vila Real,Norte,-7.748211,41.175132
