id,address,subregion,neighborhood,date,id.1,state,nature,nature_description,aerial_means,terrestrial_means,aquatic_means,operational,date.1,Concelho,Distrito,NUTII_DSG,longitude,latitude,state_2
25622717,Alhadas,Região de Coimbra,310,2025-07-03T21:21:00Z,25622717,Em Resolução/Conclusão,3103,Incêndio rural,0,5,0,22,2025-07-03T21:21:00Z,Figueira Da Foz,Coimbra,Centro,-8.75139,40.21111,Resolução/Conclusão
25622932,Arnóia,Tâmega e Sousa,309,2025-07-03T22:14:00Z,25622932,Em Despacho,3103,Incêndio rural,0,1,0,5,2025-07-03T22:14:00Z,Celorico De Basto,Braga,Norte,-7.98985,41.347,Despacho
25623000,Sobrado e Bairros,Tâmega e Sousa,309,2025-07-03T22:02:00Z,25623000,Em Resolução/Conclusão,3103,Incêndio rural,0,1,0,5,2025-07-03T22:02:00Z,Castelo De Paiva,Aveiro,Norte,-8.247256,41.014535,Resolução/Conclusão
25620835,Recarei,Area M. Porto,309,2025-07-03T14:40:00Z,25620835,Em Resolução/Conclusão,3103,Incêndio rural,0,9,0,21,2025-07-03T14:40:00Z,Paredes,Porto,Norte,-8.427998,41.160472,Resolução/Conclusão
25622107,Vascoveiro,Beiras e Serra da Estrela,310,2025-07-03T19:03:00Z,25622107,Em Resolução/Conclusão,3103,Incêndio rural,0,4,0,17,2025-07-03T19:03:00Z,Pinhel,Guarda,Centro,-7.07463,40.739772,Resolução/Conclusão
25622824,Quinchães,Ave,309,2025-07-03T21:47:00Z,25622824,Em Resolução/Conclusão,3103,Incêndio rural,0,3,0,15,2025-07-03T21:47:00Z,Fafe,Braga,Norte,-8.138158,41.42046,Resolução/Conclusão
25622875,Carragosa,Terras de Trás-os-Montes,309,2025-07-03T22:00:00Z,25622875,Em Despacho,3103,Incêndio rural,0,5,0,18,2025-07-03T22:00:00Z,Bragança,Bragança,Norte,-6.813926,41.88803,Despacho
25610143,Nossa Senhora Das Misericórdias,Médio Tejo,311,2025-07-01T15:32:00Z,25610143,Em Resolução/Conclusão,3103,Incêndio rural,0,1,0,5,2025-07-01T15:32:00Z,Ourém,Santarém,Centro,-8.600277,39.655883,Resolução/Conclusão
25620464,Cativelos,Beiras e Serra da Estrela,310,2025-07-03T13:45:00Z,25620464,Em Resolução/Conclusão,3103,Incêndio rural,0,2,0,6,2025-07-03T13:45:00Z,Gouveia,Guarda,Centro,-7.704635,40.546025,Resolução/Conclusão
25620664,Côja e Barril de Alva,Região de Coimbra,310,2025-07-03T14:22:00Z,25620664,Em Resolução/Conclusão,3101,Incêndio rural,0,22,0,63,2025-07-03T14:22:00Z,Arganil,Coimbra,Centro,-7.95667,40.2725,Resolução/Conclusão
25622845,Loulé (São Sebastião),Algarve,313,2025-07-03T21:48:00Z,25622845,Em Resolução/Conclusão,3103,Incêndio rural,0,4,0,16,2025-07-03T21:48:00Z,Loulé,Faro,Algarve,-8.100433,37.121519,Resolução/Conclusão
25599382,Almaceda,Beira Baixa,310,2025-06-29T17:03:00Z,25599382,Em Resolução/Conclusão,3101,Incêndio rural,0,4,0,13,2025-06-29T17:03:00Z,Castelo Branco,Castelo Branco,Centro,-7.645695,39.962858,Resolução/Conclusão
25621801,Lomba,Area M. Porto,309,2025-07-03T18:03:00Z,25621801,Em Resolução/Conclusão,3103,Incêndio rural,0,1,0,2,2025-07-03T18:03:00Z,Gondomar,Porto,Norte,-8.408252,41.034001,Resolução/Conclusão
25622171,"Barcel, Marmelos e Valverde da Gestosa",Terras de Trás-os-Montes,309,2025-07-03T19:16:00Z,25622171,Em Resolução/Conclusão,3103,Incêndio rural,0,24,0,84,2025-07-03T19:16:00Z,Mirandela,Bragança,Norte,-7.21564,41.391697,Resolução/Conclusão
25622185,Fornos,Tâmega e Sousa,309,2025-07-03T19:19:00Z,25622185,Em Curso,3103,Incêndio rural,0,13,0,46,2025-07-03T19:19:00Z,Castelo De Paiva,Aveiro,Norte,-8.242889,41.047999,Curso
25622462,Sortes,Terras de Trás-os-Montes,309,2025-07-03T20:22:00Z,25622462,Em Resolução/Conclusão,3103,Incêndio rural,0,7,0,29,2025-07-03T20:22:00Z,Bragança,Bragança,Norte,-6.838812,41.700238,Resolução/Conclusão
25622580,Ribeira do Neiva,Cávado,309,2025-07-03T20:50:00Z,25622580,Em Curso,3103,Incêndio rural,0,6,0,25,2025-07-03T20:50:00Z,Vila Verde,Braga,Norte,-8.51215,41.728757,Curso
25622753,Castelões,Ave,309,2025-07-03T21:27:00Z,25622753,Em Resolução/Conclusão,3103,Incêndio rural,0,3,0,11,2025-07-03T21:27:00Z,Vila Nova De Famalicão,Braga,Norte,-8.434668,41.40953,Resolução/Conclusão
25622896,Sobrado e Bairros,Tâmega e Sousa,309,2025-07-03T22:01:00Z,25622896,Em Curso,3103,Incêndio rural,0,4,0,16,2025-07-03T22:01:00Z,Castelo De Paiva,Aveiro,Norte,-8.247256,41.014535,Curso
