id,address,subregion,neighborhood,date,id.1,state,nature,nature_description,aerial_means,terrestrial_means,aquatic_means,operational,date.1,Concelho,Distrito,NUTII_DSG,longitude,latitude
25498388,Ceira,Região de Coimbra,310,2025-06-09T03:57:00Z,25498388,Em conclusão,2127,"Incêndio em edifícios e recintos industriais, oficinas e armazéns",0,4,0,9,2025-06-09T03:57:00Z,Coimbra,Coimbra,Centro,-8.39222,40.18194
25500894,Bustelo,Tâmega e Sousa,309,2025-06-09T14:28:00Z,25500894,Em conclusão,3103,Incêndio rural,0,1,0,2,2025-06-09T14:28:00Z,Penafiel,Porto,Norte,-8.26797,41.2285
25501196,Malveira e São Miguel de Alcainça,Grande Lisboa,311,2025-06-09T15:05:00Z,25501196,Em conclusão,3201,Detritos não confinados,0,5,0,16,2025-06-09T15:05:00Z,Mafra,Lisboa,Área Metropolitana De Lisboa,-9.277214,38.93846
25501298,Gondemaria e Olival,Médio Tejo,311,2025-06-09T15:36:00Z,25501298,Em conclusão,3103,Incêndio rural,0,2,0,3,2025-06-09T15:36:00Z,Ourém,Santarém,Centro,-8.577862,39.707092
25501398,Santo Estêvão,Lezíria do Tejo,311,2025-06-09T16:01:00Z,25501398,Em conclusão,3105,Incêndio rural,0,0,0,0,2025-06-09T16:01:00Z,Benavente,Santarém,Alentejo,-8.738763,38.873258
25501512,Bustelo,Tâmega e Sousa,309,2025-06-09T16:27:00Z,25501512,Em conclusão,3103,Incêndio rural,0,2,0,10,2025-06-09T16:27:00Z,Penafiel,Porto,Norte,-8.269107,41.235955
25501607,Bustelo,Tâmega e Sousa,309,2025-06-09T16:30:00Z,25501607,Em conclusão,3103,Incêndio rural,0,2,0,7,2025-06-09T16:30:00Z,Penafiel,Porto,Norte,-8.279412,41.235447
25501823,Ermesinde,Area M. Porto,309,2025-06-09T17:25:00Z,25501823,Em resolução,3203,Detritos confinados,0,1,0,5,2025-06-09T17:25:00Z,Valongo,Porto,Norte,-8.545578,41.211912
25500438,Alenquer (Santo Estêvão e Triana),Oeste,311,2025-06-09T12:59:00Z,25500438,Em conclusão,2301,Incêndio em transporte rodoviário,0,4,0,11,2025-06-09T12:59:00Z,Alenquer,Lisboa,Centro,-8.995652,39.061319
25500876,Macieira de Cambra,Area M. Porto,309,2025-06-09T14:21:00Z,25500876,Em conclusão,3103,Incêndio rural,0,2,0,10,2025-06-09T14:21:00Z,Vale De Cambra,Aveiro,Norte,-8.369678,40.87889
25501359,Rio Tinto,Area M. Porto,309,2025-06-09T15:47:00Z,25501359,Em conclusão,2127,"Incêndio em edifícios e recintos industriais, oficinas e armazéns",0,1,0,3,2025-06-09T15:47:00Z,Gondomar,Porto,Norte,-8.5543,41.18855
25500470,Morgade,Alto Tâmega e Barroso,309,2025-06-09T13:06:00Z,25500470,Em conclusão,3103,Incêndio rural,0,3,0,12,2025-06-09T13:06:00Z,Montalegre,Vila Real,Norte,-7.727372,41.721168
25501697,São Vicente da Beira,Beira Baixa,310,2025-06-09T16:58:00Z,25501697,Em conclusão,3101,Incêndio rural,0,12,0,40,2025-06-09T16:58:00Z,Castelo Branco,Castelo Branco,Centro,-7.57203,40.04306
25501729,Cadaval e Pêro Moniz,Oeste,311,2025-06-09T17:00:00Z,25501729,Em conclusão,3105,Incêndio rural,0,3,0,9,2025-06-09T17:00:00Z,Cadaval,Lisboa,Centro,-9.122011,39.221807
25499380,Freiriz,Cávado,309,2025-06-09T09:54:00Z,25499380,Em conclusão,3107,Consolidação de rescaldo de incêndio rural,0,6,0,15,2025-06-09T09:54:00Z,Vila Verde,Braga,Norte,-8.502703,41.633588
25500015,Ferreira do Alentejo e Canhestros,Baixo Alentejo,312,2025-06-09T11:40:00Z,25500015,Em conclusão,3105,Incêndio rural,0,0,0,0,2025-06-09T11:40:00Z,Ferreira Do Alentejo,Beja,Alentejo,-8.13471,38.053943
25500948,Alcochete,Península de Setúbal,311,2025-06-09T14:26:00Z,25500948,Em conclusão,3105,Incêndio rural,0,5,0,19,2025-06-09T14:26:00Z,Alcochete,Setúbal,Área Metropolitana De Lisboa,-8.824122,38.719402
25501233,Penafiel,Tâmega e Sousa,309,2025-06-09T15:29:00Z,25501233,Em conclusão,3103,Incêndio rural,0,3,0,12,2025-06-09T15:29:00Z,Penafiel,Porto,Norte,-8.268435,41.185293
25501569,Ovoa e Vimieiro,Viseu Dão Lafões,310,2025-06-09T16:30:00Z,25501569,Em curso,2301,Incêndio em transporte rodoviário,0,13,0,34,2025-06-09T16:30:00Z,Santa Comba Dão,Viseu,Centro,-8.179507,40.347382
25501634,"Bagunte, Ferreiró, Outeiro Maior e Parada",Area M. Porto,309,2025-06-09T16:44:00Z,25501634,Em conclusão,2301,Incêndio em transporte rodoviário,0,1,0,4,2025-06-09T16:44:00Z,Vila Do Conde,Porto,Norte,-8.675213,41.361232
25501800,"Margaride (Santa Eulália), Várzea, Lagares, Varziela e Moure",Tâmega e Sousa,309,2025-06-09T17:08:00Z,25501800,Em resolução,3103,Incêndio rural,0,4,0,10,2025-06-09T17:08:00Z,Felgueiras,Porto,Norte,-8.203295,41.376220000000004
25501726,Azias,Alto Minho,309,2025-06-09T16:56:00Z,25501726,Em despacho,3107,Consolidação de rescaldo de incêndio rural,0,1,0,5,2025-06-09T16:56:00Z,Ponte Da Barca,Viana Do Castelo,Norte,-8.352492,41.781112
25501861,"Mação, Penhascoso e Aboboreira",Médio Tejo,311,2025-06-09T17:32:00Z,25501861,Em conclusão,2301,Incêndio em transporte rodoviário,0,3,0,9,2025-06-09T17:32:00Z,Mação,Santarém,Centro,-7.996788,39.558553
25501894,"Margaride (Santa Eulália), Várzea, Lagares, Varziela e Moure",Tâmega e Sousa,309,2025-06-09T17:45:00Z,25501894,Em despacho,3103,Incêndio rural,1,2,0,16,2025-06-09T17:45:00Z,Felgueiras,Porto,Norte,-8.20822,41.35765
25501945,Montijo e Afonsoeiro,Península de Setúbal,311,2025-06-09T17:49:00Z,25501945,Em despacho,3203,Detritos confinados,0,1,0,5,2025-06-09T17:49:00Z,Montijo,Setúbal,Área Metropolitana De Lisboa,-8.975715,38.702323
