id,address,subregion,neighborhood,date,id.1,state,nature,nature_description,aerial_means,terrestrial_means,aquatic_means,operational,date.1,Concelho,Distrito,NUTII_DSG,longitude,latitude
25480740,Torre de Coelheiros,Alentejo Central,312,2025-06-05T12:32:00Z,25480740,Em resolução,3105,Incêndio rural,0,20,0,62,2025-06-05T12:32:00Z,Évora,Évora,Alentejo,-7.799997,38.46965
25481769,Conceição e Estoi,Algarve,313,2025-06-05T15:44:00Z,25481769,Em curso,3103,Incêndio rural,0,5,0,18,2025-06-05T15:44:00Z,Faro,Faro,Algarve,-7.9034,37.04527
25481020,Recezinhos (São Martinho),Tâmega e Sousa,309,2025-06-05T13:00:00Z,25481020,Em despacho,3107,Consolidação de rescaldo de incêndio rural,0,4,0,12,2025-06-05T13:00:00Z,Penafiel,Porto,Norte,-8.21901,41.230664
25481405,Pinhal Novo,Península de Setúbal,311,2025-06-05T14:37:00Z,25481405,Em conclusão,3107,Consolidação de rescaldo de incêndio rural,0,3,0,12,2025-06-05T14:37:00Z,Palmela,Setúbal,Área Metropolitana De Lisboa,-8.864522,38.66992
25481739,Samouco,Península de Setúbal,311,2025-06-05T15:36:00Z,25481739,Em curso,3103,Incêndio rural,0,1,0,5,2025-06-05T15:36:00Z,Alcochete,Setúbal,Área Metropolitana De Lisboa,-9.006298,38.728442
25479771,Muxagata,Douro,309,2025-06-05T09:43:00Z,25479771,Em despacho,3109,Gestão de combustível,0,2,0,10,2025-06-05T09:43:00Z,Vila Nova De Foz Côa,Guarda,Norte,-7.168678,41.037581
25481148,Fátima,Médio Tejo,311,2025-06-05T13:49:00Z,25481148,Em conclusão,3103,Incêndio rural,0,7,0,21,2025-06-05T13:49:00Z,Ourém,Santarém,Centro,-8.631208,39.55186
25481418,Bemposta,Médio Tejo,311,2025-06-05T14:38:00Z,25481418,Em conclusão,3103,Incêndio rural,0,1,0,1,2025-06-05T14:38:00Z,Abrantes,Santarém,Centro,-8.157133,39.389695
25481820,Alcabideche,Grande Lisboa,311,2025-06-05T15:54:00Z,25481820,Em despacho,3103,Incêndio rural,1,7,0,32,2025-06-05T15:54:00Z,Cascais,Lisboa,Área Metropolitana De Lisboa,-9.385597,38.740082
25481888,Póvoa de Santo Adrião e Olival Basto,Grande Lisboa,311,2025-06-05T16:01:00Z,25481888,Em despacho,2101,Incêndio em edifícios habitacionais,0,3,0,9,2025-06-05T16:01:00Z,Odivelas,Lisboa,Área Metropolitana De Lisboa,-9.159939,38.803537
