id,address,subregion,neighborhood,date,id.1,state,nature,nature_description,aerial_means,terrestrial_means,aquatic_means,operational,date.1,Concelho,Distrito,NUTII_DSG,longitude,latitude,state_2
26077823,São Cipriano e Vil de Souto,Viseu Dão Lafões,310,2025-10-02T14:18:00Z,26077823,Em Resolução/Conclusão,3103,Incêndio rural,0,1,0,2,2025-10-02T14:18:00Z,Viseu,Viseu,Centro,-7.953868,40.632302,Resolução/Conclusão
26022995,Bordeira,Algarve,313,2025-09-21T12:21:00Z,26022995,Em Resolução/Conclusão,3103,Incêndio rural,0,4,0,13,2025-09-21T12:21:00Z,Aljezur,Faro,Algarve,-8.825374,37.23495,Resolução/Conclusão
26078806,"Tavares (Chãs, Várzea e Travanca)",Viseu Dão Lafões,310,2025-10-02T17:31:00Z,26078806,Em Resolução/Conclusão,3103,Incêndio rural,0,2,0,7,2025-10-02T17:31:00Z,Mangualde,Viseu,Centro,-7.638958,40.609205,Resolução/Conclusão
26085145,Quinta do Conde,Península de Setúbal,311,2025-10-04T00:17:00Z,26085145,Em Resolução/Conclusão,3103,Incêndio rural,0,3,0,10,2025-10-04T00:17:00Z,Sesimbra,Setúbal,Área Metropolitana De Lisboa,-9.037521,38.576079,Resolução/Conclusão
26085206,Podame,Alto Minho,309,2025-10-04T01:04:00Z,26085206,Em Resolução/Conclusão,3105,Incêndio rural,0,4,0,9,2025-10-04T01:04:00Z,Monção,Viana Do Castelo,Norte,-8.382793,42.027778,Resolução/Conclusão
