id,address,subregion,neighborhood,date,id.1,state,nature,nature_description,aerial_means,terrestrial_means,aquatic_means,operational,date.1,Concelho,Distrito,NUTII_DSG,longitude,latitude,state_2
25750701,Capela,Tâmega e Sousa,309,2025-07-29T09:26:00Z,25750701,Em Resolução/Conclusão,3103,Incêndio rural,0,19,0,65,2025-07-29T09:26:00Z,Penafiel,Porto,Norte,-8.345202,41.09353,Resolução/Conclusão
25771657,Caria,Douro,309,2025-08-02T05:01:00Z,25771657,Em Resolução/Conclusão,3101,Incêndio rural,0,1,0,5,2025-08-02T05:01:00Z,Moimenta Da Beira,Viseu,Norte,-7.591073,40.94778,Resolução/Conclusão
25773830,Andrães,Douro,309,2025-08-02T14:23:00Z,25773830,Em Curso,3103,Incêndio rural,0,98,0,297,2025-08-02T14:23:00Z,Vila Real,Vila Real,Norte,-7.671293,41.267593,Curso
25774783,Seara,Alto Minho,309,2025-08-02T17:50:00Z,25774783,Em Resolução/Conclusão,3103,Incêndio rural,0,0,0,0,2025-08-02T17:50:00Z,Ponte De Lima,Viana Do Castelo,Norte,-8.612312,41.729533000000004,Resolução/Conclusão
25774883,Arnóia,Tâmega e Sousa,309,2025-08-02T18:20:00Z,25774883,Em Curso,3103,Incêndio rural,0,23,0,69,2025-08-02T18:20:00Z,Celorico De Basto,Braga,Norte,-7.998983,41.348727,Curso
25775734,Sequeiros e Gradiz,Viseu Dão Lafões,310,2025-08-02T21:35:00Z,25775734,Em Resolução/Conclusão,3103,Incêndio rural,0,1,0,5,2025-08-02T21:35:00Z,Aguiar Da Beira,Guarda,Centro,-7.564515,40.858278,Resolução/Conclusão
25776306,Lustosa e Barrosas (Santo Estêvão),Tâmega e Sousa,309,2025-08-02T23:58:00Z,25776306,Em Resolução/Conclusão,3103,Incêndio rural,0,1,0,5,2025-08-02T23:58:00Z,Lousada,Porto,Norte,-8.311407,41.329603,Resolução/Conclusão
25776389,"Vila Nova de Paiva, Alhais e Fráguas",Viseu Dão Lafões,310,2025-08-03T00:29:00Z,25776389,Em Resolução/Conclusão,3103,Incêndio rural,0,3,0,6,2025-08-03T00:29:00Z,Vila Nova De Paiva,Viseu,Centro,-7.718008,40.838382,Resolução/Conclusão
25776622,Canaviais,Alentejo Central,312,2025-08-03T01:56:00Z,25776622,Em Resolução/Conclusão,3105,Incêndio rural,0,3,0,9,2025-08-03T01:56:00Z,Évora,Évora,Alentejo,-7.916602,38.62528,Resolução/Conclusão
25749937,Moimenta,Tâmega e Sousa,309,2025-07-29T04:11:00Z,25749937,Em Resolução/Conclusão,3103,Incêndio rural,0,1,0,5,2025-07-29T04:11:00Z,Cinfães,Viseu,Norte,-8.173308,41.072792,Resolução/Conclusão
25751893,"Espírito Santo, Nossa Senhora da Graça e São Simão",Alto Alentejo,312,2025-07-29T12:32:00Z,25751893,Em Resolução/Conclusão,3101,Incêndio rural,0,2,0,6,2025-07-29T12:32:00Z,Nisa,Portalegre,Alentejo,-7.634827,39.571162,Resolução/Conclusão
25763650,Milagres,Região de Leiria,310,2025-07-31T15:58:00Z,25763650,Em Resolução/Conclusão,3101,Incêndio rural,0,1,0,2,2025-07-31T15:58:00Z,Leiria,Leiria,Centro,-8.792217,39.793427,Resolução/Conclusão
25770852,Gondar,Tâmega e Sousa,309,2025-08-01T22:29:00Z,25770852,Em Resolução/Conclusão,3103,Incêndio rural,0,2,0,6,2025-08-01T22:29:00Z,Amarante,Porto,Norte,-8.02366,41.27024,Resolução/Conclusão
25771363,Santa Marinha do Zêzere,Tâmega e Sousa,309,2025-08-02T01:56:00Z,25771363,Em Resolução/Conclusão,3103,Incêndio rural,0,1,0,5,2025-08-02T01:56:00Z,Baião,Porto,Norte,-7.954528,41.158205,Resolução/Conclusão
25774405,NA,NA,0,2025-08-02T16:30:00Z,25774405,Em Resolução/Conclusão,3103,Incêndio rural,0,7,0,25,2025-08-02T16:30:00Z,NA,NA,NA,-7.275118,41.880192,Resolução/Conclusão
25774873,"Ardegão, Arnozela e Seidões",Ave,309,2025-08-02T18:15:00Z,25774873,Em Resolução/Conclusão,3103,Incêndio rural,0,2,0,9,2025-08-02T18:15:00Z,Fafe,Braga,Norte,-8.13186,41.39801,Resolução/Conclusão
25776452,Redondelo,Alto Tâmega e Barroso,309,2025-08-03T00:44:00Z,25776452,Em Resolução/Conclusão,3103,Incêndio rural,0,1,0,1,2025-08-03T00:44:00Z,Chaves,Vila Real,Norte,-7.55677,41.711462,Resolução/Conclusão
25776618,Ribas,Tâmega e Sousa,309,2025-08-03T02:00:00Z,25776618,Em Curso,3103,Incêndio rural,0,2,0,10,2025-08-03T02:00:00Z,Celorico De Basto,Braga,Norte,-8.034958,41.443178,Curso
25776636,Figueiró (Santiago e Santa Cristina),Tâmega e Sousa,309,2025-08-03T01:50:00Z,25776636,Em Resolução/Conclusão,3103,Incêndio rural,0,1,0,5,2025-08-03T01:50:00Z,Amarante,Porto,Norte,-8.160598,41.302727,Resolução/Conclusão
25748118,Canelas e Espiunca,Area M. Porto,309,2025-07-28T17:16:00Z,25748118,Em Resolução/Conclusão,3101,Incêndio rural,0,57,0,152,2025-07-28T17:16:00Z,Arouca,Aveiro,Norte,-8.212231,40.969918,Resolução/Conclusão
25749320,Rebordões (Santa Maria),Alto Minho,309,2025-07-28T22:47:00Z,25749320,Em Resolução/Conclusão,3103,Incêndio rural,0,4,0,14,2025-07-28T22:47:00Z,Ponte De Lima,Viana Do Castelo,Norte,-8.588365,41.729993,Resolução/Conclusão
25749641,Silva Escura e Dornelas,Região de Aveiro,310,2025-07-29T01:02:00Z,25749641,Em Resolução/Conclusão,3101,Incêndio rural,0,3,0,12,2025-07-29T01:02:00Z,Sever Do Vouga,Aveiro,Centro,-8.399623,40.769354,Resolução/Conclusão
25756006,Pinhanços,Beiras e Serra da Estrela,310,2025-07-30T09:07:00Z,25756006,Em Resolução/Conclusão,3103,Incêndio rural,0,2,0,7,2025-07-30T09:07:00Z,Seia,Guarda,Centro,-7.708132,40.473517,Resolução/Conclusão
25756459,Nespereira,Tâmega e Sousa,309,2025-07-30T10:20:00Z,25756459,Em Resolução/Conclusão,3103,Incêndio rural,0,1,0,5,2025-07-30T10:20:00Z,Cinfães,Viseu,Norte,-8.130378,41.039695,Resolução/Conclusão
25763964,Pêro Viseu,Beiras e Serra da Estrela,310,2025-07-31T16:58:00Z,25763964,Em Resolução/Conclusão,3103,Incêndio rural,0,1,0,5,2025-07-31T16:58:00Z,Fundão,Castelo Branco,Centro,-7.457652,40.199215,Resolução/Conclusão
25774423,Turiz,Cávado,309,2025-08-02T16:37:00Z,25774423,Em Resolução/Conclusão,3105,Incêndio rural,0,1,0,2,2025-08-02T16:37:00Z,Vila Verde,Braga,Norte,-8.459682,41.631265,Resolução/Conclusão
25774860,Santa Cruz do Douro e São Tomé de Covelas,Tâmega e Sousa,309,2025-08-02T18:12:00Z,25774860,Em Resolução/Conclusão,3103,Incêndio rural,0,1,0,5,2025-08-02T18:12:00Z,Baião,Porto,Norte,-7.978365,41.121627,Resolução/Conclusão
25776110,Prado (São Miguel),Cávado,309,2025-08-02T23:03:00Z,25776110,Em Resolução/Conclusão,3103,Incêndio rural,0,7,0,25,2025-08-02T23:03:00Z,Vila Verde,Braga,Norte,-8.426261,41.69175,Resolução/Conclusão
25776263,"Pena, Quintã e Vila Cova",Douro,309,2025-08-02T23:45:00Z,25776263,Em Curso,3103,Incêndio rural,0,12,0,38,2025-08-02T23:45:00Z,Vila Real,Vila Real,Norte,-7.811902,41.317355,Curso
25776479,Riba de Mouro,Alto Minho,309,2025-08-03T00:58:00Z,25776479,Em Resolução/Conclusão,3103,Incêndio rural,0,5,0,14,2025-08-03T00:58:00Z,Monção,Viana Do Castelo,Norte,-8.333495,42.054503,Resolução/Conclusão
25776580,Caparica e Trafaria,Península de Setúbal,311,2025-08-03T01:43:00Z,25776580,Em Resolução/Conclusão,3103,Incêndio rural,0,3,0,12,2025-08-03T01:43:00Z,Almada,Setúbal,Área Metropolitana De Lisboa,-9.20452,38.66473,Resolução/Conclusão
25776629,Vilela,Area M. Porto,309,2025-08-03T02:04:00Z,25776629,Em Resolução/Conclusão,3103,Incêndio rural,0,5,0,20,2025-08-03T02:04:00Z,Paredes,Porto,Norte,-8.393332,41.23524,Resolução/Conclusão
25776630,"Silvares, Pias, Nogueira e Alvarenga",Tâmega e Sousa,309,2025-08-03T02:04:00Z,25776630,Em Resolução/Conclusão,3103,Incêndio rural,0,2,0,3,2025-08-03T02:04:00Z,Lousada,Porto,Norte,-8.288335,41.29323,Resolução/Conclusão
25776646,Sobradelo da Goma,Ave,309,2025-08-03T02:13:00Z,25776646,Em Despacho,3103,Incêndio rural,0,2,0,10,2025-08-03T02:13:00Z,Póvoa De Lanhoso,Braga,Norte,-8.16841,41.56545,Despacho
25738747,Lindoso,Alto Minho,309,2025-07-26T21:47:00Z,25738747,Em Curso,3103,Incêndio rural,0,174,0,523,2025-07-26T21:47:00Z,Ponte Da Barca,Viana Do Castelo,Norte,-8.220528,41.865272,Curso
25747773,Aranhas,Beira Baixa,310,2025-07-28T16:36:00Z,25747773,Em Resolução/Conclusão,3103,Incêndio rural,0,9,0,25,2025-07-28T16:36:00Z,Penamacor,Castelo Branco,Centro,-7.14438,40.117542,Resolução/Conclusão
25752083,Alcanede,Lezíria do Tejo,311,2025-07-29T13:12:00Z,25752083,Em Resolução/Conclusão,3103,Incêndio rural,0,13,0,43,2025-07-29T13:12:00Z,Santarém,Santarém,Alentejo,-8.802682,39.405543,Resolução/Conclusão
25756620,Recarei,Area M. Porto,309,2025-07-30T10:47:00Z,25756620,Em Resolução/Conclusão,3103,Incêndio rural,0,4,0,12,2025-07-30T10:47:00Z,Paredes,Porto,Norte,-8.416721,41.151,Resolução/Conclusão
25766089,"Sande, Vilarinho, Barros e Gomide",Cávado,309,2025-08-01T04:35:00Z,25766089,Em Resolução/Conclusão,3103,Incêndio rural,0,4,0,13,2025-08-01T04:35:00Z,Vila Verde,Braga,Norte,-8.38083,41.72917,Resolução/Conclusão
25774622,Valdreu,Cávado,309,2025-08-02T17:25:00Z,25774622,Em Resolução/Conclusão,3103,Incêndio rural,0,0,0,0,2025-08-02T17:25:00Z,Vila Verde,Braga,Norte,-8.338562,41.721778,Resolução/Conclusão
25775263,Torgueda,Douro,309,2025-08-02T19:49:00Z,25775263,Em Curso,3101,Incêndio rural,0,21,0,71,2025-08-02T19:49:00Z,Vila Real,Vila Real,Norte,-7.785983,41.274952,Curso
25776376,Tronco,Alto Tâmega e Barroso,309,2025-08-03T00:23:00Z,25776376,Em Resolução/Conclusão,3103,Incêndio rural,0,2,0,10,2025-08-03T00:23:00Z,Chaves,Vila Real,Norte,-7.283388,41.775378,Resolução/Conclusão
25776465,Quirás e Pinheiro Novo,Terras de Trás-os-Montes,309,2025-08-03T00:47:00Z,25776465,Em Resolução/Conclusão,3103,Incêndio rural,0,2,0,7,2025-08-03T00:47:00Z,Vinhais,Bragança,Norte,-7.173401,41.933482,Resolução/Conclusão
