id,address,subregion,neighborhood,date,id.1,state,nature,nature_description,aerial_means,terrestrial_means,aquatic_means,operational,date.1,Concelho,Distrito,NUTII_DSG,longitude,latitude
25525290,Selmes,Baixo Alentejo,312,2025-06-14T16:14:00Z,25525290,Em conclusão,3105,Incêndio rural,0,23,0,60,2025-06-14T16:14:00Z,Vidigueira,Beja,Alentejo,-7.724372,38.135682
25527047,Cristelo,Cávado,309,2025-06-15T00:44:00Z,25527047,Em resolução,3103,Incêndio rural,0,3,0,15,2025-06-15T00:44:00Z,Barcelos,Braga,Norte,-8.69525,41.48005
25526687,Santo Estêvão,Lezíria do Tejo,311,2025-06-14T22:38:00Z,25526687,Em conclusão,3201,Detritos não confinados,0,9,0,29,2025-06-14T22:38:00Z,Benavente,Santarém,Alentejo,-8.752147,38.871665
25526969,Monte Real e Carvide,Região de Leiria,310,2025-06-15T00:05:00Z,25526969,Em resolução,3101,Incêndio rural,0,4,0,16,2025-06-15T00:05:00Z,Leiria,Leiria,Centro,-8.878,39.818352
25527073,Caparica e Trafaria,Península de Setúbal,311,2025-06-15T00:45:00Z,25527073,Em resolução,2201,Incêndio em equipamentos ou produtos,0,1,0,6,2025-06-15T00:45:00Z,Almada,Setúbal,Área Metropolitana De Lisboa,-9.198172,38.665376
