id,address,subregion,neighborhood,date,id.1,state,nature,nature_description,aerial_means,terrestrial_means,aquatic_means,operational,date.1,Concelho,Distrito,NUTII_DSG,longitude,latitude
25522293,Santo André de Vagos,Região de Aveiro,310,2025-06-13T22:42:00Z,25522293,Em despacho,3201,Detritos não confinados,0,1,0,5,2025-06-13T22:42:00Z,Vagos,Aveiro,Centro,-8.663824,40.496679
25521065,Couto de Baixo e Couto de Cima,Viseu Dão Lafões,310,2025-06-13T17:18:00Z,25521065,Em conclusão,3101,Incêndio rural,0,1,0,5,2025-06-13T17:18:00Z,Viseu,Viseu,Centro,-8.004938,40.699787
25522282,Salvaterra de Magos e Foros de Salvaterra,Lezíria do Tejo,311,2025-06-13T22:38:00Z,25522282,Em conclusão,2111,Incêndio em edifícios hospitalares e lares de idosos,0,17,0,40,2025-06-13T22:38:00Z,Salvaterra De Magos,Santarém,Alentejo,-8.746905,39.024535
25520907,Serpa (Salvador e Santa Maria),Baixo Alentejo,312,2025-06-13T16:44:00Z,25520907,Em conclusão,3105,Incêndio rural,0,2,0,10,2025-06-13T16:44:00Z,Serpa,Beja,Alentejo,-7.59766,37.935948
25522143,Beja (Salvador e Santa Maria da Feira),Baixo Alentejo,312,2025-06-13T21:59:00Z,25522143,Em conclusão,3105,Incêndio rural,0,3,0,9,2025-06-13T21:59:00Z,Beja,Beja,Alentejo,-7.860233,38.027548
25522172,Ribeirão,Ave,309,2025-06-13T21:58:00Z,25522172,Em conclusão,2127,"Incêndio em edifícios e recintos industriais, oficinas e armazéns",0,3,0,9,2025-06-13T21:58:00Z,Vila Nova De Famalicão,Braga,Norte,-8.573667,41.352955
25522263,"Crato e Mártires, Flor da Rosa e Vale do Peso",Alto Alentejo,312,2025-06-13T22:34:00Z,25522263,Em conclusão,3103,Incêndio rural,0,6,0,17,2025-06-13T22:34:00Z,Crato,Portalegre,Alentejo,-7.623568,39.315567
