id,address,subregion,neighborhood,date,id.1,state,nature,nature_description,aerial_means,terrestrial_means,aquatic_means,operational,date.1,Concelho,Distrito,NUTII_DSG,longitude,latitude
25554773,Cativelos,Beiras e Serra da Estrela,310,2025-06-20T17:46:00Z,25554773,Em conclusão,3103,Incêndio rural,0,5,0,18,2025-06-20T17:46:00Z,Gouveia,Guarda,Centro,-7.702992,40.53306
25556627,Bougado (São Martinho e Santiago),Area M. Porto,309,2025-06-21T03:58:00Z,25556627,Em conclusão,2101,Incêndio em edifícios habitacionais,0,4,0,15,2025-06-21T03:58:00Z,Trofa,Porto,Norte,-8.561667,41.343032
25556744,Amoreira,Oeste,311,2025-06-21T05:38:00Z,25556744,Em despacho,3103,Incêndio rural,0,1,0,5,2025-06-21T05:38:00Z,Óbidos,Leiria,Centro,-9.206008,39.346935
25553154,Pedrógão,Baixo Alentejo,312,2025-06-20T12:23:00Z,25553154,Em conclusão,3103,Incêndio rural,0,21,0,63,2025-06-20T12:23:00Z,Vidigueira,Beja,Alentejo,-7.549947,38.179912
25556582,Anjos e Vilar do Chão,Ave,309,2025-06-21T03:24:00Z,25556582,Em conclusão,3103,Incêndio rural,0,0,0,0,2025-06-21T03:24:00Z,Vieira Do Minho,Braga,Norte,-8.119863,41.593203
