id,address,subregion,neighborhood,date,id.1,state,nature,nature_description,aerial_means,terrestrial_means,aquatic_means,operational,date.1,Concelho,Distrito,NUTII_DSG,longitude,latitude
25532434,Ermelo e Pardelhas,Ave,309,2025-06-16T09:30:00Z,25532434,Em resolução,3107,Consolidação de rescaldo de incêndio rural,0,5,0,20,2025-06-16T09:30:00Z,Mondim De Basto,Vila Real,Norte,-7.844007,41.359233
25533857,São Bento do Mato,Alentejo Central,312,2025-06-16T13:54:00Z,25533857,Em conclusão,3103,Incêndio rural,0,6,0,26,2025-06-16T13:54:00Z,Évora,Évora,Alentejo,-7.797058,38.705159
25534055,Alvora e Loureda,Alto Minho,309,2025-06-16T14:30:00Z,25534055,Em curso,3107,Consolidação de rescaldo de incêndio rural,0,1,0,4,2025-06-16T14:30:00Z,Arcos De Valdevez,Viana Do Castelo,Norte,-8.433037,41.943855
25534493,Miranda do Douro,Terras de Trás-os-Montes,309,2025-06-16T15:50:00Z,25534493,Em resolução,3103,Incêndio rural,0,7,0,18,2025-06-16T15:50:00Z,Miranda Do Douro,Bragança,Norte,-6.281433,41.504767
25534558,Macieira da Lixa e Caramos,Tâmega e Sousa,309,2025-06-16T16:10:00Z,25534558,Em despacho,3103,Incêndio rural,1,3,0,21,2025-06-16T16:10:00Z,Felgueiras,Porto,Norte,-8.16593,41.33477
25534607,Freixo de Cima e de Baixo,Tâmega e Sousa,309,2025-06-16T16:21:00Z,25534607,Em despacho,2127,"Incêndio em edifícios e recintos industriais, oficinas e armazéns",0,2,0,8,2025-06-16T16:21:00Z,Amarante,Porto,Norte,-8.131176,41.31395
25534676,Soure,Região de Coimbra,310,2025-06-16T16:35:00Z,25534676,Em despacho,3101,Incêndio rural,1,2,0,8,2025-06-16T16:35:00Z,Soure,Coimbra,Centro,-8.62561,40.092303
25531624,Ceivães e Badim,Alto Minho,309,2025-06-16T05:00:00Z,25531624,Em conclusão,3103,Incêndio rural,0,1,0,5,2025-06-16T05:00:00Z,Monção,Viana Do Castelo,Norte,-8.375257,42.073545
25533448,"N.s. Conceição, S. Brás Matos, Juromenha",Alentejo Central,312,2025-06-16T12:26:00Z,25533448,Em conclusão,3105,Incêndio rural,0,7,0,22,2025-06-16T12:26:00Z,Alandroal,Évora,Alentejo,-7.367343,38.691792
25533546,Capelins (Santo António),Alentejo Central,312,2025-06-16T12:49:00Z,25533546,Em curso,3103,Incêndio rural,3,35,0,114,2025-06-16T12:49:00Z,Alandroal,Évora,Alentejo,-7.336945,38.553132
25534133,Quinta do Conde,Península de Setúbal,311,2025-06-16T14:44:00Z,25534133,Em conclusão,2301,Incêndio em transporte rodoviário,0,9,0,33,2025-06-16T14:44:00Z,Sesimbra,Setúbal,Área Metropolitana De Lisboa,-9.07036,38.541712
25534234,Barreiro e Lavradio,Península de Setúbal,311,2025-06-16T14:59:00Z,25534234,Em conclusão,3105,Incêndio rural,0,0,0,0,2025-06-16T14:59:00Z,Barreiro,Setúbal,Área Metropolitana De Lisboa,-9.062184,38.667355
25534267,a Dos Francos,Oeste,311,2025-06-16T15:04:00Z,25534267,Em conclusão,3201,Detritos não confinados,0,2,0,7,2025-06-16T15:04:00Z,Caldas Da Rainha,Leiria,Centro,-9.044564,39.321517
25533491,Ferreira do Alentejo e Canhestros,Baixo Alentejo,312,2025-06-16T12:38:00Z,25533491,Em conclusão,3105,Incêndio rural,0,6,0,10,2025-06-16T12:38:00Z,Ferreira Do Alentejo,Beja,Alentejo,-8.286327,38.025772
25533777,"N.s. Conceição, S. Brás Matos, Juromenha",Alentejo Central,312,2025-06-16T13:37:00Z,25533777,Em conclusão,3103,Incêndio rural,0,3,0,12,2025-06-16T13:37:00Z,Alandroal,Évora,Alentejo,-7.414606,38.703168
25533984,Bacelo e Senhora da Saúde,Alentejo Central,312,2025-06-16T14:18:00Z,25533984,Em conclusão,3103,Incêndio rural,0,8,0,28,2025-06-16T14:18:00Z,Évora,Évora,Alentejo,-7.85228,38.59341
25534277,Caldas de São Jorge e Pigeiros,Area M. Porto,309,2025-06-16T15:11:00Z,25534277,Em curso,3101,Incêndio rural,5,21,0,92,2025-06-16T15:11:00Z,Santa Maria Da Feira,Aveiro,Norte,-8.486413,40.939453
25534313,Lavradas,Alto Minho,309,2025-06-16T15:18:00Z,25534313,Em conclusão,3101,Incêndio rural,0,3,0,11,2025-06-16T15:18:00Z,Ponte Da Barca,Viana Do Castelo,Norte,-8.472388,41.794045
25534352,Belmonte e Colmeal da Torre,Beiras e Serra da Estrela,310,2025-06-16T15:26:00Z,25534352,Em conclusão,3103,Incêndio rural,0,0,0,0,2025-06-16T15:26:00Z,Belmonte,Castelo Branco,Centro,-7.34963,40.36757
25534372,Esgueira,Região de Aveiro,310,2025-06-16T15:31:00Z,25534372,Em conclusão,3103,Incêndio rural,0,3,0,12,2025-06-16T15:31:00Z,Aveiro,Aveiro,Centro,-8.60519,40.640865
25534411,Torreira,Região de Aveiro,310,2025-06-16T15:38:00Z,25534411,Em conclusão,2301,Incêndio em transporte rodoviário,0,1,0,5,2025-06-16T15:38:00Z,Murtosa,Aveiro,Centro,-8.70828,40.76547
25533367,Couto de Baixo e Couto de Cima,Viseu Dão Lafões,310,2025-06-16T12:10:00Z,25533367,Em resolução,3107,Consolidação de rescaldo de incêndio rural,0,1,0,5,2025-06-16T12:10:00Z,Viseu,Viseu,Centro,-7.991145,40.697539
25533960,Nossa Senhora da Tourega e Nossa Senhora de Guadalupe,Alentejo Central,312,2025-06-16T14:13:00Z,25533960,Em curso,3101,Incêndio rural,6,40,0,128,2025-06-16T14:13:00Z,Évora,Évora,Alentejo,-8.04123,38.527212
25534037,Torgueda,Douro,309,2025-06-16T14:21:00Z,25534037,Em conclusão,2301,Incêndio em transporte rodoviário,0,1,0,5,2025-06-16T14:21:00Z,Vila Real,Vila Real,Norte,-7.818297,41.273723
25534180,Pedroso e Seixezelo,Area M. Porto,309,2025-06-16T14:32:00Z,25534180,Em resolução,3103,Incêndio rural,0,1,0,5,2025-06-16T14:32:00Z,Vila Nova De Gaia,Porto,Norte,-8.55728,41.067659
25534546,Arcozelo,Area M. Porto,309,2025-06-16T15:59:00Z,25534546,Em conclusão,3103,Incêndio rural,0,2,0,9,2025-06-16T15:59:00Z,Vila Nova De Gaia,Porto,Norte,-8.640388,41.056331
25534587,Fornelos,Tâmega e Sousa,309,2025-06-16T16:18:00Z,25534587,Em despacho,3103,Incêndio rural,0,4,0,20,2025-06-16T16:18:00Z,Cinfães,Viseu,Norte,-8.203434,41.027129
25534498,Couto de Baixo e Couto de Cima,Viseu Dão Lafões,310,2025-06-16T15:55:00Z,25534498,Em despacho,3107,Consolidação de rescaldo de incêndio rural,0,1,0,5,2025-06-16T15:55:00Z,Viseu,Viseu,Centro,-7.991145,40.697539
25534516,Bravães,Alto Minho,309,2025-06-16T15:59:00Z,25534516,Em conclusão,3103,Incêndio rural,0,1,0,3,2025-06-16T15:59:00Z,Ponte Da Barca,Viana Do Castelo,Norte,-8.44457,41.802187000000004
25534601,Ermesinde,Area M. Porto,309,2025-06-16T16:13:00Z,25534601,Em resolução,2101,Incêndio em edifícios habitacionais,0,1,0,5,2025-06-16T16:13:00Z,Valongo,Porto,Norte,-8.549319,41.21602
25534652,São Bartolomeu de Messines,Algarve,313,2025-06-16T16:32:00Z,25534652,Em curso,3103,Incêndio rural,0,2,0,10,2025-06-16T16:32:00Z,Silves,Faro,Algarve,-8.308901,37.25024
25534597,Amiais de Baixo,Lezíria do Tejo,311,2025-06-16T16:22:00Z,25534597,Em despacho,3103,Incêndio rural,1,9,0,37,2025-06-16T16:22:00Z,Santarém,Santarém,Alentejo,-8.734724,39.43985
25534611,Atouguia,Médio Tejo,311,2025-06-16T16:22:00Z,25534611,Em curso,3101,Incêndio rural,1,6,0,30,2025-06-16T16:22:00Z,Ourém,Santarém,Centro,-8.637747,39.670759
25534620,Moreira,Area M. Porto,309,2025-06-16T16:20:00Z,25534620,Em despacho,2127,"Incêndio em edifícios e recintos industriais, oficinas e armazéns",0,1,0,5,2025-06-16T16:20:00Z,Maia,Porto,Norte,-8.651156,41.243233
