id,address,subregion,neighborhood,date,id.1,state,nature,nature_description,aerial_means,terrestrial_means,aquatic_means,operational,date.1,Concelho,Distrito,NUTII_DSG,longitude,latitude,state_2
25692814,Tolosa,Alto Alentejo,312,2025-07-17T16:23:00Z,25692814,Em Resolução/Conclusão,3103,Incêndio rural,0,1,0,5,2025-07-17T16:23:00Z,Nisa,Portalegre,Alentejo,-7.635642,39.486993,Resolução/Conclusão
25698687,Repeses e São Salvador,Viseu Dão Lafões,310,2025-07-18T19:44:00Z,25698687,Em Resolução/Conclusão,3103,Incêndio rural,0,0,0,0,2025-07-18T19:44:00Z,Viseu,Viseu,Centro,-7.922508,40.643612,Resolução/Conclusão
25699489,Vilar do Torno e Alentém,Tâmega e Sousa,309,2025-07-18T23:20:00Z,25699489,Em Resolução/Conclusão,3105,Incêndio rural,0,2,0,10,2025-07-18T23:20:00Z,Lousada,Porto,Norte,-8.210252,41.291142,Resolução/Conclusão
25696955,"Vilela, Seramil e Paredes Secas",Cávado,309,2025-07-18T13:36:00Z,25696955,Em Resolução/Conclusão,3101,Incêndio rural,0,2,0,10,2025-07-18T13:36:00Z,Amares,Braga,Norte,-8.309448,41.67517,Resolução/Conclusão
25699425,Tarouquela,Tâmega e Sousa,309,2025-07-18T23:01:00Z,25699425,Em Resolução/Conclusão,3103,Incêndio rural,0,5,0,22,2025-07-18T23:01:00Z,Cinfães,Viseu,Norte,-8.174778,41.075815,Resolução/Conclusão
25699444,Louredo,Tâmega e Sousa,309,2025-07-18T23:04:00Z,25699444,Em Resolução/Conclusão,3103,Incêndio rural,0,1,0,5,2025-07-18T23:04:00Z,Amarante,Porto,Norte,-8.116431,41.254107,Resolução/Conclusão
25699476,Travancas e Roriz,Alto Tâmega e Barroso,309,2025-07-18T23:16:00Z,25699476,Em Resolução/Conclusão,3103,Incêndio rural,0,5,0,25,2025-07-18T23:16:00Z,Chaves,Vila Real,Norte,-7.317083,41.81641,Resolução/Conclusão
25699656,Barrô,Tâmega e Sousa,309,2025-07-19T00:43:00Z,25699656,Em Despacho,3103,Incêndio rural,0,0,0,0,2025-07-19T00:43:00Z,Resende,Viseu,Norte,-7.885435,41.127785,Despacho
25686799,Souto Maior,Douro,309,2025-07-16T13:19:00Z,25686799,Em Resolução/Conclusão,3101,Incêndio rural,0,17,0,50,2025-07-16T13:19:00Z,Sabrosa,Vila Real,Norte,-7.57839,41.287518,Resolução/Conclusão
25698400,Alcaria Ruiva,Baixo Alentejo,312,2025-07-18T18:37:00Z,25698400,Em Resolução/Conclusão,3105,Incêndio rural,0,1,0,5,2025-07-18T18:37:00Z,Mértola,Beja,Alentejo,-7.784537,37.770317,Resolução/Conclusão
25698451,Arnóia,Tâmega e Sousa,309,2025-07-18T18:50:00Z,25698451,Em Resolução/Conclusão,3101,Incêndio rural,0,4,0,13,2025-07-18T18:50:00Z,Celorico De Basto,Braga,Norte,-8.017128,41.37511,Resolução/Conclusão
25699434,Faíl e Vila Chã de Sá,Viseu Dão Lafões,310,2025-07-18T23:03:00Z,25699434,Em Resolução/Conclusão,3103,Incêndio rural,0,8,0,25,2025-07-18T23:03:00Z,Viseu,Viseu,Centro,-7.957908,40.59928,Resolução/Conclusão
25699467,Mancelos,Tâmega e Sousa,309,2025-07-18T23:15:00Z,25699467,Em Resolução/Conclusão,3103,Incêndio rural,0,5,0,20,2025-07-18T23:15:00Z,Amarante,Porto,Norte,-8.13736,41.27551,Resolução/Conclusão
25699602,Campo e Sobrado,Area M. Porto,309,2025-07-19T00:14:00Z,25699602,Em Resolução/Conclusão,3103,Incêndio rural,0,1,0,5,2025-07-19T00:14:00Z,Valongo,Porto,Norte,-8.482047,41.20496,Resolução/Conclusão
