id,address,subregion,neighborhood,date,id.1,state,nature,nature_description,aerial_means,terrestrial_means,aquatic_means,operational,date.1,Concelho,Distrito,NUTII_DSG,longitude,latitude,state_2
26003298,Barreiros e Cepões,Viseu Dão Lafões,310,2025-09-17T12:05:00Z,26003298,Em Resolução/Conclusão,3101,Incêndio rural,0,1,0,2,2025-09-17T12:05:00Z,Viseu,Viseu,Centro,-7.825281,40.745844,Resolução/Conclusão
26013065,Mezio e Moura Morta,Viseu Dão Lafões,310,2025-09-19T11:05:00Z,26013065,Em Resolução/Conclusão,3103,Incêndio rural,0,6,0,20,2025-09-19T11:05:00Z,Castro Daire,Viseu,Centro,-7.878187,40.98632,Resolução/Conclusão
26013919,Ervedal e Vila Franca da Beira,Região de Coimbra,310,2025-09-19T13:25:00Z,26013919,Em Resolução/Conclusão,3101,Incêndio rural,0,6,0,20,2025-09-19T13:25:00Z,Oliveira Do Hospital,Coimbra,Centro,-7.90472,40.43917,Resolução/Conclusão
26028091,Pelmá,Região de Leiria,310,2025-09-22T13:35:00Z,26028091,Em Resolução/Conclusão,3103,Incêndio rural,0,1,0,2,2025-09-22T13:35:00Z,Alvaiázere,Leiria,Centro,-8.455905,39.771273,Resolução/Conclusão
26028225,Aldeias e Mangualde da Serra,Beiras e Serra da Estrela,310,2025-09-22T14:00:00Z,26028225,Em Resolução/Conclusão,3103,Incêndio rural,0,14,0,45,2025-09-22T14:00:00Z,Gouveia,Guarda,Centro,-7.605367,40.459313,Resolução/Conclusão
26031758,Jou,Douro,309,2025-09-23T09:58:00Z,26031758,Em Resolução/Conclusão,3103,Incêndio rural,0,0,0,0,2025-09-23T09:58:00Z,Murça,Vila Real,Norte,-7.4119,41.489272,Resolução/Conclusão
26031908,Arcozelo Das Maias,Viseu Dão Lafões,310,2025-09-23T10:21:00Z,26031908,Em Resolução/Conclusão,3103,Incêndio rural,4,37,0,134,2025-09-23T10:21:00Z,Oliveira De Frades,Viseu,Centro,-8.27871,40.723646,Resolução/Conclusão
26013405,Barreiros e Cepões,Viseu Dão Lafões,310,2025-09-19T11:56:00Z,26013405,Em Resolução/Conclusão,3103,Incêndio rural,0,7,0,29,2025-09-19T11:56:00Z,Viseu,Viseu,Centro,-7.786007,40.76602,Resolução/Conclusão
26022995,Bordeira,Algarve,313,2025-09-21T12:21:00Z,26022995,Em Curso,3103,Incêndio rural,5,219,0,643,2025-09-21T12:21:00Z,Aljezur,Faro,Algarve,-8.825374,37.23495,Curso
26030653,Canelas,Tâmega e Sousa,309,2025-09-23T01:12:00Z,26030653,Em Resolução/Conclusão,3103,Incêndio rural,0,2,0,7,2025-09-23T01:12:00Z,Penafiel,Porto,Norte,-8.348435,41.077193,Resolução/Conclusão
26031486,Penude,Douro,309,2025-09-23T09:10:00Z,26031486,Em Resolução/Conclusão,3103,Incêndio rural,0,5,0,21,2025-09-23T09:10:00Z,Lamego,Viseu,Norte,-7.8658,41.071602,Resolução/Conclusão
26032440,Sande e São Lourenço,Tâmega e Sousa,309,2025-09-23T11:52:00Z,26032440,Em Resolução/Conclusão,3105,Incêndio rural,0,0,0,0,2025-09-23T11:52:00Z,Marco De Canaveses,Porto,Norte,-8.19891,41.10066,Resolução/Conclusão
26032658,"São Miguel, Santa Eufémia e Rabaçal",Região de Coimbra,310,2025-09-23T12:27:00Z,26032658,Em Resolução/Conclusão,3105,Incêndio rural,0,4,0,14,2025-09-23T12:27:00Z,Penela,Coimbra,Centro,-8.34222,40.04194,Resolução/Conclusão
26032791,Veiros,Alentejo Central,312,2025-09-23T12:55:00Z,26032791,Em Resolução/Conclusão,3105,Incêndio rural,0,14,0,34,2025-09-23T12:55:00Z,Estremoz,Évora,Alentejo,-7.491595,38.947008,Resolução/Conclusão
26032603,São João Baptista,Alto Alentejo,312,2025-09-23T12:18:00Z,26032603,Em Resolução/Conclusão,3105,Incêndio rural,0,4,0,17,2025-09-23T12:18:00Z,Campo Maior,Portalegre,Alentejo,-7.03069,39.0861,Resolução/Conclusão
26032803,Atouguia,Médio Tejo,311,2025-09-23T12:58:00Z,26032803,Em Resolução/Conclusão,3103,Incêndio rural,0,3,0,12,2025-09-23T12:58:00Z,Ourém,Santarém,Centro,-8.610038,39.65319,Resolução/Conclusão
26032955,Alfândega da Fé,Terras de Trás-os-Montes,309,2025-09-23T13:30:00Z,26032955,Em Curso,3103,Incêndio rural,1,17,0,64,2025-09-23T13:30:00Z,Alfândega Da Fé,Bragança,Norte,-6.965727,41.350846,Curso
25832672,Piódão,Região de Coimbra,310,2025-08-13T05:08:00Z,25832672,Em Resolução/Conclusão,3103,Incêndio rural,0,0,0,0,2025-08-13T05:08:00Z,Arganil,Coimbra,Centro,-7.81972,40.23083,Resolução/Conclusão
26013902,Penacova,Região de Coimbra,310,2025-09-19T13:28:00Z,26013902,Em Resolução/Conclusão,3103,Incêndio rural,0,3,0,11,2025-09-19T13:28:00Z,Penacova,Coimbra,Centro,-8.32583,40.32722,Resolução/Conclusão
26019877,Guardão,Viseu Dão Lafões,310,2025-09-20T17:50:00Z,26019877,Em Resolução/Conclusão,3103,Incêndio rural,0,1,0,4,2025-09-20T17:50:00Z,Tondela,Viseu,Centro,-8.148484,40.610274,Resolução/Conclusão
26025073,Fátima,Médio Tejo,311,2025-09-21T21:01:00Z,26025073,Em Resolução/Conclusão,3103,Incêndio rural,0,0,0,0,2025-09-21T21:01:00Z,Ourém,Santarém,Centro,-8.65072,39.578831,Resolução/Conclusão
26032502,"Mangualde, Mesquitela e Cunha Alta",Viseu Dão Lafões,310,2025-09-23T11:58:00Z,26032502,Em Resolução/Conclusão,3103,Incêndio rural,0,6,0,16,2025-09-23T11:58:00Z,Mangualde,Viseu,Centro,-7.746452,40.602352,Resolução/Conclusão
26032779,Baltar,Area M. Porto,309,2025-09-23T12:49:00Z,26032779,Em Resolução/Conclusão,3103,Incêndio rural,0,0,0,0,2025-09-23T12:49:00Z,Paredes,Porto,Norte,-8.387015,41.186516,Resolução/Conclusão
26032986,São Bartolomeu de Messines,Algarve,313,2025-09-23T13:34:00Z,26032986,Em Resolução/Conclusão,3103,Incêndio rural,5,16,0,64,2025-09-23T13:34:00Z,Silves,Faro,Algarve,-8.377982,37.362762,Resolução/Conclusão
26033088,Pedroso e Seixezelo,Area M. Porto,309,2025-09-23T13:49:00Z,26033088,Em Resolução/Conclusão,3103,Incêndio rural,0,2,0,7,2025-09-23T13:49:00Z,Vila Nova De Gaia,Porto,Norte,-8.541517,41.076643,Resolução/Conclusão
26033258,Pernes,Lezíria do Tejo,311,2025-09-23T14:18:00Z,26033258,Em Resolução/Conclusão,3103,Incêndio rural,0,2,0,7,2025-09-23T14:18:00Z,Ourém,Santarém,Centro,-8.651275,39.551733,Resolução/Conclusão
25951176,Sandomil,Beiras e Serra da Estrela,310,2025-09-06T10:29:00Z,25951176,Em Resolução/Conclusão,3103,Incêndio rural,0,2,0,10,2025-09-06T10:29:00Z,Seia,Guarda,Centro,-7.76001,40.351547,Resolução/Conclusão
26020631,"Tavares (Chãs, Várzea e Travanca)",Viseu Dão Lafões,310,2025-09-20T21:15:00Z,26020631,Em Resolução/Conclusão,3103,Incêndio rural,0,1,0,5,2025-09-20T21:15:00Z,Mangualde,Viseu,Centro,-7.639468,40.609133,Resolução/Conclusão
26024276,Monte Redondo e Carreira,Região de Leiria,310,2025-09-21T17:24:00Z,26024276,Em Resolução/Conclusão,3105,Incêndio rural,0,1,0,2,2025-09-21T17:24:00Z,Leiria,Leiria,Centro,-8.786287,39.874758,Resolução/Conclusão
26024592,Monte Redondo e Carreira,Região de Leiria,310,2025-09-21T18:44:00Z,26024592,Em Resolução/Conclusão,3105,Incêndio rural,0,1,0,2,2025-09-21T18:44:00Z,Leiria,Leiria,Centro,-8.85119,39.877718,Resolução/Conclusão
26027819,Santo André,Alto Tâmega e Barroso,309,2025-09-22T12:42:00Z,26027819,Em Resolução/Conclusão,3103,Incêndio rural,5,32,0,100,2025-09-22T12:42:00Z,Montalegre,Vila Real,Norte,-7.688477,41.868948,Resolução/Conclusão
26032631,Lordelo,Area M. Porto,309,2025-09-23T12:15:00Z,26032631,Em Resolução/Conclusão,3103,Incêndio rural,0,5,0,19,2025-09-23T12:15:00Z,Paredes,Porto,Norte,-8.4247,41.247832,Resolução/Conclusão
26033195,Vila Nova de Milfontes,Alentejo Litoral,312,2025-09-23T14:01:00Z,26033195,Em Despacho,3103,Incêndio rural,0,9,0,38,2025-09-23T14:01:00Z,Odemira,Beja,Alentejo,-8.749244,37.755117,Despacho
