id,address,subregion,neighborhood,date,id.1,state,nature,nature_description,aerial_means,terrestrial_means,aquatic_means,operational,date.1,Concelho,Distrito,NUTII_DSG,longitude,latitude
25442685,Faro (Sé e São Pedro),Algarve,313,2025-05-28T20:35:00Z,25442685,Em curso,3311,Queda de elementos de estruturas edificados,0,1,0,2,2025-05-28T20:35:00Z,Faro,Faro,Algarve,-7.942032,37.01865
25442819,Castelo Branco,Beira Baixa,310,2025-05-28T21:25:00Z,25442819,Em despacho,3301,Queda de árvore,0,2,0,7,2025-05-28T21:25:00Z,Castelo Branco,Castelo Branco,Centro,-7.490756,39.816895
25071496,São Manços e São Vicente do Pigeiro,Alentejo Central,312,2025-03-11T13:18:00Z,25071496,Em conclusão,1101,Cheia,0,0,0,0,2025-03-11T13:18:00Z,Évora,Évora,Alentejo,-7.713313,38.513673
25442733,"Santiago do Cacém, S.cruz e São Bartolomeu da Serra",Alentejo Litoral,312,2025-05-28T21:03:00Z,25442733,Em despacho,3301,Queda de árvore,0,1,0,1,2025-05-28T21:03:00Z,Santiago Do Cacém,Setúbal,Alentejo,-8.6822,38.02093
25442589,Moscavide e Portela,Grande Lisboa,311,2025-05-28T20:16:00Z,25442589,Em despacho,3317,Inundação de estruturas por água canalizada,0,2,0,6,2025-05-28T20:16:00Z,Lisboa,Lisboa,Área Metropolitana De Lisboa,-9.099341,38.780698
