id,address,subregion,neighborhood,date,id.1,state,nature,nature_description,aerial_means,terrestrial_means,aquatic_means,operational,date.1,Concelho,Distrito,NUTII_DSG,longitude,latitude
25599551,Frazão Arreigada,Tâmega e Sousa,309,2025-06-29T17:40:00Z,25599551,Em conclusão,3103,Incêndio rural,0,4,0,19,2025-06-29T17:40:00Z,Paços De Ferreira,Porto,Norte,-8.385037,41.265922
25599619,Escalos de Cima e Lousa,Beira Baixa,310,2025-06-29T17:55:00Z,25599619,Em conclusão,3103,Incêndio rural,0,1,0,1,2025-06-29T17:55:00Z,Castelo Branco,Castelo Branco,Centro,-7.395775,39.939457
25599635,Vilarinho Dos Freires,Douro,309,2025-06-29T17:58:00Z,25599635,Em conclusão,3103,Incêndio rural,0,9,0,35,2025-06-29T17:58:00Z,Peso Da Régua,Vila Real,Norte,-7.731923,41.207728
25600307,Ventosa e Cova,Ave,309,2025-06-29T20:36:00Z,25600307,Em curso,3103,Incêndio rural,0,14,0,54,2025-06-29T20:36:00Z,Vieira Do Minho,Braga,Norte,-8.163528,41.6764
25600371,Pinhal Novo,Península de Setúbal,311,2025-06-29T20:55:00Z,25600371,Em conclusão,3105,Incêndio rural,0,0,0,0,2025-06-29T20:55:00Z,Palmela,Setúbal,Área Metropolitana De Lisboa,-8.902295,38.61452
25600555,Fernão Ferro,Península de Setúbal,311,2025-06-29T21:42:00Z,25600555,Em curso,3103,Incêndio rural,0,2,0,8,2025-06-29T21:42:00Z,Seixal,Setúbal,Área Metropolitana De Lisboa,-9.070223,38.56684
25600588,Colmeias e Memória,Região de Leiria,310,2025-06-29T21:49:00Z,25600588,Em resolução,2201,Incêndio em equipamentos ou produtos,0,1,0,5,2025-06-29T21:49:00Z,Leiria,Leiria,Centro,-8.684066,39.779526
25600606,Penacova,Tâmega e Sousa,309,2025-06-29T21:57:00Z,25600606,Em conclusão,3103,Incêndio rural,0,2,0,7,2025-06-29T21:57:00Z,Felgueiras,Porto,Norte,-8.252817,41.369017
25600721,Meinedo,Tâmega e Sousa,309,2025-06-29T22:23:00Z,25600721,Em curso,3103,Incêndio rural,0,3,0,15,2025-06-29T22:23:00Z,Lousada,Porto,Norte,-8.242363,41.251477
25600789,"Seixal, Arrentela e Aldeia de Paio Pires",Península de Setúbal,311,2025-06-29T22:41:00Z,25600789,Em conclusão,2201,Incêndio em equipamentos ou produtos,0,1,0,3,2025-06-29T22:41:00Z,Seixal,Setúbal,Área Metropolitana De Lisboa,-9.09583,38.63673
25599104,Beirã,Alto Alentejo,312,2025-06-29T16:00:00Z,25599104,Em conclusão,3101,Incêndio rural,0,0,0,0,2025-06-29T16:00:00Z,Marvão,Portalegre,Alentejo,-7.363842,39.435042
25599542,Poiares e Canelas,Douro,309,2025-06-29T17:38:00Z,25599542,Em conclusão,3103,Incêndio rural,0,2,0,7,2025-06-29T17:38:00Z,Peso Da Régua,Vila Real,Norte,-7.732768,41.166976
25599576,Sobreira Formosa e Alvito da Beira,Beira Baixa,310,2025-06-29T17:44:00Z,25599576,Em conclusão,3101,Incêndio rural,0,0,0,0,2025-06-29T17:44:00Z,Proença-a-Nova,Castelo Branco,Centro,-7.76818,39.73129
25599781,Louriçal do Campo,Beira Baixa,310,2025-06-29T18:30:00Z,25599781,Em conclusão,3103,Incêndio rural,0,7,0,25,2025-06-29T18:30:00Z,Castelo Branco,Castelo Branco,Centro,-7.525835,40.044405
25600051,Portimão,Algarve,313,2025-06-29T19:32:00Z,25600051,Em resolução,3103,Incêndio rural,0,4,0,10,2025-06-29T19:32:00Z,Portimão,Faro,Algarve,-8.540585,37.129075
25600551,"Campo, S.salvador Campo, Negrelos",Area M. Porto,309,2025-06-29T21:40:00Z,25600551,Em curso,3103,Incêndio rural,0,5,0,18,2025-06-29T21:40:00Z,Santo Tirso,Porto,Norte,-8.356567,41.335057
25600610,São Teotónio,Alentejo Litoral,312,2025-06-29T21:57:00Z,25600610,Em resolução,3111,Queima,0,2,0,4,2025-06-29T21:57:00Z,Odemira,Beja,Alentejo,-8.666667,37.555
25600737,Nogueira do Cravo e Pindelo,Area M. Porto,309,2025-06-29T22:15:00Z,25600737,Em conclusão,3101,Incêndio rural,0,1,0,5,2025-06-29T22:15:00Z,Oliveira De Azeméis,Aveiro,Norte,-8.437567,40.856002
25599111,Santa Marinha,Alto Tâmega e Barroso,309,2025-06-29T16:01:00Z,25599111,Em conclusão,3103,Incêndio rural,0,11,0,38,2025-06-29T16:01:00Z,Ribeira De Pena,Vila Real,Norte,-7.7715630000000004,41.56648
25599361,Chancelaria,Médio Tejo,311,2025-06-29T16:59:00Z,25599361,Em conclusão,3101,Incêndio rural,0,33,0,108,2025-06-29T16:59:00Z,Torres Novas,Santarém,Centro,-8.54621,39.518782
25599512,Croca,Tâmega e Sousa,309,2025-06-29T17:32:00Z,25599512,Em conclusão,3101,Incêndio rural,0,3,0,12,2025-06-29T17:32:00Z,Penafiel,Porto,Norte,-8.254618,41.21005
25599677,Cantelães,Ave,309,2025-06-29T18:07:00Z,25599677,Em resolução,3101,Incêndio rural,0,2,0,5,2025-06-29T18:07:00Z,Vieira Do Minho,Braga,Norte,-8.12796,41.6532
25600313,Cortiçadas de Lavre e Lavre,Alentejo Central,312,2025-06-29T20:37:00Z,25600313,Em conclusão,3103,Incêndio rural,0,16,0,49,2025-06-29T20:37:00Z,Montemor-o-Novo,Évora,Alentejo,-8.281693,38.758998
25600564,Baixa da Banheira e Vale da Amoreira,Península de Setúbal,311,2025-06-29T21:44:00Z,25600564,Em conclusão,3103,Incêndio rural,0,1,0,2,2025-06-29T21:44:00Z,Moita,Setúbal,Área Metropolitana De Lisboa,-9.046148,38.669262
25600731,Matosinhos e Leça da Palmeira,Area M. Porto,309,2025-06-29T22:24:00Z,25600731,Em conclusão,3203,Detritos confinados,0,3,0,9,2025-06-29T22:24:00Z,Matosinhos,Porto,Norte,-8.68583,41.18343
25600813,Beirã,Alto Alentejo,312,2025-06-29T22:40:00Z,25600813,Em despacho,3107,Consolidação de rescaldo de incêndio rural,0,1,0,5,2025-06-29T22:40:00Z,Marvão,Portalegre,Alentejo,-7.363842,39.435042
25599357,Alpalhão,Alto Alentejo,312,2025-06-29T16:55:00Z,25599357,Em conclusão,3103,Incêndio rural,0,20,0,63,2025-06-29T16:55:00Z,Nisa,Portalegre,Alentejo,-7.63684,39.452513
25599382,Almaceda,Beira Baixa,310,2025-06-29T17:03:00Z,25599382,Em curso,3101,Incêndio rural,0,57,0,175,2025-06-29T17:03:00Z,Castelo Branco,Castelo Branco,Centro,-7.65644,39.97
25599659,Campanhã,Area M. Porto,309,2025-06-29T18:03:00Z,25599659,Em conclusão,3103,Incêndio rural,0,2,0,7,2025-06-29T18:03:00Z,Porto,Porto,Norte,-8.577662,41.17713
25599993,Canaviais,Alentejo Central,312,2025-06-29T19:20:00Z,25599993,Em conclusão,3103,Incêndio rural,0,0,0,0,2025-06-29T19:20:00Z,Évora,Évora,Alentejo,-7.900582,38.629787
25600311,Água Longa,Area M. Porto,309,2025-06-29T20:37:00Z,25600311,Em conclusão,3103,Incêndio rural,0,1,0,4,2025-06-29T20:37:00Z,Santo Tirso,Porto,Norte,-8.509552,41.251532
25600525,Lamelas e Guimarei,Area M. Porto,309,2025-06-29T21:32:00Z,25600525,Em conclusão,3103,Incêndio rural,0,2,0,6,2025-06-29T21:32:00Z,Santo Tirso,Porto,Norte,-8.507987,41.31374
25600559,Castelo Branco,Beira Baixa,310,2025-06-29T21:39:00Z,25600559,Em resolução,3201,Detritos não confinados,0,14,0,41,2025-06-29T21:39:00Z,Castelo Branco,Castelo Branco,Centro,-7.45806,39.78222
25600743,Albufeira e Olhos de Água,Algarve,313,2025-06-29T22:26:00Z,25600743,Em conclusão,2101,Incêndio em edifícios habitacionais,0,4,0,11,2025-06-29T22:26:00Z,Albufeira,Faro,Algarve,-8.19377,37.09241
25600779,Esgueira,Região de Aveiro,310,2025-06-29T22:36:00Z,25600779,Em resolução,3103,Incêndio rural,0,5,0,19,2025-06-29T22:36:00Z,Aveiro,Aveiro,Centro,-8.614208,40.641952
25600833,Lomba,Area M. Porto,309,2025-06-29T22:43:00Z,25600833,Em despacho,3203,Detritos confinados,0,1,0,5,2025-06-29T22:43:00Z,Gondomar,Porto,Norte,-8.408252,41.034001
25600863,Jugueiros,Tâmega e Sousa,309,2025-06-29T23:06:00Z,25600863,Em despacho,3103,Incêndio rural,0,0,0,0,2025-06-29T23:06:00Z,Felgueiras,Porto,Norte,-8.202683,41.39695
25600811,Quarteira,Algarve,313,2025-06-29T22:48:00Z,25600811,Em despacho,2101,Incêndio em edifícios habitacionais,0,1,0,5,2025-06-29T22:48:00Z,Loulé,Faro,Algarve,-8.11926,37.07928
