id,address,subregion,neighborhood,date,id.1,state,nature,nature_description,aerial_means,terrestrial_means,aquatic_means,operational,date.1,Concelho,Distrito,NUTII_DSG,longitude,latitude,state_2
25676110,Santa Maria do Castelo e Santiago e Santa Susana,Alentejo Litoral,312,2025-07-14T12:17:00Z,25676110,Em Despacho,3103,Incêndio rural,0,0,0,0,2025-07-14T12:17:00Z,Alcácer Do Sal,Setúbal,Alentejo,-8.616168,38.398984,Despacho
24284975,Mões,Viseu Dão Lafões,310,2024-09-16T21:23:00Z,24284975,Em Resolução/Conclusão,3103,Incêndio rural,0,0,0,0,2024-09-16T21:23:00Z,Castro Daire,Viseu,Centro,-7.919687,40.84511,Resolução/Conclusão
25672444,Quintela de Lampaças,Terras de Trás-os-Montes,309,2025-07-13T16:29:00Z,25672444,Em Resolução/Conclusão,3103,Incêndio rural,0,5,0,19,2025-07-13T16:29:00Z,Bragança,Bragança,Norte,-6.899165,41.58745,Resolução/Conclusão
25676036,Vilar de Andorinho,Area M. Porto,309,2025-07-14T12:00:00Z,25676036,Em Resolução/Conclusão,3103,Incêndio rural,0,2,0,7,2025-07-14T12:00:00Z,Vila Nova De Gaia,Porto,Norte,-8.572252,41.090597,Resolução/Conclusão
25676138,Santa Maria do Castelo e Santiago e Santa Susana,Alentejo Litoral,312,2025-07-14T12:23:00Z,25676138,Em Despacho,3103,Incêndio rural,0,2,0,8,2025-07-14T12:23:00Z,Alcácer Do Sal,Setúbal,Alentejo,-8.60038,38.42333,Despacho
25676154,Ermesinde,Area M. Porto,309,2025-07-14T12:27:00Z,25676154,Em Despacho,3103,Incêndio rural,0,1,0,5,2025-07-14T12:27:00Z,Valongo,Porto,Norte,-8.558106,41.21669,Despacho
25665133,Lindoso,Alto Minho,309,2025-07-12T02:50:00Z,25665133,Em Resolução/Conclusão,3103,Incêndio rural,0,8,0,27,2025-07-12T02:50:00Z,Ponte Da Barca,Viana Do Castelo,Norte,-8.224007,41.852543,Resolução/Conclusão
25675762,São Vicente do Paul e Vale de Figueira,Lezíria do Tejo,311,2025-07-14T11:13:00Z,25675762,Em Resolução/Conclusão,3105,Incêndio rural,0,1,0,5,2025-07-14T11:13:00Z,Santarém,Santarém,Alentejo,-8.642412,39.331282,Resolução/Conclusão
25662814,Soajo,Alto Minho,309,2025-07-11T15:16:00Z,25662814,Em Resolução/Conclusão,3103,Incêndio rural,0,4,0,13,2025-07-11T15:16:00Z,Arcos De Valdevez,Viana Do Castelo,Norte,-8.22891,41.87654,Resolução/Conclusão
25675566,Soutelo do Douro,Douro,309,2025-07-14T10:41:00Z,25675566,Em Resolução/Conclusão,3103,Incêndio rural,0,5,0,19,2025-07-14T10:41:00Z,São João Da Pesqueira,Viseu,Norte,-7.416257,41.199227,Resolução/Conclusão
25676150,Ponte,Ave,309,2025-07-14T12:26:00Z,25676150,Em Despacho,3105,Incêndio rural,0,1,0,5,2025-07-14T12:26:00Z,Guimarães,Braga,Norte,-8.336857,41.469318,Despacho
25676206,"Coz, Alpedriz e Montes",Oeste,311,2025-07-14T12:39:00Z,25676206,Em Despacho,3103,Incêndio rural,0,3,0,12,2025-07-14T12:39:00Z,Alcobaça,Leiria,Centro,-8.957313,39.63856,Despacho
