id,address,subregion,neighborhood,date,id.1,state,nature,nature_description,aerial_means,terrestrial_means,aquatic_means,operational,date.1,Concelho,Distrito,NUTII_DSG,longitude,latitude,state_2
25688392,Cabril,Região de Coimbra,310,2025-07-16T18:47:00Z,25688392,Em Resolução/Conclusão,3101,Incêndio rural,0,1,0,5,2025-07-16T18:47:00Z,Pampilhosa Da Serra,Coimbra,Centro,-7.86944,40.06556,Resolução/Conclusão
25693533,Girabolhos,Beiras e Serra da Estrela,310,2025-07-17T19:03:00Z,25693533,Em Resolução/Conclusão,3103,Incêndio rural,0,9,0,31,2025-07-17T19:03:00Z,Seia,Guarda,Centro,-7.73881,40.498453,Resolução/Conclusão
25693547,Montijo e Afonsoeiro,Península de Setúbal,311,2025-07-17T19:06:00Z,25693547,Em Resolução/Conclusão,3105,Incêndio rural,0,3,0,9,2025-07-17T19:06:00Z,Montijo,Setúbal,Área Metropolitana De Lisboa,-8.95012,38.714865,Resolução/Conclusão
25693849,Candemil e Gondar,Alto Minho,309,2025-07-17T20:26:00Z,25693849,Em Resolução/Conclusão,3103,Incêndio rural,0,1,0,2,2025-07-17T20:26:00Z,Vila Nova De Cerveira,Viana Do Castelo,Norte,-8.695383,41.948797,Resolução/Conclusão
25694015,Luz,Algarve,313,2025-07-17T21:01:00Z,25694015,Em Curso,3103,Incêndio rural,0,3,0,12,2025-07-17T21:01:00Z,Lagos,Faro,Algarve,-8.756151,37.086541,Curso
25694033,Benavente,Lezíria do Tejo,311,2025-07-17T21:09:00Z,25694033,Em Resolução/Conclusão,3103,Incêndio rural,0,7,0,21,2025-07-17T21:09:00Z,Benavente,Santarém,Alentejo,-8.80345,38.98114,Resolução/Conclusão
25682641,São Bento,Região de Leiria,310,2025-07-15T16:44:00Z,25682641,Em Resolução/Conclusão,3101,Incêndio rural,0,0,0,0,2025-07-15T16:44:00Z,Porto De Mós,Leiria,Centro,-8.746525,39.524688,Resolução/Conclusão
25686799,Souto Maior,Douro,309,2025-07-16T13:19:00Z,25686799,Em Resolução/Conclusão,3101,Incêndio rural,0,50,0,148,2025-07-16T13:19:00Z,Sabrosa,Vila Real,Norte,-7.57839,41.287518,Resolução/Conclusão
25693618,Trancoso (São Pedro e Santa Maria) e Souto Maior,Beiras e Serra da Estrela,310,2025-07-17T19:22:00Z,25693618,Em Resolução/Conclusão,3105,Incêndio rural,0,6,0,22,2025-07-17T19:22:00Z,Trancoso,Guarda,Centro,-7.36276,40.774855,Resolução/Conclusão
25687827,Rochoso e Monte Margarida,Beiras e Serra da Estrela,310,2025-07-16T16:35:00Z,25687827,Em Resolução/Conclusão,3103,Incêndio rural,0,10,0,36,2025-07-16T16:35:00Z,Guarda,Guarda,Centro,-7.106608,40.527017,Resolução/Conclusão
25689484,Andrães,Douro,309,2025-07-16T23:49:00Z,25689484,Em Resolução/Conclusão,3103,Incêndio rural,0,3,0,12,2025-07-16T23:49:00Z,Vila Real,Vila Real,Norte,-7.668872,41.241568,Resolução/Conclusão
25692759,Póvoa de Rio de Moinhos e Cafede,Beira Baixa,310,2025-07-17T16:10:00Z,25692759,Em Resolução/Conclusão,3105,Incêndio rural,0,2,0,7,2025-07-17T16:10:00Z,Castelo Branco,Castelo Branco,Centro,-7.507702,39.933293,Resolução/Conclusão
25694111,Ribeira do Neiva,Cávado,309,2025-07-17T21:29:00Z,25694111,Em Despacho,3111,Queima,0,1,0,5,2025-07-17T21:29:00Z,Vila Verde,Braga,Norte,-8.5138,41.69159,Despacho
25694163,Santa Clara de Louredo,Baixo Alentejo,312,2025-07-17T21:44:00Z,25694163,Em Despacho,3105,Incêndio rural,0,2,0,10,2025-07-17T21:44:00Z,Beja,Beja,Alentejo,-7.8725,37.96806,Despacho
25692562,Atouguia,Médio Tejo,311,2025-07-17T15:31:00Z,25692562,Em Resolução/Conclusão,3103,Incêndio rural,0,12,0,41,2025-07-17T15:31:00Z,Ourém,Santarém,Centro,-8.62029,39.654072,Resolução/Conclusão
25692814,"Espírito Santo, Nossa Senhora da Graça e São Simão",Alto Alentejo,312,2025-07-17T16:23:00Z,25692814,Em Resolução/Conclusão,3103,Incêndio rural,0,23,0,80,2025-07-17T16:23:00Z,Nisa,Portalegre,Alentejo,-7.635642,39.486993,Resolução/Conclusão
25693046,Santo Aleixo,Alto Alentejo,312,2025-07-17T17:04:00Z,25693046,Em Resolução/Conclusão,3103,Incêndio rural,0,28,0,84,2025-07-17T17:04:00Z,Monforte,Portalegre,Alentejo,-7.397183,38.919233,Resolução/Conclusão
25693766,Caldas da Rainha - Santo Onofre e Serra do Bouro,Oeste,311,2025-07-17T19:57:00Z,25693766,Em Resolução/Conclusão,3101,Incêndio rural,0,3,0,9,2025-07-17T19:57:00Z,Caldas Da Rainha,Leiria,Centro,-9.158379,39.469748,Resolução/Conclusão
