id,address,subregion,neighborhood,date,id.1,state,nature,nature_description,aerial_means,terrestrial_means,aquatic_means,operational,date.1,Concelho,Distrito,NUTII_DSG,longitude,latitude,state_2
26159689,Casegas e Ourondo,Beiras e Serra da Estrela,310,2025-10-19T11:45:00Z,26159689,Em Resolução/Conclusão,3105,Incêndio rural,0,3,0,7,2025-10-19T11:45:00Z,Covilhã,Castelo Branco,Centro,-7.68118,40.146567,Resolução/Conclusão
26157385,"Algodres, Vale de Afonsinho e Vilar de Amargo",Beiras e Serra da Estrela,310,2025-10-18T20:18:00Z,26157385,Em Resolução/Conclusão,3103,Incêndio rural,0,8,0,27,2025-10-18T20:18:00Z,Figueira De Castelo Rodrigo,Guarda,Centro,-7.026137,40.954202,Resolução/Conclusão
26159582,Esperança,Alto Alentejo,312,2025-10-19T11:16:00Z,26159582,Em Resolução/Conclusão,3103,Incêndio rural,0,7,0,23,2025-10-19T11:16:00Z,Arronches,Portalegre,Alentejo,-7.18206,39.160894,Resolução/Conclusão
26160196,Brinches,Baixo Alentejo,312,2025-10-19T13:57:00Z,26160196,Em Resolução/Conclusão,3105,Incêndio rural,0,2,0,5,2025-10-19T13:57:00Z,Serpa,Beja,Alentejo,-7.60905,38.02915,Resolução/Conclusão
26160232,Carnota,Oeste,311,2025-10-19T14:01:00Z,26160232,Em Resolução/Conclusão,3103,Incêndio rural,0,1,0,5,2025-10-19T14:01:00Z,Alenquer,Lisboa,Centro,-9.044332,39.035091,Resolução/Conclusão
26160365,Ventosa,Oeste,311,2025-10-19T14:25:00Z,26160365,Em Despacho,3111,Queima,0,3,0,11,2025-10-19T14:25:00Z,Torres Vedras,Lisboa,Centro,-9.297362,39.041844,Despacho
26158131,Cervos,Alto Tâmega e Barroso,309,2025-10-19T00:55:00Z,26158131,Em Resolução/Conclusão,3103,Incêndio rural,0,5,0,25,2025-10-19T00:55:00Z,Montalegre,Vila Real,Norte,-7.660452,41.729898,Resolução/Conclusão
26159526,Ferreiros de Tendais,Tâmega e Sousa,309,2025-10-19T10:58:00Z,26159526,Em Resolução/Conclusão,3103,Incêndio rural,0,1,0,5,2025-10-19T10:58:00Z,Cinfães,Viseu,Norte,-8.016892,41.047383,Resolução/Conclusão
