id,address,subregion,neighborhood,date,id.1,state,nature,nature_description,aerial_means,terrestrial_means,aquatic_means,operational,date.1,Concelho,Distrito,NUTII_DSG,longitude,latitude,state_2
25818455,Sobral de São Miguel,Beiras e Serra da Estrela,310,2025-08-10T15:02:00Z,25818455,Em Resolução/Conclusão,3103,Incêndio rural,0,1,0,1,2025-08-10T15:02:00Z,Covilhã,Castelo Branco,Centro,-7.77307,40.200173,Resolução/Conclusão
25846480,Sabugal e Aldeia de Santo António,Beiras e Serra da Estrela,310,2025-08-15T14:41:00Z,25846480,Em Curso,3103,Incêndio rural,0,124,0,450,2025-08-15T14:41:00Z,Sabugal,Guarda,Centro,-7.125037,40.34023,Curso
25851846,"Mamouros, Alva e Ribolhos",Viseu Dão Lafões,310,2025-08-16T14:44:00Z,25851846,Em Resolução/Conclusão,3103,Incêndio rural,0,1,0,2,2025-08-16T14:44:00Z,Castro Daire,Viseu,Centro,-7.965645,40.850267,Resolução/Conclusão
25852580,São João de Tarouca,Douro,309,2025-08-16T17:00:00Z,25852580,Em Resolução/Conclusão,3103,Incêndio rural,0,40,0,127,2025-08-16T17:00:00Z,Tarouca,Viseu,Norte,-7.760748,40.986773,Resolução/Conclusão
25866719,Nevogilde,Tâmega e Sousa,309,2025-08-19T12:24:00Z,25866719,Em Resolução/Conclusão,3103,Incêndio rural,0,0,0,0,2025-08-19T12:24:00Z,Lousada,Porto,Norte,-8.332438,41.25728,Resolução/Conclusão
25867021,Carrazeda de Ansiães,Douro,309,2025-08-19T13:27:00Z,25867021,Em Curso,3103,Incêndio rural,0,38,0,130,2025-08-19T13:27:00Z,Carrazeda De Ansiães,Bragança,Norte,-7.28399,41.211137,Curso
25867703,Paredes da Beira,Douro,309,2025-08-19T15:35:00Z,25867703,Em Resolução/Conclusão,3103,Incêndio rural,0,0,0,0,2025-08-19T15:35:00Z,São João Da Pesqueira,Viseu,Norte,-7.47051,41.05687,Resolução/Conclusão
25868208,Vila da Ponte,Douro,309,2025-08-19T17:29:00Z,25868208,Em Resolução/Conclusão,3103,Incêndio rural,0,8,0,26,2025-08-19T17:29:00Z,Sernancelhe,Viseu,Norte,-7.51704,40.917505,Resolução/Conclusão
25868288,Vila de Punhe,Alto Minho,309,2025-08-19T17:41:00Z,25868288,Em Resolução/Conclusão,3105,Incêndio rural,0,0,0,0,2025-08-19T17:41:00Z,Viana Do Castelo,Viana Do Castelo,Norte,-8.740077,41.659457,Resolução/Conclusão
25868589,Proença-a-Nova e Peral,Beira Baixa,310,2025-08-19T19:06:00Z,25868589,Em Resolução/Conclusão,3101,Incêndio rural,0,40,0,145,2025-08-19T19:06:00Z,Proença-a-Nova,Castelo Branco,Centro,-7.90942,39.713548,Resolução/Conclusão
25868876,Louredo e Fornelos,Douro,309,2025-08-19T20:10:00Z,25868876,Em Resolução/Conclusão,3103,Incêndio rural,0,9,0,33,2025-08-19T20:10:00Z,Santa Marta De Penaguião,Vila Real,Norte,-7.825263,41.239325,Resolução/Conclusão
25868926,Ribas,Tâmega e Sousa,309,2025-08-19T20:25:00Z,25868926,Em Resolução/Conclusão,3103,Incêndio rural,0,4,0,13,2025-08-19T20:25:00Z,Celorico De Basto,Braga,Norte,-8.01305,41.45067,Resolução/Conclusão
25869392,Gondiães e Vilar de Cunhas,Ave,309,2025-08-19T22:31:00Z,25869392,Em Resolução/Conclusão,3103,Incêndio rural,0,6,0,18,2025-08-19T22:31:00Z,Cabeceiras De Basto,Braga,Norte,-7.871962,41.567118,Resolução/Conclusão
25845171,Pêra do Moço,Beiras e Serra da Estrela,310,2025-08-15T10:44:00Z,25845171,Em Resolução/Conclusão,3103,Incêndio rural,0,5,0,21,2025-08-15T10:44:00Z,Guarda,Guarda,Centro,-7.20956,40.61267,Resolução/Conclusão
25846016,Poiares,Douro,309,2025-08-15T13:17:00Z,25846016,Em Resolução/Conclusão,3103,Incêndio rural,0,63,0,190,2025-08-15T13:17:00Z,Freixo De Espada à Cinta,Bragança,Norte,-6.843393,41.075787,Resolução/Conclusão
25847211,Campelo,Região de Leiria,310,2025-08-15T17:01:00Z,25847211,Em Resolução/Conclusão,3101,Incêndio rural,0,7,0,26,2025-08-15T17:01:00Z,Figueiró Dos Vinhos,Leiria,Centro,-8.258518,39.952923,Resolução/Conclusão
25860858,Valadares,Viseu Dão Lafões,310,2025-08-18T10:30:00Z,25860858,Em Resolução/Conclusão,3101,Incêndio rural,0,0,0,0,2025-08-18T10:30:00Z,São Pedro Do Sul,Viseu,Centro,-8.191795,40.74812,Resolução/Conclusão
25861685,Santa Catarina da Serra e Chainça,Região de Leiria,310,2025-08-18T13:03:00Z,25861685,Em Resolução/Conclusão,3103,Incêndio rural,0,1,0,2,2025-08-18T13:03:00Z,Leiria,Leiria,Centro,-8.698656,39.708305,Resolução/Conclusão
25863430,Mioma,Viseu Dão Lafões,310,2025-08-18T18:33:00Z,25863430,Em Resolução/Conclusão,3103,Incêndio rural,0,1,0,3,2025-08-18T18:33:00Z,Sátão,Viseu,Centro,-7.719747,40.742767,Resolução/Conclusão
25866858,"Pena, Quintã e Vila Cova",Douro,309,2025-08-19T12:52:00Z,25866858,Em Resolução/Conclusão,3103,Incêndio rural,0,4,0,14,2025-08-19T12:52:00Z,Vila Real,Vila Real,Norte,-7.819168,41.2897,Resolução/Conclusão
25869387,Montemor-o-Velho e Gatões,Região de Coimbra,310,2025-08-19T22:29:00Z,25869387,Em Resolução/Conclusão,3103,Incêndio rural,0,6,0,24,2025-08-19T22:29:00Z,Montemor-o-Velho,Coimbra,Centro,-8.705207,40.20667,Resolução/Conclusão
25813482,Freches e Torres,Beiras e Serra da Estrela,310,2025-08-09T16:21:00Z,25813482,Em Resolução/Conclusão,3103,Incêndio rural,0,16,0,49,2025-08-09T16:21:00Z,Trancoso,Guarda,Centro,-7.363745,40.709022,Resolução/Conclusão
25830378,Ermidas-Sado,Alentejo Litoral,312,2025-08-12T16:42:00Z,25830378,Em Resolução/Conclusão,3101,Incêndio rural,0,0,0,0,2025-08-12T16:42:00Z,Santiago Do Cacém,Setúbal,Alentejo,-8.407646,38.059897,Resolução/Conclusão
25832250,Ferreira de Aves,Viseu Dão Lafões,310,2025-08-13T00:03:00Z,25832250,Em Resolução/Conclusão,3103,Incêndio rural,0,21,0,54,2025-08-13T00:03:00Z,Sátão,Viseu,Centro,-7.647793,40.79568,Resolução/Conclusão
25836309,Cinfães,Tâmega e Sousa,309,2025-08-13T18:17:00Z,25836309,Em Resolução/Conclusão,3103,Incêndio rural,0,1,0,2,2025-08-13T18:17:00Z,Cinfães,Viseu,Norte,-8.071502,41.049757,Resolução/Conclusão
25840505,Ribeira de Nisa e Carreiras,Alto Alentejo,312,2025-08-14T14:01:00Z,25840505,Em Resolução/Conclusão,3101,Incêndio rural,0,2,0,4,2025-08-14T14:01:00Z,Portalegre,Portalegre,Alentejo,-7.47009,39.374707,Resolução/Conclusão
25851721,Arnóia,Tâmega e Sousa,309,2025-08-16T14:24:00Z,25851721,Em Resolução/Conclusão,3103,Incêndio rural,0,7,0,26,2025-08-16T14:24:00Z,Celorico De Basto,Braga,Norte,-7.994469,41.369836,Resolução/Conclusão
25856549,"Oliveira de Frades, Souto de Lafões e Sejães",Viseu Dão Lafões,310,2025-08-17T13:08:00Z,25856549,Em Resolução/Conclusão,3103,Incêndio rural,0,1,0,2,2025-08-17T13:08:00Z,Oliveira De Frades,Viseu,Centro,-8.203795,40.74088,Resolução/Conclusão
25860828,Vilar de Perdizes e Meixide,Alto Tâmega e Barroso,309,2025-08-18T10:25:00Z,25860828,Em Curso,3103,Incêndio rural,0,121,0,378,2025-08-18T10:25:00Z,NA,NA,NA,-7.63634,41.880008,Curso
25867765,Santa Marta de Portuzelo,Alto Minho,309,2025-08-19T15:48:00Z,25867765,Em Resolução/Conclusão,3103,Incêndio rural,0,2,0,5,2025-08-19T15:48:00Z,Viana Do Castelo,Viana Do Castelo,Norte,-8.788183,41.700497,Resolução/Conclusão
25867995,Lomba,Area M. Porto,309,2025-08-19T16:36:00Z,25867995,Em Resolução/Conclusão,3103,Incêndio rural,0,36,0,104,2025-08-19T16:36:00Z,Gondomar,Porto,Norte,-8.41085,41.05968,Resolução/Conclusão
25868316,"Espírito Santo, Nossa Senhora da Graça e São Simão",Alto Alentejo,312,2025-08-19T17:52:00Z,25868316,Em Resolução/Conclusão,3101,Incêndio rural,0,35,0,123,2025-08-19T17:52:00Z,Nisa,Portalegre,Alentejo,-7.710377,39.493737,Resolução/Conclusão
25868984,Touça,Douro,309,2025-08-19T20:44:00Z,25868984,Em Resolução/Conclusão,3103,Incêndio rural,0,6,0,13,2025-08-19T20:44:00Z,Vila Nova De Foz Côa,Guarda,Norte,-7.233513,41.048052,Resolução/Conclusão
25869218,Chafé,Alto Minho,309,2025-08-19T21:44:00Z,25869218,Em Resolução/Conclusão,3103,Incêndio rural,0,1,0,4,2025-08-19T21:44:00Z,Viana Do Castelo,Viana Do Castelo,Norte,-8.774238,41.6476,Resolução/Conclusão
25869336,Portela e Extremo,Alto Minho,309,2025-08-19T22:19:00Z,25869336,Em Curso,3103,Incêndio rural,0,3,0,12,2025-08-19T22:19:00Z,Arcos De Valdevez,Viana Do Castelo,Norte,-8.465485,41.96721,Curso
25869368,Benedita,Oeste,311,2025-08-19T22:23:00Z,25869368,Em Resolução/Conclusão,3103,Incêndio rural,0,1,0,5,2025-08-19T22:23:00Z,Alcobaça,Leiria,Centro,-8.941467,39.431263,Resolução/Conclusão
25832672,Piódão,Região de Coimbra,310,2025-08-13T05:08:00Z,25832672,Em Curso,3103,Incêndio rural,0,540,0,1612,2025-08-13T05:08:00Z,Arganil,Coimbra,Centro,-7.81972,40.23083,Curso
25835176,Faíl e Vila Chã de Sá,Viseu Dão Lafões,310,2025-08-13T14:35:00Z,25835176,Em Resolução/Conclusão,3103,Incêndio rural,0,0,0,0,2025-08-13T14:35:00Z,Viseu,Viseu,Centro,-7.951177,40.594167,Resolução/Conclusão
25840417,Lousã e Vilarinho,Região de Coimbra,310,2025-08-14T13:46:00Z,25840417,Em Resolução/Conclusão,3101,Incêndio rural,0,49,0,160,2025-08-14T13:46:00Z,Lousã,Coimbra,Centro,-8.201561,40.080016,Resolução/Conclusão
25857322,"Barcel, Marmelos e Valverde da Gestosa",Terras de Trás-os-Montes,309,2025-08-17T15:53:00Z,25857322,Em Curso,3103,Incêndio rural,0,118,0,350,2025-08-17T15:53:00Z,Mirandela,Bragança,Norte,-7.209414,41.409479,Curso
25859212,Moimenta,Cávado,309,2025-08-17T23:49:00Z,25859212,Em Resolução/Conclusão,3103,Incêndio rural,0,2,0,10,2025-08-17T23:49:00Z,Terras De Bouro,Braga,Norte,-8.303262,41.711533,Resolução/Conclusão
25866682,Vale de Anta,Alto Tâmega e Barroso,309,2025-08-19T12:19:00Z,25866682,Em Resolução/Conclusão,3103,Incêndio rural,0,1,0,2,2025-08-19T12:19:00Z,Chaves,Vila Real,Norte,-7.494862,41.744817,Resolução/Conclusão
25869315,Sertã,Beira Baixa,310,2025-08-19T22:09:00Z,25869315,Em Resolução/Conclusão,3103,Incêndio rural,0,5,0,13,2025-08-19T22:09:00Z,Sertã,Castelo Branco,Centro,-8.137447,39.798033,Resolução/Conclusão
25869388,Armil,Ave,309,2025-08-19T22:29:00Z,25869388,Em Curso,3103,Incêndio rural,0,3,0,15,2025-08-19T22:29:00Z,Fafe,Braga,Norte,-8.180218,41.423148,Curso
25869456,Salvaterra de Magos e Foros de Salvaterra,Lezíria do Tejo,311,2025-08-19T22:50:00Z,25869456,Em Resolução/Conclusão,3111,Queima,0,6,0,20,2025-08-19T22:50:00Z,Salvaterra De Magos,Santarém,Alentejo,-8.76043,39.003932,Resolução/Conclusão
