id,address,subregion,neighborhood,date,id.1,state,nature,nature_description,aerial_means,terrestrial_means,aquatic_means,operational,date.1,Concelho,Distrito,NUTII_DSG,longitude,latitude,state_2
26093991,Santa Comba,Beiras e Serra da Estrela,310,2025-10-06T01:09:00Z,26093991,Em Resolução/Conclusão,3101,Incêndio rural,0,2,0,7,2025-10-06T01:09:00Z,Seia,Guarda,Centro,-7.745905,40.442718,Resolução/Conclusão
26103915,Fornelo e Vairão,Area M. Porto,309,2025-10-07T23:23:00Z,26103915,Em Despacho,3103,Incêndio rural,0,3,0,15,2025-10-07T23:23:00Z,Vila Do Conde,Porto,Norte,-8.636606,41.33554,Despacho
26103958,Bunheiro,Região de Aveiro,310,2025-10-07T23:30:00Z,26103958,Em Despacho,3105,Incêndio rural,0,1,0,4,2025-10-07T23:30:00Z,Murtosa,Aveiro,Centro,-8.650778,40.776602,Despacho
26093602,Castro Daire,Viseu Dão Lafões,310,2025-10-05T22:05:00Z,26093602,Em Resolução/Conclusão,3103,Incêndio rural,0,0,0,0,2025-10-05T22:05:00Z,Castro Daire,Viseu,Centro,-7.9408,40.925289,Resolução/Conclusão
26103307,Ferreiros de Tendais,Tâmega e Sousa,309,2025-10-07T19:40:00Z,26103307,Em Resolução/Conclusão,3103,Incêndio rural,0,4,0,17,2025-10-07T19:40:00Z,Cinfães,Viseu,Norte,-8.023815,41.032068,Resolução/Conclusão
