id,address,subregion,neighborhood,date,id.1,state,nature,nature_description,aerial_means,terrestrial_means,aquatic_means,operational,date.1,Concelho,Distrito,NUTII_DSG,longitude,latitude
24651038,Carnaxide e Queijas,Grande Lisboa,311,2024-12-08T11:06:00Z,24651038,Em conclusão,3311,Queda de elementos de estruturas edificados,0,1,0,5,2024-12-08T11:06:00Z,Oeiras,Lisboa,Área Metropolitana De Lisboa,-9.233587,38.727201
24651156,"Oeiras e S. Julião da Barra, Paço de Arcos e Caxias",Grande Lisboa,311,2024-12-08T11:33:00Z,24651156,Em despacho,3329,Queda de estruturas temporárias ou móveis,0,1,0,2,2024-12-08T11:33:00Z,Oeiras,Lisboa,Área Metropolitana De Lisboa,-9.290593,38.696925
24650377,"Alto do Seixalinho, Santo André e Verderena",Península de Setúbal,311,2024-12-08T08:35:00Z,24650377,Em despacho,3329,Queda de estruturas temporárias ou móveis,0,0,0,0,2024-12-08T08:35:00Z,Barreiro,Setúbal,Área Metropolitana De Lisboa,-9.061632,38.64534
24651181,Monchique,Algarve,313,2024-12-08T11:34:00Z,24651181,Em despacho,3301,Queda de árvore,0,1,0,3,2024-12-08T11:34:00Z,Monchique,Faro,Algarve,-8.570482,37.264878
24651195,Costa da Caparica,Península de Setúbal,311,2024-12-08T11:53:00Z,24651195,Em despacho,3311,Queda de elementos de estruturas edificados,0,1,0,4,2024-12-08T11:53:00Z,Almada,Setúbal,Área Metropolitana De Lisboa,-9.227696,38.642583
24650964,Soutelo,Cávado,309,2024-12-08T11:03:00Z,24650964,Em curso,3301,Queda de árvore,0,2,0,4,2024-12-08T11:03:00Z,Vila Verde,Braga,Norte,-8.42863,41.62228
