id,address,subregion,neighborhood,date,id.1,state,nature,nature_description,aerial_means,terrestrial_means,aquatic_means,operational,date.1,Concelho,Distrito,NUTII_DSG,longitude,latitude
25503933,Grândola e Santa Margarida da Serra,Alentejo Litoral,312,2025-06-10T06:36:00Z,25503933,Em conclusão,3203,Detritos confinados,0,2,0,7,2025-06-10T06:36:00Z,Grândola,Setúbal,Alentejo,-8.562855,38.094695
25503556,Portela e Extremo,Alto Minho,309,2025-06-10T00:57:00Z,25503556,Em resolução,3103,Incêndio rural,0,6,0,24,2025-06-10T00:57:00Z,Arcos De Valdevez,Viana Do Castelo,Norte,-8.464202,41.960325
25503877,Sendim,Tâmega e Sousa,309,2025-06-10T05:40:00Z,25503877,Em conclusão,3103,Incêndio rural,0,1,0,5,2025-06-10T05:40:00Z,Felgueiras,Porto,Norte,-8.190545,41.391867
25503979,Vieira de Leiria,Região de Leiria,310,2025-06-10T07:20:00Z,25503979,Em resolução,2101,Incêndio em edifícios habitacionais,0,4,0,10,2025-06-10T07:20:00Z,Marinha Grande,Leiria,Centro,-8.965245,39.87512
25503997,"Marvila, Ribeira Santarém, S.salvador, S.nicolau",Lezíria do Tejo,311,2025-06-10T07:26:00Z,25503997,Em resolução,3111,Queima,0,2,0,7,2025-06-10T07:26:00Z,Santarém,Santarém,Alentejo,-8.671677,39.236474
25503896,Póvoa de Santo Adrião e Olival Basto,Grande Lisboa,311,2025-06-10T06:10:00Z,25503896,Em conclusão,2117,Incêndio em edifícios comerciais e gares de transporte,0,4,0,13,2025-06-10T06:10:00Z,Odivelas,Lisboa,Área Metropolitana De Lisboa,-9.167931,38.794609
