id,address,subregion,neighborhood,date,id.1,state,nature,nature_description,aerial_means,terrestrial_means,aquatic_means,operational,date.1,Concelho,Distrito,NUTII_DSG,longitude,latitude
24648305,Quiaios,Região de Coimbra,310,2024-12-07T16:05:00Z,24648305,Em despacho,3301,Queda de árvore,0,1,0,3,2024-12-07T16:05:00Z,Figueira Da Foz,Coimbra,Centro,-8.853222,40.215389
24646980,Salir,Algarve,313,2024-12-07T10:30:00Z,24646980,Em curso,3301,Queda de árvore,0,0,0,0,2024-12-07T10:30:00Z,Loulé,Faro,Algarve,-8.040653,37.240426
24648311,Aldeia de Santa Margarida,Beira Baixa,310,2024-12-07T16:18:00Z,24648311,Em despacho,3301,Queda de árvore,0,0,0,0,2024-12-07T16:18:00Z,Idanha-a-Nova,Castelo Branco,Centro,-7.27547,40.06493
24646352,Aveiras de Baixo,Lezíria do Tejo,311,2024-12-07T07:57:00Z,24646352,Em despacho,3309,Desabamento de estruturas edificadas,0,1,0,1,2024-12-07T07:57:00Z,Azambuja,Lisboa,Alentejo,-8.869588,39.111989
24648124,Ericeira,Grande Lisboa,311,2024-12-07T15:29:00Z,24648124,Em resolução,3311,Queda de elementos de estruturas edificados,0,2,0,5,2024-12-07T15:29:00Z,Mafra,Lisboa,Área Metropolitana De Lisboa,-9.416303,38.96714
