id,address,subregion,neighborhood,date,id.1,state,nature,nature_description,aerial_means,terrestrial_means,aquatic_means,operational,date.1,Concelho,Distrito,NUTII_DSG,longitude,latitude
25068300,Almeirim,Lezíria do Tejo,311,2025-03-10T20:52:00Z,25068300,Em curso,1101,Cheia,0,0,0,0,2025-03-10T20:52:00Z,Almeirim,Santarém,Alentejo,-8.635002,39.187436
25116323,Charneca de Caparica e Sobreda,Península de Setúbal,311,2025-03-20T07:13:00Z,25116323,Em curso,3301,Queda de árvore,0,0,0,0,2025-03-20T07:13:00Z,Almada,Setúbal,Área Metropolitana De Lisboa,-9.174973,38.58474
25116409,Charneca de Caparica e Sobreda,Península de Setúbal,311,2025-03-20T07:22:00Z,25116409,Em curso,3329,Queda de estruturas temporárias ou móveis,0,0,0,0,2025-03-20T07:22:00Z,Almada,Setúbal,Área Metropolitana De Lisboa,-9.19513,38.61485
25116525,Charneca de Caparica e Sobreda,Península de Setúbal,311,2025-03-20T07:34:00Z,25116525,Em curso,3301,Queda de árvore,0,0,0,0,2025-03-20T07:34:00Z,Almada,Setúbal,Área Metropolitana De Lisboa,-9.18385,38.59055
25125415,Cascais e Estoril,Grande Lisboa,311,2025-03-21T07:23:00Z,25125415,Em curso,3301,Queda de árvore,0,1,0,2,2025-03-21T07:23:00Z,Cascais,Lisboa,Área Metropolitana De Lisboa,-9.419397,38.700982
25125674,Sardoal,Médio Tejo,311,2025-03-21T08:31:00Z,25125674,Em despacho,3313,Deslizamento de terras,0,1,0,2,2025-03-21T08:31:00Z,Sardoal,Santarém,Centro,-8.159407,39.539245
25125735,Torre de Moncorvo,Douro,309,2025-03-21T08:40:00Z,25125735,Em despacho,3301,Queda de árvore,0,1,0,4,2025-03-21T08:40:00Z,Torre De Moncorvo,Bragança,Norte,-7.051176,41.1689
25125901,São João Das Lampas e Terrugem,Grande Lisboa,311,2025-03-21T07:50:00Z,25125901,Em despacho,3301,Queda de árvore,0,1,0,2,2025-03-21T07:50:00Z,Sintra,Lisboa,Área Metropolitana De Lisboa,-9.436253,38.869236
25063232,Santa Maria do Castelo e Santiago e Santa Susana,Alentejo Litoral,312,2025-03-09T19:02:00Z,25063232,Em conclusão,1101,Cheia,0,0,0,0,2025-03-09T19:02:00Z,Alcácer Do Sal,Setúbal,Alentejo,-8.48167,38.29806
25113270,Charneca de Caparica e Sobreda,Península de Setúbal,311,2025-03-20T01:34:00Z,25113270,Em curso,3301,Queda de árvore,0,0,0,0,2025-03-20T01:34:00Z,Almada,Setúbal,Área Metropolitana De Lisboa,-9.17811,38.58586
25114074,Charneca de Caparica e Sobreda,Península de Setúbal,311,2025-03-20T02:52:00Z,25114074,Em curso,3301,Queda de árvore,0,0,0,0,2025-03-20T02:52:00Z,Almada,Setúbal,Área Metropolitana De Lisboa,-9.18666,38.59386
25118969,Igrejinha,Alentejo Central,312,2025-03-20T10:31:00Z,25118969,Em despacho,3315,Inundação de estruturas por precipitação intensa,0,1,0,2,2025-03-20T10:31:00Z,Arraiolos,Évora,Alentejo,-7.889471,38.693718
25125454,"S.maria, S.miguel, S.martinho, S.pedro Penaferrim",Grande Lisboa,311,2025-03-21T07:29:00Z,25125454,Em curso,3301,Queda de árvore,0,3,0,6,2025-03-21T07:29:00Z,Sintra,Lisboa,Área Metropolitana De Lisboa,-9.429169,38.796354
25125871,Mafamude e Vilar do Paraíso,Area M. Porto,309,2025-03-21T09:04:00Z,25125871,Em despacho,3315,Inundação de estruturas por precipitação intensa,0,1,0,3,2025-03-21T09:04:00Z,Vila Nova De Gaia,Porto,Norte,-8.611105,41.107184
25125906,Alvega e Concavada,Médio Tejo,311,2025-03-21T09:15:00Z,25125906,Em conclusão,3315,Inundação de estruturas por precipitação intensa,0,0,0,0,2025-03-21T09:15:00Z,Abrantes,Santarém,Centro,-8.027933,39.461163
25126074,Vila Nova de Milfontes,Alentejo Litoral,312,2025-03-21T09:27:00Z,25126074,Em despacho,3321,Dano na rede de fornecimento de eletricidade ,0,2,0,4,2025-03-21T09:27:00Z,Odemira,Beja,Alentejo,-8.787529,37.721575
25125942,"Oeiras e S. Julião da Barra, Paço de Arcos e Caxias",Grande Lisboa,311,2025-03-21T09:15:00Z,25125942,Em despacho,3301,Queda de árvore,0,1,0,5,2025-03-21T09:15:00Z,Oeiras,Lisboa,Área Metropolitana De Lisboa,-9.275682,38.698873
25126133,Samora Correia,Lezíria do Tejo,311,2025-03-21T09:45:00Z,25126133,Em conclusão,3301,Queda de árvore,0,1,0,3,2025-03-21T09:45:00Z,Benavente,Santarém,Alentejo,-8.840328,38.829023
25126151,São João de Ver,Area M. Porto,309,2025-03-21T09:40:00Z,25126151,Em despacho,3315,Inundação de estruturas por precipitação intensa,0,1,0,2,2025-03-21T09:40:00Z,Santa Maria Da Feira,Aveiro,Norte,-8.551133,40.95522
25126312,Cascais e Estoril,Grande Lisboa,311,2025-03-21T10:12:00Z,25126312,Em despacho,3301,Queda de árvore,0,0,0,0,2025-03-21T10:12:00Z,Cascais,Lisboa,Área Metropolitana De Lisboa,-9.40005,38.71304
25126387,Colares,Grande Lisboa,311,2025-03-21T10:00:00Z,25126387,Em curso,3301,Queda de árvore,0,3,0,5,2025-03-21T10:00:00Z,Sintra,Lisboa,Área Metropolitana De Lisboa,-9.460841,38.828425
25126476,"S.maria, S.miguel, S.martinho, S.pedro Penaferrim",Grande Lisboa,311,2025-03-21T10:28:00Z,25126476,Em despacho,3301,Queda de árvore,0,1,0,2,2025-03-21T10:28:00Z,Sintra,Lisboa,Área Metropolitana De Lisboa,-9.414924,38.772191
25126485,Sesimbra (Castelo),Península de Setúbal,311,2025-03-21T10:20:00Z,25126485,Em despacho,3301,Queda de árvore,0,2,0,7,2025-03-21T10:20:00Z,Sesimbra,Setúbal,Área Metropolitana De Lisboa,-9.124957,38.490885
25126487,Colares,Grande Lisboa,311,2025-03-21T10:31:00Z,25126487,Em despacho,3301,Queda de árvore,0,2,0,3,2025-03-21T10:31:00Z,Sintra,Lisboa,Área Metropolitana De Lisboa,-9.472032,38.811183
25126512,Montijo e Afonsoeiro,Península de Setúbal,311,2025-03-21T10:33:00Z,25126512,Em despacho,3329,Queda de estruturas temporárias ou móveis,0,2,0,5,2025-03-21T10:33:00Z,Montijo,Setúbal,Área Metropolitana De Lisboa,-8.991583,38.707396
25126535,Alcochete,Península de Setúbal,311,2025-03-21T10:38:00Z,25126535,Em despacho,3317,Inundação de estruturas por água canalizada,0,1,0,4,2025-03-21T10:38:00Z,Alcochete,Setúbal,Área Metropolitana De Lisboa,-9.003642,38.721635
25126088,"S.julião, N.s. da Anunciada e S. Maria da Graça",Península de Setúbal,311,2025-03-21T09:33:00Z,25126088,Em despacho,3301,Queda de árvore,0,1,0,5,2025-03-21T09:33:00Z,Setúbal,Setúbal,Área Metropolitana De Lisboa,-8.889983,38.529955
25126123,São Luís,Alentejo Litoral,312,2025-03-21T09:37:00Z,25126123,Em despacho,3301,Queda de árvore,0,1,0,2,2025-03-21T09:37:00Z,Odemira,Beja,Alentejo,-8.660162,37.674464
25126241,Carnaxide e Queijas,Grande Lisboa,311,2025-03-21T09:08:00Z,25126241,Em despacho,3301,Queda de árvore,0,2,0,6,2025-03-21T09:08:00Z,Oeiras,Lisboa,Área Metropolitana De Lisboa,-9.25881,38.722457
25126355,Rio de Mouro,Grande Lisboa,311,2025-03-21T08:45:00Z,25126355,Em despacho,3301,Queda de árvore,0,1,0,4,2025-03-21T08:45:00Z,Sintra,Lisboa,Área Metropolitana De Lisboa,-9.321906,38.783084
25126356,Benavente,Lezíria do Tejo,311,2025-03-21T10:20:00Z,25126356,Em curso,3301,Queda de árvore,0,0,0,0,2025-03-21T10:20:00Z,Benavente,Santarém,Alentejo,-8.804753,38.980872
25126424,São João Das Lampas e Terrugem,Grande Lisboa,311,2025-03-21T10:15:00Z,25126424,Em curso,3301,Queda de árvore,0,0,0,0,2025-03-21T10:15:00Z,Sintra,Lisboa,Área Metropolitana De Lisboa,-9.442718,38.844843
25126425,São João da Madeira,Area M. Porto,309,2025-03-21T10:25:00Z,25126425,Em despacho,3311,Queda de elementos de estruturas edificados,0,1,0,1,2025-03-21T10:25:00Z,São João Da Madeira,Aveiro,Norte,-8.490365,40.895632
25126537,Carriço,Região de Leiria,310,2025-03-21T10:40:00Z,25126537,Em despacho,3329,Queda de estruturas temporárias ou móveis,0,2,0,7,2025-03-21T10:40:00Z,Pombal,Leiria,Centro,-8.8051,39.981527
25126578,Gondemaria e Olival,Médio Tejo,311,2025-03-21T10:50:00Z,25126578,Em despacho,3301,Queda de árvore,0,2,0,5,2025-03-21T10:50:00Z,Ourém,Santarém,Centro,-8.632323,39.726623
25126610,Lagoaça e Fornos,Douro,309,2025-03-21T10:51:00Z,25126610,Em despacho,3311,Queda de elementos de estruturas edificados,0,1,0,4,2025-03-21T10:51:00Z,Freixo De Espada à Cinta,Bragança,Norte,-6.805517,41.178939
25126612,Nadadouro,Oeste,311,2025-03-21T10:52:00Z,25126612,Em despacho,3301,Queda de árvore,0,1,0,2,2025-03-21T10:52:00Z,Caldas Da Rainha,Leiria,Centro,-9.199088,39.417476
25126635,Famalicão,Oeste,311,2025-03-21T10:54:00Z,25126635,Em despacho,3301,Queda de árvore,0,2,0,5,2025-03-21T10:54:00Z,Nazaré,Leiria,Centro,-9.090446,39.539112
25126653,Quinta do Anjo,Península de Setúbal,311,2025-03-21T09:45:00Z,25126653,Em despacho,3301,Queda de árvore,0,1,0,4,2025-03-21T09:45:00Z,Palmela,Setúbal,Área Metropolitana De Lisboa,-8.938536,38.564763
25126696,Canidelo,Area M. Porto,309,2025-03-21T10:47:00Z,25126696,Em despacho,3311,Queda de elementos de estruturas edificados,0,1,0,2,2025-03-21T10:47:00Z,Vila Nova De Gaia,Porto,Norte,-8.652723,41.127681
25126712,Marmelete,Algarve,313,2025-03-21T10:50:00Z,25126712,Em despacho,3301,Queda de árvore,0,1,0,3,2025-03-21T10:50:00Z,Monchique,Faro,Algarve,-8.631595,37.300677
25126753,"Coruche, Fajarda e Erra",Lezíria do Tejo,311,2025-03-21T11:13:00Z,25126753,Em despacho,3301,Queda de árvore,0,1,0,4,2025-03-21T11:13:00Z,Coruche,Santarém,Alentejo,-8.445915,38.996802
25087162,Pedrógão,Baixo Alentejo,312,2025-03-14T17:00:00Z,25087162,Em curso,1101,Cheia,0,0,0,0,2025-03-14T17:00:00Z,Vidigueira,Beja,Alentejo,-7.630327,38.110775
25114370,Charneca de Caparica e Sobreda,Península de Setúbal,311,2025-03-20T03:20:00Z,25114370,Em curso,3301,Queda de árvore,0,0,0,0,2025-03-20T03:20:00Z,Almada,Setúbal,Área Metropolitana De Lisboa,-9.17923,38.60275
25115156,Charneca de Caparica e Sobreda,Península de Setúbal,311,2025-03-20T04:46:00Z,25115156,Em curso,3301,Queda de árvore,0,0,0,0,2025-03-20T04:46:00Z,Almada,Setúbal,Área Metropolitana De Lisboa,-9.199091,38.62959
25116192,Charneca de Caparica e Sobreda,Península de Setúbal,311,2025-03-20T06:59:00Z,25116192,Em curso,3301,Queda de árvore,0,0,0,0,2025-03-20T06:59:00Z,Almada,Setúbal,Área Metropolitana De Lisboa,-9.179431,38.58817
25117921,Charneca de Caparica e Sobreda,Península de Setúbal,311,2025-03-20T09:28:00Z,25117921,Em curso,3301,Queda de árvore,0,0,0,0,2025-03-20T09:28:00Z,Almada,Setúbal,Área Metropolitana De Lisboa,-9.204146,38.62766
25122574,Quarteira,Algarve,313,2025-03-20T16:38:00Z,25122574,Em curso,3301,Queda de árvore,0,1,0,2,2025-03-20T16:38:00Z,Loulé,Faro,Algarve,-8.1072,37.074665
25124196,Cascais e Estoril,Grande Lisboa,311,2025-03-20T20:25:00Z,25124196,Em despacho,3301,Queda de árvore,0,1,0,5,2025-03-20T20:25:00Z,Cascais,Lisboa,Área Metropolitana De Lisboa,-9.431354,38.711316
25125459,Massamá e Monte Abraão,Grande Lisboa,311,2025-03-21T07:28:00Z,25125459,Em despacho,3301,Queda de árvore,0,1,0,2,2025-03-21T07:28:00Z,Sintra,Lisboa,Área Metropolitana De Lisboa,-9.27045,38.75541
25125473,Charneca de Caparica e Sobreda,Península de Setúbal,311,2025-03-21T07:53:00Z,25125473,Em curso,3301,Queda de árvore,0,1,0,3,2025-03-21T07:53:00Z,Almada,Setúbal,Área Metropolitana De Lisboa,-9.200407,38.63274
25059714,Torrão,Alentejo Litoral,312,2025-03-08T22:10:00Z,25059714,Em curso,1101,Cheia,0,1,0,2,2025-03-08T22:10:00Z,Alcácer Do Sal,Setúbal,Alentejo,-8.359133,38.252053
25070044,Praia do Ribatejo,Médio Tejo,311,2025-03-10T19:30:00Z,25070044,Em curso,1101,Cheia,0,0,0,0,2025-03-10T19:30:00Z,Vila Nova Da Barquinha,Santarém,Centro,-8.357309,39.485638
25071496,São Manços e São Vicente do Pigeiro,Alentejo Central,312,2025-03-11T13:18:00Z,25071496,Em curso,1101,Cheia,0,2,0,4,2025-03-11T13:18:00Z,Évora,Évora,Alentejo,-7.713313,38.513673
25116205,Charneca de Caparica e Sobreda,Península de Setúbal,311,2025-03-20T07:00:00Z,25116205,Em curso,3301,Queda de árvore,0,0,0,0,2025-03-20T07:00:00Z,Almada,Setúbal,Área Metropolitana De Lisboa,-9.17532,38.61999
25116355,Charneca de Caparica e Sobreda,Península de Setúbal,311,2025-03-20T07:16:00Z,25116355,Em curso,3301,Queda de árvore,0,0,0,0,2025-03-20T07:16:00Z,Almada,Setúbal,Área Metropolitana De Lisboa,-9.16489,38.57347
25116522,Charneca de Caparica e Sobreda,Península de Setúbal,311,2025-03-20T07:34:00Z,25116522,Em curso,3301,Queda de árvore,0,0,0,0,2025-03-20T07:34:00Z,Almada,Setúbal,Área Metropolitana De Lisboa,-9.18201,38.59065
25116673,Costa da Caparica,Península de Setúbal,311,2025-03-20T07:49:00Z,25116673,Em curso,3301,Queda de árvore,0,0,0,0,2025-03-20T07:49:00Z,Almada,Setúbal,Área Metropolitana De Lisboa,-9.239889,38.65802
25123756,Mourão,Alentejo Central,312,2025-03-20T19:13:00Z,25123756,Em resolução,3321,Dano na rede de fornecimento de eletricidade ,0,2,0,5,2025-03-20T19:13:00Z,Mourão,Évora,Alentejo,-7.350227,38.385667
25125679,Almeirim,Lezíria do Tejo,311,2025-03-21T08:32:00Z,25125679,Em conclusão,3313,Deslizamento de terras,0,0,0,0,2025-03-21T08:32:00Z,Almeirim,Santarém,Alentejo,-8.623512,39.213884
25125781,Cascais e Estoril,Grande Lisboa,311,2025-03-21T08:52:00Z,25125781,Em despacho,3301,Queda de árvore,0,0,0,0,2025-03-21T08:52:00Z,Cascais,Lisboa,Área Metropolitana De Lisboa,-9.44577,38.70874
25126490,Benavente,Lezíria do Tejo,311,2025-03-21T10:38:00Z,25126490,Em resolução,3301,Queda de árvore,0,1,0,3,2025-03-21T10:38:00Z,Benavente,Santarém,Alentejo,-8.681852,38.897542
25126506,Pinhal Novo,Península de Setúbal,311,2025-03-21T10:35:00Z,25126506,Em despacho,3301,Queda de árvore,0,1,0,5,2025-03-21T10:35:00Z,Palmela,Setúbal,Área Metropolitana De Lisboa,-8.91294,38.637902
25126558,"Oeiras e S. Julião da Barra, Paço de Arcos e Caxias",Grande Lisboa,311,2025-03-21T10:40:00Z,25126558,Em despacho,3301,Queda de árvore,0,1,0,5,2025-03-21T10:40:00Z,Oeiras,Lisboa,Área Metropolitana De Lisboa,-9.310159,38.698531
25126572,Loures,Grande Lisboa,311,2025-03-21T10:41:00Z,25126572,Em despacho,3301,Queda de árvore,0,1,0,6,2025-03-21T10:41:00Z,Loures,Lisboa,Área Metropolitana De Lisboa,-9.199341,38.821199
25126605,São Joaninho,Viseu Dão Lafões,310,2025-03-21T10:43:00Z,25126605,Em despacho,3301,Queda de árvore,0,1,0,2,2025-03-21T10:43:00Z,Santa Comba Dão,Viseu,Centro,-8.118977,40.436472
25126608,Alcabideche,Grande Lisboa,311,2025-03-21T10:48:00Z,25126608,Em despacho,3301,Queda de árvore,0,1,0,5,2025-03-21T10:48:00Z,Cascais,Lisboa,Área Metropolitana De Lisboa,-9.438785,38.755713
25126760,Buarcos,Região de Coimbra,310,2025-03-21T11:00:00Z,25126760,Em despacho,3315,Inundação de estruturas por precipitação intensa,0,1,0,3,2025-03-21T11:00:00Z,Figueira Da Foz,Coimbra,Centro,-8.880897,40.168384
25126780,Vila Cova do Covelo/Mareco,Viseu Dão Lafões,310,2025-03-21T11:13:00Z,25126780,Em despacho,3301,Queda de árvore,0,1,0,2,2025-03-21T11:13:00Z,Penalva Do Castelo,Viseu,Centro,-7.590342,40.662135
25126796,Caparica e Trafaria,Península de Setúbal,311,2025-03-21T11:00:00Z,25126796,Em despacho,3301,Queda de árvore,0,1,0,4,2025-03-21T11:00:00Z,Almada,Setúbal,Área Metropolitana De Lisboa,-9.215111,38.660442
25126837,"S.julião, N.s. da Anunciada e S. Maria da Graça",Península de Setúbal,311,2025-03-21T11:17:00Z,25126837,Em despacho,3311,Queda de elementos de estruturas edificados,0,1,0,4,2025-03-21T11:17:00Z,Setúbal,Setúbal,Área Metropolitana De Lisboa,-8.889983,38.529955
25126860,Carcavelos e Parede,Grande Lisboa,311,2025-03-21T11:10:00Z,25126860,Em despacho,3321,Dano na rede de fornecimento de eletricidade ,0,1,0,2,2025-03-21T11:10:00Z,Cascais,Lisboa,Área Metropolitana De Lisboa,-9.355169,38.690219
25126639,Castelo Novo,Beiras e Serra da Estrela,310,2025-03-21T10:58:00Z,25126639,Em despacho,3315,Inundação de estruturas por precipitação intensa,0,1,0,2,2025-03-21T10:58:00Z,Fundão,Castelo Branco,Centro,-7.477277,40.07785
25126657,Torres do Mondego,Região de Coimbra,310,2025-03-21T10:54:00Z,25126657,Em despacho,3311,Queda de elementos de estruturas edificados,0,1,0,2,2025-03-21T10:54:00Z,Coimbra,Coimbra,Centro,-8.372775,40.219187
25126689,Santo Estêvão,Lezíria do Tejo,311,2025-03-21T11:03:00Z,25126689,Em despacho,3301,Queda de árvore,0,0,0,0,2025-03-21T11:03:00Z,Benavente,Santarém,Alentejo,-8.712798,38.852863
25126723,"S.pedro e Santiago, S.maria e S.miguel e Matacães",Oeste,311,2025-03-21T10:47:00Z,25126723,Em despacho,3301,Queda de árvore,0,1,0,4,2025-03-21T10:47:00Z,Torres Vedras,Lisboa,Centro,-9.251952,39.091829
25126757,Queluz e Belas,Grande Lisboa,311,2025-03-21T10:15:00Z,25126757,Em despacho,3301,Queda de árvore,0,1,0,2,2025-03-21T10:15:00Z,Sintra,Lisboa,Área Metropolitana De Lisboa,-9.253541,38.753134
25126773,Vila Nova de Foz Côa,Douro,309,2025-03-21T11:07:00Z,25126773,Em despacho,3301,Queda de árvore,0,2,0,5,2025-03-21T11:07:00Z,Vila Nova De Foz Côa,Guarda,Norte,-7.133474,41.085004
25126776,Ferrel,Oeste,311,2025-03-21T11:12:00Z,25126776,Em despacho,3329,Queda de estruturas temporárias ou móveis,0,2,0,4,2025-03-21T11:12:00Z,Peniche,Leiria,Centro,-9.312058,39.368649
25126806,"S.maria, S.miguel, S.martinho, S.pedro Penaferrim",Grande Lisboa,311,2025-03-21T11:09:00Z,25126806,Em despacho,3301,Queda de árvore,0,1,0,3,2025-03-21T11:09:00Z,Sintra,Lisboa,Área Metropolitana De Lisboa,-9.366763,38.781718
25126808,Esmeriz e Cabeçudos,Ave,309,2025-03-21T10:30:00Z,25126808,Em resolução,3301,Queda de árvore,0,2,0,3,2025-03-21T10:30:00Z,Vila Nova De Famalicão,Braga,Norte,-8.521198,41.380914
25126856,Serpins,Região de Coimbra,310,2025-03-21T11:26:00Z,25126856,Em despacho,3301,Queda de árvore,0,1,0,2,2025-03-21T11:26:00Z,Lousã,Coimbra,Centro,-8.198851,40.164483
25125677,Pardilhó,Região de Aveiro,310,2025-03-21T08:25:00Z,25125677,Em despacho,3315,Inundação de estruturas por precipitação intensa,0,1,0,1,2025-03-21T08:25:00Z,Estarreja,Aveiro,Centro,-8.635515,40.794679
25126025,Miragaia e Marteleira,Oeste,311,2025-03-21T09:25:00Z,25126025,Em curso,3301,Queda de árvore,0,0,0,0,2025-03-21T09:25:00Z,Lourinhã,Lisboa,Centro,-9.242037,39.203703
25126161,Ceira,Região de Coimbra,310,2025-03-21T09:30:00Z,25126161,Em conclusão,3313,Deslizamento de terras,0,1,0,2,2025-03-21T09:30:00Z,Coimbra,Coimbra,Centro,-8.389014,40.164217
25126300,Sesimbra (Castelo),Península de Setúbal,311,2025-03-21T10:08:00Z,25126300,Em despacho,3301,Queda de árvore,0,1,0,5,2025-03-21T10:08:00Z,Sesimbra,Setúbal,Área Metropolitana De Lisboa,-9.124957,38.490885
25126318,Rogil,Algarve,313,2025-03-21T10:06:00Z,25126318,Em despacho,3301,Queda de árvore,0,1,0,2,2025-03-21T10:06:00Z,Aljezur,Faro,Algarve,-8.812941,37.398883
25126329,Dornelas,Viseu Dão Lafões,310,2025-03-21T10:05:00Z,25126329,Em despacho,3301,Queda de árvore,0,1,0,2,2025-03-21T10:05:00Z,Aguiar Da Beira,Guarda,Centro,-7.558989,40.733123
25126336,Manteigas (Santa Maria),Beiras e Serra da Estrela,310,2025-03-21T10:00:00Z,25126336,Em despacho,3301,Queda de árvore,0,2,0,4,2025-03-21T10:00:00Z,Manteigas,Guarda,Centro,-7.537826,40.403513
25126393,Cernache,Região de Coimbra,310,2025-03-21T09:55:00Z,25126393,Em despacho,3301,Queda de árvore,0,1,0,3,2025-03-21T09:55:00Z,Coimbra,Coimbra,Centro,-8.473408,40.139683
25126434,Pombal,Região de Leiria,310,2025-03-21T10:15:00Z,25126434,Em despacho,3301,Queda de árvore,0,1,0,3,2025-03-21T10:15:00Z,Pombal,Leiria,Centro,-8.7086,39.921706
25125831,Arruda Dos Vinhos,Oeste,311,2025-03-21T08:53:00Z,25125831,Em despacho,3301,Queda de árvore,0,1,0,1,2025-03-21T08:53:00Z,Arruda Dos Vinhos,Lisboa,Centro,-9.075983,38.983497
25125981,Espinho,Região de Coimbra,310,2025-03-21T09:23:00Z,25125981,Em despacho,3301,Queda de árvore,0,1,0,3,2025-03-21T09:23:00Z,Mortágua,Viseu,Centro,-8.308611,40.392211
25126014,Gavião e Atalaia,Alto Alentejo,312,2025-03-21T09:28:00Z,25126014,Em despacho,3313,Deslizamento de terras,0,3,0,5,2025-03-21T09:28:00Z,Gavião,Portalegre,Alentejo,-7.950898,39.431018
25126081,Corte do Pinto,Baixo Alentejo,312,2025-03-21T09:30:00Z,25126081,Em conclusão,3301,Queda de árvore,0,1,0,2,2025-03-21T09:30:00Z,Mértola,Beja,Alentejo,-7.49685,37.711778
25126181,Parceiros e Azoia,Região de Leiria,310,2025-03-21T09:50:00Z,25126181,Em despacho,3301,Queda de árvore,0,1,0,2,2025-03-21T09:50:00Z,Leiria,Leiria,Centro,-8.834141,39.730081
25126246,Corval,Alentejo Central,312,2025-03-21T09:54:00Z,25126246,Em despacho,3311,Queda de elementos de estruturas edificados,0,1,0,2,2025-03-21T09:54:00Z,Reguengos De Monsaraz,Évora,Alentejo,-7.465278,38.444932
25126280,Carnota,Oeste,311,2025-03-21T10:00:00Z,25126280,Em despacho,3301,Queda de árvore,0,1,0,2,2025-03-21T10:00:00Z,Alenquer,Lisboa,Centro,-9.073261,39.039364
25126363,São Domingos de Rana,Grande Lisboa,311,2025-03-21T10:19:00Z,25126363,Em despacho,3321,Dano na rede de fornecimento de eletricidade ,0,0,0,0,2025-03-21T10:19:00Z,Cascais,Lisboa,Área Metropolitana De Lisboa,-9.331695,38.727273
25126430,Bombarral e Vale Covo,Oeste,311,2025-03-21T10:25:00Z,25126430,Em curso,3321,Dano na rede de fornecimento de eletricidade ,0,1,0,1,2025-03-21T10:25:00Z,Bombarral,Leiria,Centro,-9.180708,39.241595
25126481,Milharado,Grande Lisboa,311,2025-03-21T10:33:00Z,25126481,Em despacho,3301,Queda de árvore,0,1,0,5,2025-03-21T10:33:00Z,Mafra,Lisboa,Área Metropolitana De Lisboa,-9.191453,38.910446
25126563,Cascais e Estoril,Grande Lisboa,311,2025-03-21T10:30:00Z,25126563,Em despacho,3301,Queda de árvore,0,3,0,9,2025-03-21T10:30:00Z,Cascais,Lisboa,Área Metropolitana De Lisboa,-9.398759,38.70391
25126595,Canha,Península de Setúbal,311,2025-03-21T10:40:00Z,25126595,Em despacho,3301,Queda de árvore,0,1,0,2,2025-03-21T10:40:00Z,Montijo,Setúbal,Área Metropolitana De Lisboa,-8.632345,38.75606
25126645,Lamas,Região de Coimbra,310,2025-03-21T10:55:00Z,25126645,Em despacho,3301,Queda de árvore,0,1,0,2,2025-03-21T10:55:00Z,Miranda Do Corvo,Coimbra,Centro,-8.355895,40.087735
25126688,Azeitão (São Lourenço e São Simão),Península de Setúbal,311,2025-03-21T10:56:00Z,25126688,Em curso,3301,Queda de árvore,0,1,0,5,2025-03-21T10:56:00Z,Setúbal,Setúbal,Área Metropolitana De Lisboa,-9.033171,38.51723
25126702,São João Das Lampas e Terrugem,Grande Lisboa,311,2025-03-21T11:01:00Z,25126702,Em despacho,3301,Queda de árvore,0,1,0,1,2025-03-21T11:01:00Z,Sintra,Lisboa,Área Metropolitana De Lisboa,-9.442718,38.844843
25126754,Sandomil,Beiras e Serra da Estrela,310,2025-03-21T11:13:00Z,25126754,Em despacho,3301,Queda de árvore,0,1,0,2,2025-03-21T11:13:00Z,Seia,Guarda,Centro,-7.75049,40.3647
25126770,São João da Ribeira e Ribeira de São João,Lezíria do Tejo,311,2025-03-21T11:14:00Z,25126770,Em despacho,3301,Queda de árvore,0,2,0,6,2025-03-21T11:14:00Z,Rio Maior,Santarém,Alentejo,-8.846997,39.278763
25126795,Sarzedas,Beira Baixa,310,2025-03-21T11:17:00Z,25126795,Em despacho,3313,Deslizamento de terras,0,2,0,4,2025-03-21T11:17:00Z,Castelo Branco,Castelo Branco,Centro,-7.61616,39.847017
25126797,Marinhais,Lezíria do Tejo,311,2025-03-21T11:18:00Z,25126797,Em despacho,3315,Inundação de estruturas por precipitação intensa,0,1,0,4,2025-03-21T11:18:00Z,Salvaterra De Magos,Santarém,Alentejo,-8.704894,39.048061
25126804,Salvaterra de Magos e Foros de Salvaterra,Lezíria do Tejo,311,2025-03-21T11:20:00Z,25126804,Em despacho,3315,Inundação de estruturas por precipitação intensa,0,2,0,7,2025-03-21T11:20:00Z,Salvaterra De Magos,Santarém,Alentejo,-8.73342,39.006483
25126483,"Requeixo, Nossa Senhora de Fátima e Nariz",Região de Aveiro,310,2025-03-21T10:34:00Z,25126483,Em despacho,3315,Inundação de estruturas por precipitação intensa,0,1,0,2,2025-03-21T10:34:00Z,Aveiro,Aveiro,Centro,-8.576009,40.577003
25126516,Santa Maria Maior e Monserrate e Meadela,Alto Minho,309,2025-03-21T10:21:00Z,25126516,Em curso,3301,Queda de árvore,0,0,0,0,2025-03-21T10:21:00Z,Viana Do Castelo,Viana Do Castelo,Norte,-8.835942,41.696178
25126517,Moncarapacho e Fuseta,Algarve,313,2025-03-21T10:22:00Z,25126517,Em despacho,3301,Queda de árvore,0,3,0,6,2025-03-21T10:22:00Z,Olhão,Faro,Algarve,-7.782331,37.048022
25126582,Beja (Santiago Maior e São João Baptista),Baixo Alentejo,312,2025-03-21T10:51:00Z,25126582,Em conclusão,3311,Queda de elementos de estruturas edificados,0,1,0,2,2025-03-21T10:51:00Z,Beja,Beja,Alentejo,-7.86769,38.019103
25126647,Alcórrego e Maranhão,Alto Alentejo,312,2025-03-21T10:57:00Z,25126647,Em conclusão,3315,Inundação de estruturas por precipitação intensa,0,3,0,6,2025-03-21T10:57:00Z,Avis,Portalegre,Alentejo,-7.895177,39.04055
25126700,"S.maria, S.miguel, S.martinho, S.pedro Penaferrim",Grande Lisboa,311,2025-03-21T11:05:00Z,25126700,Em despacho,3301,Queda de árvore,0,1,0,2,2025-03-21T11:05:00Z,Sintra,Lisboa,Área Metropolitana De Lisboa,-9.366763,38.781718
25126715,Moita,Península de Setúbal,311,2025-03-21T11:06:00Z,25126715,Em despacho,3301,Queda de árvore,0,1,0,4,2025-03-21T11:06:00Z,Moita,Setúbal,Área Metropolitana De Lisboa,-8.960014,38.636677
25126801,Caparica e Trafaria,Península de Setúbal,311,2025-03-21T11:04:00Z,25126801,Em despacho,3301,Queda de árvore,0,1,0,3,2025-03-21T11:04:00Z,Almada,Setúbal,Área Metropolitana De Lisboa,-9.231582,38.671372
25126833,Cadafaz e Colmeal,Região de Coimbra,310,2025-03-21T11:20:00Z,25126833,Em despacho,3301,Queda de árvore,0,1,0,5,2025-03-21T11:20:00Z,Góis,Coimbra,Centro,-8.045093,40.150961
25126818,Évora de Alcobaça,Oeste,311,2025-03-21T11:10:00Z,25126818,Em despacho,3321,Dano na rede de fornecimento de eletricidade ,0,1,0,1,2025-03-21T11:10:00Z,Alcobaça,Leiria,Centro,-8.950723,39.515532
25126820,Corroios,Península de Setúbal,311,2025-03-21T11:19:00Z,25126820,Em despacho,3329,Queda de estruturas temporárias ou móveis,0,1,0,3,2025-03-21T11:19:00Z,Seixal,Setúbal,Área Metropolitana De Lisboa,-9.156509,38.644129
25126838,Alverca do Ribatejo e Sobralinho,Grande Lisboa,311,2025-03-21T08:50:00Z,25126838,Em despacho,3301,Queda de árvore,0,1,0,5,2025-03-21T08:50:00Z,Vila Franca De Xira,Lisboa,Área Metropolitana De Lisboa,-9.046012,38.896362
25126850,Póvoa de Santa Iria e Forte da Casa,Grande Lisboa,311,2025-03-21T09:58:00Z,25126850,Em despacho,3301,Queda de árvore,0,1,0,4,2025-03-21T09:58:00Z,Vila Franca De Xira,Lisboa,Área Metropolitana De Lisboa,-9.080109,38.86006
