id,address,subregion,neighborhood,date,id.1,state,nature,nature_description,aerial_means,terrestrial_means,aquatic_means,operational,date.1,Concelho,Distrito,NUTII_DSG,longitude,latitude,state_2
25720797,"Lavandeira, Beira Grande e Selores",Douro,309,2025-07-23T12:23:00Z,25720797,Em Resolução/Conclusão,3103,Incêndio rural,0,14,0,40,2025-07-23T12:23:00Z,Carrazeda De Ansiães,Bragança,Norte,-7.304242,41.205575,Resolução/Conclusão
25726161,Pontinha e Famões,Grande Lisboa,311,2025-07-24T13:55:00Z,25726161,Em Resolução/Conclusão,3103,Incêndio rural,0,11,0,36,2025-07-24T13:55:00Z,Odivelas,Lisboa,Área Metropolitana De Lisboa,-9.20487,38.770042,Resolução/Conclusão
25726490,"Santa Iria de Azoia, São João da Talha e Bobadela",Grande Lisboa,311,2025-07-24T14:53:00Z,25726490,Em Resolução/Conclusão,3103,Incêndio rural,0,6,0,20,2025-07-24T14:53:00Z,Loures,Lisboa,Área Metropolitana De Lisboa,-9.105925,38.811395,Resolução/Conclusão
25726504,Alvarenga,Area M. Porto,309,2025-07-24T14:55:00Z,25726504,Em Resolução/Conclusão,3103,Incêndio rural,0,3,0,13,2025-07-24T14:55:00Z,Arouca,Aveiro,Norte,-8.166741,40.973575,Resolução/Conclusão
25726604,Mirandela,Terras de Trás-os-Montes,309,2025-07-24T15:18:00Z,25726604,Em Resolução/Conclusão,3103,Incêndio rural,1,18,0,67,2025-07-24T15:18:00Z,Mirandela,Bragança,Norte,-7.16472,41.46139,Resolução/Conclusão
25726697,Salvaterra de Magos e Foros de Salvaterra,Lezíria do Tejo,311,2025-07-24T15:40:00Z,25726697,Em Resolução/Conclusão,3103,Incêndio rural,0,13,0,40,2025-07-24T15:40:00Z,Salvaterra De Magos,Santarém,Alentejo,-8.787715,39.018402,Resolução/Conclusão
25712338,Cercal,Alentejo Litoral,312,2025-07-21T17:38:00Z,25712338,Em Resolução/Conclusão,3103,Incêndio rural,0,8,0,23,2025-07-21T17:38:00Z,Santiago Do Cacém,Setúbal,Alentejo,-8.682272,37.791582,Resolução/Conclusão
25721930,Vilar de Perdizes e Meixide,Alto Tâmega e Barroso,309,2025-07-23T16:21:00Z,25721930,Em Resolução/Conclusão,3103,Incêndio rural,3,40,0,126,2025-07-23T16:21:00Z,NA,NA,NA,-7.618655,41.886193,Resolução/Conclusão
25725056,Pedrógão Pequeno,Beira Baixa,310,2025-07-24T10:16:00Z,25725056,Em Resolução/Conclusão,3101,Incêndio rural,0,5,0,16,2025-07-24T10:16:00Z,Sertã,Castelo Branco,Centro,-8.093663,39.879797,Resolução/Conclusão
25726609,Paredes,Area M. Porto,309,2025-07-24T15:15:00Z,25726609,Em Resolução/Conclusão,3103,Incêndio rural,0,1,0,5,2025-07-24T15:15:00Z,Paredes,Porto,Norte,-8.322245,41.231353,Resolução/Conclusão
25726660,Coronado (São Romão e São Mamede),Area M. Porto,309,2025-07-24T15:27:00Z,25726660,Em Resolução/Conclusão,3105,Incêndio rural,0,5,0,18,2025-07-24T15:27:00Z,Trofa,Porto,Norte,-8.560707,41.283243,Resolução/Conclusão
25726794,Mexilhoeira Grande,Algarve,313,2025-07-24T15:56:00Z,25726794,Em Resolução/Conclusão,3103,Incêndio rural,0,6,0,20,2025-07-24T15:56:00Z,Portimão,Faro,Algarve,-8.60098,37.16014,Resolução/Conclusão
25726826,Sousel,Alto Alentejo,312,2025-07-24T16:03:00Z,25726826,Em Resolução/Conclusão,3105,Incêndio rural,1,11,0,46,2025-07-24T16:03:00Z,Sousel,Portalegre,Alentejo,-7.66127,39.013377,Resolução/Conclusão
25726890,Argoncilhe,Area M. Porto,309,2025-07-24T15:58:00Z,25726890,Em Resolução/Conclusão,3103,Incêndio rural,0,1,0,5,2025-07-24T15:58:00Z,Santa Maria Da Feira,Aveiro,Norte,-8.540026,41.019658,Resolução/Conclusão
25720932,Bouro (Santa Marta),Cávado,309,2025-07-23T12:54:00Z,25720932,Em Resolução/Conclusão,3101,Incêndio rural,0,3,0,7,2025-07-23T12:54:00Z,Amares,Braga,Norte,-8.283857,41.671897,Resolução/Conclusão
25721382,Unhais da Serra,Beiras e Serra da Estrela,310,2025-07-23T14:29:00Z,25721382,Em Resolução/Conclusão,3105,Incêndio rural,0,2,0,6,2025-07-23T14:29:00Z,Covilhã,Castelo Branco,Centro,-7.61948,40.25114,Resolução/Conclusão
25725153,Troviscal,Beira Baixa,310,2025-07-24T10:31:00Z,25725153,Em Resolução/Conclusão,3101,Incêndio rural,0,5,0,19,2025-07-24T10:31:00Z,Sertã,Castelo Branco,Centro,-8.084768,39.877972,Resolução/Conclusão
25725251,Pedrógão Pequeno,Beira Baixa,310,2025-07-24T10:52:00Z,25725251,Em Resolução/Conclusão,3101,Incêndio rural,0,31,0,113,2025-07-24T10:52:00Z,Sertã,Castelo Branco,Centro,-8.084635,39.925647,Resolução/Conclusão
25726330,Olaia e Paço,Médio Tejo,311,2025-07-24T14:28:00Z,25726330,Em Resolução/Conclusão,3103,Incêndio rural,0,18,0,58,2025-07-24T14:28:00Z,Torres Novas,Santarém,Centro,-8.473736,39.498428,Resolução/Conclusão
25726378,Alcochete,Península de Setúbal,311,2025-07-24T14:30:00Z,25726378,Em Resolução/Conclusão,3103,Incêndio rural,0,0,0,0,2025-07-24T14:30:00Z,Alcochete,Setúbal,Área Metropolitana De Lisboa,-8.962464,38.749259,Resolução/Conclusão
25721619,Costa da Caparica,Península de Setúbal,311,2025-07-23T15:11:00Z,25721619,Em Resolução/Conclusão,3103,Incêndio rural,0,1,0,1,2025-07-23T15:11:00Z,Almada,Setúbal,Área Metropolitana De Lisboa,-9.21697,38.61683,Resolução/Conclusão
25725448,Ferreira do Alentejo e Canhestros,Baixo Alentejo,312,2025-07-24T11:29:00Z,25725448,Em Resolução/Conclusão,3103,Incêndio rural,0,0,0,0,2025-07-24T11:29:00Z,Ferreira Do Alentejo,Beja,Alentejo,-8.139218,38.07651,Resolução/Conclusão
25725615,Tourais e Lajes,Beiras e Serra da Estrela,310,2025-07-24T12:03:00Z,25725615,Em Resolução/Conclusão,3103,Incêndio rural,0,3,0,12,2025-07-24T12:03:00Z,Seia,Guarda,Centro,-7.784602,40.443185,Resolução/Conclusão
25726083,Girabolhos,Beiras e Serra da Estrela,310,2025-07-24T13:43:00Z,25726083,Em Resolução/Conclusão,3103,Incêndio rural,0,3,0,12,2025-07-24T13:43:00Z,Seia,Guarda,Centro,-7.740955,40.497992000000004,Resolução/Conclusão
25726885,Pinheiro,Viseu Dão Lafões,310,2025-07-24T16:13:00Z,25726885,Em Resolução/Conclusão,3103,Incêndio rural,1,10,0,47,2025-07-24T16:13:00Z,Aguiar Da Beira,Guarda,Centro,-7.576802,40.769152,Resolução/Conclusão
25726937,Alcabideche,Grande Lisboa,311,2025-07-24T16:20:00Z,25726937,Em Despacho,3103,Incêndio rural,0,1,0,5,2025-07-24T16:20:00Z,Cascais,Lisboa,Área Metropolitana De Lisboa,-9.441431,38.756802,Despacho
25727051,Cadaval e Pêro Moniz,Oeste,311,2025-07-24T16:45:00Z,25727051,Em Despacho,3103,Incêndio rural,0,2,0,7,2025-07-24T16:45:00Z,Cadaval,Lisboa,Centro,-9.101481,39.244497,Despacho
25726662,"Provesende, Gouvães Douro, S.cristóvão Douro",Douro,309,2025-07-24T15:28:00Z,25726662,Em Curso,3103,Incêndio rural,1,4,0,19,2025-07-24T15:28:00Z,Sabrosa,Vila Real,Norte,-7.562408,41.288733,Curso
25726689,Recarei,Area M. Porto,309,2025-07-24T15:35:00Z,25726689,Em Resolução/Conclusão,3103,Incêndio rural,0,3,0,15,2025-07-24T15:35:00Z,Paredes,Porto,Norte,-8.429612,41.155993,Resolução/Conclusão
25726746,Lavradas,Alto Minho,309,2025-07-24T15:46:00Z,25726746,Em Resolução/Conclusão,3103,Incêndio rural,0,2,0,8,2025-07-24T15:46:00Z,Ponte Da Barca,Viana Do Castelo,Norte,-8.468742,41.794632,Resolução/Conclusão
25726907,Alquerubim,Região de Aveiro,310,2025-07-24T16:18:00Z,25726907,Em Resolução/Conclusão,3103,Incêndio rural,1,4,0,23,2025-07-24T16:18:00Z,Albergaria-a-Velha,Aveiro,Centro,-8.497827,40.632582,Resolução/Conclusão
25726921,"Marvila, Ribeira Santarém, S.salvador, S.nicolau",Lezíria do Tejo,311,2025-07-24T16:23:00Z,25726921,Em Resolução/Conclusão,3103,Incêndio rural,0,3,0,9,2025-07-24T16:23:00Z,Santarém,Santarém,Alentejo,-8.731662,39.23991,Resolução/Conclusão
