id,address,subregion,neighborhood,date,id.1,state,nature,nature_description,aerial_means,terrestrial_means,aquatic_means,operational,date.1,Concelho,Distrito,NUTII_DSG,longitude,latitude,state_2
26088883,Nossa Senhora da Expectação,Alto Alentejo,312,2025-10-04T20:33:00Z,26088883,Em Resolução/Conclusão,3105,Incêndio rural,0,4,0,13,2025-10-04T20:33:00Z,Campo Maior,Portalegre,Alentejo,-7.058398,39.012755,Resolução/Conclusão
26088965,"Almada, Cova da Piedade, Pragal e Cacilhas",Península de Setúbal,311,2025-10-04T20:55:00Z,26088965,Em Resolução/Conclusão,3103,Incêndio rural,0,5,0,19,2025-10-04T20:55:00Z,Almada,Setúbal,Área Metropolitana De Lisboa,-9.176897,38.667807,Resolução/Conclusão
26022995,Bordeira,Algarve,313,2025-09-21T12:21:00Z,26022995,Em Resolução/Conclusão,3103,Incêndio rural,0,0,0,0,2025-09-21T12:21:00Z,Aljezur,Faro,Algarve,-8.825374,37.23495,Resolução/Conclusão
26089077,Quinta do Conde,Península de Setúbal,311,2025-10-04T21:27:00Z,26089077,Em Resolução/Conclusão,3103,Incêndio rural,0,3,0,12,2025-10-04T21:27:00Z,Sesimbra,Setúbal,Área Metropolitana De Lisboa,-9.041073,38.551432,Resolução/Conclusão
26087899,"Mangualde, Mesquitela e Cunha Alta",Viseu Dão Lafões,310,2025-10-04T16:10:00Z,26087899,Em Resolução/Conclusão,3103,Incêndio rural,0,1,0,5,2025-10-04T16:10:00Z,Mangualde,Viseu,Centro,-7.731137,40.595962,Resolução/Conclusão
26088804,Milharado,Grande Lisboa,311,2025-10-04T20:01:00Z,26088804,Em Resolução/Conclusão,3103,Incêndio rural,0,4,0,17,2025-10-04T20:01:00Z,Mafra,Lisboa,Área Metropolitana De Lisboa,-9.203727,38.941595,Resolução/Conclusão
26089053,Castelo Branco,Beira Baixa,310,2025-10-04T21:22:00Z,26089053,Em Resolução/Conclusão,3101,Incêndio rural,0,5,0,19,2025-10-04T21:22:00Z,Castelo Branco,Castelo Branco,Centro,-7.478387,39.797852,Resolução/Conclusão
