id,address,subregion,neighborhood,date,id.1,state,nature,nature_description,aerial_means,terrestrial_means,aquatic_means,operational,date.1,Concelho,Distrito,NUTII_DSG,longitude,latitude
25502829,Furadouro,Região de Coimbra,310,2025-06-09T21:04:00Z,25502829,Em conclusão,2301,Incêndio em transporte rodoviário,0,0,0,0,2025-06-09T21:04:00Z,Condeixa-a-Nova,Coimbra,Centro,-8.525201,40.07295
25503896,Póvoa de Santo Adrião e Olival Basto,Grande Lisboa,311,2025-06-10T06:10:00Z,25503896,Em resolução,2117,Incêndio em edifícios comerciais e gares de transporte,0,4,0,13,2025-06-10T06:10:00Z,Odivelas,Lisboa,Área Metropolitana De Lisboa,-9.167931,38.794609
25503877,Sendim,Tâmega e Sousa,309,2025-06-10T05:40:00Z,25503877,Em conclusão,3103,Incêndio rural,0,1,0,5,2025-06-10T05:40:00Z,Felgueiras,Porto,Norte,-8.190545,41.391867
25501569,Ovoa e Vimieiro,Viseu Dão Lafões,310,2025-06-09T16:30:00Z,25501569,Em conclusão,2301,Incêndio em transporte rodoviário,0,0,0,0,2025-06-09T16:30:00Z,Santa Comba Dão,Viseu,Centro,-8.179507,40.347382
25503556,Portela e Extremo,Alto Minho,309,2025-06-10T00:57:00Z,25503556,Em resolução,3103,Incêndio rural,0,6,0,24,2025-06-10T00:57:00Z,Arcos De Valdevez,Viana Do Castelo,Norte,-8.464202,41.960325
25503874,Alenquer (Santo Estêvão e Triana),Oeste,311,2025-06-10T05:42:00Z,25503874,Em conclusão,3103,Incêndio rural,0,2,0,7,2025-06-10T05:42:00Z,Alenquer,Lisboa,Centro,-8.980916,39.043676
