id,address,subregion,neighborhood,date,id.1,state,nature,nature_description,aerial_means,terrestrial_means,aquatic_means,operational,date.1,Concelho,Distrito,NUTII_DSG,longitude,latitude,state_2
25636341,Navió e Vitorino Dos Piães,Alto Minho,309,2025-07-06T13:36:00Z,25636341,Em Resolução/Conclusão,3103,Incêndio rural,0,16,0,53,2025-07-06T13:36:00Z,Ponte De Lima,Viana Do Castelo,Norte,-8.636015,41.674557,Resolução/Conclusão
25636995,Graça,Região de Leiria,310,2025-07-06T16:00:00Z,25636995,Em Resolução/Conclusão,3101,Incêndio rural,0,1,0,2,2025-07-06T16:00:00Z,Pedrógão Grande,Leiria,Centro,-8.220789,39.883478,Resolução/Conclusão
25637334,São Miguel de Acha,Beira Baixa,310,2025-07-06T17:22:00Z,25637334,Em Resolução/Conclusão,3105,Incêndio rural,0,2,0,10,2025-07-06T17:22:00Z,Idanha-a-Nova,Castelo Branco,Centro,-7.277732,39.997078,Resolução/Conclusão
25639447,Croca,Tâmega e Sousa,309,2025-07-07T07:37:00Z,25639447,Em Resolução/Conclusão,3103,Incêndio rural,0,3,0,15,2025-07-07T07:37:00Z,Penafiel,Porto,Norte,-8.230277,41.216447,Resolução/Conclusão
25639989,Luso,Região de Coimbra,310,2025-07-07T09:24:00Z,25639989,Em Curso,3101,Incêndio rural,1,6,0,34,2025-07-07T09:24:00Z,Mealhada,Aveiro,Centro,-8.359226,40.383117,Curso
25568922,Ourique,Baixo Alentejo,312,2025-06-23T16:31:00Z,25568922,Em Resolução/Conclusão,3105,Incêndio rural,0,0,0,0,2025-06-23T16:31:00Z,Ourique,Beja,Alentejo,-8.185897,37.658568,Resolução/Conclusão
25639384,Sertã,Beira Baixa,310,2025-07-07T07:18:00Z,25639384,Em Resolução/Conclusão,3105,Incêndio rural,0,1,0,2,2025-07-07T07:18:00Z,Sertã,Castelo Branco,Centro,-8.102188,39.802627,Resolução/Conclusão
