id,address,subregion,neighborhood,date,id.1,state,nature,nature_description,aerial_means,terrestrial_means,aquatic_means,operational,date.1,Concelho,Distrito,NUTII_DSG,longitude,latitude
25483277,Paranhos,Area M. Porto,309,2025-06-05T21:34:00Z,25483277,Em conclusão,2101,Incêndio em edifícios habitacionais,0,1,0,5,2025-06-05T21:34:00Z,Porto,Porto,Norte,-8.604254,41.174248
25483378,São Cristóvão de Nogueira,Tâmega e Sousa,309,2025-06-05T22:14:00Z,25483378,Em conclusão,2201,Incêndio em equipamentos ou produtos,0,3,0,12,2025-06-05T22:14:00Z,Cinfães,Viseu,Norte,-8.123139,41.063025
25483456,Ventosa e Cova,Ave,309,2025-06-05T22:54:00Z,25483456,Em despacho,3103,Incêndio rural,0,0,0,0,2025-06-05T22:54:00Z,Vieira Do Minho,Braga,Norte,-8.15785,41.668061
25480740,Torre de Coelheiros,Alentejo Central,312,2025-06-05T12:32:00Z,25480740,Em conclusão,3103,Incêndio rural,0,2,0,5,2025-06-05T12:32:00Z,Évora,Évora,Alentejo,-7.799997,38.46965
25483237,Estômbar e Parchal,Algarve,313,2025-06-05T21:42:00Z,25483237,Em conclusão,2201,Incêndio em equipamentos ou produtos,0,3,0,6,2025-06-05T21:42:00Z,Lagoa,Faro,Algarve,-8.48642,37.11423
25482200,São João Dos Caldeireiros,Baixo Alentejo,312,2025-06-05T17:13:00Z,25482200,Em conclusão,3105,Incêndio rural,0,15,0,40,2025-06-05T17:13:00Z,Mértola,Beja,Alentejo,-7.81599,37.59366
25483034,São Pedro da Torre,Alto Minho,309,2025-06-05T20:40:00Z,25483034,Em conclusão,3201,Detritos não confinados,0,0,0,0,2025-06-05T20:40:00Z,Valença,Viana Do Castelo,Norte,-8.647433,41.980885
25483384,Póvoa de Santa Iria e Forte da Casa,Grande Lisboa,311,2025-06-05T22:22:00Z,25483384,Em conclusão,2113,Incêndio em recintos de espetáculos e reuniões públicas,0,3,0,8,2025-06-05T22:22:00Z,Vila Franca De Xira,Lisboa,Área Metropolitana De Lisboa,-9.05982,38.87333
