id,address,subregion,neighborhood,date,id.1,state,nature,nature_description,aerial_means,terrestrial_means,aquatic_means,operational,date.1,Concelho,Distrito,NUTII_DSG,longitude,latitude,state_2
25785983,Caçarilhe e Infesta,Tâmega e Sousa,309,2025-08-04T18:22:00Z,25785983,Em Resolução/Conclusão,3103,Incêndio rural,0,2,0,6,2025-08-04T18:22:00Z,Celorico De Basto,Braga,Norte,-8.04611,41.419858,Resolução/Conclusão
25792058,Cibões e Brufe,Cávado,309,2025-08-05T19:10:00Z,25792058,Em Resolução/Conclusão,3103,Incêndio rural,0,1,0,5,2025-08-05T19:10:00Z,Terras De Bouro,Braga,Norte,-8.293932,41.764918,Resolução/Conclusão
25820422,Távora e Pereiro,Douro,309,2025-08-10T22:27:00Z,25820422,Em Curso,3103,Incêndio rural,0,71,0,202,2025-08-10T22:27:00Z,Tabuaço,Viseu,Norte,-7.55556,41.097602,Curso
25822776,Santos Evos,Viseu Dão Lafões,310,2025-08-11T11:05:00Z,25822776,Em Resolução/Conclusão,3103,Incêndio rural,0,1,0,5,2025-08-11T11:05:00Z,Viseu,Viseu,Centro,-7.810218,40.667813,Resolução/Conclusão
25826974,Salto,Alto Tâmega e Barroso,309,2025-08-12T03:35:00Z,25826974,Em Resolução/Conclusão,3103,Incêndio rural,0,1,0,5,2025-08-12T03:35:00Z,Montalegre,Vila Real,Norte,-7.97911,41.650235,Resolução/Conclusão
25830257,Vila Alva,Baixo Alentejo,312,2025-08-12T16:21:00Z,25830257,Em Curso,3103,Incêndio rural,0,45,0,129,2025-08-12T16:21:00Z,Cuba,Beja,Alentejo,-7.870563,38.233373,Curso
25830405,Antas e Ourozinho,Douro,309,2025-08-12T16:36:00Z,25830405,Em Resolução/Conclusão,3103,Incêndio rural,0,2,0,7,2025-08-12T16:36:00Z,Penedono,Viseu,Norte,-7.362458,40.952385,Resolução/Conclusão
25830505,Figueira Dos Cavaleiros,Baixo Alentejo,312,2025-08-12T17:08:00Z,25830505,Em Curso,3103,Incêndio rural,0,13,0,38,2025-08-12T17:08:00Z,Ferreira Do Alentejo,Beja,Alentejo,-8.394628,38.059088,Curso
25830573,Melres e Medas,Area M. Porto,309,2025-08-12T17:19:00Z,25830573,Em Resolução/Conclusão,3103,Incêndio rural,0,16,0,49,2025-08-12T17:19:00Z,Gondomar,Porto,Norte,-8.42413,41.060482,Resolução/Conclusão
25831032,Mértola,Baixo Alentejo,312,2025-08-12T18:59:00Z,25831032,Em Resolução/Conclusão,3105,Incêndio rural,0,12,0,33,2025-08-12T18:59:00Z,Mértola,Beja,Alentejo,-7.606915,37.703309,Resolução/Conclusão
25831077,Alvão,Alto Tâmega e Barroso,309,2025-08-12T19:11:00Z,25831077,Em Resolução/Conclusão,3103,Incêndio rural,0,1,0,5,2025-08-12T19:11:00Z,Vila Pouca De Aguiar,Vila Real,Norte,-7.74765,41.474064,Resolução/Conclusão
25775263,Torgueda,Douro,309,2025-08-02T19:49:00Z,25775263,Em Resolução/Conclusão,3101,Incêndio rural,0,5,0,14,2025-08-02T19:49:00Z,Vila Real,Vila Real,Norte,-7.785983,41.274952,Resolução/Conclusão
25807426,Alvite,Douro,309,2025-08-08T14:31:00Z,25807426,Em Curso,3103,Incêndio rural,0,23,0,91,2025-08-08T14:31:00Z,Moimenta Da Beira,Viseu,Norte,-7.688727,40.96613,Curso
25817913,Valpedre,Tâmega e Sousa,309,2025-08-10T13:18:00Z,25817913,Em Resolução/Conclusão,3103,Incêndio rural,0,3,0,9,2025-08-10T13:18:00Z,Penafiel,Porto,Norte,-8.311582,41.144047,Resolução/Conclusão
25823188,Fornos,Tâmega e Sousa,309,2025-08-11T12:07:00Z,25823188,Em Resolução/Conclusão,3105,Incêndio rural,0,1,0,5,2025-08-11T12:07:00Z,Castelo De Paiva,Aveiro,Norte,-8.247402,41.051843,Resolução/Conclusão
25824172,Vila Boa de Quires e Maureles,Tâmega e Sousa,309,2025-08-11T15:04:00Z,25824172,Em Resolução/Conclusão,3103,Incêndio rural,0,2,0,6,2025-08-11T15:04:00Z,Marco De Canaveses,Porto,Norte,-8.209745,41.18909,Resolução/Conclusão
25826678,Landal,Oeste,311,2025-08-12T00:07:00Z,25826678,Em Resolução/Conclusão,3101,Incêndio rural,0,1,0,2,2025-08-12T00:07:00Z,Caldas Da Rainha,Leiria,Centro,-9.020722,39.295158,Resolução/Conclusão
25829740,NA,NA,0,2025-08-12T14:44:00Z,25829740,Em Despacho,3103,Incêndio rural,0,4,0,9,2025-08-12T14:44:00Z,NA,NA,NA,-7.03798,42.004282,Despacho
25830104,Abraveses,Viseu Dão Lafões,310,2025-08-12T15:50:00Z,25830104,Em Resolução/Conclusão,3103,Incêndio rural,0,0,0,0,2025-08-12T15:50:00Z,Viseu,Viseu,Centro,-7.942775,40.690638,Resolução/Conclusão
25830935,São Jorge e Ermelo,Alto Minho,309,2025-08-12T18:42:00Z,25830935,Em Resolução/Conclusão,3103,Incêndio rural,0,2,0,6,2025-08-12T18:42:00Z,Arcos De Valdevez,Viana Do Castelo,Norte,-8.357764,41.814,Resolução/Conclusão
25831375,Agrela,Area M. Porto,309,2025-08-12T20:14:00Z,25831375,Em Curso,3103,Incêndio rural,0,2,0,5,2025-08-12T20:14:00Z,Santo Tirso,Porto,Norte,-8.472916,41.26163,Curso
25831149,NA,NA,0,2025-08-12T19:25:00Z,25831149,Em Despacho,3103,Incêndio rural,0,3,0,14,2025-08-12T19:25:00Z,NA,NA,NA,-7.487895,41.872966,Despacho
25831392,São Pedro D'Arcos,Alto Minho,309,2025-08-12T20:18:00Z,25831392,Em Despacho,3103,Incêndio rural,0,2,0,10,2025-08-12T20:18:00Z,Ponte De Lima,Viana Do Castelo,Norte,-8.641248,41.77638,Despacho
25831460,Espariz e Sinde,Região de Coimbra,310,2025-08-12T20:36:00Z,25831460,Em Despacho,3105,Incêndio rural,0,8,0,36,2025-08-12T20:36:00Z,Tábua,Coimbra,Centro,-8.028192,40.33287,Despacho
25773830,Andrães,Douro,309,2025-08-02T14:23:00Z,25773830,Em Resolução/Conclusão,3103,Incêndio rural,0,0,0,0,2025-08-02T14:23:00Z,Vila Real,Vila Real,Norte,-7.671293,41.267593,Resolução/Conclusão
25774883,Arnóia,Tâmega e Sousa,309,2025-08-02T18:20:00Z,25774883,Em Resolução/Conclusão,3103,Incêndio rural,0,2,0,6,2025-08-02T18:20:00Z,Celorico De Basto,Braga,Norte,-7.998983,41.348727,Resolução/Conclusão
25804968,Alvadia,Alto Tâmega e Barroso,309,2025-08-08T07:21:00Z,25804968,Em Resolução/Conclusão,3103,Incêndio rural,0,6,0,28,2025-08-08T07:21:00Z,Ribeira De Pena,Vila Real,Norte,-7.782872,41.457452,Resolução/Conclusão
25818455,Sobral de São Miguel,Beiras e Serra da Estrela,310,2025-08-10T15:02:00Z,25818455,Em Resolução/Conclusão,3103,Incêndio rural,0,126,0,375,2025-08-10T15:02:00Z,Covilhã,Castelo Branco,Centro,-7.77307,40.200173,Resolução/Conclusão
25828482,Escalos de Cima e Lousa,Beira Baixa,310,2025-08-12T11:10:00Z,25828482,Em Resolução/Conclusão,3103,Incêndio rural,0,1,0,5,2025-08-12T11:10:00Z,Castelo Branco,Castelo Branco,Centro,-7.368352,39.919662,Resolução/Conclusão
25829000,Escalos de Baixo e Mata,Beira Baixa,310,2025-08-12T12:36:00Z,25829000,Em Resolução/Conclusão,3105,Incêndio rural,0,1,0,5,2025-08-12T12:36:00Z,Castelo Branco,Castelo Branco,Centro,-7.3691,39.871955,Resolução/Conclusão
25829250,São João Baptista,Alto Alentejo,312,2025-08-12T13:17:00Z,25829250,Em Resolução/Conclusão,3105,Incêndio rural,0,6,0,21,2025-08-12T13:17:00Z,Campo Maior,Portalegre,Alentejo,-7.04285,39.032642,Resolução/Conclusão
25830417,Sezures,Viseu Dão Lafões,310,2025-08-12T16:50:00Z,25830417,Em Resolução/Conclusão,3101,Incêndio rural,0,10,0,33,2025-08-12T16:50:00Z,Penalva Do Castelo,Viseu,Centro,-7.601704,40.72072,Resolução/Conclusão
25776263,"Pena, Quintã e Vila Cova",Douro,309,2025-08-02T23:45:00Z,25776263,Em Curso,3103,Incêndio rural,0,162,0,478,2025-08-02T23:45:00Z,Vila Real,Vila Real,Norte,-7.811902,41.317355,Curso
25813482,Freches e Torres,Beiras e Serra da Estrela,310,2025-08-09T16:21:00Z,25813482,Em Curso,3103,Incêndio rural,0,202,0,590,2025-08-09T16:21:00Z,Trancoso,Guarda,Centro,-7.363745,40.709022,Curso
25824945,Povolide,Viseu Dão Lafões,310,2025-08-11T17:17:00Z,25824945,Em Resolução/Conclusão,3103,Incêndio rural,0,0,0,0,2025-08-11T17:17:00Z,Viseu,Viseu,Centro,-7.79583,40.660003,Resolução/Conclusão
25830279,"Pena, Quintã e Vila Cova",Douro,309,2025-08-12T16:21:00Z,25830279,Em Resolução/Conclusão,3103,Incêndio rural,0,4,0,15,2025-08-12T16:21:00Z,Vila Real,Vila Real,Norte,-7.86331,41.318053,Resolução/Conclusão
25830378,Ermidas-Sado,Alentejo Litoral,312,2025-08-12T16:42:00Z,25830378,Em Curso,3101,Incêndio rural,0,68,0,188,2025-08-12T16:42:00Z,Santiago Do Cacém,Setúbal,Alentejo,-8.404102,38.056457,Curso
25830513,Pelariga,Região de Leiria,310,2025-08-12T17:10:00Z,25830513,Em Resolução/Conclusão,3101,Incêndio rural,0,1,0,1,2025-08-12T17:10:00Z,Pombal,Leiria,Centro,-8.622348,39.986015,Resolução/Conclusão
25830630,Safara e Santo Aleixo da Restauração,Baixo Alentejo,312,2025-08-12T17:24:00Z,25830630,Em Resolução/Conclusão,3103,Incêndio rural,0,14,0,38,2025-08-12T17:24:00Z,Moura,Beja,Alentejo,-7.089277,38.059982,Resolução/Conclusão
25830830,Podence e Santa Combinha,Terras de Trás-os-Montes,309,2025-08-12T18:14:00Z,25830830,Em Resolução/Conclusão,3103,Incêndio rural,0,11,0,33,2025-08-12T18:14:00Z,Macedo De Cavaleiros,Bragança,Norte,-6.926542,41.595166999999996,Resolução/Conclusão
25831412,"Ardegão, Arnozela e Seidões",Ave,309,2025-08-12T20:26:00Z,25831412,Em Despacho,3103,Incêndio rural,0,4,0,20,2025-08-12T20:26:00Z,Fafe,Braga,Norte,-8.12237,41.40643,Despacho
25831480,Vila Boa do Bispo,Tâmega e Sousa,309,2025-08-12T20:40:00Z,25831480,Em Despacho,3103,Incêndio rural,0,0,0,0,2025-08-12T20:40:00Z,Marco De Canaveses,Porto,Norte,-8.21576,41.12183,Despacho
