id,address,subregion,neighborhood,date,id.1,state,nature,nature_description,aerial_means,terrestrial_means,aquatic_means,operational,date.1,Concelho,Distrito,NUTII_DSG,longitude,latitude
25071496,São Manços e São Vicente do Pigeiro,Alentejo Central,312,2025-03-11T13:18:00Z,25071496,Em conclusão,1101,Cheia,0,0,0,0,2025-03-11T13:18:00Z,Évora,Évora,Alentejo,-7.713313,38.513673
25318424,Nossa Senhora da Graça Dos Degolados,Alto Alentejo,312,2025-05-02T13:10:00Z,25318424,Em conclusão,1103,Vento forte,0,0,0,0,2025-05-02T13:10:00Z,Campo Maior,Portalegre,Alentejo,-7.12147,39.062622
25326344,"Ovar, São João, Arada e São Vicente de Pereira Jusã",Região de Aveiro,310,2025-05-04T09:44:00Z,25326344,Em despacho,3315,Inundação de estruturas por precipitação intensa,0,1,0,3,2025-05-04T09:44:00Z,Ovar,Aveiro,Centro,-8.632482,40.864029
25326582,"Oeiras e S. Julião da Barra, Paço de Arcos e Caxias",Grande Lisboa,311,2025-05-04T10:36:00Z,25326582,Em despacho,3311,Queda de elementos de estruturas edificados,0,1,0,3,2025-05-04T10:36:00Z,Oeiras,Lisboa,Área Metropolitana De Lisboa,-9.290593,38.696925
25316776,Guarda,Beiras e Serra da Estrela,310,2025-05-02T07:17:00Z,25316776,Em conclusão,3311,Queda de elementos de estruturas edificados,0,0,0,0,2025-05-02T07:17:00Z,Guarda,Guarda,Centro,-7.269039,40.539292
25326207,Monte Redondo e Carreira,Região de Leiria,310,2025-05-04T09:15:00Z,25326207,Em resolução,3315,Inundação de estruturas por precipitação intensa,0,2,0,4,2025-05-04T09:15:00Z,Leiria,Leiria,Centro,-8.837307,39.893268
25326400,"Leiria, Pousos, Barreira e Cortes",Região de Leiria,310,2025-05-04T09:56:00Z,25326400,Em despacho,3301,Queda de árvore,0,1,0,2,2025-05-04T09:56:00Z,Leiria,Leiria,Centro,-8.808534,39.735636
25326634,Lousã e Vilarinho,Região de Coimbra,310,2025-05-04T10:52:00Z,25326634,Em despacho,3301,Queda de árvore,0,1,0,2,2025-05-04T10:52:00Z,Lousã,Coimbra,Centro,-8.201113,40.080726
25326238,Marinha Grande,Região de Leiria,310,2025-05-04T09:20:00Z,25326238,Em curso,3315,Inundação de estruturas por precipitação intensa,0,1,0,2,2025-05-04T09:20:00Z,Marinha Grande,Leiria,Centro,-8.93254,39.75962
25326339,Canelas,Area M. Porto,309,2025-05-04T09:33:00Z,25326339,Em curso,3315,Inundação de estruturas por precipitação intensa,0,2,0,6,2025-05-04T09:33:00Z,Vila Nova De Gaia,Porto,Norte,-8.600638,41.079331
25326622,Cantanhede e Pocariça,Região de Coimbra,310,2025-05-04T10:40:00Z,25326622,Em despacho,3301,Queda de árvore,0,1,0,5,2025-05-04T10:40:00Z,Cantanhede,Coimbra,Centro,-8.590971,40.346407
