id,address,subregion,neighborhood,date,id.1,state,nature,nature_description,aerial_means,terrestrial_means,aquatic_means,operational,date.1,Concelho,Distrito,NUTII_DSG,longitude,latitude
25463709,Grijó e Sermonde,Area M. Porto,309,2025-06-02T00:05:00Z,25463709,Em conclusão,3103,Incêndio rural,0,1,0,6,2025-06-02T00:05:00Z,Vila Nova De Gaia,Porto,Norte,-8.582982,41.049473
25463868,Sampriz,Alto Minho,309,2025-06-02T01:30:00Z,25463868,Em resolução,3103,Incêndio rural,0,2,0,10,2025-06-02T01:30:00Z,Ponte Da Barca,Viana Do Castelo,Norte,-8.392082,41.797625
25463909,Trigaches e São Brissos,Baixo Alentejo,312,2025-06-02T01:57:00Z,25463909,Em conclusão,3203,Detritos confinados,0,1,0,3,2025-06-02T01:57:00Z,Beja,Beja,Alentejo,-7.972635,38.089317
25463952,Pontinha e Famões,Grande Lisboa,311,2025-06-02T02:28:00Z,25463952,Em conclusão,3203,Detritos confinados,0,1,0,5,2025-06-02T02:28:00Z,Odivelas,Lisboa,Área Metropolitana De Lisboa,-9.21503,38.78499
25461382,Pegões,Península de Setúbal,311,2025-06-01T13:30:00Z,25461382,Em curso,3201,Detritos não confinados,0,2,0,4,2025-06-01T13:30:00Z,Montijo,Setúbal,Área Metropolitana De Lisboa,-8.659163,38.685652
25463478,Insalde e Porreiras,Alto Minho,309,2025-06-01T22:30:00Z,25463478,Em conclusão,3103,Incêndio rural,0,5,0,17,2025-06-01T22:30:00Z,Paredes De Coura,Viana Do Castelo,Norte,-8.558217,41.964812
25463847,"Sandim, Olival, Lever e Crestuma",Area M. Porto,309,2025-06-02T01:18:00Z,25463847,Em conclusão,3103,Incêndio rural,0,6,0,24,2025-06-02T01:18:00Z,Vila Nova De Gaia,Porto,Norte,-8.534772,41.041977
