id,address,subregion,neighborhood,date,id.1,state,nature,nature_description,aerial_means,terrestrial_means,aquatic_means,operational,date.1,Concelho,Distrito,NUTII_DSG,longitude,latitude,state_2
26137682,Cabril,Viseu Dão Lafões,310,2025-10-14T20:26:00Z,26137682,Em Resolução/Conclusão,3103,Incêndio rural,0,1,0,5,2025-10-14T20:26:00Z,Castro Daire,Viseu,Centro,-8.09192,40.961935,Resolução/Conclusão
26140915,Cinco Vilas e Reigada,Beiras e Serra da Estrela,310,2025-10-15T14:07:00Z,26140915,Em Resolução/Conclusão,3103,Incêndio rural,0,4,0,10,2025-10-15T14:07:00Z,Figueira De Castelo Rodrigo,Guarda,Centro,-6.94653,40.776967,Resolução/Conclusão
26140933,Gafanha do Carmo,Região de Aveiro,310,2025-10-15T14:10:00Z,26140933,Em Resolução/Conclusão,3105,Incêndio rural,0,3,0,9,2025-10-15T14:10:00Z,Ílhavo,Aveiro,Centro,-8.740618,40.589963,Resolução/Conclusão
26141299,"Silvares, Pias, Nogueira e Alvarenga",Tâmega e Sousa,309,2025-10-15T14:53:00Z,26141299,Em Despacho,3105,Incêndio rural,0,1,0,5,2025-10-15T14:53:00Z,Lousada,Porto,Norte,-8.282354,41.287325,Despacho
26140430,"Torres Novas (Santa Maria, Salvador e Santiago)",Médio Tejo,311,2025-10-15T12:29:00Z,26140430,Em Resolução/Conclusão,3103,Incêndio rural,0,3,0,9,2025-10-15T12:29:00Z,Torres Novas,Santarém,Centro,-8.480182,39.489692,Resolução/Conclusão
26141200,"Guia, Ilha e Mata Mourisca",Região de Leiria,310,2025-10-15T14:58:00Z,26141200,Em Curso,3103,Incêndio rural,1,4,0,23,2025-10-15T14:58:00Z,Pombal,Leiria,Centro,-8.7571,39.97689,Curso
26140392,Soajo,Alto Minho,309,2025-10-15T12:22:00Z,26140392,Em Resolução/Conclusão,3103,Incêndio rural,0,3,0,10,2025-10-15T12:22:00Z,Arcos De Valdevez,Viana Do Castelo,Norte,-8.219368,41.903442,Resolução/Conclusão
26140644,Chorense e Monte,Cávado,309,2025-10-15T13:16:00Z,26140644,Em Resolução/Conclusão,3103,Incêndio rural,0,8,0,34,2025-10-15T13:16:00Z,Terras De Bouro,Braga,Norte,-8.254743,41.702095,Resolução/Conclusão
26140676,Alvarelhos e Guidões,Area M. Porto,309,2025-10-15T13:20:00Z,26140676,Em Resolução/Conclusão,3103,Incêndio rural,0,2,0,6,2025-10-15T13:20:00Z,Trofa,Porto,Norte,-8.614493,41.294325,Resolução/Conclusão
26140878,Regadas,Ave,309,2025-10-15T14:00:00Z,26140878,Em Resolução/Conclusão,3103,Incêndio rural,0,2,0,6,2025-10-15T14:00:00Z,Fafe,Braga,Norte,-8.140147,41.40536,Resolução/Conclusão
26140962,Avessadas e Rosém,Tâmega e Sousa,309,2025-10-15T14:10:00Z,26140962,Em Resolução/Conclusão,3103,Incêndio rural,0,2,0,10,2025-10-15T14:10:00Z,Marco De Canaveses,Porto,Norte,-8.190742,41.160777,Resolução/Conclusão
26140978,São Pedro da Cadeira,Oeste,311,2025-10-15T14:18:00Z,26140978,Em Resolução/Conclusão,3103,Incêndio rural,0,4,0,13,2025-10-15T14:18:00Z,Torres Vedras,Lisboa,Centro,-9.369772,39.08541,Resolução/Conclusão
26141111,Alvora e Loureda,Alto Minho,309,2025-10-15T14:43:00Z,26141111,Em Curso,3103,Incêndio rural,1,1,0,11,2025-10-15T14:43:00Z,Arcos De Valdevez,Viana Do Castelo,Norte,-8.440198,41.951498,Curso
26141261,Lagares e Figueira,Tâmega e Sousa,309,2025-10-15T15:09:00Z,26141261,Em Resolução/Conclusão,3105,Incêndio rural,0,1,0,5,2025-10-15T15:09:00Z,Penafiel,Porto,Norte,-8.37227,41.119677,Resolução/Conclusão
26141312,Bemposta,Médio Tejo,311,2025-10-15T15:23:00Z,26141312,Em Despacho,3103,Incêndio rural,0,3,0,15,2025-10-15T15:23:00Z,Abrantes,Santarém,Centro,-8.127034,39.31425,Despacho
26137442,Cabril,Viseu Dão Lafões,310,2025-10-14T19:16:00Z,26137442,Em Resolução/Conclusão,3103,Incêndio rural,0,1,0,4,2025-10-14T19:16:00Z,Castro Daire,Viseu,Centro,-8.059472,40.970448,Resolução/Conclusão
26140802,Talhadas,Região de Aveiro,310,2025-10-15T13:42:00Z,26140802,Em Resolução/Conclusão,3101,Incêndio rural,0,19,0,61,2025-10-15T13:42:00Z,Sever Do Vouga,Aveiro,Centro,-8.320335,40.682953,Resolução/Conclusão
26141329,Leomil,Douro,309,2025-10-15T15:22:00Z,26141329,Em Despacho,3103,Incêndio rural,1,6,0,29,2025-10-15T15:22:00Z,Moimenta Da Beira,Viseu,Norte,-7.636471,40.979311,Despacho
26141309,São Miguel do Rio Torto e Rossio Ao Sul do Tejo,Médio Tejo,311,2025-10-15T15:23:00Z,26141309,Em Despacho,3103,Incêndio rural,1,3,0,15,2025-10-15T15:23:00Z,Abrantes,Santarém,Centro,-8.19027,39.43311,Despacho
