id,address,subregion,neighborhood,date,id.1,state,nature,nature_description,aerial_means,terrestrial_means,aquatic_means,operational,date.1,Concelho,Distrito,NUTII_DSG,longitude,latitude,state_2
25646433,Poiares,Alto Minho,309,2025-07-08T12:15:00Z,25646433,Em Resolução/Conclusão,3103,Incêndio rural,0,2,0,10,2025-07-08T12:15:00Z,Ponte De Lima,Viana Do Castelo,Norte,-8.630928,41.664155,Resolução/Conclusão
25646834,Candemil e Gondar,Alto Minho,309,2025-07-08T13:37:00Z,25646834,Em Resolução/Conclusão,3101,Incêndio rural,0,1,0,4,2025-07-08T13:37:00Z,Vila Nova De Cerveira,Viana Do Castelo,Norte,-8.695768,41.93884,Resolução/Conclusão
25647051,"Ovar, São João, Arada e São Vicente de Pereira Jusã",Região de Aveiro,310,2025-07-08T14:16:00Z,25647051,Em Resolução/Conclusão,3105,Incêndio rural,0,9,0,23,2025-07-08T14:16:00Z,Ovar,Aveiro,Centro,-8.63732,40.864115,Resolução/Conclusão
25647385,"Fundão, Valverde, Donas, Aldeia de Joanes e Aldeia Nova do Cabo",Beiras e Serra da Estrela,310,2025-07-08T15:11:00Z,25647385,Em Resolução/Conclusão,3103,Incêndio rural,0,26,0,88,2025-07-08T15:11:00Z,Fundão,Castelo Branco,Centro,-7.447838,40.023465,Resolução/Conclusão
25647452,Fornelos,Tâmega e Sousa,309,2025-07-08T15:23:00Z,25647452,Em Resolução/Conclusão,3103,Incêndio rural,0,21,0,75,2025-07-08T15:23:00Z,Cinfães,Viseu,Norte,-8.198376,41.018675,Resolução/Conclusão
25647934,Travanca,Tâmega e Sousa,309,2025-07-08T16:50:00Z,25647934,Em Curso,3103,Incêndio rural,0,9,0,32,2025-07-08T16:50:00Z,Cinfães,Viseu,Norte,-8.219345,41.044025,Curso
25648353,"São Pedro do Sul, Várzea e Baiões",Viseu Dão Lafões,310,2025-07-08T18:21:00Z,25648353,Em Resolução/Conclusão,3103,Incêndio rural,2,18,0,74,2025-07-08T18:21:00Z,São Pedro Do Sul,Viseu,Centro,-8.068077,40.749942,Resolução/Conclusão
25642652,São Teotónio,Alentejo Litoral,312,2025-07-07T17:18:00Z,25642652,Em Resolução/Conclusão,3101,Incêndio rural,0,1,0,5,2025-07-07T17:18:00Z,Odemira,Beja,Alentejo,-8.590532,37.422208,Resolução/Conclusão
25644672,Pedrógão Grande,Região de Leiria,310,2025-07-08T05:25:00Z,25644672,Em Resolução/Conclusão,3101,Incêndio rural,0,1,0,2,2025-07-08T05:25:00Z,Pedrógão Grande,Leiria,Centro,-8.177475,39.934117,Resolução/Conclusão
25644708,Vila Facaia,Região de Leiria,310,2025-07-08T05:53:00Z,25644708,Em Resolução/Conclusão,3101,Incêndio rural,0,2,0,4,2025-07-08T05:53:00Z,Pedrógão Grande,Leiria,Centro,-8.219692,39.940218,Resolução/Conclusão
25646735,Campelo e Ovil,Tâmega e Sousa,309,2025-07-08T13:19:00Z,25646735,Em Resolução/Conclusão,3105,Incêndio rural,0,7,0,28,2025-07-08T13:19:00Z,Baião,Porto,Norte,-8.00404,41.193612,Resolução/Conclusão
25646903,Gondiães e Vilar de Cunhas,Ave,309,2025-07-08T13:53:00Z,25646903,Em Resolução/Conclusão,3103,Incêndio rural,0,2,0,8,2025-07-08T13:53:00Z,Cabeceiras De Basto,Braga,Norte,-7.859303,41.557525,Resolução/Conclusão
25646971,Branca,Região de Aveiro,310,2025-07-08T14:05:00Z,25646971,Em Resolução/Conclusão,3103,Incêndio rural,0,5,0,11,2025-07-08T14:05:00Z,Albergaria-a-Velha,Aveiro,Centro,-8.526137,40.740243,Resolução/Conclusão
25644550,Lomba,Area M. Porto,309,2025-07-08T03:03:00Z,25644550,Em Resolução/Conclusão,3103,Incêndio rural,0,4,0,14,2025-07-08T03:03:00Z,Gondomar,Porto,Norte,-8.406343,41.033605,Resolução/Conclusão
25646540,Beja (Salvador e Santa Maria da Feira),Baixo Alentejo,312,2025-07-08T12:41:00Z,25646540,Em Resolução/Conclusão,3105,Incêndio rural,0,0,0,0,2025-07-08T12:41:00Z,Beja,Beja,Alentejo,-7.86418,38.02794,Resolução/Conclusão
25646909,Nespereira,Tâmega e Sousa,309,2025-07-08T13:53:00Z,25646909,Em Curso,3103,Incêndio rural,3,16,0,66,2025-07-08T13:53:00Z,Cinfães,Viseu,Norte,-8.122663,40.996095,Curso
25647659,Astromil,Area M. Porto,309,2025-07-08T16:00:00Z,25647659,Em Resolução/Conclusão,3101,Incêndio rural,0,7,0,23,2025-07-08T16:00:00Z,Paredes,Porto,Norte,-8.417342,41.198513,Resolução/Conclusão
25647927,Cepelos,Area M. Porto,309,2025-07-08T16:47:00Z,25647927,Em Resolução/Conclusão,3103,Incêndio rural,0,8,0,23,2025-07-08T16:47:00Z,Vale De Cambra,Aveiro,Norte,-8.351219,40.82645,Resolução/Conclusão
25647960,Miranda do Corvo,Região de Coimbra,310,2025-07-08T16:54:00Z,25647960,Em Resolução/Conclusão,3105,Incêndio rural,0,3,0,15,2025-07-08T16:54:00Z,Miranda Do Corvo,Coimbra,Centro,-8.321531,40.117393,Resolução/Conclusão
25648046,Vacariça,Região de Coimbra,310,2025-07-08T17:16:00Z,25648046,Em Resolução/Conclusão,3105,Incêndio rural,0,4,0,13,2025-07-08T17:16:00Z,Mealhada,Aveiro,Centro,-8.408114,40.37014,Resolução/Conclusão
25648079,Revelhe,Ave,309,2025-07-08T17:24:00Z,25648079,Em Resolução/Conclusão,3103,Incêndio rural,0,8,0,32,2025-07-08T17:24:00Z,Fafe,Braga,Norte,-8.151317,41.491782,Resolução/Conclusão
25648266,Lavos,Região de Coimbra,310,2025-07-08T18:06:00Z,25648266,Em Resolução/Conclusão,3101,Incêndio rural,0,7,0,25,2025-07-08T18:06:00Z,Figueira Da Foz,Coimbra,Centro,-8.862041,40.078138,Resolução/Conclusão
25648309,Orvalho,Beira Baixa,310,2025-07-08T18:13:00Z,25648309,Em Resolução/Conclusão,3103,Incêndio rural,4,24,0,106,2025-07-08T18:13:00Z,Oleiros,Castelo Branco,Centro,-7.791058,40.022607,Resolução/Conclusão
25648364,Caldas de São Jorge e Pigeiros,Area M. Porto,309,2025-07-08T18:17:00Z,25648364,Em Resolução/Conclusão,3103,Incêndio rural,0,1,0,5,2025-07-08T18:17:00Z,Santa Maria Da Feira,Aveiro,Norte,-8.496356,40.954077,Resolução/Conclusão
25648146,Pedrógão,Baixo Alentejo,312,2025-07-08T17:28:00Z,25648146,Em Resolução/Conclusão,3105,Incêndio rural,0,2,0,6,2025-07-08T17:28:00Z,Vidigueira,Beja,Alentejo,-7.651512,38.170178,Resolução/Conclusão
25648177,Alfena,Area M. Porto,309,2025-07-08T17:44:00Z,25648177,Em Resolução/Conclusão,3103,Incêndio rural,0,14,0,47,2025-07-08T17:44:00Z,Valongo,Porto,Norte,-8.527253,41.226017,Resolução/Conclusão
25648344,"Caia, São Pedro e Alcáçova",Alto Alentejo,312,2025-07-08T18:21:00Z,25648344,Em Resolução/Conclusão,3105,Incêndio rural,0,3,0,10,2025-07-08T18:21:00Z,Elvas,Portalegre,Alentejo,-7.159315,38.883682,Resolução/Conclusão
25648445,São Marcos da Serra,Algarve,313,2025-07-08T18:43:00Z,25648445,Em Curso,3103,Incêndio rural,1,6,0,29,2025-07-08T18:43:00Z,Silves,Faro,Algarve,-8.383785,37.397873,Curso
25648477,Eiras e São Paulo de Frades,Região de Coimbra,310,2025-07-08T18:54:00Z,25648477,Em Despacho,3105,Incêndio rural,0,0,0,0,2025-07-08T18:54:00Z,Coimbra,Coimbra,Centro,-8.436464,40.25039,Despacho
25641154,Urra,Alto Alentejo,312,2025-07-07T12:29:00Z,25641154,Em Resolução/Conclusão,3101,Incêndio rural,0,5,0,15,2025-07-07T12:29:00Z,Portalegre,Portalegre,Alentejo,-7.46314,39.23684,Resolução/Conclusão
25644630,Recezinhos (São Mamede),Tâmega e Sousa,309,2025-07-08T04:33:00Z,25644630,Em Resolução/Conclusão,3103,Incêndio rural,0,6,0,18,2025-07-08T04:33:00Z,Penafiel,Porto,Norte,-8.216673,41.2387,Resolução/Conclusão
25644846,Castêlo da Maia,Area M. Porto,309,2025-07-08T07:09:00Z,25644846,Em Resolução/Conclusão,3101,Incêndio rural,0,2,0,4,2025-07-08T07:09:00Z,Maia,Porto,Norte,-8.639653,41.276835,Resolução/Conclusão
25645409,"N.s. Conceição, S. Brás Matos, Juromenha",Alentejo Central,312,2025-07-08T09:22:00Z,25645409,Em Curso,3103,Incêndio rural,8,96,0,296,2025-07-08T09:22:00Z,Alandroal,Évora,Alentejo,-7.4021,38.67416,Curso
25646277,Talhinhas e Bagueixe,Terras de Trás-os-Montes,309,2025-07-08T11:44:00Z,25646277,Em Resolução/Conclusão,3103,Incêndio rural,0,10,0,29,2025-07-08T11:44:00Z,Macedo De Cavaleiros,Bragança,Norte,-6.758352,41.539552,Resolução/Conclusão
25646352,São Marcos da Ataboeira,Baixo Alentejo,312,2025-07-08T11:56:00Z,25646352,Em Resolução/Conclusão,3105,Incêndio rural,0,14,0,33,2025-07-08T11:56:00Z,Castro Verde,Beja,Alentejo,-7.912954,37.747521,Resolução/Conclusão
25647106,Tortosendo,Beiras e Serra da Estrela,310,2025-07-08T14:25:00Z,25647106,Em Resolução/Conclusão,3103,Incêndio rural,0,25,0,84,2025-07-08T14:25:00Z,Covilhã,Castelo Branco,Centro,-7.508533,40.223705,Resolução/Conclusão
25647206,São Pedro Fins,Area M. Porto,309,2025-07-08T14:43:00Z,25647206,Em Resolução/Conclusão,3103,Incêndio rural,0,3,0,11,2025-07-08T14:43:00Z,Maia,Porto,Norte,-8.550979,41.2361,Resolução/Conclusão
25647679,Castelo Novo,Beiras e Serra da Estrela,310,2025-07-08T16:03:00Z,25647679,Em Resolução/Conclusão,3103,Incêndio rural,0,1,0,5,2025-07-08T16:03:00Z,Fundão,Castelo Branco,Centro,-7.46122,40.066678,Resolução/Conclusão
25647847,São João de Negrilhos,Baixo Alentejo,312,2025-07-08T16:18:00Z,25647847,Em Resolução/Conclusão,3103,Incêndio rural,0,12,0,34,2025-07-08T16:18:00Z,Aljustrel,Beja,Alentejo,-8.207021,37.939602,Resolução/Conclusão
25648258,Freamunde,Tâmega e Sousa,309,2025-07-08T17:59:00Z,25648258,Em Resolução/Conclusão,3105,Incêndio rural,0,1,0,5,2025-07-08T17:59:00Z,Paços De Ferreira,Porto,Norte,-8.342765,41.291383,Resolução/Conclusão
25648390,Quirás e Pinheiro Novo,Terras de Trás-os-Montes,309,2025-07-08T18:30:00Z,25648390,Em Despacho,3103,Incêndio rural,1,6,0,32,2025-07-08T18:30:00Z,Vinhais,Bragança,Norte,-7.13879,41.91068,Despacho
