id,address,subregion,neighborhood,date,id.1,state,nature,nature_description,aerial_means,terrestrial_means,aquatic_means,operational,date.1,Concelho,Distrito,NUTII_DSG,longitude,latitude
24787126,"São Salvador, Vila Fonche e Parada",Alto Minho,309,2025-01-07T15:28:00Z,24787126,Em curso,3315,Inundação de estruturas por precipitação intensa,0,0,0,0,2025-01-07T15:28:00Z,Arcos De Valdevez,Viana Do Castelo,Norte,-8.434914,41.849026
24787402,Peniche,Oeste,311,2025-01-07T16:30:00Z,24787402,Em despacho,3311,Queda de elementos de estruturas edificados,0,4,0,8,2025-01-07T16:30:00Z,Peniche,Leiria,Centro,-9.376833,39.357166
24777071,Pedrógão Grande,Região de Leiria,310,2025-01-05T13:18:00Z,24777071,Em conclusão,3309,Desabamento de estruturas edificadas,0,1,0,1,2025-01-05T13:18:00Z,Pedrógão Grande,Leiria,Centro,-8.177567,39.933038
24787308,Amora,Península de Setúbal,311,2025-01-07T16:10:00Z,24787308,Em curso,3317,Inundação de estruturas por água canalizada,0,1,0,3,2025-01-07T16:10:00Z,Seixal,Setúbal,Área Metropolitana De Lisboa,-9.115993,38.621057
24787458,Oliveira do Douro,Area M. Porto,309,2025-01-07T16:39:00Z,24787458,Em despacho,3311,Queda de elementos de estruturas edificados,0,1,0,3,2025-01-07T16:39:00Z,Vila Nova De Gaia,Porto,Norte,-8.58327,41.127164
