id,address,subregion,neighborhood,date,id.1,state,nature,nature_description,aerial_means,terrestrial_means,aquatic_means,operational,date.1,Concelho,Distrito,NUTII_DSG,longitude,latitude,state_2
25934137,Espinho,Cávado,309,2025-09-02T16:00:00Z,25934137,Em Despacho,3111,Queima,0,1,0,2,2025-09-02T16:00:00Z,Braga,Braga,Norte,-8.358281,41.543756,Despacho
25934438,Bacelo e Senhora da Saúde,Alentejo Central,312,2025-09-02T17:31:00Z,25934438,Em Resolução/Conclusão,3103,Incêndio rural,0,3,0,10,2025-09-02T17:31:00Z,Évora,Évora,Alentejo,-7.899465,38.57564,Resolução/Conclusão
25934414,"Alpendorada, Várzea e Torrão",Tâmega e Sousa,309,2025-09-02T17:26:00Z,25934414,Em Curso,3103,Incêndio rural,1,3,0,21,2025-09-02T17:26:00Z,Marco De Canaveses,Porto,Norte,-8.279413,41.08768,Curso
25934531,Parada e Faílde,Terras de Trás-os-Montes,309,2025-09-02T17:55:00Z,25934531,Em Despacho,3103,Incêndio rural,1,6,0,29,2025-09-02T17:55:00Z,Bragança,Bragança,Norte,-6.697,41.67631,Despacho
25934546,Ribeira do Neiva,Cávado,309,2025-09-02T17:34:00Z,25934546,Em Despacho,3111,Queima,0,1,0,2,2025-09-02T17:34:00Z,Vila Verde,Braga,Norte,-8.487436,41.704244,Despacho
25832672,Piódão,Região de Coimbra,310,2025-08-13T05:08:00Z,25832672,Em Resolução/Conclusão,3103,Incêndio rural,0,18,0,52,2025-08-13T05:08:00Z,Arganil,Coimbra,Centro,-7.81972,40.23083,Resolução/Conclusão
25840417,Lousã e Vilarinho,Região de Coimbra,310,2025-08-14T13:46:00Z,25840417,Em Resolução/Conclusão,3101,Incêndio rural,0,1,0,1,2025-08-14T13:46:00Z,Lousã,Coimbra,Centro,-8.201561,40.080016,Resolução/Conclusão
25934223,Glória e Vera Cruz,Região de Aveiro,310,2025-09-02T16:37:00Z,25934223,Em Resolução/Conclusão,3103,Incêndio rural,0,3,0,9,2025-09-02T16:37:00Z,Aveiro,Aveiro,Centro,-8.656175,40.654487,Resolução/Conclusão
25934298,Colmeias e Memória,Região de Leiria,310,2025-09-02T16:56:00Z,25934298,Em Resolução/Conclusão,3103,Incêndio rural,0,7,0,26,2025-09-02T16:56:00Z,Leiria,Leiria,Centro,-8.724597,39.823568,Resolução/Conclusão
25933011,Soalheira,Beiras e Serra da Estrela,310,2025-09-02T12:17:00Z,25933011,Em Resolução/Conclusão,3105,Incêndio rural,0,2,0,7,2025-09-02T12:17:00Z,Fundão,Castelo Branco,Centro,-7.479918,40.039798,Resolução/Conclusão
25934317,Repeses e São Salvador,Viseu Dão Lafões,310,2025-09-02T17:01:00Z,25934317,Em Resolução/Conclusão,3103,Incêndio rural,0,8,0,27,2025-09-02T17:01:00Z,Viseu,Viseu,Centro,-7.938383,40.639668,Resolução/Conclusão
25934433,Sequeade e Bastuço (São João e Santo Estevão),Cávado,309,2025-09-02T17:05:00Z,25934433,Em Despacho,3111,Queima,0,1,0,2,2025-09-02T17:05:00Z,Barcelos,Braga,Norte,-8.528374,41.505919,Despacho
