id,address,subregion,neighborhood,date,id.1,state,nature,nature_description,aerial_means,terrestrial_means,aquatic_means,operational,date.1,Concelho,Distrito,NUTII_DSG,longitude,latitude,state_2
26114630,Seixo da Beira,Região de Coimbra,310,2025-10-10T08:46:00Z,26114630,Em Resolução/Conclusão,3101,Incêndio rural,0,2,0,7,2025-10-10T08:46:00Z,Oliveira Do Hospital,Coimbra,Centro,-7.851872,40.421183,Resolução/Conclusão
26120931,Moimenta e Montouto,Terras de Trás-os-Montes,309,2025-10-11T12:31:00Z,26120931,Em Resolução/Conclusão,3103,Incêndio rural,0,1,0,2,2025-10-11T12:31:00Z,Vinhais,Bragança,Norte,-6.96733,41.954683,Resolução/Conclusão
26122785,Aguiã,Alto Minho,309,2025-10-11T19:36:00Z,26122785,Em Resolução/Conclusão,3103,Incêndio rural,0,1,0,5,2025-10-11T19:36:00Z,Arcos De Valdevez,Viana Do Castelo,Norte,-8.443228,41.881635,Resolução/Conclusão
26122953,Alvora e Loureda,Alto Minho,309,2025-10-11T20:00:00Z,26122953,Em Curso,3103,Incêndio rural,0,3,0,10,2025-10-11T20:00:00Z,Arcos De Valdevez,Viana Do Castelo,Norte,-8.447903,41.943457,Curso
26119150,Prado (São Miguel),Cávado,309,2025-10-11T01:42:00Z,26119150,Em Resolução/Conclusão,3103,Incêndio rural,0,0,0,0,2025-10-11T01:42:00Z,Vila Verde,Braga,Norte,-8.437767,41.6985,Resolução/Conclusão
26121759,Vilela do Tâmega,Alto Tâmega e Barroso,309,2025-10-11T15:32:00Z,26121759,Em Resolução/Conclusão,3103,Incêndio rural,0,2,0,10,2025-10-11T15:32:00Z,Chaves,Vila Real,Norte,-7.545093,41.678248,Resolução/Conclusão
26122931,"Algodres, Vale de Afonsinho e Vilar de Amargo",Beiras e Serra da Estrela,310,2025-10-11T20:10:00Z,26122931,Em Curso,3103,Incêndio rural,0,14,0,53,2025-10-11T20:10:00Z,Figueira De Castelo Rodrigo,Guarda,Centro,-7.01107,40.93251,Curso
26115854,Gralhas,Alto Tâmega e Barroso,309,2025-10-10T12:13:00Z,26115854,Em Resolução/Conclusão,3103,Incêndio rural,0,3,0,12,2025-10-10T12:13:00Z,Montalegre,Vila Real,Norte,-7.72346,41.854762,Resolução/Conclusão
26122790,Sapataria,Oeste,311,2025-10-11T19:38:00Z,26122790,Em Resolução/Conclusão,3103,Incêndio rural,0,4,0,14,2025-10-11T19:38:00Z,Sobral De Monte Agraço,Lisboa,Centro,-9.18209,38.96901,Resolução/Conclusão
26122915,"Ovar, São João, Arada e São Vicente de Pereira Jusã",Região de Aveiro,310,2025-10-11T20:08:00Z,26122915,Em Resolução/Conclusão,3103,Incêndio rural,0,3,0,12,2025-10-11T20:08:00Z,Ovar,Aveiro,Centro,-8.616143,40.852848,Resolução/Conclusão
26120694,Esperança e Brunhais,Ave,309,2025-10-11T11:42:00Z,26120694,Em Resolução/Conclusão,3103,Incêndio rural,0,16,0,52,2025-10-11T11:42:00Z,Póvoa De Lanhoso,Braga,Norte,-8.173805,41.583791,Resolução/Conclusão
26121737,Ferreiros de Tendais,Tâmega e Sousa,309,2025-10-11T15:26:00Z,26121737,Em Resolução/Conclusão,3103,Incêndio rural,0,6,0,24,2025-10-11T15:26:00Z,Cinfães,Viseu,Norte,-8.004192,41.030787,Resolução/Conclusão
26122868,Salir de Matos,Oeste,311,2025-10-11T19:48:00Z,26122868,Em Resolução/Conclusão,3105,Incêndio rural,0,2,0,7,2025-10-11T19:48:00Z,Caldas Da Rainha,Leiria,Centro,-9.104059,39.430919,Resolução/Conclusão
26122898,Taíde,Ave,309,2025-10-11T20:01:00Z,26122898,Em Resolução/Conclusão,3105,Incêndio rural,0,2,0,6,2025-10-11T20:01:00Z,Póvoa De Lanhoso,Braga,Norte,-8.24936,41.546875,Resolução/Conclusão
26122977,Murtosa,Região de Aveiro,310,2025-10-11T20:21:00Z,26122977,Em Resolução/Conclusão,3111,Queima,0,2,0,3,2025-10-11T20:21:00Z,Ovar,Aveiro,Centro,-8.616143,40.852848,Resolução/Conclusão
26122991,"St.tirso, Couto (S.cristina e S.miguel) e Burgães",Area M. Porto,309,2025-10-11T20:24:00Z,26122991,Em Despacho,3103,Incêndio rural,0,1,0,5,2025-10-11T20:24:00Z,Santo Tirso,Porto,Norte,-8.474679,41.335886,Despacho
