id,address,subregion,neighborhood,date,id.1,state,nature,nature_description,aerial_means,terrestrial_means,aquatic_means,operational,date.1,Concelho,Distrito,NUTII_DSG,longitude,latitude
25550982,Carapito,Viseu Dão Lafões,310,2025-06-19T23:28:00Z,25550982,Em conclusão,2127,"Incêndio em edifícios e recintos industriais, oficinas e armazéns",0,1,0,5,2025-06-19T23:28:00Z,Aguiar Da Beira,Guarda,Centro,-7.474373,40.771847
25551391,Marrazes e Barosa,Região de Leiria,310,2025-06-20T05:30:00Z,25551391,Em despacho,3201,Detritos não confinados,0,2,0,7,2025-06-20T05:30:00Z,Leiria,Leiria,Centro,-8.836458,39.75385
25544135,Toulões,Beira Baixa,310,2025-06-18T13:59:00Z,25544135,Em conclusão,3105,Incêndio rural,0,0,0,0,2025-06-18T13:59:00Z,Idanha-a-Nova,Castelo Branco,Centro,-7.056978,39.904387
25551247,Prado (São Miguel),Cávado,309,2025-06-20T02:26:00Z,25551247,Em curso,3101,Incêndio rural,0,9,0,36,2025-06-20T02:26:00Z,Vila Verde,Braga,Norte,-8.442548,41.707072
25551408,Serzedo e Perosinho,Area M. Porto,309,2025-06-20T05:31:00Z,25551408,Em curso,2127,"Incêndio em edifícios e recintos industriais, oficinas e armazéns",0,1,0,5,2025-06-20T05:31:00Z,Vila Nova De Gaia,Porto,Norte,-8.600642,41.053381
25551419,Terrugem e Vila Boim,Alto Alentejo,312,2025-06-20T05:43:00Z,25551419,Em despacho,3105,Incêndio rural,0,1,0,5,2025-06-20T05:43:00Z,Elvas,Portalegre,Alentejo,-7.2653740000000004,38.876007
