id,address,subregion,neighborhood,date,id.1,state,nature,nature_description,aerial_means,terrestrial_means,aquatic_means,operational,date.1,Concelho,Distrito,NUTII_DSG,longitude,latitude,state_2
26114630,Seixo da Beira,Região de Coimbra,310,2025-10-10T08:46:00Z,26114630,Em Curso,3101,Incêndio rural,11,55,0,219,2025-10-10T08:46:00Z,Oliveira Do Hospital,Coimbra,Centro,-7.851872,40.421183,Curso
26115725,"Alpendorada, Várzea e Torrão",Tâmega e Sousa,309,2025-10-10T11:51:00Z,26115725,Em Despacho,3105,Incêndio rural,0,1,0,5,2025-10-10T11:51:00Z,Marco De Canaveses,Porto,Norte,-8.24853,41.09124,Despacho
26115854,Gralhas,Alto Tâmega e Barroso,309,2025-10-10T12:13:00Z,26115854,Em Despacho,3103,Incêndio rural,1,1,0,11,2025-10-10T12:13:00Z,Montalegre,Vila Real,Norte,-7.703256,41.851153,Despacho
26093602,Castro Daire,Viseu Dão Lafões,310,2025-10-05T22:05:00Z,26093602,Em Resolução/Conclusão,3103,Incêndio rural,0,0,0,0,2025-10-05T22:05:00Z,Castro Daire,Viseu,Centro,-7.9408,40.925289,Resolução/Conclusão
26115473,Marinhais,Lezíria do Tejo,311,2025-10-10T11:10:00Z,26115473,Em Resolução/Conclusão,3105,Incêndio rural,0,7,0,21,2025-10-10T11:10:00Z,Salvaterra De Magos,Santarém,Alentejo,-8.717808,39.06066,Resolução/Conclusão
26115621,Calvos e Frades,Ave,309,2025-10-10T11:31:00Z,26115621,Em Curso,3103,Incêndio rural,2,6,0,35,2025-10-10T11:31:00Z,Póvoa De Lanhoso,Braga,Norte,-8.244815,41.615302,Curso
26115664,Monteiras,Viseu Dão Lafões,310,2025-10-10T11:38:00Z,26115664,Em Curso,3103,Incêndio rural,5,14,0,75,2025-10-10T11:38:00Z,Castro Daire,Viseu,Centro,-7.886195,40.970313,Curso
26115832,Estorãos,Ave,309,2025-10-10T12:10:00Z,26115832,Em Despacho,3103,Incêndio rural,1,0,0,6,2025-10-10T12:10:00Z,Fafe,Braga,Norte,-8.138278,41.48263,Despacho
