id,address,subregion,neighborhood,date,id.1,state,nature,nature_description,aerial_means,terrestrial_means,aquatic_means,operational,date.1,Concelho,Distrito,NUTII_DSG,longitude,latitude,state_2
25943279,Arez e Amieira do Tejo,Alto Alentejo,312,2025-09-04T16:10:00Z,25943279,Em Resolução/Conclusão,3103,Incêndio rural,0,3,0,14,2025-09-04T16:10:00Z,Nisa,Portalegre,Alentejo,-7.764517,39.462882,Resolução/Conclusão
25946870,Bodiosa,Viseu Dão Lafões,310,2025-09-05T12:06:00Z,25946870,Em Resolução/Conclusão,3103,Incêndio rural,0,9,0,27,2025-09-05T12:06:00Z,Viseu,Viseu,Centro,-7.947848,40.710752,Resolução/Conclusão
25947141,"Cambeses do Rio, Donões e Mourilhe",Alto Tâmega e Barroso,309,2025-09-05T13:12:00Z,25947141,Em Resolução/Conclusão,3103,Incêndio rural,0,9,0,34,2025-09-05T13:12:00Z,Montalegre,Vila Real,Norte,-7.847407,41.807238,Resolução/Conclusão
25947473,"Freixianda, Ribeira do Fárrio e Formigais",Médio Tejo,311,2025-09-05T14:17:00Z,25947473,Em Resolução/Conclusão,3103,Incêndio rural,0,7,0,31,2025-09-05T14:17:00Z,Ourém,Santarém,Centro,-8.442873,39.722768,Resolução/Conclusão
25947759,Mioma,Viseu Dão Lafões,310,2025-09-05T15:10:00Z,25947759,Em Resolução/Conclusão,3103,Incêndio rural,1,2,0,8,2025-09-05T15:10:00Z,Sátão,Viseu,Centro,-7.724637,40.746433,Resolução/Conclusão
25946769,Pinhel,Beiras e Serra da Estrela,310,2025-09-05T11:49:00Z,25946769,Em Curso,3103,Incêndio rural,0,1,0,5,2025-09-05T11:49:00Z,Pinhel,Guarda,Centro,-7.031155,40.75991,Curso
25947260,"Chorente, Góios, Courel, Pedra Furada e Gueral",Cávado,309,2025-09-05T13:38:00Z,25947260,Em Resolução/Conclusão,3111,Queima,0,3,0,11,2025-09-05T13:38:00Z,Barcelos,Braga,Norte,-8.647332,41.447118,Resolução/Conclusão
25947351,Cinfães,Tâmega e Sousa,309,2025-09-05T13:55:00Z,25947351,Em Resolução/Conclusão,3103,Incêndio rural,0,2,0,10,2025-09-05T13:55:00Z,Cinfães,Viseu,Norte,-8.081287,41.060732,Resolução/Conclusão
25947569,Tarouquela,Tâmega e Sousa,309,2025-09-05T14:36:00Z,25947569,Em Resolução/Conclusão,3103,Incêndio rural,0,3,0,12,2025-09-05T14:36:00Z,Cinfães,Viseu,Norte,-8.178133,41.072637,Resolução/Conclusão
25947701,Milharado,Grande Lisboa,311,2025-09-05T14:52:00Z,25947701,Em Resolução/Conclusão,3103,Incêndio rural,0,2,0,6,2025-09-05T14:52:00Z,Mafra,Lisboa,Área Metropolitana De Lisboa,-9.198356,38.951192,Resolução/Conclusão
25943672,Lorvão,Região de Coimbra,310,2025-09-04T17:36:00Z,25943672,Em Resolução/Conclusão,3101,Incêndio rural,0,1,0,5,2025-09-04T17:36:00Z,Penacova,Coimbra,Centro,-8.3475,40.25917,Resolução/Conclusão
25947667,Arosa e Castelões,Ave,309,2025-09-05T14:53:00Z,25947667,Em Curso,3103,Incêndio rural,1,3,0,21,2025-09-05T14:53:00Z,Guimarães,Braga,Norte,-8.211775,41.551899,Curso
25947682,Zebreira e Segura,Beira Baixa,310,2025-09-05T14:53:00Z,25947682,Em Curso,3103,Incêndio rural,0,4,0,11,2025-09-05T14:53:00Z,Idanha-a-Nova,Castelo Branco,Centro,-7.067238,39.842924,Curso
25947748,"Gondomar (São Cosme), Valbom e Jovim",Area M. Porto,309,2025-09-05T15:04:00Z,25947748,Em Resolução/Conclusão,3103,Incêndio rural,0,1,0,5,2025-09-05T15:04:00Z,Gondomar,Porto,Norte,-8.535295,41.129255,Resolução/Conclusão
25832672,Piódão,Região de Coimbra,310,2025-08-13T05:08:00Z,25832672,Em Resolução/Conclusão,3103,Incêndio rural,0,14,0,40,2025-08-13T05:08:00Z,Arganil,Coimbra,Centro,-7.81972,40.23083,Resolução/Conclusão
25840417,Lousã e Vilarinho,Região de Coimbra,310,2025-08-14T13:46:00Z,25840417,Em Resolução/Conclusão,3101,Incêndio rural,0,0,0,0,2025-08-14T13:46:00Z,Lousã,Coimbra,Centro,-8.201561,40.080016,Resolução/Conclusão
25944501,Setúbal (São Sebastião),Península de Setúbal,311,2025-09-04T21:03:00Z,25944501,Em Resolução/Conclusão,3103,Incêndio rural,0,0,0,0,2025-09-04T21:03:00Z,Setúbal,Setúbal,Área Metropolitana De Lisboa,-8.874325,38.52003,Resolução/Conclusão
