id,address,subregion,neighborhood,date,id.1,state,nature,nature_description,aerial_means,terrestrial_means,aquatic_means,operational,date.1,Concelho,Distrito,NUTII_DSG,longitude,latitude,state_2
25737642,Aboim da Nóbrega e Gondomar,Cávado,309,2025-07-26T17:54:00Z,25737642,Em Resolução/Conclusão,3103,Incêndio rural,0,0,0,0,2025-07-26T17:54:00Z,Vila Verde,Braga,Norte,-8.38607,41.734402,Resolução/Conclusão
25741940,"Aldeia do Bispo, Águas e Aldeia de João Pires",Beira Baixa,310,2025-07-27T14:45:00Z,25741940,Em Resolução/Conclusão,3105,Incêndio rural,0,4,0,20,2025-07-27T14:45:00Z,Penamacor,Castelo Branco,Centro,-7.213632,40.123598,Resolução/Conclusão
25742517,Anhões e Luzio,Alto Minho,309,2025-07-27T17:08:00Z,25742517,Em Resolução/Conclusão,3103,Incêndio rural,0,3,0,4,2025-07-27T17:08:00Z,Monção,Viana Do Castelo,Norte,-8.452967,41.97745,Resolução/Conclusão
25744321,Gestaçô,Tâmega e Sousa,309,2025-07-28T03:55:00Z,25744321,Em Resolução/Conclusão,3103,Incêndio rural,0,2,0,7,2025-07-28T03:55:00Z,Baião,Porto,Norte,-7.951497,41.164208,Resolução/Conclusão
25744328,Vila Facaia,Região de Leiria,310,2025-07-28T04:00:00Z,25744328,Em Resolução/Conclusão,3101,Incêndio rural,0,1,0,2,2025-07-28T04:00:00Z,Pedrógão Grande,Leiria,Centro,-8.197592,39.93944,Resolução/Conclusão
25744346,Pedrógão Grande,Região de Leiria,310,2025-07-28T04:18:00Z,25744346,Em Resolução/Conclusão,3101,Incêndio rural,0,1,0,2,2025-07-28T04:18:00Z,Pedrógão Grande,Leiria,Centro,-8.18142,39.926725,Resolução/Conclusão
25746643,Cortiçô e Vila Chã,Beiras e Serra da Estrela,310,2025-07-28T13:20:00Z,25746643,Em Resolução/Conclusão,3103,Incêndio rural,0,7,0,22,2025-07-28T13:20:00Z,Fornos De Algodres,Guarda,Centro,-7.487027,40.660237,Resolução/Conclusão
25746993,Regadas,Ave,309,2025-07-28T14:21:00Z,25746993,Em Resolução/Conclusão,3103,Incêndio rural,0,1,0,5,2025-07-28T14:21:00Z,Fafe,Braga,Norte,-8.159225,41.383943,Resolução/Conclusão
25747052,Recarei,Area M. Porto,309,2025-07-28T14:31:00Z,25747052,Em Resolução/Conclusão,3103,Incêndio rural,0,6,0,24,2025-07-28T14:31:00Z,Paredes,Porto,Norte,-8.414292,41.14585,Resolução/Conclusão
25747179,Charneca de Caparica e Sobreda,Península de Setúbal,311,2025-07-28T14:48:00Z,25747179,Em Resolução/Conclusão,3103,Incêndio rural,0,0,0,0,2025-07-28T14:48:00Z,Almada,Setúbal,Área Metropolitana De Lisboa,-9.189057,38.605735,Resolução/Conclusão
25747386,"Santa Maria, São Pedro e Sobral da Lagoa",Oeste,311,2025-07-28T15:22:00Z,25747386,Em Resolução/Conclusão,3103,Incêndio rural,0,4,0,14,2025-07-28T15:22:00Z,Óbidos,Leiria,Centro,-9.169717,39.38256,Resolução/Conclusão
25747511,"Almada, Cova da Piedade, Pragal e Cacilhas",Península de Setúbal,311,2025-07-28T15:46:00Z,25747511,Em Resolução/Conclusão,3103,Incêndio rural,0,4,0,16,2025-07-28T15:46:00Z,Almada,Setúbal,Área Metropolitana De Lisboa,-9.163193,38.68349,Resolução/Conclusão
25741525,Vela,Beiras e Serra da Estrela,310,2025-07-27T13:16:00Z,25741525,Em Resolução/Conclusão,3103,Incêndio rural,0,2,0,6,2025-07-27T13:16:00Z,Guarda,Guarda,Centro,-7.287277,40.438025,Resolução/Conclusão
25745468,Alcaria,Beiras e Serra da Estrela,310,2025-07-28T10:09:00Z,25745468,Em Resolução/Conclusão,3105,Incêndio rural,0,3,0,9,2025-07-28T10:09:00Z,Fundão,Castelo Branco,Centro,-7.507897,40.202007,Resolução/Conclusão
25746591,Figueira Dos Cavaleiros,Baixo Alentejo,312,2025-07-28T13:12:00Z,25746591,Em Resolução/Conclusão,3105,Incêndio rural,0,0,0,0,2025-07-28T13:12:00Z,Ferreira Do Alentejo,Beja,Alentejo,-8.20376,38.095463,Resolução/Conclusão
25746607,Poiares e Canelas,Douro,309,2025-07-28T13:17:00Z,25746607,Em Resolução/Conclusão,3103,Incêndio rural,0,1,0,5,2025-07-28T13:17:00Z,Peso Da Régua,Vila Real,Norte,-7.726097,41.192663,Resolução/Conclusão
25746857,Santa Clara,Grande Lisboa,311,2025-07-28T13:59:00Z,25746857,Em Resolução/Conclusão,3103,Incêndio rural,0,0,0,0,2025-07-28T13:59:00Z,Lisboa,Lisboa,Área Metropolitana De Lisboa,-9.158333,38.785163,Resolução/Conclusão
25746924,Cornes,Alto Minho,309,2025-07-28T14:09:00Z,25746924,Em Resolução/Conclusão,3103,Incêndio rural,0,4,0,13,2025-07-28T14:09:00Z,Vila Nova De Cerveira,Viana Do Castelo,Norte,-8.675248,41.963342,Resolução/Conclusão
25747108,Melides,Alentejo Litoral,312,2025-07-28T14:39:00Z,25747108,Em Resolução/Conclusão,3101,Incêndio rural,0,21,0,50,2025-07-28T14:39:00Z,Grândola,Setúbal,Alentejo,-8.752402,38.123636,Resolução/Conclusão
25744340,"Lebução, Fiães e Nozelos",Alto Tâmega e Barroso,309,2025-07-28T04:18:00Z,25744340,Em Resolução/Conclusão,3103,Incêndio rural,0,4,0,11,2025-07-28T04:18:00Z,Valpaços,Vila Real,Norte,-7.240383,41.755678,Resolução/Conclusão
25746297,Queluz e Belas,Grande Lisboa,311,2025-07-28T12:17:00Z,25746297,Em Resolução/Conclusão,3103,Incêndio rural,0,15,0,40,2025-07-28T12:17:00Z,Sintra,Lisboa,Área Metropolitana De Lisboa,-9.254658,38.740692,Resolução/Conclusão
25746615,Alvarenga,Area M. Porto,309,2025-07-28T13:15:00Z,25746615,Em Curso,3103,Incêndio rural,8,47,0,164,2025-07-28T13:15:00Z,Arouca,Aveiro,Norte,-8.1888280000000009,40.986515,Curso
25746680,São Jorge e Ermelo,Alto Minho,309,2025-07-28T13:26:00Z,25746680,Em Resolução/Conclusão,3103,Incêndio rural,0,3,0,11,2025-07-28T13:26:00Z,Arcos De Valdevez,Viana Do Castelo,Norte,-8.365038,41.827368,Resolução/Conclusão
25747310,Espinho,Cávado,309,2025-07-28T15:09:00Z,25747310,Em Curso,3103,Incêndio rural,2,13,0,61,2025-07-28T15:09:00Z,Braga,Braga,Norte,-8.367092,41.549225,Curso
25747324,Rebordões,Area M. Porto,309,2025-07-28T15:10:00Z,25747324,Em Resolução/Conclusão,3103,Incêndio rural,0,4,0,17,2025-07-28T15:10:00Z,Santo Tirso,Porto,Norte,-8.42744,41.342775,Resolução/Conclusão
25747624,Recezinhos (São Martinho),Tâmega e Sousa,309,2025-07-28T16:06:00Z,25747624,Em Resolução/Conclusão,3103,Incêndio rural,0,1,0,5,2025-07-28T16:06:00Z,Penafiel,Porto,Norte,-8.222727,41.218787,Resolução/Conclusão
25747657,Carnaxide e Queijas,Grande Lisboa,311,2025-07-28T16:07:00Z,25747657,Em Despacho,3103,Incêndio rural,0,3,0,9,2025-07-28T16:07:00Z,Oeiras,Lisboa,Área Metropolitana De Lisboa,-9.233587,38.727201,Despacho
25747676,Montijo e Afonsoeiro,Península de Setúbal,311,2025-07-28T16:17:00Z,25747676,Em Despacho,3103,Incêndio rural,0,0,0,0,2025-07-28T16:17:00Z,Montijo,Setúbal,Área Metropolitana De Lisboa,-8.986666,38.71205,Despacho
25738747,Lindoso,Alto Minho,309,2025-07-26T21:47:00Z,25738747,Em Curso,3103,Incêndio rural,5,120,0,378,2025-07-26T21:47:00Z,Ponte Da Barca,Viana Do Castelo,Norte,-8.220528,41.865272,Curso
25741880,Benavila e Valongo,Alto Alentejo,312,2025-07-27T14:31:00Z,25741880,Em Resolução/Conclusão,3101,Incêndio rural,0,8,0,29,2025-07-27T14:31:00Z,Avis,Portalegre,Alentejo,-7.866293,39.19533,Resolução/Conclusão
25743677,Portela,Alto Minho,309,2025-07-27T22:05:00Z,25743677,Em Resolução/Conclusão,3101,Incêndio rural,0,6,0,11,2025-07-27T22:05:00Z,Monção,Viana Do Castelo,Norte,-8.481475,41.977915,Resolução/Conclusão
25743786,Portela,Alto Minho,309,2025-07-28T00:13:00Z,25743786,Em Curso,3101,Incêndio rural,0,24,0,74,2025-07-28T00:13:00Z,Monção,Viana Do Castelo,Norte,-8.480967,41.97155,Curso
25745576,Colmeal e Vilar Torpim,Beiras e Serra da Estrela,310,2025-07-28T10:23:00Z,25745576,Em Resolução/Conclusão,3105,Incêndio rural,0,12,0,43,2025-07-28T10:23:00Z,Figueira De Castelo Rodrigo,Guarda,Centro,-6.916033,40.829685,Resolução/Conclusão
25746553,"Souto Santa Maria, Souto São Salvador e Gondomar",Ave,309,2025-07-28T13:05:00Z,25746553,Em Resolução/Conclusão,3103,Incêndio rural,0,5,0,14,2025-07-28T13:05:00Z,Guimarães,Braga,Norte,-8.288703,41.489153,Resolução/Conclusão
25746578,Soure,Região de Coimbra,310,2025-07-28T13:02:00Z,25746578,Em Resolução/Conclusão,3105,Incêndio rural,0,2,0,6,2025-07-28T13:02:00Z,Soure,Coimbra,Centro,-8.612815,40.053098,Resolução/Conclusão
25746771,Folgosa,Douro,309,2025-07-28T13:41:00Z,25746771,Em Resolução/Conclusão,3101,Incêndio rural,0,3,0,9,2025-07-28T13:41:00Z,Armamar,Viseu,Norte,-7.649955,41.157965,Resolução/Conclusão
25747184,Vila Chã (São João Baptista e Santiago),Alto Minho,309,2025-07-28T14:48:00Z,25747184,Em Resolução/Conclusão,3103,Incêndio rural,0,1,0,4,2025-07-28T14:48:00Z,Ponte Da Barca,Viana Do Castelo,Norte,-8.338373,41.81297,Resolução/Conclusão
25747534,Águas Santas,Area M. Porto,309,2025-07-28T15:45:00Z,25747534,Em Resolução/Conclusão,3105,Incêndio rural,0,1,0,5,2025-07-28T15:45:00Z,Maia,Porto,Norte,-8.580727,41.208283,Resolução/Conclusão
25747617,"Marvila, Ribeira Santarém, S.salvador, S.nicolau",Lezíria do Tejo,311,2025-07-28T16:07:00Z,25747617,Em Curso,3103,Incêndio rural,1,7,0,35,2025-07-28T16:07:00Z,Santarém,Santarém,Alentejo,-8.680678,39.24247,Curso
25747632,Vialonga,Grande Lisboa,311,2025-07-28T16:10:00Z,25747632,Em Despacho,3103,Incêndio rural,0,2,0,10,2025-07-28T16:10:00Z,Vila Franca De Xira,Lisboa,Área Metropolitana De Lisboa,-9.078055,38.87361,Despacho
25747112,São Cipriano e Vil de Souto,Viseu Dão Lafões,310,2025-07-28T14:40:00Z,25747112,Em Resolução/Conclusão,3103,Incêndio rural,1,17,0,61,2025-07-28T14:40:00Z,Viseu,Viseu,Centro,-7.993068,40.643088,Resolução/Conclusão
25747146,Nespereira,Tâmega e Sousa,309,2025-07-28T14:45:00Z,25747146,Em Resolução/Conclusão,3103,Incêndio rural,1,4,0,25,2025-07-28T14:45:00Z,Cinfães,Viseu,Norte,-8.14026,40.99028,Resolução/Conclusão
25747264,Idães,Tâmega e Sousa,309,2025-07-28T15:00:00Z,25747264,Em Resolução/Conclusão,3103,Incêndio rural,0,6,0,27,2025-07-28T15:00:00Z,Felgueiras,Porto,Norte,-8.235777,41.336625,Resolução/Conclusão
25747446,Poiares (Santo André),Região de Coimbra,310,2025-07-28T15:30:00Z,25747446,Em Resolução/Conclusão,3105,Incêndio rural,0,3,0,15,2025-07-28T15:30:00Z,Vila Nova De Poiares,Coimbra,Centro,-8.257628,40.210364,Resolução/Conclusão
25747512,Teixoso e Sarzedo,Beiras e Serra da Estrela,310,2025-07-28T15:46:00Z,25747512,Em Resolução/Conclusão,3103,Incêndio rural,0,8,0,31,2025-07-28T15:46:00Z,Covilhã,Castelo Branco,Centro,-7.458115,40.304408,Resolução/Conclusão
25747614,Bustelo,Tâmega e Sousa,309,2025-07-28T16:04:00Z,25747614,Em Despacho,3103,Incêndio rural,0,2,0,10,2025-07-28T16:04:00Z,Penafiel,Porto,Norte,-8.277451,41.229705,Despacho
25747630,Abrantes (São Vicente e São João) e Alferrarede,Médio Tejo,311,2025-07-28T16:09:00Z,25747630,Em Curso,3103,Incêndio rural,1,7,0,31,2025-07-28T16:09:00Z,Abrantes,Santarém,Centro,-8.193526,39.462886,Curso
25747648,Campos e Vila Meã,Alto Minho,309,2025-07-28T16:13:00Z,25747648,Em Despacho,3101,Incêndio rural,0,0,0,0,2025-07-28T16:13:00Z,Vila Nova De Cerveira,Viana Do Castelo,Norte,-8.700286,41.97439,Despacho
