id,address,subregion,neighborhood,date,id.1,state,nature,nature_description,aerial_means,terrestrial_means,aquatic_means,operational,date.1,Concelho,Distrito,NUTII_DSG,longitude,latitude,state_2
26260203,Setúbal (São Sebastião),Península de Setúbal,311,2025-11-09T17:13:00Z,26260203,Em Despacho,3103,Incêndio rural,0,3,0,11,2025-11-09T17:13:00Z,Setúbal,Setúbal,Área Metropolitana De Lisboa,-8.87514,38.536356,Despacho
26259870,Azeitão (São Lourenço e São Simão),Península de Setúbal,311,2025-11-09T16:00:00Z,26259870,Em Resolução/Conclusão,3111,Queima,0,3,0,15,2025-11-09T16:00:00Z,Setúbal,Setúbal,Área Metropolitana De Lisboa,-8.98909,38.53271,Resolução/Conclusão
26259871,Ferreira do Alentejo e Canhestros,Baixo Alentejo,312,2025-11-09T15:55:00Z,26259871,Em Resolução/Conclusão,3105,Incêndio rural,0,0,0,0,2025-11-09T15:55:00Z,Ferreira Do Alentejo,Beja,Alentejo,-8.181923,37.997005,Resolução/Conclusão
26260089,Braga (São José de São Lázaro e São João do Souto),Cávado,309,2025-11-09T16:57:00Z,26260089,Em Resolução/Conclusão,3111,Queima,0,2,0,8,2025-11-09T16:57:00Z,Braga,Braga,Norte,-8.429,41.539858,Resolução/Conclusão
26259827,Castro Verde e Casével,Baixo Alentejo,312,2025-11-09T15:44:00Z,26259827,Em Resolução/Conclusão,3105,Incêndio rural,0,4,0,9,2025-11-09T15:44:00Z,Castro Verde,Beja,Alentejo,-8.120412,37.714748,Resolução/Conclusão
