id,address,subregion,neighborhood,date,id.1,state,nature,nature_description,aerial_means,terrestrial_means,aquatic_means,operational,date.1,Concelho,Distrito,NUTII_DSG,longitude,latitude
24877003,Malagueira e Horta Das Figueiras,Alentejo Central,312,2025-01-27T11:41:00Z,24877003,Em conclusão,3315,Inundação de estruturas por precipitação intensa,0,0,0,0,2025-01-27T11:41:00Z,Évora,Évora,Alentejo,-7.924277,38.57285
25038589,Soure,Região de Coimbra,310,2025-03-04T07:51:00Z,25038589,Em despacho,3301,Queda de árvore,0,1,0,2,2025-03-04T07:51:00Z,Soure,Coimbra,Centro,-8.639406,40.055319
25038812,Alcanena e Vila Moreira,Médio Tejo,311,2025-03-04T09:38:00Z,25038812,Em curso,3321,Dano na rede de fornecimento de eletricidade ,0,1,0,1,2025-03-04T09:38:00Z,Alcanena,Santarém,Centro,-8.666413,39.458072
25038837,Braga (São Vítor),Cávado,309,2025-03-04T09:42:00Z,25038837,Em despacho,3311,Queda de elementos de estruturas edificados,0,0,0,0,2025-03-04T09:42:00Z,Braga,Braga,Norte,-8.406451,41.557726
25038783,São Luís,Alentejo Litoral,312,2025-03-04T09:02:00Z,25038783,Em conclusão,3301,Queda de árvore,0,2,0,7,2025-03-04T09:02:00Z,Santiago Do Cacém,Setúbal,Alentejo,-8.663048,37.779378
