id,address,subregion,neighborhood,date,id.1,state,nature,nature_description,aerial_means,terrestrial_means,aquatic_means,operational,date.1,Concelho,Distrito,NUTII_DSG,longitude,latitude
25115378,Encarnação,Grande Lisboa,311,2025-03-20T01:15:00Z,25115378,Em despacho,3321,Dano na rede de fornecimento de eletricidade ,0,1,0,5,2025-03-20T01:15:00Z,Mafra,Lisboa,Área Metropolitana De Lisboa,-9.382674,39.035843
25070044,Praia do Ribatejo,Médio Tejo,311,2025-03-10T19:30:00Z,25070044,Em curso,1101,Cheia,0,0,0,0,2025-03-10T19:30:00Z,Vila Nova Da Barquinha,Santarém,Centro,-8.357309,39.485638
25071496,São Manços e São Vicente do Pigeiro,Alentejo Central,312,2025-03-11T13:18:00Z,25071496,Em conclusão,1101,Cheia,0,0,0,0,2025-03-11T13:18:00Z,Évora,Évora,Alentejo,-7.713313,38.513673
25137544,Dois Portos e Runa,Oeste,311,2025-03-23T13:41:00Z,25137544,Em conclusão,3313,Deslizamento de terras,0,0,0,0,2025-03-23T13:41:00Z,Torres Vedras,Lisboa,Centro,-9.178343,39.036686
25167426,Luso,Região de Coimbra,310,2025-03-29T18:05:00Z,25167426,Em conclusão,3313,Deslizamento de terras,0,3,0,7,2025-03-29T18:05:00Z,Mealhada,Aveiro,Centro,-8.357728,40.35051
25167564,Carcavelos e Parede,Grande Lisboa,311,2025-03-29T17:07:00Z,25167564,Em despacho,3301,Queda de árvore,0,1,0,5,2025-03-29T17:07:00Z,Cascais,Lisboa,Área Metropolitana De Lisboa,-9.334353,38.701888
25068300,Almeirim,Lezíria do Tejo,311,2025-03-10T20:52:00Z,25068300,Em curso,1101,Cheia,0,0,0,0,2025-03-10T20:52:00Z,Almeirim,Santarém,Alentejo,-8.635002,39.187436
25167642,"Aldoar, Foz do Douro e Nevogilde",Area M. Porto,309,2025-03-29T18:51:00Z,25167642,Em despacho,3311,Queda de elementos de estruturas edificados,0,1,0,5,2025-03-29T18:51:00Z,Porto,Porto,Norte,-8.672426,41.161999
