id,address,subregion,neighborhood,date,id.1,state,nature,nature_description,aerial_means,terrestrial_means,aquatic_means,operational,date.1,Concelho,Distrito,NUTII_DSG,longitude,latitude,state_2
25712338,Cercal,Alentejo Litoral,312,2025-07-21T17:38:00Z,25712338,Em Resolução/Conclusão,3103,Incêndio rural,0,0,0,0,2025-07-21T17:38:00Z,Santiago Do Cacém,Setúbal,Alentejo,-8.682272,37.791582,Resolução/Conclusão
25725056,Pedrógão Pequeno,Beira Baixa,310,2025-07-24T10:16:00Z,25725056,Em Resolução/Conclusão,3101,Incêndio rural,0,1,0,5,2025-07-24T10:16:00Z,Sertã,Castelo Branco,Centro,-8.093663,39.879797,Resolução/Conclusão
25728500,Vila Fernando,Beiras e Serra da Estrela,310,2025-07-24T22:48:00Z,25728500,Em Resolução/Conclusão,3103,Incêndio rural,0,2,0,10,2025-07-24T22:48:00Z,Guarda,Guarda,Centro,-7.165667,40.491237,Resolução/Conclusão
25729082,São Jorge e Ermelo,Alto Minho,309,2025-07-25T04:45:00Z,25729082,Em Curso,3101,Incêndio rural,4,40,0,140,2025-07-25T04:45:00Z,Arcos De Valdevez,Viana Do Castelo,Norte,-8.356835,41.818005,Curso
25729185,Pedrógão Grande,Região de Leiria,310,2025-07-25T06:14:00Z,25729185,Em Resolução/Conclusão,3101,Incêndio rural,0,1,0,2,2025-07-25T06:14:00Z,Pedrógão Grande,Leiria,Centro,-8.17945,39.916067,Resolução/Conclusão
25729252,Vila Facaia,Região de Leiria,310,2025-07-25T07:06:00Z,25729252,Em Resolução/Conclusão,3103,Incêndio rural,0,1,0,2,2025-07-25T07:06:00Z,Pedrógão Grande,Leiria,Centro,-8.240883,39.95543,Resolução/Conclusão
25731423,Gondomil e Safins,Alto Minho,309,2025-07-25T14:01:00Z,25731423,Em Resolução/Conclusão,3103,Incêndio rural,0,2,0,7,2025-07-25T14:01:00Z,Valença,Viana Do Castelo,Norte,-8.580485,42.016008,Resolução/Conclusão
25729159,Vila Facaia,Região de Leiria,310,2025-07-25T05:56:00Z,25729159,Em Resolução/Conclusão,3101,Incêndio rural,0,1,0,2,2025-07-25T05:56:00Z,Pedrógão Grande,Leiria,Centro,-8.207428,39.928542,Resolução/Conclusão
25731632,Santa Maria Maior e Monserrate e Meadela,Alto Minho,309,2025-07-25T14:37:00Z,25731632,Em Resolução/Conclusão,3105,Incêndio rural,0,0,0,0,2025-07-25T14:37:00Z,Viana Do Castelo,Viana Do Castelo,Norte,-8.797155,41.714103,Resolução/Conclusão
25732100,Vila Chã (São João Baptista e Santiago),Alto Minho,309,2025-07-25T16:02:00Z,25732100,Em Resolução/Conclusão,3103,Incêndio rural,0,4,0,19,2025-07-25T16:02:00Z,Ponte Da Barca,Viana Do Castelo,Norte,-8.337765,41.812287,Resolução/Conclusão
25732215,Ázere e Covelo,Região de Coimbra,310,2025-07-25T16:22:00Z,25732215,Em Resolução/Conclusão,3101,Incêndio rural,0,5,0,16,2025-07-25T16:22:00Z,Santa Comba Dão,Viseu,Centro,-8.10111,40.35611,Resolução/Conclusão
25732559,Rebordosa,Area M. Porto,309,2025-07-25T17:37:00Z,25732559,Em Resolução/Conclusão,3103,Incêndio rural,0,4,0,12,2025-07-25T17:37:00Z,Paredes,Porto,Norte,-8.397858,41.226698,Resolução/Conclusão
25732811,Lustosa e Barrosas (Santo Estêvão),Tâmega e Sousa,309,2025-07-25T18:28:00Z,25732811,Em Resolução/Conclusão,3103,Incêndio rural,0,2,0,10,2025-07-25T18:28:00Z,Lousada,Porto,Norte,-8.31169,41.3306,Resolução/Conclusão
25725153,Troviscal,Beira Baixa,310,2025-07-24T10:31:00Z,25725153,Em Resolução/Conclusão,3101,Incêndio rural,0,1,0,5,2025-07-24T10:31:00Z,Sertã,Castelo Branco,Centro,-8.084768,39.877972,Resolução/Conclusão
25725251,Pedrógão Pequeno,Beira Baixa,310,2025-07-24T10:52:00Z,25725251,Em Resolução/Conclusão,3101,Incêndio rural,0,8,0,28,2025-07-24T10:52:00Z,Sertã,Castelo Branco,Centro,-8.084635,39.925647,Resolução/Conclusão
25727257,Santiago de Piães,Tâmega e Sousa,309,2025-07-24T17:40:00Z,25727257,Em Resolução/Conclusão,3103,Incêndio rural,0,19,0,67,2025-07-24T17:40:00Z,Cinfães,Viseu,Norte,-8.173138,41.025392,Resolução/Conclusão
25730056,Santiago de Piães,Tâmega e Sousa,309,2025-07-25T10:05:00Z,25730056,Em Resolução/Conclusão,3103,Incêndio rural,0,2,0,10,2025-07-25T10:05:00Z,Cinfães,Viseu,Norte,-8.167988,41.04848,Resolução/Conclusão
25731094,Cabril,Alto Tâmega e Barroso,309,2025-07-25T12:59:00Z,25731094,Em Resolução/Conclusão,3103,Incêndio rural,0,3,0,11,2025-07-25T12:59:00Z,Montalegre,Vila Real,Norte,-8.092118,41.701348,Resolução/Conclusão
25731117,Pedrógão Grande,Região de Leiria,310,2025-07-25T13:03:00Z,25731117,Em Resolução/Conclusão,3101,Incêndio rural,0,3,0,6,2025-07-25T13:03:00Z,Pedrógão Grande,Leiria,Centro,-8.14383,39.97515,Resolução/Conclusão
25731805,Poiares e Canelas,Douro,309,2025-07-25T15:10:00Z,25731805,Em Resolução/Conclusão,3103,Incêndio rural,0,9,0,34,2025-07-25T15:10:00Z,Peso Da Régua,Vila Real,Norte,-7.726247,41.192565,Resolução/Conclusão
25731955,Briteiros Santo Estêvão e Donim,Ave,309,2025-07-25T15:36:00Z,25731955,Em Resolução/Conclusão,3103,Incêndio rural,0,5,0,22,2025-07-25T15:36:00Z,Guimarães,Braga,Norte,-8.30805,41.521391,Resolução/Conclusão
25732314,Albernoa e Trindade,Baixo Alentejo,312,2025-07-25T16:38:00Z,25732314,Em Resolução/Conclusão,3105,Incêndio rural,0,4,0,11,2025-07-25T16:38:00Z,Beja,Beja,Alentejo,-7.869855,37.910075,Resolução/Conclusão
25733037,"Bigorne, Magueija e Pretarouca",Douro,309,2025-07-25T19:11:00Z,25733037,Em Resolução/Conclusão,3103,Incêndio rural,0,3,0,12,2025-07-25T19:11:00Z,Lamego,Viseu,Norte,-7.88275,41.01631,Resolução/Conclusão
25733101,Ermesinde,Area M. Porto,309,2025-07-25T19:16:00Z,25733101,Em Resolução/Conclusão,3101,Incêndio rural,0,2,0,8,2025-07-25T19:16:00Z,Valongo,Porto,Norte,-8.548617,41.227742,Resolução/Conclusão
25728646,Vila Fernando,Beiras e Serra da Estrela,310,2025-07-24T23:39:00Z,25728646,Em Resolução/Conclusão,3103,Incêndio rural,0,5,0,21,2025-07-24T23:39:00Z,Guarda,Guarda,Centro,-7.135077,40.484042,Resolução/Conclusão
25728989,Valadares,Tâmega e Sousa,309,2025-07-25T03:08:00Z,25728989,Em Resolução/Conclusão,3103,Incêndio rural,0,4,0,12,2025-07-25T03:08:00Z,Baião,Porto,Norte,-7.944105,41.158087,Resolução/Conclusão
25729514,Azias,Alto Minho,309,2025-07-25T08:28:00Z,25729514,Em Resolução/Conclusão,3103,Incêndio rural,0,1,0,4,2025-07-25T08:28:00Z,Ponte Da Barca,Viana Do Castelo,Norte,-8.35944,41.773635,Resolução/Conclusão
25730832,Aveleda e Rio de Onor,Terras de Trás-os-Montes,309,2025-07-25T12:07:00Z,25730832,Em Resolução/Conclusão,3103,Incêndio rural,4,65,0,198,2025-07-25T12:07:00Z,Bragança,Bragança,Norte,-6.707873,41.891435,Resolução/Conclusão
25731429,São Cipriano,Tâmega e Sousa,309,2025-07-25T14:03:00Z,25731429,Em Resolução/Conclusão,3103,Incêndio rural,0,4,0,17,2025-07-25T14:03:00Z,Resende,Viseu,Norte,-7.982646,41.05512,Resolução/Conclusão
25731659,Alcanede,Lezíria do Tejo,311,2025-07-25T14:41:00Z,25731659,Em Resolução/Conclusão,3103,Incêndio rural,0,1,0,5,2025-07-25T14:41:00Z,Santarém,Santarém,Alentejo,-8.851548,39.388938,Resolução/Conclusão
25732890,Quinta do Anjo,Península de Setúbal,311,2025-07-25T18:44:00Z,25732890,Em Resolução/Conclusão,3103,Incêndio rural,0,1,0,5,2025-07-25T18:44:00Z,NA,NA,NA,-10.233457,38.593608,Resolução/Conclusão
25732964,Adaúfe,Cávado,309,2025-07-25T18:55:00Z,25732964,Em Resolução/Conclusão,3105,Incêndio rural,0,2,0,7,2025-07-25T18:55:00Z,Braga,Braga,Norte,-8.400527,41.599925,Resolução/Conclusão
25732972,Ançã,Região de Coimbra,310,2025-07-25T18:56:00Z,25732972,Em Resolução/Conclusão,3105,Incêndio rural,0,9,0,31,2025-07-25T18:56:00Z,Cantanhede,Coimbra,Centro,-8.5275,40.26917,Resolução/Conclusão
25732988,Castro Verde e Casével,Baixo Alentejo,312,2025-07-25T18:56:00Z,25732988,Em Curso,3105,Incêndio rural,0,10,0,38,2025-07-25T18:56:00Z,Castro Verde,Beja,Alentejo,-8.191805,37.71454,Curso
25733147,"Requeixo, Nossa Senhora de Fátima e Nariz",Região de Aveiro,310,2025-07-25T19:38:00Z,25733147,Em Curso,3101,Incêndio rural,1,6,0,32,2025-07-25T19:38:00Z,Aveiro,Aveiro,Centro,-8.591337,40.573341,Curso
25733139,Ega,Região de Coimbra,310,2025-07-25T19:36:00Z,25733139,Em Resolução/Conclusão,3101,Incêndio rural,1,6,0,30,2025-07-25T19:36:00Z,Condeixa-a-Nova,Coimbra,Centro,-8.529778,40.10171,Resolução/Conclusão
25733230,Águas Santas,Area M. Porto,309,2025-07-25T19:53:00Z,25733230,Em Despacho,3103,Incêndio rural,0,0,0,0,2025-07-25T19:53:00Z,Maia,Porto,Norte,-8.574268,41.21017,Despacho
