id,address,subregion,neighborhood,date,id.1,state,nature,nature_description,aerial_means,terrestrial_means,aquatic_means,operational,date.1,Concelho,Distrito,NUTII_DSG,longitude,latitude
25071496,São Manços e São Vicente do Pigeiro,Alentejo Central,312,2025-03-11T13:18:00Z,25071496,Em conclusão,1101,Cheia,0,0,0,0,2025-03-11T13:18:00Z,Évora,Évora,Alentejo,-7.713313,38.513673
25397323,"Leiria, Pousos, Barreira e Cortes",Região de Leiria,310,2025-05-19T17:01:00Z,25397323,Em conclusão,3321,Dano na rede de fornecimento de eletricidade ,0,1,0,1,2025-05-19T17:01:00Z,Leiria,Leiria,Centro,-8.802832,39.749179
25397532,Santo António Dos Cavaleiros e Frielas,Grande Lisboa,311,2025-05-19T17:49:00Z,25397532,Em despacho,3321,Dano na rede de fornecimento de eletricidade ,0,0,0,0,2025-05-19T17:49:00Z,Loures,Lisboa,Área Metropolitana De Lisboa,-9.16366,38.81603
25397527,Alverca do Ribatejo e Sobralinho,Grande Lisboa,311,2025-05-19T17:40:00Z,25397527,Em despacho,3301,Queda de árvore,0,1,0,3,2025-05-19T17:40:00Z,Vila Franca De Xira,Lisboa,Área Metropolitana De Lisboa,-9.046012,38.896362
25397457,Sangalhos,Região de Aveiro,310,2025-05-19T17:31:00Z,25397457,Em despacho,3301,Queda de árvore,0,1,0,4,2025-05-19T17:31:00Z,Anadia,Aveiro,Centro,-8.478739,40.494487
