id,address,subregion,neighborhood,date,id.1,state,nature,nature_description,aerial_means,terrestrial_means,aquatic_means,operational,date.1,Concelho,Distrito,NUTII_DSG,longitude,latitude
25474263,São Teotónio,Alentejo Litoral,312,2025-06-04T07:20:00Z,25474263,Em conclusão,3105,Incêndio rural,0,3,0,9,2025-06-04T07:20:00Z,Odemira,Beja,Alentejo,-8.785814,37.526075
25466369,Melides,Alentejo Litoral,312,2025-06-02T13:27:00Z,25466369,Em conclusão,3103,Incêndio rural,0,1,0,2,2025-06-02T13:27:00Z,Grândola,Setúbal,Alentejo,-8.754243,38.19534
25473778,Bougado (São Martinho e Santiago),Area M. Porto,309,2025-06-04T00:23:00Z,25473778,Em conclusão,2127,"Incêndio em edifícios e recintos industriais, oficinas e armazéns",0,4,0,14,2025-06-04T00:23:00Z,Trofa,Porto,Norte,-8.561468,41.334938
25475523,Setúbal (São Sebastião),Península de Setúbal,311,2025-06-04T11:14:00Z,25475523,Em despacho,3103,Incêndio rural,0,1,0,2,2025-06-04T11:14:00Z,Setúbal,Setúbal,Área Metropolitana De Lisboa,-8.858931,38.521144
25475431,Benavila e Valongo,Alto Alentejo,312,2025-06-04T11:15:00Z,25475431,Em resolução,3105,Incêndio rural,0,7,0,27,2025-06-04T11:15:00Z,Avis,Portalegre,Alentejo,-7.848653,39.192947
