id,address,subregion,neighborhood,date,id.1,state,nature,nature_description,aerial_means,terrestrial_means,aquatic_means,operational,date.1,Concelho,Distrito,NUTII_DSG,longitude,latitude,state_2
25832672,Piódão,Região de Coimbra,310,2025-08-13T05:08:00Z,25832672,Em Resolução/Conclusão,3103,Incêndio rural,0,124,0,378,2025-08-13T05:08:00Z,Arganil,Coimbra,Centro,-7.81972,40.23083,Resolução/Conclusão
25840417,Lousã e Vilarinho,Região de Coimbra,310,2025-08-14T13:46:00Z,25840417,Em Resolução/Conclusão,3101,Incêndio rural,0,6,0,16,2025-08-14T13:46:00Z,Lousã,Coimbra,Centro,-8.201561,40.080016,Resolução/Conclusão
25897250,Viade de Baixo e Fervidelas,Alto Tâmega e Barroso,309,2025-08-25T17:20:00Z,25897250,Em Resolução/Conclusão,3103,Incêndio rural,0,17,0,56,2025-08-25T17:20:00Z,Montalegre,Vila Real,Norte,-7.860477,41.725298,Resolução/Conclusão
25898107,Mondrões,Douro,309,2025-08-25T20:46:00Z,25898107,Em Resolução/Conclusão,3103,Incêndio rural,0,20,0,75,2025-08-25T20:46:00Z,Vila Real,Vila Real,Norte,-7.804065,41.318255,Resolução/Conclusão
25901074,"Ardegão, Arnozela e Seidões",Ave,309,2025-08-26T13:29:00Z,25901074,Em Resolução/Conclusão,3103,Incêndio rural,0,1,0,5,2025-08-26T13:29:00Z,Fafe,Braga,Norte,-8.110467,41.40504,Resolução/Conclusão
25901417,Paredes,Area M. Porto,309,2025-08-26T14:30:00Z,25901417,Em Resolução/Conclusão,3103,Incêndio rural,0,0,0,0,2025-08-26T14:30:00Z,Paredes,Porto,Norte,-8.354565,41.228828,Resolução/Conclusão
25901717,Vale,Alto Minho,309,2025-08-26T15:32:00Z,25901717,Em Curso,3103,Incêndio rural,2,9,0,30,2025-08-26T15:32:00Z,Arcos De Valdevez,Viana Do Castelo,Norte,-8.345968,41.863728,Curso
25818455,Sobral de São Miguel,Beiras e Serra da Estrela,310,2025-08-10T15:02:00Z,25818455,Em Resolução/Conclusão,3103,Incêndio rural,0,1,0,1,2025-08-10T15:02:00Z,Covilhã,Castelo Branco,Centro,-7.77307,40.200173,Resolução/Conclusão
25846480,Sabugal e Aldeia de Santo António,Beiras e Serra da Estrela,310,2025-08-15T14:41:00Z,25846480,Em Resolução/Conclusão,3103,Incêndio rural,0,11,0,33,2025-08-15T14:41:00Z,Sabugal,Guarda,Centro,-7.125037,40.34023,Resolução/Conclusão
25891770,São Martinho de Antas e Paradela de Guiães,Douro,309,2025-08-24T15:06:00Z,25891770,Em Resolução/Conclusão,3101,Incêndio rural,0,19,0,68,2025-08-24T15:06:00Z,Sabrosa,Vila Real,Norte,-7.640418,41.23664,Resolução/Conclusão
25901632,Nevogilde,Tâmega e Sousa,309,2025-08-26T15:16:00Z,25901632,Em Resolução/Conclusão,3103,Incêndio rural,0,2,0,10,2025-08-26T15:16:00Z,Lousada,Porto,Norte,-8.326735,41.26385,Resolução/Conclusão
25901832,Basto (São Clemente),Tâmega e Sousa,309,2025-08-26T15:55:00Z,25901832,Em Resolução/Conclusão,3103,Incêndio rural,1,5,0,26,2025-08-26T15:55:00Z,Celorico De Basto,Braga,Norte,-8.03586,41.462048,Resolução/Conclusão
25901866,Garfe,Ave,309,2025-08-26T16:10:00Z,25901866,Em Resolução/Conclusão,3103,Incêndio rural,0,0,0,0,2025-08-26T16:10:00Z,Póvoa De Lanhoso,Braga,Norte,-8.24088,41.5399,Resolução/Conclusão
25883011,Almofala,Viseu Dão Lafões,310,2025-08-22T17:00:00Z,25883011,Em Resolução/Conclusão,3103,Incêndio rural,0,1,0,4,2025-08-22T17:00:00Z,Castro Daire,Viseu,Centro,-7.767003,40.956183,Resolução/Conclusão
25887019,Pedrógão Grande,Região de Leiria,310,2025-08-23T14:27:00Z,25887019,Em Resolução/Conclusão,3101,Incêndio rural,0,35,0,114,2025-08-23T14:27:00Z,Pedrógão Grande,Leiria,Centro,-8.15364,39.9136,Resolução/Conclusão
25893480,Este (São Pedro e São Mamede),Cávado,309,2025-08-24T23:22:00Z,25893480,Em Resolução/Conclusão,3103,Incêndio rural,0,1,0,3,2025-08-24T23:22:00Z,Braga,Braga,Norte,-8.368823,41.555605,Resolução/Conclusão
25901025,Vila Verde de Ficalho,Baixo Alentejo,312,2025-08-26T13:17:00Z,25901025,Em Resolução/Conclusão,3105,Incêndio rural,0,1,0,2,2025-08-26T13:17:00Z,Serpa,Beja,Alentejo,-7.296861,37.948375,Resolução/Conclusão
25901384,Retorta e Tougues,Area M. Porto,309,2025-08-26T14:26:00Z,25901384,Em Resolução/Conclusão,3103,Incêndio rural,0,1,0,5,2025-08-26T14:26:00Z,Vila Do Conde,Porto,Norte,-8.697322,41.352865,Resolução/Conclusão
25901452,Charneca de Caparica e Sobreda,Península de Setúbal,311,2025-08-26T14:41:00Z,25901452,Em Resolução/Conclusão,3103,Incêndio rural,0,0,0,0,2025-08-26T14:41:00Z,Almada,Setúbal,Área Metropolitana De Lisboa,-9.181112,38.658937,Resolução/Conclusão
25902198,Guilhabreu,Area M. Porto,309,2025-08-26T17:14:00Z,25902198,Em Despacho,3105,Incêndio rural,0,0,0,0,2025-08-26T17:14:00Z,Vila Do Conde,Porto,Norte,-8.62807,41.29338,Despacho
25813482,Freches e Torres,Beiras e Serra da Estrela,310,2025-08-09T16:21:00Z,25813482,Em Resolução/Conclusão,3103,Incêndio rural,0,1,0,5,2025-08-09T16:21:00Z,Trancoso,Guarda,Centro,-7.363745,40.709022,Resolução/Conclusão
25832250,Ferreira de Aves,Viseu Dão Lafões,310,2025-08-13T00:03:00Z,25832250,Em Resolução/Conclusão,3103,Incêndio rural,0,0,0,0,2025-08-13T00:03:00Z,Sátão,Viseu,Centro,-7.647793,40.79568,Resolução/Conclusão
25836309,Cinfães,Tâmega e Sousa,309,2025-08-13T18:17:00Z,25836309,Em Resolução/Conclusão,3103,Incêndio rural,0,1,0,2,2025-08-13T18:17:00Z,Cinfães,Viseu,Norte,-8.071502,41.049757,Resolução/Conclusão
25840505,Ribeira de Nisa e Carreiras,Alto Alentejo,312,2025-08-14T14:01:00Z,25840505,Em Resolução/Conclusão,3101,Incêndio rural,0,2,0,7,2025-08-14T14:01:00Z,Portalegre,Portalegre,Alentejo,-7.47009,39.374707,Resolução/Conclusão
25851721,Arnóia,Tâmega e Sousa,309,2025-08-16T14:24:00Z,25851721,Em Resolução/Conclusão,3103,Incêndio rural,0,1,0,1,2025-08-16T14:24:00Z,Celorico De Basto,Braga,Norte,-7.994469,41.369836,Resolução/Conclusão
25877725,São Cipriano e Vil de Souto,Viseu Dão Lafões,310,2025-08-21T16:05:00Z,25877725,Em Resolução/Conclusão,3103,Incêndio rural,0,0,0,0,2025-08-21T16:05:00Z,Viseu,Viseu,Centro,-7.959537,40.61783,Resolução/Conclusão
25882003,"Mamouros, Alva e Ribolhos",Viseu Dão Lafões,310,2025-08-22T13:50:00Z,25882003,Em Resolução/Conclusão,3103,Incêndio rural,0,0,0,0,2025-08-22T13:50:00Z,Castro Daire,Viseu,Centro,-7.972402,40.848113,Resolução/Conclusão
25891313,Cervães,Cávado,309,2025-08-24T13:23:00Z,25891313,Em Resolução/Conclusão,3103,Incêndio rural,0,1,0,4,2025-08-24T13:23:00Z,Vila Verde,Braga,Norte,-8.525457,41.612832,Resolução/Conclusão
25891462,Faíl e Vila Chã de Sá,Viseu Dão Lafões,310,2025-08-24T12:41:00Z,25891462,Em Resolução/Conclusão,3103,Incêndio rural,0,1,0,5,2025-08-24T12:41:00Z,Viseu,Viseu,Centro,-7.956645,40.601897,Resolução/Conclusão
25901684,Poiares e Canelas,Douro,309,2025-08-26T15:25:00Z,25901684,Em Resolução/Conclusão,3103,Incêndio rural,0,2,0,6,2025-08-26T15:25:00Z,Peso Da Régua,Vila Real,Norte,-7.72436,41.177752,Resolução/Conclusão
25901811,Esperança e Brunhais,Ave,309,2025-08-26T15:55:00Z,25901811,Em Resolução/Conclusão,3103,Incêndio rural,2,8,0,45,2025-08-26T15:55:00Z,Póvoa De Lanhoso,Braga,Norte,-8.17349,41.593797,Resolução/Conclusão
25901836,Bensafrim e Barão de São João,Algarve,313,2025-08-26T15:56:00Z,25901836,Em Resolução/Conclusão,3103,Incêndio rural,0,15,0,53,2025-08-26T15:56:00Z,Lagos,Faro,Algarve,-8.720143,37.15252,Resolução/Conclusão
25901904,Revinhade,Tâmega e Sousa,309,2025-08-26T16:11:00Z,25901904,Em Resolução/Conclusão,3103,Incêndio rural,0,4,0,13,2025-08-26T16:11:00Z,Felgueiras,Porto,Norte,-8.269625,41.352172,Resolução/Conclusão
25901038,Quinta do Conde,Península de Setúbal,311,2025-08-26T13:21:00Z,25901038,Em Resolução/Conclusão,3103,Incêndio rural,0,0,0,0,2025-08-26T13:21:00Z,Sesimbra,Setúbal,Área Metropolitana De Lisboa,-9.080168,38.551892,Resolução/Conclusão
25901556,Mondim de Basto,Ave,309,2025-08-26T15:02:00Z,25901556,Em Resolução/Conclusão,3103,Incêndio rural,0,10,0,30,2025-08-26T15:02:00Z,Mondim De Basto,Vila Real,Norte,-7.960947,41.398233,Resolução/Conclusão
25902089,Sobral da Adiça,Baixo Alentejo,312,2025-08-26T16:56:00Z,25902089,Em Despacho,3103,Incêndio rural,0,13,0,44,2025-08-26T16:56:00Z,Moura,Beja,Alentejo,-7.24989,38.06137,Despacho
