id,address,subregion,neighborhood,date,id.1,state,nature,nature_description,aerial_means,terrestrial_means,aquatic_means,operational,date.1,Concelho,Distrito,NUTII_DSG,longitude,latitude,state_2
25623067,Castro Daire,Viseu Dão Lafões,310,2025-07-03T22:48:00Z,25623067,Em Resolução/Conclusão,3103,Incêndio rural,0,0,0,0,2025-07-03T22:48:00Z,Castro Daire,Viseu,Centro,-7.960303,40.913047,Resolução/Conclusão
25623133,Tarouquela,Tâmega e Sousa,309,2025-07-03T23:01:00Z,25623133,Em Resolução/Conclusão,3103,Incêndio rural,0,6,0,27,2025-07-03T23:01:00Z,Cinfães,Viseu,Norte,-8.186077,41.064885,Resolução/Conclusão
25599382,Almaceda,Beira Baixa,310,2025-06-29T17:03:00Z,25599382,Em Resolução/Conclusão,3101,Incêndio rural,0,1,0,5,2025-06-29T17:03:00Z,Castelo Branco,Castelo Branco,Centro,-7.645695,39.962858,Resolução/Conclusão
25622171,"Barcel, Marmelos e Valverde da Gestosa",Terras de Trás-os-Montes,309,2025-07-03T19:16:00Z,25622171,Em Resolução/Conclusão,3103,Incêndio rural,0,23,0,83,2025-07-03T19:16:00Z,Mirandela,Bragança,Norte,-7.21564,41.391697,Resolução/Conclusão
25622185,Fornos,Tâmega e Sousa,309,2025-07-03T19:19:00Z,25622185,Em Curso,3103,Incêndio rural,0,20,0,71,2025-07-03T19:19:00Z,Castelo De Paiva,Aveiro,Norte,-8.242889,41.047999,Curso
25622462,Sortes,Terras de Trás-os-Montes,309,2025-07-03T20:22:00Z,25622462,Em Resolução/Conclusão,3103,Incêndio rural,0,6,0,25,2025-07-03T20:22:00Z,Bragança,Bragança,Norte,-6.838812,41.700238,Resolução/Conclusão
25622580,Ribeira do Neiva,Cávado,309,2025-07-03T20:50:00Z,25622580,Em Curso,3103,Incêndio rural,0,11,0,43,2025-07-03T20:50:00Z,Vila Verde,Braga,Norte,-8.51215,41.728757,Curso
25622896,Sobrado e Bairros,Tâmega e Sousa,309,2025-07-03T22:01:00Z,25622896,Em Resolução/Conclusão,3103,Incêndio rural,0,1,0,5,2025-07-03T22:01:00Z,Castelo De Paiva,Aveiro,Norte,-8.253775,41.00143,Resolução/Conclusão
25623198,Afife,Alto Minho,309,2025-07-03T23:30:00Z,25623198,Em Curso,3103,Incêndio rural,0,2,0,11,2025-07-03T23:30:00Z,Viana Do Castelo,Viana Do Castelo,Norte,-8.86137,41.77512,Curso
25610143,Nossa Senhora Das Misericórdias,Médio Tejo,311,2025-07-01T15:32:00Z,25610143,Em Resolução/Conclusão,3103,Incêndio rural,0,1,0,5,2025-07-01T15:32:00Z,Ourém,Santarém,Centro,-8.600277,39.655883,Resolução/Conclusão
25620464,Cativelos,Beiras e Serra da Estrela,310,2025-07-03T13:45:00Z,25620464,Em Resolução/Conclusão,3103,Incêndio rural,0,2,0,6,2025-07-03T13:45:00Z,Gouveia,Guarda,Centro,-7.704635,40.546025,Resolução/Conclusão
25620664,Côja e Barril de Alva,Região de Coimbra,310,2025-07-03T14:22:00Z,25620664,Em Resolução/Conclusão,3101,Incêndio rural,0,20,0,56,2025-07-03T14:22:00Z,Arganil,Coimbra,Centro,-7.95667,40.2725,Resolução/Conclusão
25620835,Recarei,Area M. Porto,309,2025-07-03T14:40:00Z,25620835,Em Resolução/Conclusão,3103,Incêndio rural,0,3,0,8,2025-07-03T14:40:00Z,Paredes,Porto,Norte,-8.427998,41.160472,Resolução/Conclusão
25622107,Vascoveiro,Beiras e Serra da Estrela,310,2025-07-03T19:03:00Z,25622107,Em Resolução/Conclusão,3103,Incêndio rural,0,4,0,17,2025-07-03T19:03:00Z,Pinhel,Guarda,Centro,-7.07463,40.739772,Resolução/Conclusão
25622824,Quinchães,Ave,309,2025-07-03T21:47:00Z,25622824,Em Resolução/Conclusão,3103,Incêndio rural,0,1,0,5,2025-07-03T21:47:00Z,Fafe,Braga,Norte,-8.13786,41.419498,Resolução/Conclusão
25622875,Carragosa,Terras de Trás-os-Montes,309,2025-07-03T22:00:00Z,25622875,Em Resolução/Conclusão,3103,Incêndio rural,0,2,0,10,2025-07-03T22:00:00Z,Bragança,Bragança,Norte,-6.808307,41.889615,Resolução/Conclusão
25623074,"Silvares, Pias, Nogueira e Alvarenga",Tâmega e Sousa,309,2025-07-03T22:49:00Z,25623074,Em Resolução/Conclusão,3103,Incêndio rural,0,2,0,10,2025-07-03T22:49:00Z,Lousada,Porto,Norte,-8.263442,41.275618,Resolução/Conclusão
