id,address,subregion,neighborhood,date,id.1,state,nature,nature_description,aerial_means,terrestrial_means,aquatic_means,operational,date.1,Concelho,Distrito,NUTII_DSG,longitude,latitude
25496975,Sendim,Tâmega e Sousa,309,2025-06-08T18:32:00Z,25496975,Em conclusão,3103,Incêndio rural,0,4,0,14,2025-06-08T18:32:00Z,Felgueiras,Porto,Norte,-8.191015,41.392435
25497236,Alcabideche,Grande Lisboa,311,2025-06-08T19:42:00Z,25497236,Em resolução,3203,Detritos confinados,0,1,0,5,2025-06-08T19:42:00Z,Cascais,Lisboa,Área Metropolitana De Lisboa,-9.399427,38.741735
25495190,Peva e Segões,Douro,309,2025-06-08T11:17:00Z,25495190,Em conclusão,2127,"Incêndio em edifícios e recintos industriais, oficinas e armazéns",0,4,0,13,2025-06-08T11:17:00Z,Moimenta Da Beira,Viseu,Norte,-7.69063,40.890053
25497316,Gulpilhares e Valadares,Area M. Porto,309,2025-06-08T19:59:00Z,25497316,Em resolução,2301,Incêndio em transporte rodoviário,0,2,0,5,2025-06-08T19:59:00Z,Vila Nova De Gaia,Porto,Norte,-8.637978,41.084091
25497363,São Martinho do Bispo e Ribeira de Frades,Região de Coimbra,310,2025-06-08T20:15:00Z,25497363,Em resolução,3201,Detritos não confinados,0,3,0,12,2025-06-08T20:15:00Z,Coimbra,Coimbra,Centro,-8.454962,40.20908
25497400,Ramada e Caneças,Grande Lisboa,311,2025-06-08T20:24:00Z,25497400,Em despacho,2201,Incêndio em equipamentos ou produtos,0,0,0,0,2025-06-08T20:24:00Z,Odivelas,Lisboa,Área Metropolitana De Lisboa,-9.20332,38.81312
25497235,Rocas do Vouga,Região de Aveiro,310,2025-06-08T19:43:00Z,25497235,Em conclusão,3101,Incêndio rural,0,3,0,15,2025-06-08T19:43:00Z,Sever Do Vouga,Aveiro,Centro,-8.34284,40.736318
25497319,"Lemenhe, Mouquim e Jesufrei",Ave,309,2025-06-08T20:04:00Z,25497319,Em conclusão,3103,Incêndio rural,0,1,0,4,2025-06-08T20:04:00Z,Vila Nova De Famalicão,Braga,Norte,-8.519555,41.447557
25497406,Fátima,Médio Tejo,311,2025-06-08T20:25:00Z,25497406,Em despacho,3111,Queima,0,2,0,7,2025-06-08T20:25:00Z,Ourém,Santarém,Centro,-8.650169,39.617565
