id,address,subregion,neighborhood,date,id.1,state,nature,nature_description,aerial_means,terrestrial_means,aquatic_means,operational,date.1,Concelho,Distrito,NUTII_DSG,longitude,latitude,state_2
26192204,Castelo Branco,Beira Baixa,310,2025-10-26T11:51:00Z,26192204,Em Resolução/Conclusão,3103,Incêndio rural,0,10,0,30,2025-10-26T11:51:00Z,Castelo Branco,Castelo Branco,Centro,-7.468095,39.82932,Resolução/Conclusão
26192804,Boliqueime,Algarve,313,2025-10-26T14:20:00Z,26192804,Em Despacho,3103,Incêndio rural,1,0,0,6,2025-10-26T14:20:00Z,Loulé,Faro,Algarve,-8.162844,37.13089,Despacho
26192711,Pinhal Novo,Península de Setúbal,311,2025-10-26T13:56:00Z,26192711,Em Resolução/Conclusão,3105,Incêndio rural,0,1,0,5,2025-10-26T13:56:00Z,Palmela,Setúbal,Área Metropolitana De Lisboa,-8.898349,38.639295,Resolução/Conclusão
26160929,Caranguejeira,Região de Leiria,310,2025-10-19T16:50:00Z,26160929,Em Resolução/Conclusão,3101,Incêndio rural,0,1,0,2,2025-10-19T16:50:00Z,Leiria,Leiria,Centro,-8.697637,39.726483,Resolução/Conclusão
26192799,Alter do Chão,Alto Alentejo,312,2025-10-26T14:12:00Z,26192799,Em Resolução/Conclusão,3103,Incêndio rural,0,2,0,4,2025-10-26T14:12:00Z,Alter Do Chão,Portalegre,Alentejo,-7.662908,39.194778,Resolução/Conclusão
