id,address,subregion,neighborhood,date,id.1,state,nature,nature_description,aerial_means,terrestrial_means,aquatic_means,operational,date.1,Concelho,Distrito,NUTII_DSG,longitude,latitude
25087162,Pedrógão,Baixo Alentejo,312,2025-03-14T17:00:00Z,25087162,Em curso,1101,Cheia,0,0,0,0,2025-03-14T17:00:00Z,Vidigueira,Beja,Alentejo,-7.630327,38.110775
25114370,Charneca de Caparica e Sobreda,Península de Setúbal,311,2025-03-20T03:20:00Z,25114370,Em curso,3301,Queda de árvore,0,0,0,0,2025-03-20T03:20:00Z,Almada,Setúbal,Área Metropolitana De Lisboa,-9.17923,38.60275
25115156,Charneca de Caparica e Sobreda,Península de Setúbal,311,2025-03-20T04:46:00Z,25115156,Em curso,3301,Queda de árvore,0,0,0,0,2025-03-20T04:46:00Z,Almada,Setúbal,Área Metropolitana De Lisboa,-9.199091,38.62959
25116192,Charneca de Caparica e Sobreda,Península de Setúbal,311,2025-03-20T06:59:00Z,25116192,Em curso,3301,Queda de árvore,0,0,0,0,2025-03-20T06:59:00Z,Almada,Setúbal,Área Metropolitana De Lisboa,-9.179431,38.58817
25117921,Charneca de Caparica e Sobreda,Península de Setúbal,311,2025-03-20T09:28:00Z,25117921,Em curso,3301,Queda de árvore,0,0,0,0,2025-03-20T09:28:00Z,Almada,Setúbal,Área Metropolitana De Lisboa,-9.204146,38.62766
25122574,Quarteira,Algarve,313,2025-03-20T16:38:00Z,25122574,Em curso,3301,Queda de árvore,0,1,0,2,2025-03-20T16:38:00Z,Loulé,Faro,Algarve,-8.1072,37.074665
25124196,Cascais e Estoril,Grande Lisboa,311,2025-03-20T20:25:00Z,25124196,Em despacho,3301,Queda de árvore,0,1,0,5,2025-03-20T20:25:00Z,Cascais,Lisboa,Área Metropolitana De Lisboa,-9.431354,38.711316
25125459,Massamá e Monte Abraão,Grande Lisboa,311,2025-03-21T07:28:00Z,25125459,Em despacho,3301,Queda de árvore,0,1,0,2,2025-03-21T07:28:00Z,Sintra,Lisboa,Área Metropolitana De Lisboa,-9.27045,38.75541
25125473,Charneca de Caparica e Sobreda,Península de Setúbal,311,2025-03-21T07:53:00Z,25125473,Em despacho,3301,Queda de árvore,0,0,0,0,2025-03-21T07:53:00Z,Almada,Setúbal,Área Metropolitana De Lisboa,-9.200407,38.63274
25125609,Colares,Grande Lisboa,311,2025-03-21T08:16:00Z,25125609,Em conclusão,3301,Queda de árvore,0,2,0,3,2025-03-21T08:16:00Z,Sintra,Lisboa,Área Metropolitana De Lisboa,-9.445808,38.824992
25125652,Cativelos,Beiras e Serra da Estrela,310,2025-03-21T08:18:00Z,25125652,Em despacho,3301,Queda de árvore,0,1,0,1,2025-03-21T08:18:00Z,Gouveia,Guarda,Centro,-7.694037,40.537404
25125677,Pardilhó,Região de Aveiro,310,2025-03-21T08:25:00Z,25125677,Em despacho,3315,Inundação de estruturas por precipitação intensa,0,1,0,1,2025-03-21T08:25:00Z,Estarreja,Aveiro,Centro,-8.635515,40.794679
25125841,"Torres Novas (Santa Maria, Salvador e Santiago)",Médio Tejo,311,2025-03-21T09:03:00Z,25125841,Em despacho,3301,Queda de árvore,0,2,0,4,2025-03-21T09:03:00Z,Torres Novas,Santarém,Centro,-8.552491,39.448632
25125966,Póvoa de Santa Iria e Forte da Casa,Grande Lisboa,311,2025-03-21T09:23:00Z,25125966,Em conclusão,3301,Queda de árvore,0,2,0,4,2025-03-21T09:23:00Z,Vila Franca De Xira,Lisboa,Área Metropolitana De Lisboa,-9.05434,38.87688
25126025,Miragaia e Marteleira,Oeste,311,2025-03-21T09:25:00Z,25126025,Em despacho,3301,Queda de árvore,0,1,0,5,2025-03-21T09:25:00Z,Lourinhã,Lisboa,Centro,-9.257283,39.20887
25126061,Venda do Pinheiro e Santo Estêvão Das Galés,Grande Lisboa,311,2025-03-21T09:28:00Z,25126061,Em despacho,3301,Queda de árvore,0,1,0,5,2025-03-21T09:28:00Z,Mafra,Lisboa,Área Metropolitana De Lisboa,-9.23127,38.875849
25059714,Torrão,Alentejo Litoral,312,2025-03-08T22:10:00Z,25059714,Em curso,1101,Cheia,0,1,0,2,2025-03-08T22:10:00Z,Alcácer Do Sal,Setúbal,Alentejo,-8.359133,38.252053
25070044,Praia do Ribatejo,Médio Tejo,311,2025-03-10T19:30:00Z,25070044,Em curso,1101,Cheia,0,0,0,0,2025-03-10T19:30:00Z,Vila Nova Da Barquinha,Santarém,Centro,-8.357309,39.485638
25071496,São Manços e São Vicente do Pigeiro,Alentejo Central,312,2025-03-11T13:18:00Z,25071496,Em curso,1101,Cheia,0,2,0,4,2025-03-11T13:18:00Z,Évora,Évora,Alentejo,-7.713313,38.513673
25116205,Charneca de Caparica e Sobreda,Península de Setúbal,311,2025-03-20T07:00:00Z,25116205,Em curso,3301,Queda de árvore,0,0,0,0,2025-03-20T07:00:00Z,Almada,Setúbal,Área Metropolitana De Lisboa,-9.17532,38.61999
25116355,Charneca de Caparica e Sobreda,Península de Setúbal,311,2025-03-20T07:16:00Z,25116355,Em curso,3301,Queda de árvore,0,0,0,0,2025-03-20T07:16:00Z,Almada,Setúbal,Área Metropolitana De Lisboa,-9.16489,38.57347
25116522,Charneca de Caparica e Sobreda,Península de Setúbal,311,2025-03-20T07:34:00Z,25116522,Em curso,3301,Queda de árvore,0,0,0,0,2025-03-20T07:34:00Z,Almada,Setúbal,Área Metropolitana De Lisboa,-9.18201,38.59065
25116673,Costa da Caparica,Península de Setúbal,311,2025-03-20T07:49:00Z,25116673,Em curso,3301,Queda de árvore,0,0,0,0,2025-03-20T07:49:00Z,Almada,Setúbal,Área Metropolitana De Lisboa,-9.239889,38.65802
25125596,Louriçal,Região de Leiria,310,2025-03-21T08:15:00Z,25125596,Em despacho,3301,Queda de árvore,0,1,0,5,2025-03-21T08:15:00Z,Pombal,Leiria,Centro,-8.734023,40.019743
25125679,Almeirim,Lezíria do Tejo,311,2025-03-21T08:32:00Z,25125679,Em conclusão,3313,Deslizamento de terras,0,0,0,0,2025-03-21T08:32:00Z,Almeirim,Santarém,Alentejo,-8.623512,39.213884
25125781,Cascais e Estoril,Grande Lisboa,311,2025-03-21T08:52:00Z,25125781,Em despacho,3301,Queda de árvore,0,0,0,0,2025-03-21T08:52:00Z,Cascais,Lisboa,Área Metropolitana De Lisboa,-9.44577,38.70874
25126161,Ceira,Região de Coimbra,310,2025-03-21T09:30:00Z,25126161,Em curso,3313,Deslizamento de terras,0,0,0,0,2025-03-21T09:30:00Z,Coimbra,Coimbra,Centro,-8.389014,40.164217
25126170,Arrifana,Area M. Porto,309,2025-03-21T09:43:00Z,25126170,Em conclusão,3329,Queda de estruturas temporárias ou móveis,0,1,0,2,2025-03-21T09:43:00Z,Santa Maria Da Feira,Aveiro,Norte,-8.50493,40.911071
25126175,"Seixal, Arrentela e Aldeia de Paio Pires",Península de Setúbal,311,2025-03-21T09:47:00Z,25126175,Em despacho,3301,Queda de árvore,0,1,0,3,2025-03-21T09:47:00Z,Seixal,Setúbal,Área Metropolitana De Lisboa,-9.092719,38.597829
25126250,Colares,Grande Lisboa,311,2025-03-21T09:46:00Z,25126250,Em despacho,3301,Queda de árvore,0,1,0,2,2025-03-21T09:46:00Z,Sintra,Lisboa,Área Metropolitana De Lisboa,-9.451901,38.780787
25126286,Massamá e Monte Abraão,Grande Lisboa,311,2025-03-21T10:00:00Z,25126286,Em despacho,3317,Inundação de estruturas por água canalizada,0,1,0,2,2025-03-21T10:00:00Z,Sintra,Lisboa,Área Metropolitana De Lisboa,-9.27045,38.75541
25126300,Sesimbra (Castelo),Península de Setúbal,311,2025-03-21T10:08:00Z,25126300,Em despacho,3301,Queda de árvore,0,1,0,5,2025-03-21T10:08:00Z,Sesimbra,Setúbal,Área Metropolitana De Lisboa,-9.124957,38.490885
25126302,"Espírito Santo, Nossa Senhora da Graça e São Simão",Alto Alentejo,312,2025-03-21T10:00:00Z,25126302,Em curso,3313,Deslizamento de terras,0,1,0,3,2025-03-21T10:00:00Z,Nisa,Portalegre,Alentejo,-7.648141,39.523143
25126309,Alcabideche,Grande Lisboa,311,2025-03-21T10:08:00Z,25126309,Em despacho,3301,Queda de árvore,0,1,0,4,2025-03-21T10:08:00Z,Cascais,Lisboa,Área Metropolitana De Lisboa,-9.437127,38.727808
25068300,Almeirim,Lezíria do Tejo,311,2025-03-10T20:52:00Z,25068300,Em curso,1101,Cheia,0,0,0,0,2025-03-10T20:52:00Z,Almeirim,Santarém,Alentejo,-8.635002,39.187436
25116323,Charneca de Caparica e Sobreda,Península de Setúbal,311,2025-03-20T07:13:00Z,25116323,Em curso,3301,Queda de árvore,0,0,0,0,2025-03-20T07:13:00Z,Almada,Setúbal,Área Metropolitana De Lisboa,-9.174973,38.58474
25116409,Charneca de Caparica e Sobreda,Península de Setúbal,311,2025-03-20T07:22:00Z,25116409,Em curso,3329,Queda de estruturas temporárias ou móveis,0,0,0,0,2025-03-20T07:22:00Z,Almada,Setúbal,Área Metropolitana De Lisboa,-9.19513,38.61485
25116525,Charneca de Caparica e Sobreda,Península de Setúbal,311,2025-03-20T07:34:00Z,25116525,Em curso,3301,Queda de árvore,0,0,0,0,2025-03-20T07:34:00Z,Almada,Setúbal,Área Metropolitana De Lisboa,-9.18385,38.59055
25125456,São Silvestre,Região de Coimbra,310,2025-03-21T07:44:00Z,25125456,Em despacho,3301,Queda de árvore,0,1,0,3,2025-03-21T07:44:00Z,Coimbra,Coimbra,Centro,-8.534947,40.227742
25125460,"Coruche, Fajarda e Erra",Lezíria do Tejo,311,2025-03-21T07:47:00Z,25125460,Em conclusão,3301,Queda de árvore,0,4,0,7,2025-03-21T07:47:00Z,Coruche,Santarém,Alentejo,-8.435058,38.901485
25125515,Távora (Santa Maria e São Vicente),Alto Minho,309,2025-03-21T08:00:00Z,25125515,Em curso,3301,Queda de árvore,0,1,0,2,2025-03-21T08:00:00Z,Arcos De Valdevez,Viana Do Castelo,Norte,-8.456467,41.823973
25063232,Santa Maria do Castelo e Santiago e Santa Susana,Alentejo Litoral,312,2025-03-09T19:02:00Z,25063232,Em conclusão,1101,Cheia,0,0,0,0,2025-03-09T19:02:00Z,Alcácer Do Sal,Setúbal,Alentejo,-8.48167,38.29806
25113270,Charneca de Caparica e Sobreda,Península de Setúbal,311,2025-03-20T01:34:00Z,25113270,Em curso,3301,Queda de árvore,0,0,0,0,2025-03-20T01:34:00Z,Almada,Setúbal,Área Metropolitana De Lisboa,-9.17811,38.58586
25114074,Charneca de Caparica e Sobreda,Península de Setúbal,311,2025-03-20T02:52:00Z,25114074,Em curso,3301,Queda de árvore,0,0,0,0,2025-03-20T02:52:00Z,Almada,Setúbal,Área Metropolitana De Lisboa,-9.18666,38.59386
25118969,Igrejinha,Alentejo Central,312,2025-03-20T10:31:00Z,25118969,Em despacho,3315,Inundação de estruturas por precipitação intensa,0,1,0,2,2025-03-20T10:31:00Z,Arraiolos,Évora,Alentejo,-7.889471,38.693718
25125639,Póvoa de Lanhoso (Nossa Senhora do Amparo),Ave,309,2025-03-21T08:25:00Z,25125639,Em resolução,3315,Inundação de estruturas por precipitação intensa,0,1,0,1,2025-03-21T08:25:00Z,Póvoa De Lanhoso,Braga,Norte,-8.266733,41.577891
25125671,Rio Tinto,Area M. Porto,309,2025-03-21T08:25:00Z,25125671,Em despacho,3311,Queda de elementos de estruturas edificados,0,1,0,4,2025-03-21T08:25:00Z,Gondomar,Porto,Norte,-8.560102,41.179302
25126318,Rogil,Algarve,313,2025-03-21T10:06:00Z,25126318,Em despacho,3301,Queda de árvore,0,1,0,2,2025-03-21T10:06:00Z,Aljezur,Faro,Algarve,-8.812941,37.398883
25126320,Colares,Grande Lisboa,311,2025-03-21T09:30:00Z,25126320,Em despacho,3301,Queda de árvore,0,1,0,2,2025-03-21T09:30:00Z,Sintra,Lisboa,Área Metropolitana De Lisboa,-9.453168,38.787078
25126329,Dornelas,Viseu Dão Lafões,310,2025-03-21T10:05:00Z,25126329,Em despacho,3301,Queda de árvore,0,1,0,2,2025-03-21T10:05:00Z,Aguiar Da Beira,Guarda,Centro,-7.558989,40.733123
25126334,Odeceixe,Algarve,313,2025-03-21T10:12:00Z,25126334,Em despacho,3313,Deslizamento de terras,0,2,0,4,2025-03-21T10:12:00Z,Aljezur,Faro,Algarve,-8.774846,37.434235
25125812,Caparica e Trafaria,Península de Setúbal,311,2025-03-21T08:49:00Z,25125812,Em despacho,3301,Queda de árvore,0,1,0,4,2025-03-21T08:49:00Z,Almada,Setúbal,Área Metropolitana De Lisboa,-9.231582,38.671372
25125813,"Santiago do Cacém, S.cruz e São Bartolomeu da Serra",Alentejo Litoral,312,2025-03-21T08:55:00Z,25125813,Em despacho,3315,Inundação de estruturas por precipitação intensa,0,1,0,2,2025-03-21T08:55:00Z,Santiago Do Cacém,Setúbal,Alentejo,-8.741874,38.007113
25125828,Santa Clara e Castelo Viegas,Região de Coimbra,310,2025-03-21T08:55:00Z,25125828,Em despacho,3311,Queda de elementos de estruturas edificados,0,1,0,2,2025-03-21T08:55:00Z,Coimbra,Coimbra,Centro,-8.405437,40.161477
25125831,Arruda Dos Vinhos,Oeste,311,2025-03-21T08:53:00Z,25125831,Em despacho,3301,Queda de árvore,0,1,0,1,2025-03-21T08:53:00Z,Arruda Dos Vinhos,Lisboa,Centro,-9.075983,38.983497
25125895,Cascais e Estoril,Grande Lisboa,311,2025-03-21T08:15:00Z,25125895,Em despacho,3301,Queda de árvore,0,1,0,2,2025-03-21T08:15:00Z,Cascais,Lisboa,Área Metropolitana De Lisboa,-9.419397,38.700982
25125981,Espinho,Região de Coimbra,310,2025-03-21T09:23:00Z,25125981,Em despacho,3301,Queda de árvore,0,1,0,3,2025-03-21T09:23:00Z,Mortágua,Viseu,Centro,-8.308611,40.392211
25126014,Gavião e Atalaia,Alto Alentejo,312,2025-03-21T09:28:00Z,25126014,Em despacho,3313,Deslizamento de terras,0,3,0,5,2025-03-21T09:28:00Z,Gavião,Portalegre,Alentejo,-7.960047,39.430351
25126049,Santa Catarina,Oeste,311,2025-03-21T09:31:00Z,25126049,Em curso,3329,Queda de estruturas temporárias ou móveis,0,1,0,5,2025-03-21T09:31:00Z,Caldas Da Rainha,Leiria,Centro,-9.068603,39.47174
25126081,Corte do Pinto,Baixo Alentejo,312,2025-03-21T09:30:00Z,25126081,Em curso,3301,Queda de árvore,0,1,0,2,2025-03-21T09:30:00Z,Mértola,Beja,Alentejo,-7.49685,37.711778
25125674,Sardoal,Médio Tejo,311,2025-03-21T08:31:00Z,25125674,Em despacho,3313,Deslizamento de terras,0,1,0,2,2025-03-21T08:31:00Z,Sardoal,Santarém,Centro,-8.159407,39.539245
25125699,Carcavelos e Parede,Grande Lisboa,311,2025-03-21T08:37:00Z,25125699,Em despacho,3301,Queda de árvore,0,2,0,3,2025-03-21T08:37:00Z,Cascais,Lisboa,Área Metropolitana De Lisboa,-9.35542,38.68831
25125735,Torre de Moncorvo,Douro,309,2025-03-21T08:40:00Z,25125735,Em despacho,3301,Queda de árvore,0,1,0,4,2025-03-21T08:40:00Z,Torre De Moncorvo,Bragança,Norte,-7.051176,41.1689
25125760,Ferreira-a-Nova,Região de Coimbra,310,2025-03-21T08:45:00Z,25125760,Em despacho,3317,Inundação de estruturas por água canalizada,0,1,0,2,2025-03-21T08:45:00Z,Figueira Da Foz,Coimbra,Centro,-8.740439,40.214236
25125883,Vila Cova à Coelheira,Beiras e Serra da Estrela,310,2025-03-21T09:11:00Z,25125883,Em despacho,3311,Queda de elementos de estruturas edificados,0,2,0,4,2025-03-21T09:11:00Z,Seia,Guarda,Centro,-7.73476,40.383432
25125885,Fazendas de Almeirim,Lezíria do Tejo,311,2025-03-21T09:10:00Z,25125885,Em despacho,3321,Dano na rede de fornecimento de eletricidade ,0,1,0,2,2025-03-21T09:10:00Z,Almeirim,Santarém,Alentejo,-8.576336,39.178329
25125901,São João Das Lampas e Terrugem,Grande Lisboa,311,2025-03-21T07:50:00Z,25125901,Em despacho,3301,Queda de árvore,0,1,0,2,2025-03-21T07:50:00Z,Sintra,Lisboa,Área Metropolitana De Lisboa,-9.436253,38.869236
25125942,"Oeiras e S. Julião da Barra, Paço de Arcos e Caxias",Grande Lisboa,311,2025-03-21T09:15:00Z,25125942,Em despacho,3301,Queda de árvore,0,1,0,5,2025-03-21T09:15:00Z,Oeiras,Lisboa,Área Metropolitana De Lisboa,-9.275682,38.698873
25125787,Bendada,Beiras e Serra da Estrela,310,2025-03-21T08:49:00Z,25125787,Em despacho,3301,Queda de árvore,0,1,0,4,2025-03-21T08:49:00Z,Sabugal,Guarda,Centro,-7.251221,40.371882
25125837,"Custóias, Leça do Balio e Guifões",Area M. Porto,309,2025-03-21T08:52:00Z,25125837,Em despacho,3315,Inundação de estruturas por precipitação intensa,0,1,0,3,2025-03-21T08:52:00Z,Matosinhos,Porto,Norte,-8.643123,41.208539
25125871,Mafamude e Vilar do Paraíso,Area M. Porto,309,2025-03-21T09:04:00Z,25125871,Em despacho,3315,Inundação de estruturas por precipitação intensa,0,1,0,3,2025-03-21T09:04:00Z,Vila Nova De Gaia,Porto,Norte,-8.611105,41.107184
25125906,Alvega e Concavada,Médio Tejo,311,2025-03-21T09:15:00Z,25125906,Em resolução,3315,Inundação de estruturas por precipitação intensa,0,1,0,2,2025-03-21T09:15:00Z,Abrantes,Santarém,Centro,-8.027933,39.461163
25126021,Silvalde,Area M. Porto,309,2025-03-21T09:24:00Z,25126021,Em conclusão,3329,Queda de estruturas temporárias ou móveis,0,1,0,3,2025-03-21T09:24:00Z,Espinho,Aveiro,Norte,-8.630075,40.992078
25126023,Ramalde,Area M. Porto,309,2025-03-21T09:10:00Z,25126023,Em despacho,3315,Inundação de estruturas por precipitação intensa,0,1,0,2,2025-03-21T09:10:00Z,Porto,Porto,Norte,-8.6384,41.172857
25126054,Sesimbra (Castelo),Península de Setúbal,311,2025-03-21T09:34:00Z,25126054,Em despacho,3301,Queda de árvore,0,2,0,7,2025-03-21T09:34:00Z,Sesimbra,Setúbal,Área Metropolitana De Lisboa,-9.179861,38.512406
25126130,"Pinheiro da Bemposta, Travanca e Palmaz",Area M. Porto,309,2025-03-21T09:45:00Z,25126130,Em despacho,3313,Deslizamento de terras,0,0,0,0,2025-03-21T09:45:00Z,Oliveira De Azeméis,Aveiro,Norte,-8.481112,40.79761
25126181,Parceiros e Azoia,Região de Leiria,310,2025-03-21T09:50:00Z,25126181,Em despacho,3301,Queda de árvore,0,1,0,2,2025-03-21T09:50:00Z,Leiria,Leiria,Centro,-8.834141,39.730081
25126213,Fernão Ferro,Península de Setúbal,311,2025-03-21T09:56:00Z,25126213,Em despacho,3329,Queda de estruturas temporárias ou móveis,0,1,0,3,2025-03-21T09:56:00Z,Seixal,Setúbal,Área Metropolitana De Lisboa,-9.0589,38.54408
25126215,"Oeiras e S. Julião da Barra, Paço de Arcos e Caxias",Grande Lisboa,311,2025-03-21T09:53:00Z,25126215,Em despacho,3301,Queda de árvore,0,1,0,2,2025-03-21T09:53:00Z,Oeiras,Lisboa,Área Metropolitana De Lisboa,-9.290593,38.696925
25126231,Azeitão (São Lourenço e São Simão),Península de Setúbal,311,2025-03-21T09:46:00Z,25126231,Em despacho,3301,Queda de árvore,0,1,0,5,2025-03-21T09:46:00Z,Setúbal,Setúbal,Área Metropolitana De Lisboa,-9.008871,38.513402
25126232,Carnaxide e Queijas,Grande Lisboa,311,2025-03-21T09:19:00Z,25126232,Em despacho,3301,Queda de árvore,0,1,0,3,2025-03-21T09:19:00Z,Oeiras,Lisboa,Área Metropolitana De Lisboa,-9.25881,38.722457
25126246,Corval,Alentejo Central,312,2025-03-21T09:54:00Z,25126246,Em despacho,3311,Queda de elementos de estruturas edificados,0,1,0,2,2025-03-21T09:54:00Z,Reguengos De Monsaraz,Évora,Alentejo,-7.465278,38.444932
25126280,Carnota,Oeste,311,2025-03-21T10:00:00Z,25126280,Em despacho,3301,Queda de árvore,0,1,0,2,2025-03-21T10:00:00Z,Alenquer,Lisboa,Centro,-9.073261,39.039364
25126298,Miranda do Corvo,Região de Coimbra,310,2025-03-21T10:00:00Z,25126298,Em despacho,3301,Queda de árvore,0,1,0,2,2025-03-21T10:00:00Z,Miranda Do Corvo,Coimbra,Centro,-8.328159,40.098029
25126330,Aljezur,Algarve,313,2025-03-21T10:07:00Z,25126330,Em despacho,3301,Queda de árvore,0,1,0,2,2025-03-21T10:07:00Z,Aljezur,Faro,Algarve,-8.803144,37.313343
25126083,Baixa da Banheira e Vale da Amoreira,Península de Setúbal,311,2025-03-21T09:39:00Z,25126083,Em curso,3329,Queda de estruturas temporárias ou móveis,0,1,0,4,2025-03-21T09:39:00Z,Moita,Setúbal,Área Metropolitana De Lisboa,-9.03718,38.64856
25126092,Loures,Grande Lisboa,311,2025-03-21T09:31:00Z,25126092,Em despacho,3301,Queda de árvore,0,1,0,5,2025-03-21T09:31:00Z,Loures,Lisboa,Área Metropolitana De Lisboa,-9.188441,38.862733
25126126,Caparica e Trafaria,Península de Setúbal,311,2025-03-21T09:35:00Z,25126126,Em despacho,3301,Queda de árvore,0,1,0,4,2025-03-21T09:35:00Z,Almada,Setúbal,Área Metropolitana De Lisboa,-9.218537,38.64447
25126133,Samora Correia,Lezíria do Tejo,311,2025-03-21T09:45:00Z,25126133,Em resolução,3301,Queda de árvore,0,1,0,3,2025-03-21T09:45:00Z,Benavente,Santarém,Alentejo,-8.840328,38.829023
25126151,São João de Ver,Area M. Porto,309,2025-03-21T09:40:00Z,25126151,Em despacho,3315,Inundação de estruturas por precipitação intensa,0,1,0,2,2025-03-21T09:40:00Z,Santa Maria Da Feira,Aveiro,Norte,-8.551133,40.95522
25126160,Fornos,Tâmega e Sousa,309,2025-03-21T09:45:00Z,25126160,Em conclusão,3329,Queda de estruturas temporárias ou móveis,0,1,0,2,2025-03-21T09:45:00Z,Castelo De Paiva,Aveiro,Norte,-8.255654,41.055046
25126183,Alvor,Algarve,313,2025-03-21T09:26:00Z,25126183,Em despacho,3301,Queda de árvore,0,1,0,5,2025-03-21T09:26:00Z,Portimão,Faro,Algarve,-8.5944680000000009,37.131433
25126187,Odivelas,Grande Lisboa,311,2025-03-21T09:31:00Z,25126187,Em despacho,3311,Queda de elementos de estruturas edificados,0,1,0,5,2025-03-21T09:31:00Z,Odivelas,Lisboa,Área Metropolitana De Lisboa,-9.182813,38.793425
25126203,São Pedro de Alva e São Paio de Mondego,Região de Coimbra,310,2025-03-21T09:50:00Z,25126203,Em despacho,3301,Queda de árvore,0,1,0,2,2025-03-21T09:50:00Z,Penacova,Coimbra,Centro,-8.171933,40.301383
25126237,Póvoa de Santa Iria e Forte da Casa,Grande Lisboa,311,2025-03-21T09:31:00Z,25126237,Em despacho,3311,Queda de elementos de estruturas edificados,0,1,0,2,2025-03-21T09:31:00Z,Vila Franca De Xira,Lisboa,Área Metropolitana De Lisboa,-9.051508,38.875602
25126055,Amora,Península de Setúbal,311,2025-03-21T09:22:00Z,25126055,Em despacho,3315,Inundação de estruturas por precipitação intensa,0,1,0,4,2025-03-21T09:22:00Z,Seixal,Setúbal,Área Metropolitana De Lisboa,-9.125264,38.627284
25126073,"Querença, Tôr e Benafim",Algarve,313,2025-03-21T09:22:00Z,25126073,Em despacho,3329,Queda de estruturas temporárias ou móveis,0,1,0,2,2025-03-21T09:22:00Z,Loulé,Faro,Algarve,-8.062676,37.216909
25126074,Vila Nova de Milfontes,Alentejo Litoral,312,2025-03-21T09:27:00Z,25126074,Em despacho,3321,Dano na rede de fornecimento de eletricidade ,0,2,0,4,2025-03-21T09:27:00Z,Odemira,Beja,Alentejo,-8.787529,37.721575
25126088,"S.julião, N.s. da Anunciada e S. Maria da Graça",Península de Setúbal,311,2025-03-21T09:33:00Z,25126088,Em despacho,3301,Queda de árvore,0,1,0,5,2025-03-21T09:33:00Z,Setúbal,Setúbal,Área Metropolitana De Lisboa,-8.889983,38.529955
25126123,São Luís,Alentejo Litoral,312,2025-03-21T09:37:00Z,25126123,Em despacho,3301,Queda de árvore,0,1,0,2,2025-03-21T09:37:00Z,Odemira,Beja,Alentejo,-8.660162,37.674464
25126189,Cascais e Estoril,Grande Lisboa,311,2025-03-21T09:39:00Z,25126189,Em despacho,3301,Queda de árvore,0,1,0,2,2025-03-21T09:39:00Z,Cascais,Lisboa,Área Metropolitana De Lisboa,-9.408908,38.704814
25126303,Avanca,Região de Aveiro,310,2025-03-21T10:00:00Z,25126303,Em despacho,3315,Inundação de estruturas por precipitação intensa,0,1,0,2,2025-03-21T10:00:00Z,Estarreja,Aveiro,Centro,-8.575154,40.804832
25126312,Cascais e Estoril,Grande Lisboa,311,2025-03-21T10:12:00Z,25126312,Em despacho,3301,Queda de árvore,0,0,0,0,2025-03-21T10:12:00Z,Cascais,Lisboa,Área Metropolitana De Lisboa,-9.40005,38.71304
25126207,Atouguia da Baleia,Oeste,311,2025-03-21T09:46:00Z,25126207,Em despacho,3329,Queda de estruturas temporárias ou móveis,0,3,0,6,2025-03-21T09:46:00Z,Peniche,Leiria,Centro,-9.341445,39.323314
25126239,Igreja Nova e Cheleiros,Grande Lisboa,311,2025-03-21T09:38:00Z,25126239,Em despacho,3301,Queda de árvore,0,1,0,5,2025-03-21T09:38:00Z,Mafra,Lisboa,Área Metropolitana De Lisboa,-9.309442,38.934536
25126241,Carnaxide e Queijas,Grande Lisboa,311,2025-03-21T09:08:00Z,25126241,Em despacho,3301,Queda de árvore,0,1,0,3,2025-03-21T09:08:00Z,Oeiras,Lisboa,Área Metropolitana De Lisboa,-9.25881,38.722457
25126274,Algueirão-Mem Martins,Grande Lisboa,311,2025-03-21T09:26:00Z,25126274,Em despacho,3311,Queda de elementos de estruturas edificados,0,1,0,4,2025-03-21T09:26:00Z,Sintra,Lisboa,Área Metropolitana De Lisboa,-9.340934,38.801232
25126290,"Oeiras e S. Julião da Barra, Paço de Arcos e Caxias",Grande Lisboa,311,2025-03-21T09:50:00Z,25126290,Em despacho,3301,Queda de árvore,0,2,0,7,2025-03-21T09:50:00Z,Oeiras,Lisboa,Área Metropolitana De Lisboa,-9.310159,38.698531
25126323,"Oliveira de Frades, Souto de Lafões e Sejães",Viseu Dão Lafões,310,2025-03-21T10:10:00Z,25126323,Em despacho,3301,Queda de árvore,0,1,0,2,2025-03-21T10:10:00Z,Oliveira De Frades,Viseu,Centro,-8.171015,40.748046
25126324,Macieira de Cambra,Area M. Porto,309,2025-03-21T10:10:00Z,25126324,Em despacho,3301,Queda de árvore,0,1,0,2,2025-03-21T10:10:00Z,Vale De Cambra,Aveiro,Norte,-8.367205,40.870286
