id,address,subregion,neighborhood,date,id.1,state,nature,nature_description,aerial_means,terrestrial_means,aquatic_means,operational,date.1,Concelho,Distrito,NUTII_DSG,longitude,latitude,state_2
26230937,Carnota,Oeste,311,2025-11-03T15:25:00Z,26230937,Em Despacho,3111,Queima,0,1,0,3,2025-11-03T15:25:00Z,Alenquer,Lisboa,Centro,-9.072226,39.04838,Despacho
26230978,Entradas,Baixo Alentejo,312,2025-11-03T15:41:00Z,26230978,Em Despacho,3105,Incêndio rural,0,2,0,7,2025-11-03T15:41:00Z,Castro Verde,Beja,Alentejo,-7.974285,37.718788,Despacho
26230072,São Domingos e Vale de Água,Alentejo Litoral,312,2025-11-03T12:54:00Z,26230072,Em Resolução/Conclusão,3103,Incêndio rural,0,4,0,10,2025-11-03T12:54:00Z,Santiago Do Cacém,Setúbal,Alentejo,-8.56421,37.821159,Resolução/Conclusão
26230723,Afife,Alto Minho,309,2025-11-03T14:58:00Z,26230723,Em Resolução/Conclusão,3105,Incêndio rural,0,1,0,5,2025-11-03T14:58:00Z,Viana Do Castelo,Viana Do Castelo,Norte,-8.845865,41.773817,Resolução/Conclusão
26230986,"Torres Novas (Santa Maria, Salvador e Santiago)",Médio Tejo,311,2025-11-03T15:46:00Z,26230986,Em Despacho,3111,Queima,0,2,0,6,2025-11-03T15:46:00Z,Torres Novas,Santarém,Centro,-8.539335,39.476394,Despacho
26230849,Redondo,Alentejo Central,312,2025-11-03T15:15:00Z,26230849,Em Resolução/Conclusão,3105,Incêndio rural,0,1,0,4,2025-11-03T15:15:00Z,Redondo,Évora,Alentejo,-7.601747,38.648134,Resolução/Conclusão
