id,address,subregion,neighborhood,date,id.1,state,nature,nature_description,aerial_means,terrestrial_means,aquatic_means,operational,date.1,Concelho,Distrito,NUTII_DSG,longitude,latitude
25576894,Alcabideche,Grande Lisboa,311,2025-06-25T09:50:00Z,25576894,Em conclusão,2101,Incêndio em edifícios habitacionais,0,4,0,10,2025-06-25T09:50:00Z,Cascais,Lisboa,Área Metropolitana De Lisboa,-9.38585,38.72247
25577437,Penude,Douro,309,2025-06-25T11:15:00Z,25577437,Em despacho,3103,Incêndio rural,1,4,0,26,2025-06-25T11:15:00Z,Lamego,Viseu,Norte,-7.868872,41.067995
25577571,Fanhões,Grande Lisboa,311,2025-06-25T11:34:00Z,25577571,Em despacho,3103,Incêndio rural,0,2,0,7,2025-06-25T11:34:00Z,Loures,Lisboa,Área Metropolitana De Lisboa,-9.170259,38.880011
25576293,Aveiras de Baixo,Lezíria do Tejo,311,2025-06-25T07:56:00Z,25576293,Em despacho,3109,Gestão de combustível,0,1,0,4,2025-06-25T07:56:00Z,Azambuja,Lisboa,Alentejo,-8.826556,39.086132
25577461,"Coruche, Fajarda e Erra",Lezíria do Tejo,311,2025-06-25T11:21:00Z,25577461,Em curso,3101,Incêndio rural,1,6,0,30,2025-06-25T11:21:00Z,Coruche,Santarém,Alentejo,-8.521788,38.97457
