id,address,subregion,neighborhood,date,id.1,state,nature,nature_description,aerial_means,terrestrial_means,aquatic_means,operational,date.1,Concelho,Distrito,NUTII_DSG,longitude,latitude
25530561,Castelejo,Beiras e Serra da Estrela,310,2025-06-15T20:03:00Z,25530561,Em despacho,2101,Incêndio em edifícios habitacionais,0,3,0,9,2025-06-15T20:03:00Z,Fundão,Castelo Branco,Centro,-7.577036,40.124448
25530109,Gouveia (São Simão),Tâmega e Sousa,309,2025-06-15T17:50:00Z,25530109,Em conclusão,3107,Consolidação de rescaldo de incêndio rural,0,2,0,7,2025-06-15T17:50:00Z,Amarante,Porto,Norte,-8.063538,41.23013
25530077,Santo Estêvão,Lezíria do Tejo,311,2025-06-15T17:52:00Z,25530077,Em resolução,3201,Detritos não confinados,0,2,0,7,2025-06-15T17:52:00Z,Benavente,Santarém,Alentejo,-8.751982,38.871883
25530286,Conceição e Estoi,Algarve,313,2025-06-15T18:48:00Z,25530286,Em conclusão,3103,Incêndio rural,0,2,0,7,2025-06-15T18:48:00Z,Faro,Faro,Algarve,-7.866332,37.07769
25530550,Pontinha e Famões,Grande Lisboa,311,2025-06-15T19:58:00Z,25530550,Em despacho,3103,Incêndio rural,0,2,0,10,2025-06-15T19:58:00Z,Odivelas,Lisboa,Área Metropolitana De Lisboa,-9.192352,38.77909
25530231,Mirandela,Terras de Trás-os-Montes,309,2025-06-15T18:33:00Z,25530231,Em conclusão,2201,Incêndio em equipamentos ou produtos,0,2,0,4,2025-06-15T18:33:00Z,Mirandela,Bragança,Norte,-7.196665,41.506282
25530464,Torre de Dona Chama,Terras de Trás-os-Montes,309,2025-06-15T19:34:00Z,25530464,Em despacho,3203,Detritos confinados,0,1,0,5,2025-06-15T19:34:00Z,Mirandela,Bragança,Norte,-7.145155,41.653245
25530301,Monsaraz,Alentejo Central,312,2025-06-15T18:51:00Z,25530301,Em resolução,3103,Incêndio rural,0,12,0,38,2025-06-15T18:51:00Z,Reguengos De Monsaraz,Évora,Alentejo,-7.351348,38.446672
25527511,Ermelo e Pardelhas,Ave,309,2025-06-15T07:09:00Z,25527511,Em conclusão,3107,Consolidação de rescaldo de incêndio rural,0,3,0,12,2025-06-15T07:09:00Z,Mondim De Basto,Vila Real,Norte,-7.835478,41.355555
25529826,Terena (São Pedro),Alentejo Central,312,2025-06-15T16:42:00Z,25529826,Em conclusão,3105,Incêndio rural,0,3,0,9,2025-06-15T16:42:00Z,Alandroal,Évora,Alentejo,-7.383257,38.588342
25530015,Sacavém e Prior Velho,Grande Lisboa,311,2025-06-15T17:33:00Z,25530015,Em conclusão,3201,Detritos não confinados,0,3,0,9,2025-06-15T17:33:00Z,Loures,Lisboa,Área Metropolitana De Lisboa,-9.1155,38.80052
25529453,Santo Agostinho e São João Baptista e Santo Amador,Baixo Alentejo,312,2025-06-15T15:09:00Z,25529453,Em conclusão,3105,Incêndio rural,0,1,0,5,2025-06-15T15:09:00Z,Moura,Beja,Alentejo,-7.465677,38.133067
25525290,Selmes,Baixo Alentejo,312,2025-06-14T16:14:00Z,25525290,Em conclusão,3105,Incêndio rural,0,1,0,3,2025-06-14T16:14:00Z,Vidigueira,Beja,Alentejo,-7.724372,38.135682
25530370,"Cedofeita, Ildefonso, Sé, Miragaia, Nicolau e Vitória",Area M. Porto,309,2025-06-15T19:07:00Z,25530370,Em despacho,2101,Incêndio em edifícios habitacionais,0,1,0,5,2025-06-15T19:07:00Z,Porto,Porto,Norte,-8.615939,41.15359
