id,address,subregion,neighborhood,date,id.1,state,nature,nature_description,aerial_means,terrestrial_means,aquatic_means,operational,date.1,Concelho,Distrito,NUTII_DSG,longitude,latitude,state_2
25625784,São Miguel do Rio Torto e Rossio Ao Sul do Tejo,Médio Tejo,311,2025-07-04T13:10:00Z,25625784,Em Resolução/Conclusão,3103,Incêndio rural,0,0,0,0,2025-07-04T13:10:00Z,Abrantes,Santarém,Centro,-8.193168,39.43591,Resolução/Conclusão
25625983,Vilarinho,Area M. Porto,309,2025-07-04T13:45:00Z,25625983,Em Resolução/Conclusão,3103,Incêndio rural,0,33,0,98,2025-07-04T13:45:00Z,Santo Tirso,Porto,Norte,-8.325352,41.343782,Resolução/Conclusão
25626301,Mouriscas,Médio Tejo,311,2025-07-04T14:41:00Z,25626301,Em Resolução/Conclusão,3103,Incêndio rural,0,25,0,89,2025-07-04T14:41:00Z,Abrantes,Santarém,Centro,-8.117058,39.496395,Resolução/Conclusão
25626751,Arrifana,Area M. Porto,309,2025-07-04T15:31:00Z,25626751,Em Resolução/Conclusão,3103,Incêndio rural,0,1,0,4,2025-07-04T15:31:00Z,Santa Maria Da Feira,Aveiro,Norte,-8.495162,40.913169,Resolução/Conclusão
25627288,"Silvares, Pias, Nogueira e Alvarenga",Tâmega e Sousa,309,2025-07-04T17:16:00Z,25627288,Em Resolução/Conclusão,3103,Incêndio rural,0,3,0,10,2025-07-04T17:16:00Z,Lousada,Porto,Norte,-8.262878,41.274868,Resolução/Conclusão
25627590,Correlhã,Alto Minho,309,2025-07-04T18:36:00Z,25627590,Em Curso,3101,Incêndio rural,1,1,0,9,2025-07-04T18:36:00Z,Ponte De Lima,Viana Do Castelo,Norte,-8.607999,41.743827,Curso
25627657,Campanhã,Area M. Porto,309,2025-07-04T18:35:00Z,25627657,Em Despacho,3103,Incêndio rural,0,1,0,5,2025-07-04T18:35:00Z,Porto,Porto,Norte,-8.571543,41.154223,Despacho
25626445,Carapito,Viseu Dão Lafões,310,2025-07-04T15:02:00Z,25626445,Em Resolução/Conclusão,3103,Incêndio rural,0,2,0,7,2025-07-04T15:02:00Z,Aguiar Da Beira,Guarda,Centro,-7.44981,40.759948,Resolução/Conclusão
25626893,"Margaride (Santa Eulália), Várzea, Lagares, Varziela e Moure",Tâmega e Sousa,309,2025-07-04T15:52:00Z,25626893,Em Resolução/Conclusão,3105,Incêndio rural,0,2,0,7,2025-07-04T15:52:00Z,Felgueiras,Porto,Norte,-8.208433,41.365733,Resolução/Conclusão
25627012,"Bustos, Troviscal e Mamarrosa",Região de Aveiro,310,2025-07-04T16:47:00Z,25627012,Em Resolução/Conclusão,3103,Incêndio rural,0,3,0,12,2025-07-04T16:47:00Z,Oliveira Do Bairro,Aveiro,Centro,-8.565173,40.49303,Resolução/Conclusão
25627245,Livração,Tâmega e Sousa,309,2025-07-04T17:10:00Z,25627245,Em Resolução/Conclusão,3103,Incêndio rural,0,1,0,5,2025-07-04T17:10:00Z,Marco De Canaveses,Porto,Norte,-8.148718,41.212898,Resolução/Conclusão
25627329,Oliveira do Hospital e São Paio de Gramaços,Região de Coimbra,310,2025-07-04T17:47:00Z,25627329,Em Resolução/Conclusão,3101,Incêndio rural,0,20,0,81,2025-07-04T17:47:00Z,Oliveira Do Hospital,Coimbra,Centro,-7.83944,40.3575,Resolução/Conclusão
25610143,Nossa Senhora Das Misericórdias,Médio Tejo,311,2025-07-01T15:32:00Z,25610143,Em Resolução/Conclusão,3103,Incêndio rural,0,1,0,5,2025-07-01T15:32:00Z,Ourém,Santarém,Centro,-8.600277,39.655883,Resolução/Conclusão
25620464,Cativelos,Beiras e Serra da Estrela,310,2025-07-03T13:45:00Z,25620464,Em Resolução/Conclusão,3103,Incêndio rural,0,2,0,6,2025-07-03T13:45:00Z,Gouveia,Guarda,Centro,-7.704635,40.546025,Resolução/Conclusão
25620664,Côja e Barril de Alva,Região de Coimbra,310,2025-07-03T14:22:00Z,25620664,Em Resolução/Conclusão,3101,Incêndio rural,0,3,0,11,2025-07-03T14:22:00Z,Arganil,Coimbra,Centro,-7.95667,40.2725,Resolução/Conclusão
25625262,Arraiolos,Alentejo Central,312,2025-07-04T11:29:00Z,25625262,Em Resolução/Conclusão,3105,Incêndio rural,0,8,0,30,2025-07-04T11:29:00Z,Arraiolos,Évora,Alentejo,-8.051013,38.705623,Resolução/Conclusão
25627000,Aião,Tâmega e Sousa,309,2025-07-04T16:45:00Z,25627000,Em Resolução/Conclusão,3103,Incêndio rural,6,8,0,37,2025-07-04T16:45:00Z,Felgueiras,Porto,Norte,-8.204774,41.300006,Resolução/Conclusão
25599382,Almaceda,Beira Baixa,310,2025-06-29T17:03:00Z,25599382,Em Resolução/Conclusão,3101,Incêndio rural,0,4,0,15,2025-06-29T17:03:00Z,Castelo Branco,Castelo Branco,Centro,-7.645695,39.962858,Resolução/Conclusão
25622185,Fornos,Tâmega e Sousa,309,2025-07-03T19:19:00Z,25622185,Em Resolução/Conclusão,3103,Incêndio rural,0,5,0,19,2025-07-03T19:19:00Z,Castelo De Paiva,Aveiro,Norte,-8.242889,41.047999,Resolução/Conclusão
25622580,Ribeira do Neiva,Cávado,309,2025-07-03T20:50:00Z,25622580,Em Resolução/Conclusão,3103,Incêndio rural,0,20,0,61,2025-07-03T20:50:00Z,Vila Verde,Braga,Norte,-8.51215,41.728757,Resolução/Conclusão
25627399,Galegos,Tâmega e Sousa,309,2025-07-04T18:04:00Z,25627399,Em Resolução/Conclusão,3103,Incêndio rural,0,1,0,5,2025-07-04T18:04:00Z,Penafiel,Porto,Norte,-8.307222,41.16694,Resolução/Conclusão
25627680,Beja (Salvador e Santa Maria da Feira),Baixo Alentejo,312,2025-07-04T18:53:00Z,25627680,Em Despacho,3105,Incêndio rural,0,1,0,5,2025-07-04T18:53:00Z,Beja,Beja,Alentejo,-7.84944,38.032328,Despacho
25627532,"Oeiras e S. Julião da Barra, Paço de Arcos e Caxias",Grande Lisboa,311,2025-07-04T18:26:00Z,25627532,Em Despacho,3103,Incêndio rural,0,1,0,5,2025-07-04T18:26:00Z,Oeiras,Lisboa,Área Metropolitana De Lisboa,-9.328517,38.696543,Despacho
