id,address,subregion,neighborhood,date,id.1,state,nature,nature_description,aerial_means,terrestrial_means,aquatic_means,operational,date.1,Concelho,Distrito,NUTII_DSG,longitude,latitude
24877003,Malagueira e Horta Das Figueiras,Alentejo Central,312,2025-01-27T11:41:00Z,24877003,Em conclusão,3315,Inundação de estruturas por precipitação intensa,0,0,0,0,2025-01-27T11:41:00Z,Évora,Évora,Alentejo,-7.924277,38.57285
24885766,Sobreposta,Cávado,309,2025-01-29T08:49:00Z,24885766,Em despacho,3315,Inundação de estruturas por precipitação intensa,0,1,0,3,2025-01-29T08:49:00Z,Braga,Braga,Norte,-8.333929,41.551742
24885816,Paranhos,Area M. Porto,309,2025-01-29T08:54:00Z,24885816,Em despacho,3311,Queda de elementos de estruturas edificados,0,1,0,3,2025-01-29T08:54:00Z,Porto,Porto,Norte,-8.607437,41.17569
24885895,Travanca,Tâmega e Sousa,309,2025-01-29T09:10:00Z,24885895,Em curso,3301,Queda de árvore,0,1,0,2,2025-01-29T09:10:00Z,Cinfães,Viseu,Norte,-8.225891,41.037966
24885925,Alfena,Area M. Porto,309,2025-01-29T09:15:00Z,24885925,Em despacho,3301,Queda de árvore,0,1,0,2,2025-01-29T09:15:00Z,Valongo,Porto,Norte,-8.523192,41.237236
24885977,Mira,Região de Coimbra,310,2025-01-29T09:15:00Z,24885977,Em despacho,3301,Queda de árvore,0,1,0,2,2025-01-29T09:15:00Z,Mira,Coimbra,Centro,-8.734062,40.422297
24886002,"Crato e Mártires, Flor da Rosa e Vale do Peso",Alto Alentejo,312,2025-01-29T09:35:00Z,24886002,Em resolução,3301,Queda de árvore,0,1,0,3,2025-01-29T09:35:00Z,Crato,Portalegre,Alentejo,-7.63017,39.280042
24886018,Serpins,Região de Coimbra,310,2025-01-29T09:36:00Z,24886018,Em despacho,3313,Deslizamento de terras,0,1,0,1,2025-01-29T09:36:00Z,Lousã,Coimbra,Centro,-8.194152,40.160883
24886059,Santo André,Alentejo Litoral,312,2025-01-29T09:39:00Z,24886059,Em despacho,3301,Queda de árvore,0,1,0,2,2025-01-29T09:39:00Z,Santiago Do Cacém,Setúbal,Alentejo,-8.751748,38.054211
24851780,"São Miguel, Santa Eufémia e Rabaçal",Região de Coimbra,310,2025-01-21T23:25:00Z,24851780,Em curso,3315,Inundação de estruturas por precipitação intensa,0,0,0,0,2025-01-21T23:25:00Z,Penela,Coimbra,Centro,-8.399036,40.025502
24885423,"Cedofeita, Ildefonso, Sé, Miragaia, Nicolau e Vitória",Area M. Porto,309,2025-01-29T07:20:00Z,24885423,Em despacho,3321,Dano na rede de fornecimento de eletricidade ,0,0,0,0,2025-01-29T07:20:00Z,Porto,Porto,Norte,-8.61864,41.15619
24885621,"Nogueira, Fraião e Lamaçães",Cávado,309,2025-01-29T08:12:00Z,24885621,Em despacho,3311,Queda de elementos de estruturas edificados,0,2,0,4,2025-01-29T08:12:00Z,Braga,Braga,Norte,-8.399912,41.531469
24885722,"Aldoar, Foz do Douro e Nevogilde",Area M. Porto,309,2025-01-29T08:47:00Z,24885722,Em despacho,3311,Queda de elementos de estruturas edificados,0,0,0,0,2025-01-29T08:47:00Z,Porto,Porto,Norte,-8.66587,41.16295
24885737,Matosinhos e Leça da Palmeira,Area M. Porto,309,2025-01-29T08:29:00Z,24885737,Em curso,3301,Queda de árvore,0,1,0,2,2025-01-29T08:29:00Z,Matosinhos,Porto,Norte,-8.692583,41.193749
24885788,Matosinhos e Leça da Palmeira,Area M. Porto,309,2025-01-29T08:47:00Z,24885788,Em despacho,3301,Queda de árvore,0,1,0,3,2025-01-29T08:47:00Z,Matosinhos,Porto,Norte,-8.682603,41.186161
24885904,Lourinhã e Atalaia,Oeste,311,2025-01-29T09:23:00Z,24885904,Em despacho,3315,Inundação de estruturas por precipitação intensa,0,3,0,9,2025-01-29T09:23:00Z,Lourinhã,Lisboa,Centro,-9.287148,39.257589
24885615,São Miguel do Mato,Viseu Dão Lafões,310,2025-01-29T08:22:00Z,24885615,Em despacho,3321,Dano na rede de fornecimento de eletricidade ,0,1,0,5,2025-01-29T08:22:00Z,Vouzela,Viseu,Centro,-8.02828,40.70789
24885665,Campo e Sobrado,Area M. Porto,309,2025-01-29T08:33:00Z,24885665,Em despacho,3301,Queda de árvore,0,1,0,2,2025-01-29T08:33:00Z,Valongo,Porto,Norte,-8.463052,41.18263
24885745,Arcozelo,Cávado,309,2025-01-29T08:45:00Z,24885745,Em despacho,3311,Queda de elementos de estruturas edificados,0,1,0,2,2025-01-29T08:45:00Z,Barcelos,Braga,Norte,-8.608735,41.544418
24885762,Vila Nova de Famalicão e Calendário,Ave,309,2025-01-29T08:48:00Z,24885762,Em despacho,3301,Queda de árvore,0,3,0,6,2025-01-29T08:48:00Z,Vila Nova De Famalicão,Braga,Norte,-8.530915,41.39878
24885831,Azurara,Area M. Porto,309,2025-01-29T08:42:00Z,24885831,Em despacho,3329,Queda de estruturas temporárias ou móveis,0,2,0,4,2025-01-29T08:42:00Z,Vila Do Conde,Porto,Norte,-8.728231,41.354309
24885863,"Margaride (Santa Eulália), Várzea, Lagares, Varziela e Moure",Tâmega e Sousa,309,2025-01-29T09:02:00Z,24885863,Em conclusão,3315,Inundação de estruturas por precipitação intensa,0,3,0,6,2025-01-29T09:02:00Z,Felgueiras,Porto,Norte,-8.183327,41.355843
24885881,Cepelos,Area M. Porto,309,2025-01-29T09:09:00Z,24885881,Em despacho,3301,Queda de árvore,0,1,0,2,2025-01-29T09:09:00Z,Vale De Cambra,Aveiro,Norte,-8.326465,40.838605
24885948,"Custóias, Leça do Balio e Guifões",Area M. Porto,309,2025-01-29T09:14:00Z,24885948,Em despacho,3311,Queda de elementos de estruturas edificados,0,1,0,4,2025-01-29T09:14:00Z,Matosinhos,Porto,Norte,-8.632716,41.208899
24885965,Caldas da Rainha - Santo Onofre e Serra do Bouro,Oeste,311,2025-01-29T09:28:00Z,24885965,Em despacho,3321,Dano na rede de fornecimento de eletricidade ,0,2,0,4,2025-01-29T09:28:00Z,Caldas Da Rainha,Leiria,Centro,-9.148929,39.401713
24885467,Bonfim,Area M. Porto,309,2025-01-29T07:17:00Z,24885467,Em despacho,3315,Inundação de estruturas por precipitação intensa,0,1,0,4,2025-01-29T07:17:00Z,Porto,Porto,Norte,-8.596119,41.151713
24885494,Vila Cova e Feitos,Cávado,309,2025-01-29T07:44:00Z,24885494,Em curso,3301,Queda de árvore,0,1,0,2,2025-01-29T07:44:00Z,Barcelos,Braga,Norte,-8.688002,41.573305
24885649,Vilar de Andorinho,Area M. Porto,309,2025-01-29T08:19:00Z,24885649,Em despacho,3301,Queda de árvore,0,1,0,3,2025-01-29T08:19:00Z,Vila Nova De Gaia,Porto,Norte,-8.57418,41.09994
24885758,Valadares,Viseu Dão Lafões,310,2025-01-29T08:52:00Z,24885758,Em conclusão,3301,Queda de árvore,0,1,0,2,2025-01-29T08:52:00Z,São Pedro Do Sul,Viseu,Centro,-8.22073,40.75874
24885769,Gulpilhares e Valadares,Area M. Porto,309,2025-01-29T08:29:00Z,24885769,Em despacho,3315,Inundação de estruturas por precipitação intensa,0,1,0,2,2025-01-29T08:29:00Z,Vila Nova De Gaia,Porto,Norte,-8.637978,41.084091
24885778,"St.tirso, Couto (S.cristina e S.miguel) e Burgães",Area M. Porto,309,2025-01-29T08:57:00Z,24885778,Em curso,3301,Queda de árvore,0,3,0,8,2025-01-29T08:57:00Z,Santo Tirso,Porto,Norte,-8.46516,41.35088
24885922,Cota,Viseu Dão Lafões,310,2025-01-29T09:18:00Z,24885922,Em despacho,3301,Queda de árvore,0,2,0,5,2025-01-29T09:18:00Z,Viseu,Viseu,Centro,-7.828567,40.804385
24885971,"Paradela, Contim e Fiães",Alto Tâmega e Barroso,309,2025-01-29T08:30:00Z,24885971,Em despacho,3301,Queda de árvore,0,1,0,4,2025-01-29T08:30:00Z,Montalegre,Vila Real,Norte,-7.891361,41.783276
24885991,Silvalde,Area M. Porto,309,2025-01-29T09:30:00Z,24885991,Em despacho,3329,Queda de estruturas temporárias ou móveis,0,1,0,3,2025-01-29T09:30:00Z,Espinho,Aveiro,Norte,-8.64294,40.990048
24886005,Serzedo e Perosinho,Area M. Porto,309,2025-01-29T09:24:00Z,24886005,Em despacho,3313,Deslizamento de terras,0,1,0,5,2025-01-29T09:24:00Z,Vila Nova De Gaia,Porto,Norte,-8.594742,41.064989
24886007,Buarcos,Região de Coimbra,310,2025-01-29T09:30:00Z,24886007,Em despacho,3315,Inundação de estruturas por precipitação intensa,0,1,0,2,2025-01-29T09:30:00Z,Figueira Da Foz,Coimbra,Centro,-8.880897,40.168384
24886021,Lamas e Cercal,Oeste,311,2025-01-29T09:39:00Z,24886021,Em despacho,3321,Dano na rede de fornecimento de eletricidade ,0,1,0,2,2025-01-29T09:39:00Z,Cadaval,Lisboa,Centro,-8.99533,39.21899
24886023,Bombarral e Vale Covo,Oeste,311,2025-01-29T09:35:00Z,24886023,Em despacho,3315,Inundação de estruturas por precipitação intensa,0,2,0,4,2025-01-29T09:35:00Z,Bombarral,Leiria,Centro,-9.154925,39.264883
24886038,Paranhos,Area M. Porto,309,2025-01-29T09:36:00Z,24886038,Em despacho,3311,Queda de elementos de estruturas edificados,0,1,0,3,2025-01-29T09:36:00Z,Porto,Porto,Norte,-8.607437,41.17569
24886040,Bombarral e Vale Covo,Oeste,311,2025-01-29T09:40:00Z,24886040,Em despacho,3315,Inundação de estruturas por precipitação intensa,0,2,0,4,2025-01-29T09:40:00Z,Bombarral,Leiria,Centro,-9.171316,39.267313
24886057,Covilhã e Canhoso,Beiras e Serra da Estrela,310,2025-01-29T09:35:00Z,24886057,Em despacho,3301,Queda de árvore,0,1,0,2,2025-01-29T09:35:00Z,Covilhã,Castelo Branco,Centro,-7.498188,40.27714
24886030,Aljubarrota,Oeste,311,2025-01-29T09:36:00Z,24886030,Em despacho,3301,Queda de árvore,0,1,0,2,2025-01-29T09:36:00Z,Alcobaça,Leiria,Centro,-8.889481,39.564013
24886048,Santa Clara e Castelo Viegas,Região de Coimbra,310,2025-01-29T09:40:00Z,24886048,Em despacho,3301,Queda de árvore,0,1,0,2,2025-01-29T09:40:00Z,Coimbra,Coimbra,Centro,-8.437323,40.204625
24886064,Bonfim,Area M. Porto,309,2025-01-29T09:07:00Z,24886064,Em curso,3301,Queda de árvore,0,1,0,5,2025-01-29T09:07:00Z,Porto,Porto,Norte,-8.596119,41.151713
24885783,São Félix da Marinha,Area M. Porto,309,2025-01-29T08:42:00Z,24885783,Em despacho,3301,Queda de árvore,0,1,0,3,2025-01-29T08:42:00Z,Vila Nova De Gaia,Porto,Norte,-8.629189,41.030125
24885810,Mozelos,Area M. Porto,309,2025-01-29T08:54:00Z,24885810,Em despacho,3301,Queda de árvore,0,2,0,7,2025-01-29T08:54:00Z,Santa Maria Da Feira,Aveiro,Norte,-8.56526,40.997101
24885878,Quinta do Anjo,Península de Setúbal,311,2025-01-29T09:02:00Z,24885878,Em despacho,3329,Queda de estruturas temporárias ou móveis,0,1,0,4,2025-01-29T09:02:00Z,Palmela,Setúbal,Área Metropolitana De Lisboa,-8.938536,38.564763
24885901,São Mamede de Infesta e Senhora da Hora,Area M. Porto,309,2025-01-29T09:18:00Z,24885901,Em despacho,3315,Inundação de estruturas por precipitação intensa,0,1,0,3,2025-01-29T09:18:00Z,Matosinhos,Porto,Norte,-8.630369,41.188957
24885928,Pombeiro da Beira,Região de Coimbra,310,2025-01-29T09:22:00Z,24885928,Em despacho,3301,Queda de árvore,0,1,0,5,2025-01-29T09:22:00Z,Arganil,Coimbra,Centro,-8.149563,40.218536
24885953,Lousã e Vilarinho,Região de Coimbra,310,2025-01-29T09:15:00Z,24885953,Em despacho,3301,Queda de árvore,0,1,0,2,2025-01-29T09:15:00Z,Lousã,Coimbra,Centro,-8.280879,40.099564
24885994,Carnaxide e Queijas,Grande Lisboa,311,2025-01-29T09:36:00Z,24885994,Em despacho,3301,Queda de árvore,0,1,0,3,2025-01-29T09:36:00Z,Oeiras,Lisboa,Área Metropolitana De Lisboa,-9.25091,38.72484
24886058,Palmeira,Cávado,309,2025-01-29T09:42:00Z,24886058,Em despacho,3329,Queda de estruturas temporárias ou móveis,0,1,0,2,2025-01-29T09:42:00Z,Braga,Braga,Norte,-8.434231,41.59113
24886088,Matosinhos e Leça da Palmeira,Area M. Porto,309,2025-01-29T09:15:00Z,24886088,Em despacho,3311,Queda de elementos de estruturas edificados,0,1,0,3,2025-01-29T09:15:00Z,Matosinhos,Porto,Norte,-8.682603,41.186161
24886035,"Pinheiro da Bemposta, Travanca e Palmaz",Area M. Porto,309,2025-01-29T09:27:00Z,24886035,Em despacho,3313,Deslizamento de terras,0,1,0,2,2025-01-29T09:27:00Z,Oliveira De Azeméis,Aveiro,Norte,-8.468107,40.789674
24886053,Buarcos,Região de Coimbra,310,2025-01-29T09:40:00Z,24886053,Em despacho,3315,Inundação de estruturas por precipitação intensa,0,1,0,2,2025-01-29T09:40:00Z,Figueira Da Foz,Coimbra,Centro,-8.880897,40.168384
24886060,Tavarede,Região de Coimbra,310,2025-01-29T09:35:00Z,24886060,Em despacho,3315,Inundação de estruturas por precipitação intensa,0,1,0,5,2025-01-29T09:35:00Z,Figueira Da Foz,Coimbra,Centro,-8.853871,40.165854
24886062,Alhadas,Região de Coimbra,310,2025-01-29T09:40:00Z,24886062,Em despacho,3315,Inundação de estruturas por precipitação intensa,0,1,0,3,2025-01-29T09:40:00Z,Figueira Da Foz,Coimbra,Centro,-8.808093,40.16613
