id,address,subregion,neighborhood,date,id.1,state,nature,nature_description,aerial_means,terrestrial_means,aquatic_means,operational,date.1,Concelho,Distrito,NUTII_DSG,longitude,latitude
25059714,Torrão,Alentejo Litoral,312,2025-03-08T22:10:00Z,25059714,Em curso,1101,Cheia,0,1,0,2,2025-03-08T22:10:00Z,Alcácer Do Sal,Setúbal,Alentejo,-8.359133,38.252053
25070044,Praia do Ribatejo,Médio Tejo,311,2025-03-10T19:30:00Z,25070044,Em curso,1101,Cheia,0,0,0,0,2025-03-10T19:30:00Z,Vila Nova Da Barquinha,Santarém,Centro,-8.357309,39.485638
25071496,São Manços e São Vicente do Pigeiro,Alentejo Central,312,2025-03-11T13:18:00Z,25071496,Em curso,1101,Cheia,0,2,0,4,2025-03-11T13:18:00Z,Évora,Évora,Alentejo,-7.713313,38.513673
25116205,Charneca de Caparica e Sobreda,Península de Setúbal,311,2025-03-20T07:00:00Z,25116205,Em curso,3301,Queda de árvore,0,0,0,0,2025-03-20T07:00:00Z,Almada,Setúbal,Área Metropolitana De Lisboa,-9.17532,38.61999
25116355,Charneca de Caparica e Sobreda,Península de Setúbal,311,2025-03-20T07:16:00Z,25116355,Em curso,3301,Queda de árvore,0,0,0,0,2025-03-20T07:16:00Z,Almada,Setúbal,Área Metropolitana De Lisboa,-9.16489,38.57347
25116522,Charneca de Caparica e Sobreda,Península de Setúbal,311,2025-03-20T07:34:00Z,25116522,Em curso,3301,Queda de árvore,0,0,0,0,2025-03-20T07:34:00Z,Almada,Setúbal,Área Metropolitana De Lisboa,-9.18201,38.59065
25116673,Costa da Caparica,Península de Setúbal,311,2025-03-20T07:49:00Z,25116673,Em curso,3301,Queda de árvore,0,0,0,0,2025-03-20T07:49:00Z,Almada,Setúbal,Área Metropolitana De Lisboa,-9.239889,38.65802
25121266,Vilar de Andorinho,Area M. Porto,309,2025-03-20T10:20:00Z,25121266,Em despacho,3311,Queda de elementos de estruturas edificados,0,0,0,0,2025-03-20T10:20:00Z,Vila Nova De Gaia,Porto,Norte,-8.57418,41.09994
25125781,Cascais e Estoril,Grande Lisboa,311,2025-03-21T08:52:00Z,25125781,Em despacho,3301,Queda de árvore,0,0,0,0,2025-03-21T08:52:00Z,Cascais,Lisboa,Área Metropolitana De Lisboa,-9.44577,38.70874
25125981,Espinho,Região de Coimbra,310,2025-03-21T09:23:00Z,25125981,Em despacho,3301,Queda de árvore,0,1,0,3,2025-03-21T09:23:00Z,Mortágua,Viseu,Centro,-8.308611,40.392211
25126246,Corval,Alentejo Central,312,2025-03-21T09:54:00Z,25126246,Em despacho,3311,Queda de elementos de estruturas edificados,0,1,0,2,2025-03-21T09:54:00Z,Reguengos De Monsaraz,Évora,Alentejo,-7.465278,38.444932
25126700,"S.maria, S.miguel, S.martinho, S.pedro Penaferrim",Grande Lisboa,311,2025-03-21T11:05:00Z,25126700,Em despacho,3301,Queda de árvore,0,1,0,2,2025-03-21T11:05:00Z,Sintra,Lisboa,Área Metropolitana De Lisboa,-9.366763,38.781718
25126933,Azeitão (São Lourenço e São Simão),Península de Setúbal,311,2025-03-21T11:20:00Z,25126933,Em curso,3301,Queda de árvore,0,1,0,5,2025-03-21T11:20:00Z,Setúbal,Setúbal,Área Metropolitana De Lisboa,-9.04265,38.541479
25126998,Arruda Dos Vinhos,Oeste,311,2025-03-21T11:45:00Z,25126998,Em despacho,3301,Queda de árvore,0,1,0,1,2025-03-21T11:45:00Z,Arruda Dos Vinhos,Lisboa,Centro,-9.074841,38.984407
25127102,Cascais e Estoril,Grande Lisboa,311,2025-03-21T10:55:00Z,25127102,Em despacho,3301,Queda de árvore,0,1,0,4,2025-03-21T10:55:00Z,Cascais,Lisboa,Área Metropolitana De Lisboa,-9.444181,38.698838
25127133,"S.julião, N.s. da Anunciada e S. Maria da Graça",Península de Setúbal,311,2025-03-21T12:04:00Z,25127133,Em despacho,3301,Queda de árvore,0,1,0,5,2025-03-21T12:04:00Z,Setúbal,Setúbal,Área Metropolitana De Lisboa,-8.889983,38.529955
25127367,"Cedofeita, Ildefonso, Sé, Miragaia, Nicolau e Vitória",Area M. Porto,309,2025-03-21T12:50:00Z,25127367,Em conclusão,3311,Queda de elementos de estruturas edificados,0,2,0,6,2025-03-21T12:50:00Z,Porto,Porto,Norte,-8.615939,41.15359
25127368,Ferreira do Zêzere,Médio Tejo,311,2025-03-21T12:53:00Z,25127368,Em despacho,3313,Deslizamento de terras,0,2,0,4,2025-03-21T12:53:00Z,Ferreira Do Zêzere,Santarém,Centro,-8.262057,39.682316
25068300,Almeirim,Lezíria do Tejo,311,2025-03-10T20:52:00Z,25068300,Em curso,1101,Cheia,0,0,0,0,2025-03-10T20:52:00Z,Almeirim,Santarém,Alentejo,-8.635002,39.187436
25116323,Charneca de Caparica e Sobreda,Península de Setúbal,311,2025-03-20T07:13:00Z,25116323,Em curso,3301,Queda de árvore,0,0,0,0,2025-03-20T07:13:00Z,Almada,Setúbal,Área Metropolitana De Lisboa,-9.174973,38.58474
25116409,Charneca de Caparica e Sobreda,Península de Setúbal,311,2025-03-20T07:22:00Z,25116409,Em curso,3329,Queda de estruturas temporárias ou móveis,0,0,0,0,2025-03-20T07:22:00Z,Almada,Setúbal,Área Metropolitana De Lisboa,-9.19513,38.61485
25116525,Charneca de Caparica e Sobreda,Península de Setúbal,311,2025-03-20T07:34:00Z,25116525,Em curso,3301,Queda de árvore,0,0,0,0,2025-03-20T07:34:00Z,Almada,Setúbal,Área Metropolitana De Lisboa,-9.18385,38.59055
25121298,Gafanhoeira (São Pedro) e Sabugueiro,Alentejo Central,312,2025-03-20T14:26:00Z,25121298,Em resolução,3301,Queda de árvore,0,0,0,0,2025-03-20T14:26:00Z,Arraiolos,Évora,Alentejo,-8.088754,38.754507
25125415,Cascais e Estoril,Grande Lisboa,311,2025-03-21T07:23:00Z,25125415,Em curso,3301,Queda de árvore,0,1,0,2,2025-03-21T07:23:00Z,Cascais,Lisboa,Área Metropolitana De Lisboa,-9.419397,38.700982
25126312,Cascais e Estoril,Grande Lisboa,311,2025-03-21T10:12:00Z,25126312,Em despacho,3301,Queda de árvore,0,0,0,0,2025-03-21T10:12:00Z,Cascais,Lisboa,Área Metropolitana De Lisboa,-9.40005,38.71304
25127153,Algueirão-Mem Martins,Grande Lisboa,311,2025-03-21T09:48:00Z,25127153,Em despacho,3301,Queda de árvore,0,1,0,5,2025-03-21T09:48:00Z,Sintra,Lisboa,Área Metropolitana De Lisboa,-9.340934,38.801232
25127501,Areias de Vilar e Encourados,Cávado,309,2025-03-21T13:20:00Z,25127501,Em conclusão,3301,Queda de árvore,0,1,0,2,2025-03-21T13:20:00Z,Barcelos,Braga,Norte,-8.546787,41.533376
25127619,Peniche,Oeste,311,2025-03-21T13:38:00Z,25127619,Em despacho,3301,Queda de árvore,0,2,0,9,2025-03-21T13:38:00Z,Peniche,Leiria,Centro,-9.376833,39.357166
25127634,Atalaia e Alto-Estanqueiro-Jardia,Península de Setúbal,311,2025-03-21T13:34:00Z,25127634,Em despacho,3315,Inundação de estruturas por precipitação intensa,0,1,0,5,2025-03-21T13:34:00Z,Montijo,Setúbal,Área Metropolitana De Lisboa,-8.923762,38.681968
25127668,Arez e Amieira do Tejo,Alto Alentejo,312,2025-03-21T13:50:00Z,25127668,Em despacho,3313,Deslizamento de terras,0,1,0,5,2025-03-21T13:50:00Z,Nisa,Portalegre,Alentejo,-7.771759,39.483483
25087162,Pedrógão,Baixo Alentejo,312,2025-03-14T17:00:00Z,25087162,Em curso,1101,Cheia,0,0,0,0,2025-03-14T17:00:00Z,Vidigueira,Beja,Alentejo,-7.630327,38.110775
25114370,Charneca de Caparica e Sobreda,Península de Setúbal,311,2025-03-20T03:20:00Z,25114370,Em curso,3301,Queda de árvore,0,0,0,0,2025-03-20T03:20:00Z,Almada,Setúbal,Área Metropolitana De Lisboa,-9.17923,38.60275
25115156,Charneca de Caparica e Sobreda,Península de Setúbal,311,2025-03-20T04:46:00Z,25115156,Em curso,3301,Queda de árvore,0,0,0,0,2025-03-20T04:46:00Z,Almada,Setúbal,Área Metropolitana De Lisboa,-9.199091,38.62959
25116192,Charneca de Caparica e Sobreda,Península de Setúbal,311,2025-03-20T06:59:00Z,25116192,Em curso,3301,Queda de árvore,0,0,0,0,2025-03-20T06:59:00Z,Almada,Setúbal,Área Metropolitana De Lisboa,-9.179431,38.58817
25117921,Charneca de Caparica e Sobreda,Península de Setúbal,311,2025-03-20T09:28:00Z,25117921,Em curso,3301,Queda de árvore,0,0,0,0,2025-03-20T09:28:00Z,Almada,Setúbal,Área Metropolitana De Lisboa,-9.204146,38.62766
25125459,Massamá e Monte Abraão,Grande Lisboa,311,2025-03-21T07:28:00Z,25125459,Em despacho,3301,Queda de árvore,0,1,0,2,2025-03-21T07:28:00Z,Sintra,Lisboa,Área Metropolitana De Lisboa,-9.27045,38.75541
25125473,Charneca de Caparica e Sobreda,Península de Setúbal,311,2025-03-21T07:53:00Z,25125473,Em curso,3301,Queda de árvore,0,1,0,3,2025-03-21T07:53:00Z,Almada,Setúbal,Área Metropolitana De Lisboa,-9.200407,38.63274
25126336,Manteigas (Santa Maria),Beiras e Serra da Estrela,310,2025-03-21T10:00:00Z,25126336,Em despacho,3301,Queda de árvore,0,2,0,4,2025-03-21T10:00:00Z,Manteigas,Guarda,Centro,-7.537826,40.403513
25126454,Queluz e Belas,Grande Lisboa,311,2025-03-21T10:30:00Z,25126454,Em conclusão,3301,Queda de árvore,0,0,0,0,2025-03-21T10:30:00Z,Sintra,Lisboa,Área Metropolitana De Lisboa,-9.271667,38.786881
25063232,Santa Maria do Castelo e Santiago e Santa Susana,Alentejo Litoral,312,2025-03-09T19:02:00Z,25063232,Em conclusão,1101,Cheia,0,0,0,0,2025-03-09T19:02:00Z,Alcácer Do Sal,Setúbal,Alentejo,-8.48167,38.29806
25113270,Charneca de Caparica e Sobreda,Península de Setúbal,311,2025-03-20T01:34:00Z,25113270,Em curso,3301,Queda de árvore,0,0,0,0,2025-03-20T01:34:00Z,Almada,Setúbal,Área Metropolitana De Lisboa,-9.17811,38.58586
25114074,Charneca de Caparica e Sobreda,Península de Setúbal,311,2025-03-20T02:52:00Z,25114074,Em curso,3301,Queda de árvore,0,0,0,0,2025-03-20T02:52:00Z,Almada,Setúbal,Área Metropolitana De Lisboa,-9.18666,38.59386
25117648,Costa da Caparica,Península de Setúbal,311,2025-03-20T09:07:00Z,25117648,Em curso,3301,Queda de árvore,0,0,0,0,2025-03-20T09:07:00Z,Almada,Setúbal,Área Metropolitana De Lisboa,-9.23527,38.6523
25125871,Mafamude e Vilar do Paraíso,Area M. Porto,309,2025-03-21T09:04:00Z,25125871,Em despacho,3315,Inundação de estruturas por precipitação intensa,0,1,0,3,2025-03-21T09:04:00Z,Vila Nova De Gaia,Porto,Norte,-8.611105,41.107184
25126572,Loures,Grande Lisboa,311,2025-03-21T10:41:00Z,25126572,Em despacho,3301,Queda de árvore,0,1,0,6,2025-03-21T10:41:00Z,Loures,Lisboa,Área Metropolitana De Lisboa,-9.199341,38.821199
25126608,Alcabideche,Grande Lisboa,311,2025-03-21T10:48:00Z,25126608,Em despacho,3301,Queda de árvore,0,1,0,5,2025-03-21T10:48:00Z,Cascais,Lisboa,Área Metropolitana De Lisboa,-9.438785,38.755713
25127683,Beja (Salvador e Santa Maria da Feira),Baixo Alentejo,312,2025-03-21T13:45:00Z,25127683,Em curso,3301,Queda de árvore,0,2,0,5,2025-03-21T13:45:00Z,Beja,Beja,Alentejo,-7.85522,38.015879
25127701,Quinta do Anjo,Península de Setúbal,311,2025-03-21T13:00:00Z,25127701,Em despacho,3301,Queda de árvore,0,1,0,3,2025-03-21T13:00:00Z,Palmela,Setúbal,Área Metropolitana De Lisboa,-9.012058,38.57234
25127770,"Alto do Seixalinho, Santo André e Verderena",Península de Setúbal,311,2025-03-21T13:58:00Z,25127770,Em despacho,3315,Inundação de estruturas por precipitação intensa,0,1,0,4,2025-03-21T13:58:00Z,Barreiro,Setúbal,Área Metropolitana De Lisboa,-9.056708,38.653969
25127786,São Domingos de Rana,Grande Lisboa,311,2025-03-21T13:59:00Z,25127786,Em despacho,3329,Queda de estruturas temporárias ou móveis,0,1,0,2,2025-03-21T13:59:00Z,Cascais,Lisboa,Área Metropolitana De Lisboa,-9.331695,38.727273
25127801,"S.maria, S.miguel, S.martinho, S.pedro Penaferrim",Grande Lisboa,311,2025-03-21T14:00:00Z,25127801,Em despacho,3301,Queda de árvore,0,1,0,2,2025-03-21T14:00:00Z,Sintra,Lisboa,Área Metropolitana De Lisboa,-9.414924,38.772191
25127287,Torres do Mondego,Região de Coimbra,310,2025-03-21T12:38:00Z,25127287,Em despacho,3311,Queda de elementos de estruturas edificados,0,1,0,2,2025-03-21T12:38:00Z,Coimbra,Coimbra,Centro,-8.36087,40.208722
25127348,Sobral de Monte Agraço,Oeste,311,2025-03-21T12:50:00Z,25127348,Em despacho,3301,Queda de árvore,0,1,0,1,2025-03-21T12:50:00Z,Sobral De Monte Agraço,Lisboa,Centro,-9.145899,39.030649
25127396,"Santa Iria de Azoia, São João da Talha e Bobadela",Grande Lisboa,311,2025-03-21T12:45:00Z,25127396,Em despacho,3301,Queda de árvore,0,2,0,3,2025-03-21T12:45:00Z,Loures,Lisboa,Área Metropolitana De Lisboa,-9.098065,38.824783
25127457,"S.maria, S.miguel, S.martinho, S.pedro Penaferrim",Grande Lisboa,311,2025-03-21T13:10:00Z,25127457,Em despacho,3313,Deslizamento de terras,0,2,0,6,2025-03-21T13:10:00Z,Sintra,Lisboa,Área Metropolitana De Lisboa,-9.372641,38.788861
25127521,Alcanede,Lezíria do Tejo,311,2025-03-21T13:25:00Z,25127521,Em conclusão,3301,Queda de árvore,0,1,0,4,2025-03-21T13:25:00Z,Santarém,Santarém,Alentejo,-8.852025,39.43005
25127523,"S.maria, S.miguel, S.martinho, S.pedro Penaferrim",Grande Lisboa,311,2025-03-21T13:24:00Z,25127523,Em despacho,3301,Queda de árvore,0,1,0,4,2025-03-21T13:24:00Z,Sintra,Lisboa,Área Metropolitana De Lisboa,-9.380105,38.790996
25126563,Cascais e Estoril,Grande Lisboa,311,2025-03-21T10:30:00Z,25126563,Em curso,3301,Queda de árvore,0,2,0,4,2025-03-21T10:30:00Z,Cascais,Lisboa,Área Metropolitana De Lisboa,-9.398759,38.70391
25126702,São João Das Lampas e Terrugem,Grande Lisboa,311,2025-03-21T11:01:00Z,25126702,Em despacho,3301,Queda de árvore,0,1,0,1,2025-03-21T11:01:00Z,Sintra,Lisboa,Área Metropolitana De Lisboa,-9.442718,38.844843
25126795,Sarzedas,Beira Baixa,310,2025-03-21T11:17:00Z,25126795,Em despacho,3313,Deslizamento de terras,0,3,0,5,2025-03-21T11:17:00Z,Castelo Branco,Castelo Branco,Centro,-7.61616,39.847017
25126797,Marinhais,Lezíria do Tejo,311,2025-03-21T11:18:00Z,25126797,Em resolução,3315,Inundação de estruturas por precipitação intensa,0,2,0,9,2025-03-21T11:18:00Z,Salvaterra De Magos,Santarém,Alentejo,-8.704894,39.048061
25126947,Gondemaria e Olival,Médio Tejo,311,2025-03-21T11:42:00Z,25126947,Em despacho,3301,Queda de árvore,0,4,0,6,2025-03-21T11:42:00Z,Ourém,Santarém,Centro,-8.638003,39.705883
25126986,São Pedro e Santa Maria e Vila Boa do Mondego,Beiras e Serra da Estrela,310,2025-03-21T11:40:00Z,25126986,Em despacho,3301,Queda de árvore,0,1,0,2,2025-03-21T11:40:00Z,Celorico Da Beira,Guarda,Centro,-7.39057,40.639156
25127313,Maxial e Monte Redondo,Oeste,311,2025-03-21T12:46:00Z,25127313,Em resolução,3301,Queda de árvore,0,1,0,5,2025-03-21T12:46:00Z,Torres Vedras,Lisboa,Centro,-9.16316,39.17836
25127322,Caldas da Rainha - Santo Onofre e Serra do Bouro,Oeste,311,2025-03-21T12:44:00Z,25127322,Em curso,3301,Queda de árvore,0,1,0,5,2025-03-21T12:44:00Z,Caldas Da Rainha,Leiria,Centro,-9.173623,39.439262
25126689,Santo Estêvão,Lezíria do Tejo,311,2025-03-21T11:03:00Z,25126689,Em despacho,3301,Queda de árvore,0,1,0,3,2025-03-21T11:03:00Z,Benavente,Santarém,Alentejo,-8.712798,38.852863
25126806,"S.maria, S.miguel, S.martinho, S.pedro Penaferrim",Grande Lisboa,311,2025-03-21T11:09:00Z,25126806,Em despacho,3301,Queda de árvore,0,1,0,3,2025-03-21T11:09:00Z,Sintra,Lisboa,Área Metropolitana De Lisboa,-9.366763,38.781718
25126874,Santana da Azinha,Beiras e Serra da Estrela,310,2025-03-21T11:27:00Z,25126874,Em despacho,3311,Queda de elementos de estruturas edificados,0,1,0,2,2025-03-21T11:27:00Z,Guarda,Guarda,Centro,-7.226578,40.45364
25126959,São Domingos de Rana,Grande Lisboa,311,2025-03-21T11:45:00Z,25126959,Em despacho,3329,Queda de estruturas temporárias ou móveis,0,0,0,0,2025-03-21T11:45:00Z,Cascais,Lisboa,Área Metropolitana De Lisboa,-9.33506,38.72761
25126993,Feitosa,Alto Minho,309,2025-03-21T11:40:00Z,25126993,Em conclusão,3301,Queda de árvore,0,0,0,0,2025-03-21T11:40:00Z,Ponte De Lima,Viana Do Castelo,Norte,-8.577095,41.749372
25127058,Antuzede e Vil de Matos,Região de Coimbra,310,2025-03-21T11:55:00Z,25127058,Em despacho,3321,Dano na rede de fornecimento de eletricidade ,0,1,0,2,2025-03-21T11:55:00Z,Coimbra,Coimbra,Centro,-8.479878,40.257639
25127123,Sazes da Beira,Beiras e Serra da Estrela,310,2025-03-21T12:10:00Z,25127123,Em despacho,3301,Queda de árvore,0,1,0,4,2025-03-21T12:10:00Z,Seia,Guarda,Centro,-7.7305720000000004,40.348423
25127225,Charneca de Caparica e Sobreda,Península de Setúbal,311,2025-03-20T10:56:00Z,25127225,Em curso,3301,Queda de árvore,0,1,0,3,2025-03-20T10:56:00Z,Almada,Setúbal,Área Metropolitana De Lisboa,-9.206824,38.629265
25127292,Atouguia da Baleia,Oeste,311,2025-03-21T12:32:00Z,25127292,Em despacho,3321,Dano na rede de fornecimento de eletricidade ,0,2,0,4,2025-03-21T12:32:00Z,Peniche,Leiria,Centro,-9.287772,39.303144
25127562,Sabóia,Alentejo Litoral,312,2025-03-21T13:20:00Z,25127562,Em despacho,3301,Queda de árvore,0,1,0,2,2025-03-21T13:20:00Z,Odemira,Beja,Alentejo,-8.502858,37.49757
25127639,Avelãs de Cima,Região de Aveiro,310,2025-03-21T13:25:00Z,25127639,Em despacho,3321,Dano na rede de fornecimento de eletricidade ,0,1,0,2,2025-03-21T13:25:00Z,Anadia,Aveiro,Centro,-8.389071,40.489318
25127746,Cumeeira,Região de Coimbra,310,2025-03-21T13:45:00Z,25127746,Em despacho,3311,Queda de elementos de estruturas edificados,0,1,0,2,2025-03-21T13:45:00Z,Penela,Coimbra,Centro,-8.337957,39.97159
25127764,Porches,Algarve,313,2025-03-21T13:00:00Z,25127764,Em despacho,3301,Queda de árvore,0,1,0,2,2025-03-21T13:00:00Z,Lagoa,Faro,Algarve,-8.391963,37.14917
25127791,Colares,Grande Lisboa,311,2025-03-21T13:57:00Z,25127791,Em despacho,3301,Queda de árvore,0,1,0,2,2025-03-21T13:57:00Z,Sintra,Lisboa,Área Metropolitana De Lisboa,-9.474758,38.77242
25127823,"Oeiras e S. Julião da Barra, Paço de Arcos e Caxias",Grande Lisboa,311,2025-03-21T14:13:00Z,25127823,Em despacho,3317,Inundação de estruturas por água canalizada,0,1,0,4,2025-03-21T14:13:00Z,Oeiras,Lisboa,Área Metropolitana De Lisboa,-9.290593,38.696925
25127370,Várzea,Cávado,309,2025-03-21T12:51:00Z,25127370,Em conclusão,3301,Queda de árvore,0,1,0,2,2025-03-21T12:51:00Z,Barcelos,Braga,Norte,-8.567608,41.50632
25127456,São Martinho do Porto,Oeste,311,2025-03-21T13:05:00Z,25127456,Em conclusão,3315,Inundação de estruturas por precipitação intensa,0,1,0,2,2025-03-21T13:05:00Z,Alcobaça,Leiria,Centro,-9.131915,39.510842
25127488,Santa Marinha e São Pedro da Afurada,Area M. Porto,309,2025-03-21T13:11:00Z,25127488,Em despacho,3311,Queda de elementos de estruturas edificados,0,1,0,3,2025-03-21T13:11:00Z,Vila Nova De Gaia,Porto,Norte,-8.624714,41.132843
25127531,Sernancelhe e Sarzeda,Douro,309,2025-03-21T13:25:00Z,25127531,Em despacho,3301,Queda de árvore,0,1,0,5,2025-03-21T13:25:00Z,Sernancelhe,Viseu,Norte,-7.469659,40.907337
25127581,Sado,Península de Setúbal,311,2025-03-21T13:29:00Z,25127581,Em despacho,3315,Inundação de estruturas por precipitação intensa,0,1,0,5,2025-03-21T13:29:00Z,Setúbal,Setúbal,Área Metropolitana De Lisboa,-8.80161,38.522386
25127599,Carcavelos e Parede,Grande Lisboa,311,2025-03-21T13:25:00Z,25127599,Em despacho,3301,Queda de árvore,0,2,0,6,2025-03-21T13:25:00Z,Cascais,Lisboa,Área Metropolitana De Lisboa,-9.337574,38.688343
25127615,Alcabideche,Grande Lisboa,311,2025-03-21T13:35:00Z,25127615,Em despacho,3301,Queda de árvore,0,1,0,5,2025-03-21T13:35:00Z,Cascais,Lisboa,Área Metropolitana De Lisboa,-9.438785,38.755713
25127665,Mafra,Grande Lisboa,311,2025-03-21T13:45:00Z,25127665,Em despacho,3329,Queda de estruturas temporárias ou móveis,0,1,0,5,2025-03-21T13:45:00Z,Mafra,Lisboa,Área Metropolitana De Lisboa,-9.337252,38.942359
25127681,Santo Antão e São Julião do Tojal,Grande Lisboa,311,2025-03-21T13:54:00Z,25127681,Em despacho,3301,Queda de árvore,0,1,0,5,2025-03-21T13:54:00Z,Loures,Lisboa,Área Metropolitana De Lisboa,-9.130991,38.877113
25127326,Monchique,Algarve,313,2025-03-21T12:15:00Z,25127326,Em despacho,3313,Deslizamento de terras,0,1,0,2,2025-03-21T12:15:00Z,Monchique,Faro,Algarve,-8.567422,37.320753
25127327,São José da Lamarosa,Lezíria do Tejo,311,2025-03-21T12:47:00Z,25127327,Em curso,3321,Dano na rede de fornecimento de eletricidade ,0,1,0,1,2025-03-21T12:47:00Z,Coruche,Santarém,Alentejo,-8.455517,39.070267
25127360,Sapataria,Oeste,311,2025-03-21T12:50:00Z,25127360,Em despacho,3301,Queda de árvore,0,1,0,3,2025-03-21T12:50:00Z,Sobral De Monte Agraço,Lisboa,Centro,-9.198763,38.989698
25127374,Azeitão (São Lourenço e São Simão),Península de Setúbal,311,2025-03-21T12:40:00Z,25127374,Em despacho,3301,Queda de árvore,0,1,0,4,2025-03-21T12:40:00Z,Setúbal,Setúbal,Área Metropolitana De Lisboa,-9.004314,38.501234
25127424,São Brás de Alportel,Algarve,313,2025-03-21T12:48:00Z,25127424,Em despacho,3315,Inundação de estruturas por precipitação intensa,0,1,0,4,2025-03-21T12:48:00Z,São Brás De Alportel,Faro,Algarve,-7.892178,37.149213
25127442,Cascais e Estoril,Grande Lisboa,311,2025-03-21T13:09:00Z,25127442,Em despacho,3301,Queda de árvore,0,0,0,0,2025-03-21T13:09:00Z,Cascais,Lisboa,Área Metropolitana De Lisboa,-9.44074,38.71857
25127492,Massamá e Monte Abraão,Grande Lisboa,311,2025-03-21T13:00:00Z,25127492,Em despacho,3301,Queda de árvore,0,1,0,1,2025-03-21T13:00:00Z,Sintra,Lisboa,Área Metropolitana De Lisboa,-9.27045,38.75541
25127511,Moita,Península de Setúbal,311,2025-03-21T13:17:00Z,25127511,Em despacho,3301,Queda de árvore,0,1,0,5,2025-03-21T13:17:00Z,Moita,Setúbal,Área Metropolitana De Lisboa,-8.9759620000000009,38.642311
25127528,Carvalhosa,Tâmega e Sousa,309,2025-03-21T13:27:00Z,25127528,Em curso,3321,Dano na rede de fornecimento de eletricidade ,0,2,0,8,2025-03-21T13:27:00Z,Paços De Ferreira,Porto,Norte,-8.36104,41.30634
25127690,Aguda,Região de Leiria,310,2025-03-21T13:00:00Z,25127690,Em despacho,3313,Deslizamento de terras,0,2,0,5,2025-03-21T13:00:00Z,Figueiró Dos Vinhos,Leiria,Centro,-8.329559,39.900456
25127731,Fânzeres e São Pedro da Cova,Area M. Porto,309,2025-03-21T13:54:00Z,25127731,Em resolução,3301,Queda de árvore,0,2,0,4,2025-03-21T13:54:00Z,Gondomar,Porto,Norte,-8.512325,41.150617
25127740,Queluz e Belas,Grande Lisboa,311,2025-03-21T14:03:00Z,25127740,Em despacho,3321,Dano na rede de fornecimento de eletricidade ,0,0,0,0,2025-03-21T14:03:00Z,Sintra,Lisboa,Área Metropolitana De Lisboa,-9.270072,38.779997
25127772,Queluz e Belas,Grande Lisboa,311,2025-03-21T14:05:00Z,25127772,Em despacho,3321,Dano na rede de fornecimento de eletricidade ,0,2,0,3,2025-03-21T14:05:00Z,Sintra,Lisboa,Área Metropolitana De Lisboa,-9.271667,38.786881
25127783,Colares,Grande Lisboa,311,2025-03-21T13:55:00Z,25127783,Em despacho,3315,Inundação de estruturas por precipitação intensa,0,1,0,3,2025-03-21T13:55:00Z,Sintra,Lisboa,Área Metropolitana De Lisboa,-9.464841,38.795953
25127788,Casteleiro,Beiras e Serra da Estrela,310,2025-03-21T14:07:00Z,25127788,Em despacho,3301,Queda de árvore,0,1,0,2,2025-03-21T14:07:00Z,Sabugal,Guarda,Centro,-7.231799,40.301689
25127806,São Miguel do Rio Torto e Rossio Ao Sul do Tejo,Médio Tejo,311,2025-03-21T14:13:00Z,25127806,Em despacho,3311,Queda de elementos de estruturas edificados,0,1,0,1,2025-03-21T14:13:00Z,Abrantes,Santarém,Centro,-8.208589,39.424147
25127815,Avintes,Area M. Porto,309,2025-03-21T14:12:00Z,25127815,Em despacho,3329,Queda de estruturas temporárias ou móveis,0,1,0,3,2025-03-21T14:12:00Z,Vila Nova De Gaia,Porto,Norte,-8.547155,41.105347
25127822,Souselas e Botão,Região de Coimbra,310,2025-03-21T14:10:00Z,25127822,Em despacho,3329,Queda de estruturas temporárias ou móveis,0,0,0,0,2025-03-21T14:10:00Z,Coimbra,Coimbra,Centro,-8.42946,40.286598
25127659,Mora,Alentejo Central,312,2025-03-21T13:47:00Z,25127659,Em despacho,3301,Queda de árvore,0,1,0,5,2025-03-21T13:47:00Z,Mora,Évora,Alentejo,-8.168853,38.946775
25127693,Ericeira,Grande Lisboa,311,2025-03-21T13:46:00Z,25127693,Em despacho,3311,Queda de elementos de estruturas edificados,0,1,0,5,2025-03-21T13:46:00Z,Mafra,Lisboa,Área Metropolitana De Lisboa,-9.417289,38.967626
25127775,Santo Antão e São Julião do Tojal,Grande Lisboa,311,2025-03-21T14:03:00Z,25127775,Em despacho,3329,Queda de estruturas temporárias ou móveis,0,1,0,4,2025-03-21T14:03:00Z,Loures,Lisboa,Área Metropolitana De Lisboa,-9.160833,38.865682
