id,address,subregion,neighborhood,date,id.1,state,nature,nature_description,aerial_means,terrestrial_means,aquatic_means,operational,date.1,Concelho,Distrito,NUTII_DSG,longitude,latitude
25466369,Melides,Alentejo Litoral,312,2025-06-02T13:27:00Z,25466369,Em conclusão,3103,Incêndio rural,0,1,0,2,2025-06-02T13:27:00Z,Grândola,Setúbal,Alentejo,-8.754243,38.19534
25467128,Monte Redondo e Carreira,Região de Leiria,310,2025-06-02T15:48:00Z,25467128,Em conclusão,3103,Incêndio rural,0,1,0,2,2025-06-02T15:48:00Z,Leiria,Leiria,Centro,-8.860783,39.89848
25473380,Ervões,Alto Tâmega e Barroso,309,2025-06-03T21:35:00Z,25473380,Em conclusão,2301,Incêndio em transporte rodoviário,0,2,0,8,2025-06-03T21:35:00Z,Valpaços,Vila Real,Norte,-7.372995,41.651507
25473578,Sobral da Adiça,Baixo Alentejo,312,2025-06-03T22:44:00Z,25473578,Em conclusão,2129,Incêndio em edifícios degradados ou devolutos,0,6,0,18,2025-06-03T22:44:00Z,Moura,Beja,Alentejo,-7.261153,38.023538
25473778,Bougado (São Martinho e Santiago),Area M. Porto,309,2025-06-04T00:23:00Z,25473778,Em despacho,2127,"Incêndio em edifícios e recintos industriais, oficinas e armazéns",0,0,0,0,2025-06-04T00:23:00Z,Trofa,Porto,Norte,-8.567674,41.33654
25473765,Ribeira do Neiva,Cávado,309,2025-06-04T00:11:00Z,25473765,Em despacho,3103,Incêndio rural,0,4,0,17,2025-06-04T00:11:00Z,Vila Verde,Braga,Norte,-8.476156,41.727688
25473784,Charneca de Caparica e Sobreda,Península de Setúbal,311,2025-06-04T00:22:00Z,25473784,Em despacho,2201,Incêndio em equipamentos ou produtos,0,1,0,5,2025-06-04T00:22:00Z,Almada,Setúbal,Área Metropolitana De Lisboa,-9.190193,38.591584
