id,address,subregion,neighborhood,date,id.1,state,nature,nature_description,aerial_means,terrestrial_means,aquatic_means,operational,date.1,Concelho,Distrito,NUTII_DSG,longitude,latitude,state_2
26115621,Calvos e Frades,Ave,309,2025-10-10T11:31:00Z,26115621,Em Resolução/Conclusão,3103,Incêndio rural,0,2,0,10,2025-10-10T11:31:00Z,Póvoa De Lanhoso,Braga,Norte,-8.244815,41.615302,Resolução/Conclusão
26115664,Monteiras,Viseu Dão Lafões,310,2025-10-10T11:38:00Z,26115664,Em Resolução/Conclusão,3103,Incêndio rural,0,14,0,54,2025-10-10T11:38:00Z,Castro Daire,Viseu,Centro,-7.886195,40.970313,Resolução/Conclusão
26115832,Estorãos,Ave,309,2025-10-10T12:10:00Z,26115832,Em Resolução/Conclusão,3103,Incêndio rural,0,3,0,15,2025-10-10T12:10:00Z,Fafe,Braga,Norte,-8.131178,41.495925,Resolução/Conclusão
26115982,Penamacor,Beira Baixa,310,2025-10-10T12:43:00Z,26115982,Em Resolução/Conclusão,3105,Incêndio rural,0,14,0,47,2025-10-10T12:43:00Z,Penamacor,Castelo Branco,Centro,-7.1652,40.169608,Resolução/Conclusão
26116773,Santa Maria do Castelo e Santiago e Santa Susana,Alentejo Litoral,312,2025-10-10T14:50:00Z,26116773,Em Resolução/Conclusão,3103,Incêndio rural,0,0,0,0,2025-10-10T14:50:00Z,Alcácer Do Sal,Setúbal,Alentejo,-8.518004,38.400172,Resolução/Conclusão
26116882,Santos Evos,Viseu Dão Lafões,310,2025-10-10T15:17:00Z,26116882,Em Resolução/Conclusão,3103,Incêndio rural,1,5,0,21,2025-10-10T15:17:00Z,Viseu,Viseu,Centro,-7.831655,40.655857,Resolução/Conclusão
26116918,Murtosa,Região de Aveiro,310,2025-10-10T15:23:00Z,26116918,Em Curso,3105,Incêndio rural,0,3,0,7,2025-10-10T15:23:00Z,Murtosa,Aveiro,Centro,-8.647887,40.737717,Curso
26114630,Seixo da Beira,Região de Coimbra,310,2025-10-10T08:46:00Z,26114630,Em Resolução/Conclusão,3101,Incêndio rural,2,58,0,224,2025-10-10T08:46:00Z,Oliveira Do Hospital,Coimbra,Centro,-7.851872,40.421183,Resolução/Conclusão
26116720,Vila de Cucujães,Area M. Porto,309,2025-10-10T14:52:00Z,26116720,Em Resolução/Conclusão,3103,Incêndio rural,0,3,0,9,2025-10-10T14:52:00Z,Oliveira De Azeméis,Aveiro,Norte,-8.51323,40.87322,Resolução/Conclusão
26116819,Lobrigos (S. Miguel e S. João Baptista) e Sanhoane,Douro,309,2025-10-10T15:00:00Z,26116819,Em Resolução/Conclusão,3105,Incêndio rural,0,2,0,8,2025-10-10T15:00:00Z,Santa Marta De Penaguião,Vila Real,Norte,-7.796025,41.196187,Resolução/Conclusão
26116042,Pegões,Península de Setúbal,311,2025-10-10T12:52:00Z,26116042,Em Resolução/Conclusão,3103,Incêndio rural,0,17,0,55,2025-10-10T12:52:00Z,Montijo,Setúbal,Área Metropolitana De Lisboa,-8.757197,38.690184,Resolução/Conclusão
26116393,Samora Correia,Lezíria do Tejo,311,2025-10-10T13:57:00Z,26116393,Em Resolução/Conclusão,3105,Incêndio rural,0,3,0,12,2025-10-10T13:57:00Z,Benavente,Santarém,Alentejo,-8.721073,38.847435,Resolução/Conclusão
26116906,São Martinho,Alentejo Litoral,312,2025-10-10T15:16:00Z,26116906,Em Despacho,3103,Incêndio rural,0,7,0,25,2025-10-10T15:16:00Z,Alcácer Do Sal,Setúbal,Alentejo,-8.506547,38.473577,Despacho
26115854,Gralhas,Alto Tâmega e Barroso,309,2025-10-10T12:13:00Z,26115854,Em Curso,3103,Incêndio rural,12,32,0,124,2025-10-10T12:13:00Z,Montalegre,Vila Real,Norte,-7.72346,41.854762,Curso
26116081,Cárquere,Tâmega e Sousa,309,2025-10-10T12:58:00Z,26116081,Em Resolução/Conclusão,3103,Incêndio rural,0,3,0,9,2025-10-10T12:58:00Z,Resende,Viseu,Norte,-7.964192,41.101455,Resolução/Conclusão
26116397,Portela e Extremo,Alto Minho,309,2025-10-10T13:57:00Z,26116397,Em Resolução/Conclusão,3101,Incêndio rural,0,5,0,18,2025-10-10T13:57:00Z,Arcos De Valdevez,Viana Do Castelo,Norte,-8.44911,41.943743,Resolução/Conclusão
26116442,Rio de Moinhos,Alentejo Central,312,2025-10-10T14:06:00Z,26116442,Em Curso,3103,Incêndio rural,2,23,0,74,2025-10-10T14:06:00Z,Borba,Évora,Alentejo,-7.49951,38.763823,Curso
26116706,Aguçadoura e Navais,Area M. Porto,309,2025-10-10T14:50:00Z,26116706,Em Resolução/Conclusão,3105,Incêndio rural,0,3,0,9,2025-10-10T14:50:00Z,Póvoa De Varzim,Porto,Norte,-8.759158,41.43176,Resolução/Conclusão
26116951,Pinhal Novo,Península de Setúbal,311,2025-10-10T15:29:00Z,26116951,Em Resolução/Conclusão,3103,Incêndio rural,0,3,0,9,2025-10-10T15:29:00Z,Palmela,Setúbal,Área Metropolitana De Lisboa,-8.91294,38.637902,Resolução/Conclusão
26117010,São João da Madeira,Area M. Porto,309,2025-10-10T15:44:00Z,26117010,Em Despacho,3103,Incêndio rural,0,0,0,0,2025-10-10T15:44:00Z,São João Da Madeira,Aveiro,Norte,-8.484439,40.89501,Despacho
