id,address,subregion,neighborhood,date,id.1,state,nature,nature_description,aerial_means,terrestrial_means,aquatic_means,operational,date.1,Concelho,Distrito,NUTII_DSG,longitude,latitude
24777071,Pedrógão Grande,Região de Leiria,310,2025-01-05T13:18:00Z,24777071,Em conclusão,3309,Desabamento de estruturas edificadas,0,1,0,1,2025-01-05T13:18:00Z,Pedrógão Grande,Leiria,Centro,-8.177567,39.933038
24785982,"São Miguel, Santa Eufémia e Rabaçal",Região de Coimbra,310,2025-01-07T11:35:00Z,24785982,Em despacho,3301,Queda de árvore,0,1,0,2,2025-01-07T11:35:00Z,Penela,Coimbra,Centro,-8.367484,40.048086
24786298,São Gregório e Santa Justa,Alentejo Central,312,2025-01-07T12:32:00Z,24786298,Em despacho,3321,Dano na rede de fornecimento de eletricidade ,0,2,0,4,2025-01-07T12:32:00Z,Arraiolos,Évora,Alentejo,-7.907472,38.798836
24785903,Vau,Oeste,311,2025-01-07T11:00:00Z,24785903,Em despacho,3301,Queda de árvore,0,1,0,2,2025-01-07T11:00:00Z,Óbidos,Leiria,Centro,-9.254195,39.378229
24786096,Sesimbra (Castelo),Península de Setúbal,311,2025-01-07T11:55:00Z,24786096,Em despacho,3301,Queda de árvore,0,1,0,5,2025-01-07T11:55:00Z,Sesimbra,Setúbal,Área Metropolitana De Lisboa,-9.106828,38.452682
