id,address,subregion,neighborhood,date,id.1,state,nature,nature_description,aerial_means,terrestrial_means,aquatic_means,operational,date.1,Concelho,Distrito,NUTII_DSG,longitude,latitude
25546851,"Silvares, Pias, Nogueira e Alvarenga",Tâmega e Sousa,309,2025-06-19T00:44:00Z,25546851,Em conclusão,3103,Incêndio rural,0,0,0,0,2025-06-19T00:44:00Z,Lousada,Porto,Norte,-8.26385,41.275387
25546986,Moreira,Area M. Porto,309,2025-06-19T02:00:00Z,25546986,Em conclusão,2127,"Incêndio em edifícios e recintos industriais, oficinas e armazéns",0,2,0,6,2025-06-19T02:00:00Z,Maia,Porto,Norte,-8.651156,41.243233
25544135,Toulões,Beira Baixa,310,2025-06-18T13:59:00Z,25544135,Em conclusão,3105,Incêndio rural,0,2,0,4,2025-06-18T13:59:00Z,Idanha-a-Nova,Castelo Branco,Centro,-7.056978,39.904387
25546841,Bairro,Ave,309,2025-06-19T00:41:00Z,25546841,Em conclusão,2115,Incêndio em edifícios hoteleiros e de restauração,0,0,0,0,2025-06-19T00:41:00Z,Vila Nova De Famalicão,Braga,Norte,-8.42843,41.37039
25539267,Lomba,Area M. Porto,309,2025-06-17T14:37:00Z,25539267,Em conclusão,3101,Incêndio rural,0,1,0,5,2025-06-17T14:37:00Z,Gondomar,Porto,Norte,-8.404698,41.035962
25539742,Serpa (Salvador e Santa Maria),Baixo Alentejo,312,2025-06-17T16:12:00Z,25539742,Em conclusão,3105,Incêndio rural,0,0,0,1,2025-06-17T16:12:00Z,Serpa,Beja,Alentejo,-7.563295,37.92675
25544590,Benquerenças,Beira Baixa,310,2025-06-18T15:17:00Z,25544590,Em conclusão,3103,Incêndio rural,0,4,0,11,2025-06-18T15:17:00Z,Castelo Branco,Castelo Branco,Centro,-7.59037,39.839717
