id,address,subregion,neighborhood,date,id.1,state,nature,nature_description,aerial_means,terrestrial_means,aquatic_means,operational,date.1,Concelho,Distrito,NUTII_DSG,longitude,latitude,state_2
25813482,Freches e Torres,Beiras e Serra da Estrela,310,2025-08-09T16:21:00Z,25813482,Em Resolução/Conclusão,3103,Incêndio rural,0,2,0,10,2025-08-09T16:21:00Z,Trancoso,Guarda,Centro,-7.363745,40.709022,Resolução/Conclusão
25832250,Ferreira de Aves,Viseu Dão Lafões,310,2025-08-13T00:03:00Z,25832250,Em Resolução/Conclusão,3103,Incêndio rural,0,2,0,7,2025-08-13T00:03:00Z,Sátão,Viseu,Centro,-7.647793,40.79568,Resolução/Conclusão
25836309,Cinfães,Tâmega e Sousa,309,2025-08-13T18:17:00Z,25836309,Em Resolução/Conclusão,3103,Incêndio rural,0,1,0,2,2025-08-13T18:17:00Z,Cinfães,Viseu,Norte,-8.071502,41.049757,Resolução/Conclusão
25840505,Ribeira de Nisa e Carreiras,Alto Alentejo,312,2025-08-14T14:01:00Z,25840505,Em Resolução/Conclusão,3101,Incêndio rural,0,2,0,7,2025-08-14T14:01:00Z,Portalegre,Portalegre,Alentejo,-7.47009,39.374707,Resolução/Conclusão
25851721,Arnóia,Tâmega e Sousa,309,2025-08-16T14:24:00Z,25851721,Em Resolução/Conclusão,3103,Incêndio rural,0,5,0,21,2025-08-16T14:24:00Z,Celorico De Basto,Braga,Norte,-7.994469,41.369836,Resolução/Conclusão
25877725,São Cipriano e Vil de Souto,Viseu Dão Lafões,310,2025-08-21T16:05:00Z,25877725,Em Resolução/Conclusão,3103,Incêndio rural,0,0,0,0,2025-08-21T16:05:00Z,Viseu,Viseu,Centro,-7.959537,40.61783,Resolução/Conclusão
25882003,"Mamouros, Alva e Ribolhos",Viseu Dão Lafões,310,2025-08-22T13:50:00Z,25882003,Em Resolução/Conclusão,3103,Incêndio rural,0,0,0,0,2025-08-22T13:50:00Z,Castro Daire,Viseu,Centro,-7.972402,40.848113,Resolução/Conclusão
25882071,Vila Marim,Douro,309,2025-08-22T14:02:00Z,25882071,Em Resolução/Conclusão,3103,Incêndio rural,0,1,0,3,2025-08-22T14:02:00Z,Vila Real,Vila Real,Norte,-7.814082,41.353615,Resolução/Conclusão
25891313,Cervães,Cávado,309,2025-08-24T13:23:00Z,25891313,Em Resolução/Conclusão,3103,Incêndio rural,0,16,0,57,2025-08-24T13:23:00Z,Vila Verde,Braga,Norte,-8.525457,41.612832,Resolução/Conclusão
25891462,Faíl e Vila Chã de Sá,Viseu Dão Lafões,310,2025-08-24T12:41:00Z,25891462,Em Resolução/Conclusão,3103,Incêndio rural,0,0,0,0,2025-08-24T12:41:00Z,Viseu,Viseu,Centro,-7.956645,40.601897,Resolução/Conclusão
25818455,Sobral de São Miguel,Beiras e Serra da Estrela,310,2025-08-10T15:02:00Z,25818455,Em Resolução/Conclusão,3103,Incêndio rural,0,1,0,1,2025-08-10T15:02:00Z,Covilhã,Castelo Branco,Centro,-7.77307,40.200173,Resolução/Conclusão
25846480,Sabugal e Aldeia de Santo António,Beiras e Serra da Estrela,310,2025-08-15T14:41:00Z,25846480,Em Resolução/Conclusão,3103,Incêndio rural,0,17,0,55,2025-08-15T14:41:00Z,Sabugal,Guarda,Centro,-7.125037,40.34023,Resolução/Conclusão
25852580,São João de Tarouca,Douro,309,2025-08-16T17:00:00Z,25852580,Em Resolução/Conclusão,3103,Incêndio rural,0,3,0,12,2025-08-16T17:00:00Z,Tarouca,Viseu,Norte,-7.760748,40.986773,Resolução/Conclusão
25891421,"Refojos de Basto, Outeiro e Painzela",Ave,309,2025-08-24T13:50:00Z,25891421,Em Curso,3103,Incêndio rural,0,17,0,52,2025-08-24T13:50:00Z,Cabeceiras De Basto,Braga,Norte,-8.038457,41.502718,Curso
25891770,São Martinho de Antas e Paradela de Guiães,Douro,309,2025-08-24T15:06:00Z,25891770,Em Curso,3101,Incêndio rural,0,88,0,285,2025-08-24T15:06:00Z,Sabrosa,Vila Real,Norte,-7.640418,41.23664,Curso
25892257,"Mamouros, Alva e Ribolhos",Viseu Dão Lafões,310,2025-08-24T16:10:00Z,25892257,Em Resolução/Conclusão,3103,Incêndio rural,0,0,0,0,2025-08-24T16:10:00Z,Castro Daire,Viseu,Centro,-7.963403,40.849315,Resolução/Conclusão
25892725,Arnóia,Tâmega e Sousa,309,2025-08-24T19:33:00Z,25892725,Em Resolução/Conclusão,3103,Incêndio rural,0,2,0,10,2025-08-24T19:33:00Z,Celorico De Basto,Braga,Norte,-8.007462,41.360467,Resolução/Conclusão
25893091,Ponte do Rol,Oeste,311,2025-08-24T21:11:00Z,25893091,Em Resolução/Conclusão,3103,Incêndio rural,0,3,0,9,2025-08-24T21:11:00Z,Torres Vedras,Lisboa,Centro,-9.31833,39.08998,Resolução/Conclusão
25893309,Nogueira e Ermida,Douro,309,2025-08-24T22:16:00Z,25893309,Em Resolução/Conclusão,3103,Incêndio rural,0,4,0,15,2025-08-24T22:16:00Z,Vila Real,Vila Real,Norte,-7.738843,41.235465,Resolução/Conclusão
25892380,Fonte Arcada e Escurquela,Douro,309,2025-08-24T17:49:00Z,25892380,Em Resolução/Conclusão,3103,Incêndio rural,0,1,0,5,2025-08-24T17:49:00Z,Sernancelhe,Viseu,Norte,-7.511317,40.966458,Resolução/Conclusão
25892713,Arnóia,Tâmega e Sousa,309,2025-08-24T19:24:00Z,25892713,Em Resolução/Conclusão,3103,Incêndio rural,0,4,0,11,2025-08-24T19:24:00Z,Celorico De Basto,Braga,Norte,-7.992122,41.363412,Resolução/Conclusão
25893267,Chafé,Alto Minho,309,2025-08-24T22:00:00Z,25893267,Em Resolução/Conclusão,3103,Incêndio rural,0,0,0,0,2025-08-24T22:00:00Z,Viana Do Castelo,Viana Do Castelo,Norte,-8.774268,41.647972,Resolução/Conclusão
25893367,Basto (São Clemente),Tâmega e Sousa,309,2025-08-24T22:36:00Z,25893367,Em Despacho,3103,Incêndio rural,0,1,0,1,2025-08-24T22:36:00Z,Celorico De Basto,Braga,Norte,-8.071059,41.45848,Despacho
25893484,Amoreira,Oeste,311,2025-08-24T23:16:00Z,25893484,Em Despacho,3103,Incêndio rural,0,0,0,0,2025-08-24T23:16:00Z,Óbidos,Leiria,Centro,-9.283889,39.38167,Despacho
25893390,Bustelo,Tâmega e Sousa,309,2025-08-24T22:44:00Z,25893390,Em Resolução/Conclusão,3103,Incêndio rural,0,3,0,12,2025-08-24T22:44:00Z,Penafiel,Porto,Norte,-8.276385,41.226535,Resolução/Conclusão
25861685,Santa Catarina da Serra e Chainça,Região de Leiria,310,2025-08-18T13:03:00Z,25861685,Em Resolução/Conclusão,3103,Incêndio rural,0,1,0,2,2025-08-18T13:03:00Z,Leiria,Leiria,Centro,-8.698656,39.708305,Resolução/Conclusão
25872413,Cinco Vilas e Reigada,Beiras e Serra da Estrela,310,2025-08-20T14:58:00Z,25872413,Em Resolução/Conclusão,3103,Incêndio rural,0,9,0,36,2025-08-20T14:58:00Z,Figueira De Castelo Rodrigo,Guarda,Centro,-6.95815,40.775573,Resolução/Conclusão
25883011,Almofala,Viseu Dão Lafões,310,2025-08-22T17:00:00Z,25883011,Em Resolução/Conclusão,3103,Incêndio rural,0,9,0,23,2025-08-22T17:00:00Z,Castro Daire,Viseu,Centro,-7.767003,40.956183,Resolução/Conclusão
25887019,Pedrógão Grande,Região de Leiria,310,2025-08-23T14:27:00Z,25887019,Em Resolução/Conclusão,3101,Incêndio rural,0,101,0,316,2025-08-23T14:27:00Z,Pedrógão Grande,Leiria,Centro,-8.15364,39.9136,Resolução/Conclusão
25892294,Cótimos,Beiras e Serra da Estrela,310,2025-08-24T17:26:00Z,25892294,Em Resolução/Conclusão,3103,Incêndio rural,0,3,0,8,2025-08-24T17:26:00Z,Trancoso,Guarda,Centro,-7.272495,40.826932,Resolução/Conclusão
25892926,"Azinhal, Peva e Valverde",Beiras e Serra da Estrela,310,2025-08-24T20:26:00Z,25892926,Em Resolução/Conclusão,3103,Incêndio rural,0,5,0,22,2025-08-24T20:26:00Z,Almeida,Guarda,Centro,-6.933212,40.699355,Resolução/Conclusão
25892985,São Miguel de Machede,Alentejo Central,312,2025-08-24T20:39:00Z,25892985,Em Resolução/Conclusão,3103,Incêndio rural,0,9,0,29,2025-08-24T20:39:00Z,Évora,Évora,Alentejo,-7.791585,38.653442,Resolução/Conclusão
25893162,Anhões e Luzio,Alto Minho,309,2025-08-24T21:30:00Z,25893162,Em Resolução/Conclusão,3103,Incêndio rural,0,3,0,7,2025-08-24T21:30:00Z,Monção,Viana Do Castelo,Norte,-8.463153,41.972373,Resolução/Conclusão
25893487,Ferreira,Tâmega e Sousa,309,2025-08-24T22:55:00Z,25893487,Em Despacho,3103,Incêndio rural,0,1,0,5,2025-08-24T22:55:00Z,Paços De Ferreira,Porto,Norte,-8.350322,41.264706,Despacho
25832672,Piódão,Região de Coimbra,310,2025-08-13T05:08:00Z,25832672,Em Resolução/Conclusão,3103,Incêndio rural,0,375,0,1112,2025-08-13T05:08:00Z,Arganil,Coimbra,Centro,-7.81972,40.23083,Resolução/Conclusão
25840417,Lousã e Vilarinho,Região de Coimbra,310,2025-08-14T13:46:00Z,25840417,Em Resolução/Conclusão,3101,Incêndio rural,0,1,0,1,2025-08-14T13:46:00Z,Lousã,Coimbra,Centro,-8.201561,40.080016,Resolução/Conclusão
25857322,"Barcel, Marmelos e Valverde da Gestosa",Terras de Trás-os-Montes,309,2025-08-17T15:53:00Z,25857322,Em Resolução/Conclusão,3103,Incêndio rural,0,1,0,2,2025-08-17T15:53:00Z,Mirandela,Bragança,Norte,-7.209414,41.409479,Resolução/Conclusão
25891641,Cantar-Galo e Vila do Carvalho,Beiras e Serra da Estrela,310,2025-08-24T14:35:00Z,25891641,Em Resolução/Conclusão,3103,Incêndio rural,0,0,0,0,2025-08-24T14:35:00Z,Covilhã,Castelo Branco,Centro,-7.476095,40.31541,Resolução/Conclusão
25892968,São Vicente de Lafões,Viseu Dão Lafões,310,2025-08-24T20:27:00Z,25892968,Em Resolução/Conclusão,3103,Incêndio rural,0,0,0,0,2025-08-24T20:27:00Z,Oliveira De Frades,Viseu,Centro,-8.162587,40.726402,Resolução/Conclusão
25893120,Real,Tâmega e Sousa,309,2025-08-24T21:10:00Z,25893120,Em Resolução/Conclusão,3103,Incêndio rural,0,4,0,14,2025-08-24T21:10:00Z,Castelo De Paiva,Aveiro,Norte,-8.297742,40.993272,Resolução/Conclusão
25893411,Miranda,Alto Minho,309,2025-08-24T22:33:00Z,25893411,Em Despacho,3103,Incêndio rural,0,2,0,10,2025-08-24T22:33:00Z,Arcos De Valdevez,Viana Do Castelo,Norte,-8.511716,41.835944,Despacho
