id,address,subregion,neighborhood,date,id.1,state,nature,nature_description,aerial_means,terrestrial_means,aquatic_means,operational,date.1,Concelho,Distrito,NUTII_DSG,longitude,latitude,state_2
25952453,Santa Eufémia e Boa Vista,Região de Leiria,310,2025-09-06T14:48:00Z,25952453,Em Resolução/Conclusão,3103,Incêndio rural,0,2,0,10,2025-09-06T14:48:00Z,Leiria,Leiria,Centro,-8.733788,39.79797,Resolução/Conclusão
25952469,Loureiro,Area M. Porto,309,2025-09-06T14:51:00Z,25952469,Em Resolução/Conclusão,3103,Incêndio rural,0,4,0,16,2025-09-06T14:51:00Z,Oliveira De Azeméis,Aveiro,Norte,-8.524272,40.817623,Resolução/Conclusão
25952671,Gavião,Ave,309,2025-09-06T15:37:00Z,25952671,Em Despacho,3105,Incêndio rural,0,0,0,0,2025-09-06T15:37:00Z,Vila Nova De Famalicão,Braga,Norte,-8.503,41.42103,Despacho
25952092,Aldeia Galega da Merceana e Aldeia Gavinha,Oeste,311,2025-09-06T13:36:00Z,25952092,Em Resolução/Conclusão,3103,Incêndio rural,0,1,0,5,2025-09-06T13:36:00Z,Alenquer,Lisboa,Centro,-9.133953,39.086373,Resolução/Conclusão
25952099,Almancil,Algarve,313,2025-09-06T13:37:00Z,25952099,Em Resolução/Conclusão,3103,Incêndio rural,0,2,0,6,2025-09-06T13:37:00Z,Faro,Faro,Algarve,-7.969985,37.084469,Resolução/Conclusão
25952351,Ceira,Região de Coimbra,310,2025-09-06T14:28:00Z,25952351,Em Resolução/Conclusão,3103,Incêndio rural,0,1,0,5,2025-09-06T14:28:00Z,Coimbra,Coimbra,Centro,-8.39034,40.17309,Resolução/Conclusão
25832672,Piódão,Região de Coimbra,310,2025-08-13T05:08:00Z,25832672,Em Resolução/Conclusão,3103,Incêndio rural,0,14,0,40,2025-08-13T05:08:00Z,Arganil,Coimbra,Centro,-7.81972,40.23083,Resolução/Conclusão
25840417,Lousã e Vilarinho,Região de Coimbra,310,2025-08-14T13:46:00Z,25840417,Em Resolução/Conclusão,3101,Incêndio rural,0,0,0,0,2025-08-14T13:46:00Z,Lousã,Coimbra,Centro,-8.201561,40.080016,Resolução/Conclusão
25951064,Moimenta e Montouto,Terras de Trás-os-Montes,309,2025-09-06T10:05:00Z,25951064,Em Resolução/Conclusão,3103,Incêndio rural,8,14,0,51,2025-09-06T10:05:00Z,Vinhais,Bragança,Norte,-6.971422,41.966033,Resolução/Conclusão
25951457,Vila Cã,Região de Leiria,310,2025-09-06T11:25:00Z,25951457,Em Resolução/Conclusão,3103,Incêndio rural,0,15,0,52,2025-09-06T11:25:00Z,Pombal,Leiria,Centro,-8.56078,39.851197,Resolução/Conclusão
25952289,"Esposende, Marinhas e Gandra",Cávado,309,2025-09-06T14:10:00Z,25952289,Em Resolução/Conclusão,3111,Queima,0,1,0,5,2025-09-06T14:10:00Z,Esposende,Braga,Norte,-8.753217,41.51552,Resolução/Conclusão
25952314,Oliveira do Douro,Area M. Porto,309,2025-09-06T14:18:00Z,25952314,Em Resolução/Conclusão,3103,Incêndio rural,0,2,0,4,2025-09-06T14:18:00Z,Vila Nova De Gaia,Porto,Norte,-8.588902,41.132377,Resolução/Conclusão
25952617,"Requeixo, Nossa Senhora de Fátima e Nariz",Região de Aveiro,310,2025-09-06T15:26:00Z,25952617,Em Curso,3101,Incêndio rural,1,11,0,44,2025-09-06T15:26:00Z,Aveiro,Aveiro,Centro,-8.57288,40.57553,Curso
25951176,Sandomil,Beiras e Serra da Estrela,310,2025-09-06T10:29:00Z,25951176,Em Curso,3103,Incêndio rural,16,135,0,459,2025-09-06T10:29:00Z,Seia,Guarda,Centro,-7.76001,40.351547,Curso
25951795,São Bento do Mato,Alentejo Central,312,2025-09-06T12:34:00Z,25951795,Em Resolução/Conclusão,3103,Incêndio rural,0,18,0,57,2025-09-06T12:34:00Z,Évora,Évora,Alentejo,-7.770928,38.689508,Resolução/Conclusão
25951945,Remelhe,Cávado,309,2025-09-06T13:04:00Z,25951945,Em Resolução/Conclusão,3103,Incêndio rural,0,3,0,9,2025-09-06T13:04:00Z,Barcelos,Braga,Norte,-8.607903,41.475878,Resolução/Conclusão
25952160,Santa Catarina,Oeste,311,2025-09-06T13:50:00Z,25952160,Em Resolução/Conclusão,3103,Incêndio rural,0,12,0,40,2025-09-06T13:50:00Z,Caldas Da Rainha,Leiria,Centro,-9.008811,39.429874,Resolução/Conclusão
25952463,Vila Nova de Foz Côa,Douro,309,2025-09-06T14:50:00Z,25952463,Em Resolução/Conclusão,3103,Incêndio rural,0,0,0,0,2025-09-06T14:50:00Z,Vila Nova De Foz Côa,Guarda,Norte,-7.138873,41.078903,Resolução/Conclusão
25952612,Aradas,Região de Aveiro,310,2025-09-06T15:25:00Z,25952612,Em Curso,3103,Incêndio rural,0,3,0,11,2025-09-06T15:25:00Z,Aveiro,Aveiro,Centro,-8.625763,40.597513,Curso
