id,address,subregion,neighborhood,date,id.1,state,nature,nature_description,aerial_means,terrestrial_means,aquatic_means,operational,date.1,Concelho,Distrito,NUTII_DSG,longitude,latitude,state_2
26151206,Liceia,Região de Coimbra,310,2025-10-17T14:48:00Z,26151206,Em Resolução/Conclusão,3101,Incêndio rural,0,7,0,25,2025-10-17T14:48:00Z,Montemor-o-Velho,Coimbra,Centro,-8.73417,40.28056,Resolução/Conclusão
26152526,Santa Marinha e São Pedro da Afurada,Area M. Porto,309,2025-10-17T19:13:00Z,26152526,Em Resolução/Conclusão,3101,Incêndio rural,0,1,0,6,2025-10-17T19:13:00Z,Vila Nova De Gaia,Porto,Norte,-8.624714,41.132843,Resolução/Conclusão
26152692,Santo André,Alto Tâmega e Barroso,309,2025-10-17T19:54:00Z,26152692,Em Curso,3103,Incêndio rural,0,3,0,15,2025-10-17T19:54:00Z,Montalegre,Vila Real,Norte,-7.665836,41.863612,Curso
26152777,Esmoriz,Região de Aveiro,310,2025-10-17T20:07:00Z,26152777,Em Curso,3103,Incêndio rural,0,2,0,7,2025-10-17T20:07:00Z,Ovar,Aveiro,Centro,-8.623507,40.96591,Curso
26148602,Sobreira,Area M. Porto,309,2025-10-17T03:52:00Z,26148602,Em Resolução/Conclusão,3103,Incêndio rural,0,2,0,10,2025-10-17T03:52:00Z,Paredes,Porto,Norte,-8.389412,41.153068,Resolução/Conclusão
26151494,Paradela,Alto Tâmega e Barroso,309,2025-10-17T15:44:00Z,26151494,Em Resolução/Conclusão,3103,Incêndio rural,0,2,0,4,2025-10-17T15:44:00Z,Chaves,Vila Real,Norte,-7.325628,41.811003,Resolução/Conclusão
26152037,Corval,Alentejo Central,312,2025-10-17T17:14:00Z,26152037,Em Resolução/Conclusão,3105,Incêndio rural,0,1,0,4,2025-10-17T17:14:00Z,Reguengos De Monsaraz,Évora,Alentejo,-7.502805,38.43993,Resolução/Conclusão
26152205,Campo e Sobrado,Area M. Porto,309,2025-10-17T18:10:00Z,26152205,Em Resolução/Conclusão,3101,Incêndio rural,0,4,0,12,2025-10-17T18:10:00Z,Valongo,Porto,Norte,-8.469448,41.224138,Resolução/Conclusão
26152455,Cardosas,Oeste,311,2025-10-17T18:47:00Z,26152455,Em Resolução/Conclusão,3111,Queima,0,2,0,6,2025-10-17T18:47:00Z,Arruda Dos Vinhos,Lisboa,Centro,-9.028309,38.974125,Resolução/Conclusão
26152482,Nine,Ave,309,2025-10-17T19:08:00Z,26152482,Em Curso,3103,Incêndio rural,0,2,0,7,2025-10-17T19:08:00Z,Vila Nova De Famalicão,Braga,Norte,-8.53394,41.45968,Curso
26152530,"Nogueira, Fraião e Lamaçães",Cávado,309,2025-10-17T19:18:00Z,26152530,Em Resolução/Conclusão,3103,Incêndio rural,0,3,0,11,2025-10-17T19:18:00Z,Braga,Braga,Norte,-8.417372,41.53532,Resolução/Conclusão
26152580,Anta e Guetim,Area M. Porto,309,2025-10-17T19:30:00Z,26152580,Em Resolução/Conclusão,3103,Incêndio rural,0,1,0,4,2025-10-17T19:30:00Z,Espinho,Aveiro,Norte,-8.63103,41.01207,Resolução/Conclusão
26152623,Madalena e Samaiões,Alto Tâmega e Barroso,309,2025-10-17T19:39:00Z,26152623,Em Resolução/Conclusão,3103,Incêndio rural,0,3,0,12,2025-10-17T19:39:00Z,Chaves,Vila Real,Norte,-7.47283,41.7227,Resolução/Conclusão
26151695,Serpa (Salvador e Santa Maria),Baixo Alentejo,312,2025-10-17T16:19:00Z,26151695,Em Resolução/Conclusão,3105,Incêndio rural,0,3,0,4,2025-10-17T16:19:00Z,Serpa,Beja,Alentejo,-7.556573,37.916337,Resolução/Conclusão
26152090,Venade e Azevedo,Alto Minho,309,2025-10-17T17:38:00Z,26152090,Em Resolução/Conclusão,3105,Incêndio rural,0,4,0,13,2025-10-17T17:38:00Z,Caminha,Viana Do Castelo,Norte,-8.808792,41.844957,Resolução/Conclusão
26152497,Candemil,Tâmega e Sousa,309,2025-10-17T19:11:00Z,26152497,Em Resolução/Conclusão,3105,Incêndio rural,0,1,0,5,2025-10-17T19:11:00Z,Amarante,Porto,Norte,-7.975307,41.250468,Resolução/Conclusão
26152574,Mazarefes e Vila Fria,Alto Minho,309,2025-10-17T19:28:00Z,26152574,Em Resolução/Conclusão,3105,Incêndio rural,0,0,0,0,2025-10-17T19:28:00Z,Viana Do Castelo,Viana Do Castelo,Norte,-8.7676,41.68054,Resolução/Conclusão
26152318,Cidade da Maia,Area M. Porto,309,2025-10-17T18:31:00Z,26152318,Em Resolução/Conclusão,3103,Incêndio rural,0,5,0,12,2025-10-17T18:31:00Z,Maia,Porto,Norte,-8.597222,41.22972,Resolução/Conclusão
26152551,Picão e Ermida,Viseu Dão Lafões,310,2025-10-17T19:23:00Z,26152551,Em Resolução/Conclusão,3103,Incêndio rural,0,4,0,16,2025-10-17T19:23:00Z,Castro Daire,Viseu,Centro,-7.921754,40.941464,Resolução/Conclusão
26152600,Paderne,Alto Minho,309,2025-10-17T19:35:00Z,26152600,Em Despacho,3103,Incêndio rural,0,1,0,2,2025-10-17T19:35:00Z,Melgaço,Viana Do Castelo,Norte,-8.2749,42.05929,Despacho
26152620,Freixieiro de Soutelo,Alto Minho,309,2025-10-17T19:38:00Z,26152620,Em Despacho,3103,Incêndio rural,0,2,0,9,2025-10-17T19:38:00Z,Viana Do Castelo,Viana Do Castelo,Norte,-8.815089,41.79646,Despacho
26152635,Fiães,Area M. Porto,309,2025-10-17T19:38:00Z,26152635,Em Resolução/Conclusão,3105,Incêndio rural,0,2,0,8,2025-10-17T19:38:00Z,Santa Maria Da Feira,Aveiro,Norte,-8.523804,40.991551,Resolução/Conclusão
26152703,Mafamude e Vilar do Paraíso,Area M. Porto,309,2025-10-17T19:58:00Z,26152703,Em Curso,3103,Incêndio rural,0,1,0,4,2025-10-17T19:58:00Z,Vila Nova De Gaia,Porto,Norte,-8.622265,41.086486,Curso
26152758,Foz de Arouce e Casal de Ermio,Região de Coimbra,310,2025-10-17T20:09:00Z,26152758,Em Curso,3101,Incêndio rural,0,9,0,33,2025-10-17T20:09:00Z,Lousã,Coimbra,Centro,-8.280278,40.16833,Curso
26152641,Baião (Santa Leocádia) e Mesquinhata,Tâmega e Sousa,309,2025-10-17T19:39:00Z,26152641,Em Despacho,3105,Incêndio rural,0,1,0,5,2025-10-17T19:39:00Z,Baião,Porto,Norte,-8.109313,41.134349,Despacho
26152773,Moreira,Area M. Porto,309,2025-10-17T20:10:00Z,26152773,Em Despacho,3103,Incêndio rural,0,1,0,3,2025-10-17T20:10:00Z,Maia,Porto,Norte,-8.644928,41.245762,Despacho
26152805,Gestaçô,Tâmega e Sousa,309,2025-10-17T20:22:00Z,26152805,Em Despacho,3103,Incêndio rural,0,1,0,4,2025-10-17T20:22:00Z,Baião,Porto,Norte,-7.92622,41.1673,Despacho
