id,address,subregion,neighborhood,date,id.1,state,nature,nature_description,aerial_means,terrestrial_means,aquatic_means,operational,date.1,Concelho,Distrito,NUTII_DSG,longitude,latitude
24874428,Donai,Terras de Trás-os-Montes,309,2025-01-26T21:18:00Z,24874428,Em despacho,3315,Inundação de estruturas por precipitação intensa,0,1,0,2,2025-01-26T21:18:00Z,Bragança,Bragança,Norte,-6.805385,41.830788
24874564,"Sé, Santa Maria e Meixedo",Terras de Trás-os-Montes,309,2025-01-26T21:55:00Z,24874564,Em despacho,3315,Inundação de estruturas por precipitação intensa,0,1,0,2,2025-01-26T21:55:00Z,Bragança,Bragança,Norte,-6.761223,41.813164
24875382,Pampilhosa da Serra,Região de Coimbra,310,2025-01-27T06:56:00Z,24875382,Em despacho,3315,Inundação de estruturas por precipitação intensa,0,3,0,7,2025-01-27T06:56:00Z,Pampilhosa Da Serra,Coimbra,Centro,-7.953077,40.054967
24875505,Mondrões,Douro,309,2025-01-27T07:42:00Z,24875505,Em despacho,3301,Queda de árvore,0,1,0,1,2025-01-27T07:42:00Z,Vila Real,Vila Real,Norte,-7.803531,41.313067
24875591,Serpins,Região de Coimbra,310,2025-01-27T08:05:00Z,24875591,Em curso,3315,Inundação de estruturas por precipitação intensa,0,2,0,2,2025-01-27T08:05:00Z,Lousã,Coimbra,Centro,-8.200016,40.156377
24875655,Lajeosa do Dão,Viseu Dão Lafões,310,2025-01-27T08:22:00Z,24875655,Em despacho,3313,Deslizamento de terras,0,1,0,2,2025-01-27T08:22:00Z,Tondela,Viseu,Centro,-7.969096,40.520108
24875714,Penacova,Região de Coimbra,310,2025-01-27T08:33:00Z,24875714,Em despacho,3313,Deslizamento de terras,0,1,0,2,2025-01-27T08:33:00Z,Penacova,Coimbra,Centro,-8.27651,40.251768
24875832,"Pinheiro da Bemposta, Travanca e Palmaz",Area M. Porto,309,2025-01-27T08:45:00Z,24875832,Em despacho,3301,Queda de árvore,0,1,0,2,2025-01-27T08:45:00Z,Oliveira De Azeméis,Aveiro,Norte,-8.458958,40.792613
24875909,Almeirim,Lezíria do Tejo,311,2025-01-27T09:10:00Z,24875909,Em conclusão,3315,Inundação de estruturas por precipitação intensa,0,1,0,2,2025-01-27T09:10:00Z,Almeirim,Santarém,Alentejo,-8.588832,39.142251
24876034,Gondomil e Safins,Alto Minho,309,2025-01-27T09:25:00Z,24876034,Em curso,3301,Queda de árvore,0,1,0,5,2025-01-27T09:25:00Z,Valença,Viana Do Castelo,Norte,-8.565634,42.019205
24876050,Santa Maria Maior e Monserrate e Meadela,Alto Minho,309,2025-01-27T09:07:00Z,24876050,Em conclusão,3329,Queda de estruturas temporárias ou móveis,0,0,0,0,2025-01-27T09:07:00Z,Viana Do Castelo,Viana Do Castelo,Norte,-8.81652,41.703882
24876141,Praia de Mira,Região de Coimbra,310,2025-01-27T09:22:00Z,24876141,Em despacho,3301,Queda de árvore,0,1,0,2,2025-01-27T09:22:00Z,Mira,Coimbra,Centro,-8.8004270000000009,40.460655
24876159,Grândola e Santa Margarida da Serra,Alentejo Litoral,312,2025-01-27T09:39:00Z,24876159,Em despacho,3315,Inundação de estruturas por precipitação intensa,0,1,0,3,2025-01-27T09:39:00Z,Grândola,Setúbal,Alentejo,-8.5587510000000009,38.173088
24876200,Ceira,Região de Coimbra,310,2025-01-27T09:56:00Z,24876200,Em despacho,3315,Inundação de estruturas por precipitação intensa,0,1,0,2,2025-01-27T09:56:00Z,Coimbra,Coimbra,Centro,-8.376144,40.175952
24876227,Moimenta,Cávado,309,2025-01-27T09:52:00Z,24876227,Em despacho,3301,Queda de árvore,0,1,0,2,2025-01-27T09:52:00Z,Terras De Bouro,Braga,Norte,-8.299811,41.717789
24876241,Esperança,Alto Alentejo,312,2025-01-27T09:56:00Z,24876241,Em resolução,3301,Queda de árvore,0,1,0,5,2025-01-27T09:56:00Z,Arronches,Portalegre,Alentejo,-7.157282,39.147852
24876277,Alhadas,Região de Coimbra,310,2025-01-27T10:00:00Z,24876277,Em despacho,3301,Queda de árvore,0,1,0,3,2025-01-27T10:00:00Z,Figueira Da Foz,Coimbra,Centro,-8.808093,40.16613
24876332,Rio de Moinhos,Médio Tejo,311,2025-01-27T10:12:00Z,24876332,Em despacho,3313,Deslizamento de terras,0,1,0,2,2025-01-27T10:12:00Z,Abrantes,Santarém,Centro,-8.266776,39.486242
24876334,Seixas,Alto Minho,309,2025-01-27T10:07:00Z,24876334,Em curso,3301,Queda de árvore,0,1,0,3,2025-01-27T10:07:00Z,Caminha,Viana Do Castelo,Norte,-8.820794,41.891932
24851780,"São Miguel, Santa Eufémia e Rabaçal",Região de Coimbra,310,2025-01-21T23:25:00Z,24851780,Em curso,3315,Inundação de estruturas por precipitação intensa,0,0,0,0,2025-01-21T23:25:00Z,Penela,Coimbra,Centro,-8.399036,40.025502
24874809,Mouçós e Lamares,Douro,309,2025-01-26T23:40:00Z,24874809,Em curso,3315,Inundação de estruturas por precipitação intensa,0,1,0,2,2025-01-26T23:40:00Z,Vila Real,Vila Real,Norte,-7.700831,41.312728
24875293,Queirã,Viseu Dão Lafões,310,2025-01-27T06:05:00Z,24875293,Em despacho,3301,Queda de árvore,0,1,0,2,2025-01-27T06:05:00Z,Vouzela,Viseu,Centro,-8.062127,40.704807
24875527,São Martinho do Bispo e Ribeira de Frades,Região de Coimbra,310,2025-01-27T07:50:00Z,24875527,Em despacho,3315,Inundação de estruturas por precipitação intensa,0,1,0,2,2025-01-27T07:50:00Z,Coimbra,Coimbra,Centro,-8.454962,40.20908
24875560,Santar e Moreira,Viseu Dão Lafões,310,2025-01-27T08:01:00Z,24875560,Em curso,3315,Inundação de estruturas por precipitação intensa,0,5,0,11,2025-01-27T08:01:00Z,Nelas,Viseu,Centro,-7.889856,40.569498
24875677,Mondim de Basto,Ave,309,2025-01-27T08:25:00Z,24875677,Em despacho,3301,Queda de árvore,0,2,0,6,2025-01-27T08:25:00Z,Mondim De Basto,Vila Real,Norte,-7.962111,41.409753
24875503,Oleiros-Amieira,Beira Baixa,310,2025-01-27T07:44:00Z,24875503,Em despacho,3313,Deslizamento de terras,0,2,0,3,2025-01-27T07:44:00Z,Oleiros,Castelo Branco,Centro,-7.92856,39.94324
24875519,"Pena, Quintã e Vila Cova",Douro,309,2025-01-27T07:46:00Z,24875519,Em despacho,3301,Queda de árvore,0,1,0,1,2025-01-27T07:46:00Z,Vila Real,Vila Real,Norte,-7.841818,41.296962
24875535,Viseu,Viseu Dão Lafões,310,2025-01-27T07:53:00Z,24875535,Em curso,3313,Deslizamento de terras,0,1,0,5,2025-01-27T07:53:00Z,Viseu,Viseu,Centro,-7.898324,40.66619
24875687,Sernancelhe e Sarzeda,Douro,309,2025-01-27T08:26:00Z,24875687,Em despacho,3315,Inundação de estruturas por precipitação intensa,0,1,0,4,2025-01-27T08:26:00Z,Sernancelhe,Viseu,Norte,-7.511299,40.896763
24875802,Fontes,Douro,309,2025-01-27T08:50:00Z,24875802,Em despacho,3301,Queda de árvore,0,1,0,2,2025-01-27T08:50:00Z,Santa Marta De Penaguião,Vila Real,Norte,-7.868261,41.252906
24875937,Açores e Velosa,Beiras e Serra da Estrela,310,2025-01-27T09:15:00Z,24875937,Em despacho,3301,Queda de árvore,0,2,0,4,2025-01-27T09:15:00Z,Celorico Da Beira,Guarda,Centro,-7.293622,40.654959
24875969,Albergaria-a-Velha e Valmaior,Região de Aveiro,310,2025-01-27T09:15:00Z,24875969,Em curso,3313,Deslizamento de terras,0,1,0,1,2025-01-27T09:15:00Z,Albergaria-a-Velha,Aveiro,Centro,-8.479745,40.688996
24876103,Cepos e Teixeira,Região de Coimbra,310,2025-01-27T09:25:00Z,24876103,Em despacho,3313,Deslizamento de terras,0,1,0,5,2025-01-27T09:25:00Z,Arganil,Coimbra,Centro,-7.95111,40.185975
24876104,Valadares,Viseu Dão Lafões,310,2025-01-27T09:35:00Z,24876104,Em despacho,3313,Deslizamento de terras,0,1,0,1,2025-01-27T09:35:00Z,São Pedro Do Sul,Viseu,Centro,-8.208916,40.757932
24875181,Eiras e São Paulo de Frades,Região de Coimbra,310,2025-01-27T04:04:00Z,24875181,Em despacho,3315,Inundação de estruturas por precipitação intensa,0,1,0,3,2025-01-27T04:04:00Z,Coimbra,Coimbra,Centro,-8.423418,40.248789
24875447,Ervedosa do Douro,Douro,309,2025-01-27T07:21:00Z,24875447,Em despacho,3321,Dano na rede de fornecimento de eletricidade ,0,2,0,3,2025-01-27T07:21:00Z,São João Da Pesqueira,Viseu,Norte,-7.523138,41.157955
24875531,Silveira,Oeste,311,2025-01-27T07:52:00Z,24875531,Em despacho,3313,Deslizamento de terras,0,1,0,2,2025-01-27T07:52:00Z,Torres Vedras,Lisboa,Centro,-9.3555,39.09169
24875758,Valhelhas,Beiras e Serra da Estrela,310,2025-01-27T08:41:00Z,24875758,Em curso,3301,Queda de árvore,0,1,0,2,2025-01-27T08:41:00Z,Guarda,Guarda,Centro,-7.405093,40.406271
24875792,Sameiro,Beiras e Serra da Estrela,310,2025-01-27T08:49:00Z,24875792,Em despacho,3301,Queda de árvore,0,1,0,2,2025-01-27T08:49:00Z,Manteigas,Guarda,Centro,-7.488878,40.408987
24875831,Salvaterra de Magos e Foros de Salvaterra,Lezíria do Tejo,311,2025-01-27T08:56:00Z,24875831,Em resolução,3315,Inundação de estruturas por precipitação intensa,0,2,0,7,2025-01-27T08:56:00Z,Salvaterra De Magos,Santarém,Alentejo,-8.7365,39.005668
24875872,Fortios,Alto Alentejo,312,2025-01-27T08:58:00Z,24875872,Em curso,3315,Inundação de estruturas por precipitação intensa,0,1,0,3,2025-01-27T08:58:00Z,Portalegre,Portalegre,Alentejo,-7.479345,39.291741
24875844,Torres do Mondego,Região de Coimbra,310,2025-01-27T08:55:00Z,24875844,Em despacho,3301,Queda de árvore,0,1,0,2,2025-01-27T08:55:00Z,Coimbra,Coimbra,Centro,-8.362162,40.207501
24875862,Ramela,Beiras e Serra da Estrela,310,2025-01-27T09:01:00Z,24875862,Em despacho,3329,Queda de estruturas temporárias ou móveis,0,2,0,4,2025-01-27T09:01:00Z,Guarda,Guarda,Centro,-7.258056,40.46528
24875896,Sé e São Lourenço,Alto Alentejo,312,2025-01-27T09:00:00Z,24875896,Em conclusão,3315,Inundação de estruturas por precipitação intensa,0,1,0,2,2025-01-27T09:00:00Z,Portalegre,Portalegre,Alentejo,-7.452195,39.298423
24875911,Tavarede,Região de Coimbra,310,2025-01-27T08:50:00Z,24875911,Em despacho,3315,Inundação de estruturas por precipitação intensa,0,1,0,2,2025-01-27T08:50:00Z,Figueira Da Foz,Coimbra,Centro,-8.853871,40.165854
24875944,Gebelim e Soeima,Terras de Trás-os-Montes,309,2025-01-27T09:13:00Z,24875944,Em despacho,3301,Queda de árvore,0,1,0,2,2025-01-27T09:13:00Z,Alfândega Da Fé,Bragança,Norte,-6.971343,41.438239
24875960,Trancoso (São Pedro e Santa Maria) e Souto Maior,Beiras e Serra da Estrela,310,2025-01-27T09:00:00Z,24875960,Em curso,3301,Queda de árvore,0,1,0,2,2025-01-27T09:00:00Z,Trancoso,Guarda,Centro,-7.408249,40.770097
24876047,Parada de Pinhão,Douro,309,2025-01-27T09:04:00Z,24876047,Em despacho,3301,Queda de árvore,0,1,0,3,2025-01-27T09:04:00Z,Sabrosa,Vila Real,Norte,-7.603908,41.336635
24876063,Grândola e Santa Margarida da Serra,Alentejo Litoral,312,2025-01-27T09:25:00Z,24876063,Em conclusão,3315,Inundação de estruturas por precipitação intensa,0,2,0,3,2025-01-27T09:25:00Z,Grândola,Setúbal,Alentejo,-8.55717,38.220053
24876130,Bornes de Aguiar,Alto Tâmega e Barroso,309,2025-01-27T09:37:00Z,24876130,Em despacho,3315,Inundação de estruturas por precipitação intensa,0,1,0,5,2025-01-27T09:37:00Z,Vila Pouca De Aguiar,Vila Real,Norte,-7.60702,41.543737
24876204,Condeixa-a-Velha e Condeixa-a-Nova,Região de Coimbra,310,2025-01-27T09:50:00Z,24876204,Em despacho,3329,Queda de estruturas temporárias ou móveis,0,1,0,2,2025-01-27T09:50:00Z,Condeixa-a-Nova,Coimbra,Centro,-8.507343,40.122466
24876253,Abrigada e Cabanas de Torres,Oeste,311,2025-01-27T09:58:00Z,24876253,Em curso,3315,Inundação de estruturas por precipitação intensa,0,0,0,0,2025-01-27T09:58:00Z,Alenquer,Lisboa,Centro,-9.020407,39.153271
24876304,"Sé, Santa Maria e Meixedo",Terras de Trás-os-Montes,309,2025-01-27T10:05:00Z,24876304,Em despacho,3315,Inundação de estruturas por precipitação intensa,0,2,0,4,2025-01-27T10:05:00Z,Bragança,Bragança,Norte,-6.761223,41.813164
24876305,Barcarena,Grande Lisboa,311,2025-01-27T10:00:00Z,24876305,Em despacho,3301,Queda de árvore,0,1,0,2,2025-01-27T10:00:00Z,Oeiras,Lisboa,Área Metropolitana De Lisboa,-9.277392,38.733987
24876319,Samora Correia,Lezíria do Tejo,311,2025-01-27T10:10:00Z,24876319,Em despacho,3315,Inundação de estruturas por precipitação intensa,0,1,0,4,2025-01-27T10:10:00Z,Benavente,Santarém,Alentejo,-8.890675,38.921796
24876008,"Valença, Cristelo Covo e Arão",Alto Minho,309,2025-01-27T09:18:00Z,24876008,Em curso,3301,Queda de árvore,0,3,0,8,2025-01-27T09:18:00Z,Valença,Viana Do Castelo,Norte,-8.644383,42.018188
24876140,"Cedofeita, Ildefonso, Sé, Miragaia, Nicolau e Vitória",Area M. Porto,309,2025-01-27T09:30:00Z,24876140,Em resolução,3311,Queda de elementos de estruturas edificados,0,1,0,3,2025-01-27T09:30:00Z,Porto,Porto,Norte,-8.615939,41.15359
24876167,Paranhos,Area M. Porto,309,2025-01-27T09:43:00Z,24876167,Em despacho,3329,Queda de estruturas temporárias ou móveis,0,1,0,5,2025-01-27T09:43:00Z,Porto,Porto,Norte,-8.607437,41.17569
24876249,Bacelo e Senhora da Saúde,Alentejo Central,312,2025-01-27T09:54:00Z,24876249,Em despacho,3301,Queda de árvore,0,1,0,2,2025-01-27T09:54:00Z,Évora,Évora,Alentejo,-7.869122,38.593644
24876265,Sesimbra (Castelo),Península de Setúbal,311,2025-01-27T09:55:00Z,24876265,Em despacho,3301,Queda de árvore,0,1,0,5,2025-01-27T09:55:00Z,Sesimbra,Setúbal,Área Metropolitana De Lisboa,-9.095542,38.465387
24876161,"Ponte de Sor, Tramaga e Vale de Açor",Alto Alentejo,312,2025-01-27T09:45:00Z,24876161,Em conclusão,3315,Inundação de estruturas por precipitação intensa,0,1,0,4,2025-01-27T09:45:00Z,Ponte De Sor,Portalegre,Alentejo,-8.010078,39.258345
24876163,Miranda do Corvo,Região de Coimbra,310,2025-01-27T09:45:00Z,24876163,Em despacho,3315,Inundação de estruturas por precipitação intensa,0,1,0,2,2025-01-27T09:45:00Z,Miranda Do Corvo,Coimbra,Centro,-8.339499,40.09407
24876230,Longa,Douro,309,2025-01-27T09:54:00Z,24876230,Em despacho,3301,Queda de árvore,0,1,0,2,2025-01-27T09:54:00Z,Tabuaço,Viseu,Norte,-7.589478,41.059239
24876313,Angeja,Região de Aveiro,310,2025-01-27T10:05:00Z,24876313,Em despacho,3301,Queda de árvore,0,1,0,1,2025-01-27T10:05:00Z,Albergaria-a-Velha,Aveiro,Centro,-8.56369,40.681509
