id,address,subregion,neighborhood,date,id.1,state,nature,nature_description,aerial_means,terrestrial_means,aquatic_means,operational,date.1,Concelho,Distrito,NUTII_DSG,longitude,latitude,state_2
25785983,Caçarilhe e Infesta,Tâmega e Sousa,309,2025-08-04T18:22:00Z,25785983,Em Resolução/Conclusão,3103,Incêndio rural,0,9,0,26,2025-08-04T18:22:00Z,Celorico De Basto,Braga,Norte,-8.04611,41.419858,Resolução/Conclusão
25792058,Cibões e Brufe,Cávado,309,2025-08-05T19:10:00Z,25792058,Em Resolução/Conclusão,3103,Incêndio rural,0,1,0,5,2025-08-05T19:10:00Z,Terras De Bouro,Braga,Norte,-8.293932,41.764918,Resolução/Conclusão
25807250,Nave de Haver,Beiras e Serra da Estrela,310,2025-08-08T14:05:00Z,25807250,Em Resolução/Conclusão,3103,Incêndio rural,0,1,0,2,2025-08-08T14:05:00Z,Almeida,Guarda,Centro,-6.839848,40.52156,Resolução/Conclusão
25812089,Travanca de Lagos,Região de Coimbra,310,2025-08-09T11:48:00Z,25812089,Em Resolução/Conclusão,3103,Incêndio rural,0,8,0,28,2025-08-09T11:48:00Z,Oliveira Do Hospital,Coimbra,Centro,-7.930184,40.408717,Resolução/Conclusão
25776263,"Pena, Quintã e Vila Cova",Douro,309,2025-08-02T23:45:00Z,25776263,Em Resolução/Conclusão,3103,Incêndio rural,0,25,0,83,2025-08-02T23:45:00Z,Vila Real,Vila Real,Norte,-7.811902,41.317355,Resolução/Conclusão
25783717,Cunha Baixa,Viseu Dão Lafões,310,2025-08-04T11:48:00Z,25783717,Em Resolução/Conclusão,3101,Incêndio rural,0,1,0,2,2025-08-04T11:48:00Z,Mangualde,Viseu,Centro,-7.764411,40.559738,Resolução/Conclusão
25785204,Ribas,Tâmega e Sousa,309,2025-08-04T16:03:00Z,25785204,Em Resolução/Conclusão,3103,Incêndio rural,0,0,0,0,2025-08-04T16:03:00Z,Celorico De Basto,Braga,Norte,-8.022547,41.449583,Resolução/Conclusão
25787860,Faíl e Vila Chã de Sá,Viseu Dão Lafões,310,2025-08-05T05:55:00Z,25787860,Em Resolução/Conclusão,3103,Incêndio rural,0,1,0,5,2025-08-05T05:55:00Z,Viseu,Viseu,Centro,-7.987877,40.601342,Resolução/Conclusão
25802450,Canas de Santa Maria,Viseu Dão Lafões,310,2025-08-07T16:14:00Z,25802450,Em Resolução/Conclusão,3103,Incêndio rural,0,2,0,7,2025-08-07T16:14:00Z,Tondela,Viseu,Centro,-8.032777,40.56017,Resolução/Conclusão
25808770,Pindo,Viseu Dão Lafões,310,2025-08-08T18:52:00Z,25808770,Em Resolução/Conclusão,3103,Incêndio rural,0,1,0,5,2025-08-08T18:52:00Z,Penalva Do Castelo,Viseu,Centro,-7.763725,40.674402,Resolução/Conclusão
25808937,Abrunhosa-a-Velha,Viseu Dão Lafões,310,2025-08-08T19:26:00Z,25808937,Em Resolução/Conclusão,3103,Incêndio rural,0,5,0,16,2025-08-08T19:26:00Z,Mangualde,Viseu,Centro,-7.647667,40.572515,Resolução/Conclusão
25811826,Penafiel,Tâmega e Sousa,309,2025-08-09T11:04:00Z,25811826,Em Resolução/Conclusão,3105,Incêndio rural,0,2,0,7,2025-08-09T11:04:00Z,Penafiel,Porto,Norte,-8.287698,41.212955,Resolução/Conclusão
25812159,Cabanelas,Cávado,309,2025-08-09T12:05:00Z,25812159,Em Resolução/Conclusão,3103,Incêndio rural,0,1,0,5,2025-08-09T12:05:00Z,Vila Verde,Braga,Norte,-8.494557,41.601195,Resolução/Conclusão
25773830,Andrães,Douro,309,2025-08-02T14:23:00Z,25773830,Em Resolução/Conclusão,3103,Incêndio rural,0,3,0,12,2025-08-02T14:23:00Z,Vila Real,Vila Real,Norte,-7.671293,41.267593,Resolução/Conclusão
25774883,Arnóia,Tâmega e Sousa,309,2025-08-02T18:20:00Z,25774883,Em Resolução/Conclusão,3103,Incêndio rural,0,7,0,27,2025-08-02T18:20:00Z,Celorico De Basto,Braga,Norte,-7.998983,41.348727,Resolução/Conclusão
25804968,Alvadia,Alto Tâmega e Barroso,309,2025-08-08T07:21:00Z,25804968,Em Resolução/Conclusão,3103,Incêndio rural,1,72,0,217,2025-08-08T07:21:00Z,Ribeira De Pena,Vila Real,Norte,-7.782872,41.457452,Resolução/Conclusão
25811853,Campelo e Ovil,Tâmega e Sousa,309,2025-08-09T11:10:00Z,25811853,Em Resolução/Conclusão,3103,Incêndio rural,0,2,0,10,2025-08-09T11:10:00Z,Baião,Porto,Norte,-7.988475,41.19308,Resolução/Conclusão
25812245,Rego,Tâmega e Sousa,309,2025-08-09T12:18:00Z,25812245,Em Resolução/Conclusão,3103,Incêndio rural,0,1,0,5,2025-08-09T12:18:00Z,Celorico De Basto,Braga,Norte,-8.093663,41.440515,Resolução/Conclusão
25812511,Paredes,Area M. Porto,309,2025-08-09T13:10:00Z,25812511,Em Despacho,3103,Incêndio rural,0,1,0,5,2025-08-09T13:10:00Z,Paredes,Porto,Norte,-8.340526,41.21359,Despacho
25812337,Aveleda,Area M. Porto,309,2025-08-09T12:37:00Z,25812337,Em Resolução/Conclusão,3101,Incêndio rural,0,1,0,5,2025-08-09T12:37:00Z,Vila Do Conde,Porto,Norte,-8.698893,41.303233,Resolução/Conclusão
25775263,Torgueda,Douro,309,2025-08-02T19:49:00Z,25775263,Em Resolução/Conclusão,3101,Incêndio rural,0,6,0,19,2025-08-02T19:49:00Z,Vila Real,Vila Real,Norte,-7.785983,41.274952,Resolução/Conclusão
25785466,Caçarilhe e Infesta,Tâmega e Sousa,309,2025-08-04T16:48:00Z,25785466,Em Resolução/Conclusão,3103,Incêndio rural,0,0,0,0,2025-08-04T16:48:00Z,Celorico De Basto,Braga,Norte,-8.035342,41.42903,Resolução/Conclusão
25800301,Alvão,Alto Tâmega e Barroso,309,2025-08-07T10:03:00Z,25800301,Em Resolução/Conclusão,3103,Incêndio rural,0,7,0,23,2025-08-07T10:03:00Z,Vila Pouca De Aguiar,Vila Real,Norte,-7.74157,41.466742000000004,Resolução/Conclusão
25802248,Graça,Região de Leiria,310,2025-08-07T15:30:00Z,25802248,Em Resolução/Conclusão,3101,Incêndio rural,0,1,0,2,2025-08-07T15:30:00Z,Pedrógão Grande,Leiria,Centro,-8.217915,39.911242,Resolução/Conclusão
25803707,Almofala e Escarigo,Beiras e Serra da Estrela,310,2025-08-07T20:50:00Z,25803707,Em Resolução/Conclusão,3103,Incêndio rural,1,28,0,90,2025-08-07T20:50:00Z,Figueira De Castelo Rodrigo,Guarda,Centro,-6.847203,40.887165,Resolução/Conclusão
25807426,Alvite,Douro,309,2025-08-08T14:31:00Z,25807426,Em Curso,3103,Incêndio rural,7,116,0,380,2025-08-08T14:31:00Z,Moimenta Da Beira,Viseu,Norte,-7.688727,40.96613,Curso
25811940,Baguim do Monte (Rio Tinto),Area M. Porto,309,2025-08-09T11:23:00Z,25811940,Em Resolução/Conclusão,3103,Incêndio rural,0,2,0,7,2025-08-09T11:23:00Z,Gondomar,Porto,Norte,-8.5266,41.19047,Resolução/Conclusão
25812238,Vilar Seco de Lomba,Terras de Trás-os-Montes,309,2025-08-09T12:17:00Z,25812238,Em Resolução/Conclusão,3103,Incêndio rural,1,4,0,20,2025-08-09T12:17:00Z,Vinhais,Bragança,Norte,-7.1475,41.91306,Resolução/Conclusão
25812374,"Ardegão, Arnozela e Seidões",Ave,309,2025-08-09T12:49:00Z,25812374,Em Resolução/Conclusão,3103,Incêndio rural,1,3,0,21,2025-08-09T12:49:00Z,Fafe,Braga,Norte,-8.13699,41.38527,Resolução/Conclusão
