id,address,subregion,neighborhood,date,id.1,state,nature,nature_description,aerial_means,terrestrial_means,aquatic_means,operational,date.1,Concelho,Distrito,NUTII_DSG,longitude,latitude,state_2
26093602,Castro Daire,Viseu Dão Lafões,310,2025-10-05T22:05:00Z,26093602,Em Resolução/Conclusão,3103,Incêndio rural,0,0,0,0,2025-10-05T22:05:00Z,Castro Daire,Viseu,Centro,-7.9408,40.925289,Resolução/Conclusão
26114344,"Sandim, Olival, Lever e Crestuma",Area M. Porto,309,2025-10-10T07:34:00Z,26114344,Em Resolução/Conclusão,3101,Incêndio rural,0,3,0,13,2025-10-10T07:34:00Z,Vila Nova De Gaia,Porto,Norte,-8.47647,41.06633,Resolução/Conclusão
26114553,Ramalhal,Oeste,311,2025-10-10T08:30:00Z,26114553,Em Despacho,3105,Incêndio rural,0,2,0,7,2025-10-10T08:30:00Z,Torres Vedras,Lisboa,Centro,-9.271517,39.157527,Despacho
26114610,Nossa Senhora da Conceição e São Bartolomeu,Alentejo Central,312,2025-10-10T08:40:00Z,26114610,Em Despacho,3103,Incêndio rural,0,2,0,7,2025-10-10T08:40:00Z,Vila Viçosa,Évora,Alentejo,-7.429967,38.778027,Despacho
26114330,Tabuaças,Ave,309,2025-10-10T07:31:00Z,26114330,Em Curso,3103,Incêndio rural,0,3,0,14,2025-10-10T07:31:00Z,Vieira Do Minho,Braga,Norte,-8.204728,41.62574,Curso
26114630,Seixo da Beira,Região de Coimbra,310,2025-10-10T08:46:00Z,26114630,Em Despacho,3101,Incêndio rural,0,2,0,7,2025-10-10T08:46:00Z,Oliveira Do Hospital,Coimbra,Centro,-7.839564,40.457716,Despacho
26114441,São Vicente e Ventosa,Alto Alentejo,312,2025-10-10T08:03:00Z,26114441,Em Curso,3103,Incêndio rural,0,3,0,9,2025-10-10T08:03:00Z,Elvas,Portalegre,Alentejo,-7.180858,38.9076,Curso
