id,address,subregion,neighborhood,date,id.1,state,nature,nature_description,aerial_means,terrestrial_means,aquatic_means,operational,date.1,Concelho,Distrito,NUTII_DSG,longitude,latitude
24888293,Pernes,Lezíria do Tejo,311,2025-01-29T16:41:00Z,24888293,Em curso,3301,Queda de árvore,0,0,0,0,2025-01-29T16:41:00Z,Santarém,Santarém,Alentejo,-8.658865,39.381547
25019026,Moscavide e Portela,Grande Lisboa,311,2025-02-27T17:16:00Z,25019026,Em despacho,3315,Inundação de estruturas por precipitação intensa,0,1,0,3,2025-02-27T17:16:00Z,Loures,Lisboa,Área Metropolitana De Lisboa,-9.10185,38.7761
25019074,Caparica e Trafaria,Península de Setúbal,311,2025-02-27T17:00:00Z,25019074,Em despacho,3313,Deslizamento de terras,0,2,0,7,2025-02-27T17:00:00Z,Almada,Setúbal,Área Metropolitana De Lisboa,-9.215111,38.660442
25005550,Sines,Alentejo Litoral,312,2025-02-24T19:12:00Z,25005550,Em conclusão,3313,Deslizamento de terras,0,0,0,0,2025-02-24T19:12:00Z,Sines,Setúbal,Alentejo,-8.849778,37.961314
25018703,Póvoa de Santo Adrião e Olival Basto,Grande Lisboa,311,2025-02-27T15:50:00Z,25018703,Em despacho,3315,Inundação de estruturas por precipitação intensa,0,1,0,5,2025-02-27T15:50:00Z,Odivelas,Lisboa,Área Metropolitana De Lisboa,-9.159939,38.803537
25018902,Pedroso e Seixezelo,Area M. Porto,309,2025-02-27T16:46:00Z,25018902,Em conclusão,3321,Dano na rede de fornecimento de eletricidade ,0,2,0,5,2025-02-27T16:46:00Z,Vila Nova De Gaia,Porto,Norte,-8.55485,41.07314
25018986,Costa da Caparica,Península de Setúbal,311,2025-02-27T17:00:00Z,25018986,Em despacho,3315,Inundação de estruturas por precipitação intensa,0,1,0,6,2025-02-27T17:00:00Z,Almada,Setúbal,Área Metropolitana De Lisboa,-9.227696,38.642583
25019037,Cascais e Estoril,Grande Lisboa,311,2025-02-27T17:02:00Z,25019037,Em conclusão,3315,Inundação de estruturas por precipitação intensa,0,1,0,2,2025-02-27T17:02:00Z,Cascais,Lisboa,Área Metropolitana De Lisboa,-9.419397,38.700982
25018780,"Camarate, Unhos e Apelação",Grande Lisboa,311,2025-02-27T16:13:00Z,25018780,Em despacho,3315,Inundação de estruturas por precipitação intensa,0,1,0,3,2025-02-27T16:13:00Z,Loures,Lisboa,Área Metropolitana De Lisboa,-9.144887,38.797363
25018861,Queluz e Belas,Grande Lisboa,311,2025-02-27T16:10:00Z,25018861,Em curso,3315,Inundação de estruturas por precipitação intensa,0,1,0,5,2025-02-27T16:10:00Z,Sintra,Lisboa,Área Metropolitana De Lisboa,-9.253541,38.753134
25019094,Caparica e Trafaria,Península de Setúbal,311,2025-02-27T17:25:00Z,25019094,Em despacho,3315,Inundação de estruturas por precipitação intensa,0,1,0,3,2025-02-27T17:25:00Z,Almada,Setúbal,Área Metropolitana De Lisboa,-9.198172,38.665376
24877003,Malagueira e Horta Das Figueiras,Alentejo Central,312,2025-01-27T11:41:00Z,24877003,Em conclusão,3315,Inundação de estruturas por precipitação intensa,0,0,0,0,2025-01-27T11:41:00Z,Évora,Évora,Alentejo,-7.924277,38.57285
25018171,São Domingos de Rana,Grande Lisboa,311,2025-02-27T14:11:00Z,25018171,Em curso,3315,Inundação de estruturas por precipitação intensa,0,3,0,4,2025-02-27T14:11:00Z,Cascais,Lisboa,Área Metropolitana De Lisboa,-9.340115,38.702729
25019057,Caparica e Trafaria,Península de Setúbal,311,2025-02-27T17:15:00Z,25019057,Em despacho,3313,Deslizamento de terras,0,2,0,8,2025-02-27T17:15:00Z,Almada,Setúbal,Área Metropolitana De Lisboa,-9.198172,38.665376
25019107,Carnaxide e Queijas,Grande Lisboa,311,2025-02-27T17:15:00Z,25019107,Em despacho,3315,Inundação de estruturas por precipitação intensa,0,1,0,5,2025-02-27T17:15:00Z,Oeiras,Lisboa,Área Metropolitana De Lisboa,-9.233587,38.727201
25019055,Costa da Caparica,Península de Setúbal,311,2025-02-27T17:16:00Z,25019055,Em despacho,3313,Deslizamento de terras,0,1,0,3,2025-02-27T17:16:00Z,Almada,Setúbal,Área Metropolitana De Lisboa,-9.220385,38.624272
25019086,Rio de Mouro,Grande Lisboa,311,2025-02-27T14:52:00Z,25019086,Em despacho,3315,Inundação de estruturas por precipitação intensa,0,1,0,2,2025-02-27T14:52:00Z,Sintra,Lisboa,Área Metropolitana De Lisboa,-9.344491,38.75763
