id,address,subregion,neighborhood,date,id.1,state,nature,nature_description,aerial_means,terrestrial_means,aquatic_means,operational,date.1,Concelho,Distrito,NUTII_DSG,longitude,latitude
24877003,Malagueira e Horta Das Figueiras,Alentejo Central,312,2025-01-27T11:41:00Z,24877003,Em conclusão,3315,Inundação de estruturas por precipitação intensa,0,0,0,0,2025-01-27T11:41:00Z,Évora,Évora,Alentejo,-7.924277,38.57285
25036621,São Martinho do Porto,Oeste,311,2025-03-03T17:16:00Z,25036621,Em curso,3315,Inundação de estruturas por precipitação intensa,0,1,0,2,2025-03-03T17:16:00Z,Alcobaça,Leiria,Centro,-9.131915,39.510842
25036764,Glória e Vera Cruz,Região de Aveiro,310,2025-03-03T17:59:00Z,25036764,Em despacho,3301,Queda de árvore,0,1,0,2,2025-03-03T17:59:00Z,Aveiro,Aveiro,Centro,-8.647359,40.640643
25036916,Arraiolos,Alentejo Central,312,2025-03-03T18:35:00Z,25036916,Em conclusão,3315,Inundação de estruturas por precipitação intensa,0,1,0,5,2025-03-03T18:35:00Z,Arraiolos,Évora,Alentejo,-7.983357,38.72502
25036637,"Santiago do Cacém, S.cruz e São Bartolomeu da Serra",Alentejo Litoral,312,2025-03-03T17:10:00Z,25036637,Em conclusão,3315,Inundação de estruturas por precipitação intensa,0,2,0,4,2025-03-03T17:10:00Z,Santiago Do Cacém,Setúbal,Alentejo,-8.708165,38.017495
25036540,Ervedal,Alto Alentejo,312,2025-03-03T17:05:00Z,25036540,Em curso,3315,Inundação de estruturas por precipitação intensa,0,5,0,13,2025-03-03T17:05:00Z,Avis,Portalegre,Alentejo,-7.815335,39.044073
25036813,Monchique,Algarve,313,2025-03-03T18:01:00Z,25036813,Em curso,3313,Deslizamento de terras,0,1,0,2,2025-03-03T18:01:00Z,Monchique,Faro,Algarve,-8.589695,37.272914
