id,address,subregion,neighborhood,date,id.1,state,nature,nature_description,aerial_means,terrestrial_means,aquatic_means,operational,date.1,Concelho,Distrito,NUTII_DSG,longitude,latitude,state_2
26156036,Vila Nova de São Bento e Vale de Vargo,Baixo Alentejo,312,2025-10-18T14:58:00Z,26156036,Em Resolução/Conclusão,3105,Incêndio rural,0,9,0,26,2025-10-18T14:58:00Z,Serpa,Beja,Alentejo,-7.379152,37.882523,Resolução/Conclusão
26156756,Monte Real e Carvide,Região de Leiria,310,2025-10-18T17:36:00Z,26156756,Em Resolução/Conclusão,3105,Incêndio rural,0,2,0,5,2025-10-18T17:36:00Z,Leiria,Leiria,Centro,-8.865167,39.827822,Resolução/Conclusão
26157124,"Ponte da Barca, V. N. Muía e Paço Vedro Magalhães",Alto Minho,309,2025-10-18T19:10:00Z,26157124,Em Resolução/Conclusão,3103,Incêndio rural,0,1,0,5,2025-10-18T19:10:00Z,Ponte Da Barca,Viana Do Castelo,Norte,-8.400775,41.801732,Resolução/Conclusão
26157206,Pinheiro,Tâmega e Sousa,309,2025-10-18T19:29:00Z,26157206,Em Resolução/Conclusão,3103,Incêndio rural,0,1,0,5,2025-10-18T19:29:00Z,Felgueiras,Porto,Norte,-8.157257,41.37476,Resolução/Conclusão
26157440,Cabeça Santa,Tâmega e Sousa,309,2025-10-18T20:33:00Z,26157440,Em Despacho,3103,Incêndio rural,0,2,0,7,2025-10-18T20:33:00Z,Penafiel,Porto,Norte,-8.29377,41.13462,Despacho
26156265,Viade de Baixo e Fervidelas,Alto Tâmega e Barroso,309,2025-10-18T15:45:00Z,26156265,Em Curso,3103,Incêndio rural,0,10,0,37,2025-10-18T15:45:00Z,Montalegre,Vila Real,Norte,-7.834732,41.773632,Curso
26156349,Castedo e Cotas,Douro,309,2025-10-18T16:05:00Z,26156349,Em Resolução/Conclusão,3103,Incêndio rural,0,3,0,12,2025-10-18T16:05:00Z,Alijó,Vila Real,Norte,-7.452003,41.228702,Resolução/Conclusão
26156683,Tourém,Alto Tâmega e Barroso,309,2025-10-18T17:20:00Z,26156683,Em Resolução/Conclusão,3103,Incêndio rural,0,3,0,11,2025-10-18T17:20:00Z,Montalegre,Vila Real,Norte,-7.888255,41.910598,Resolução/Conclusão
26156926,Sousela,Tâmega e Sousa,309,2025-10-18T18:11:00Z,26156926,Em Resolução/Conclusão,3103,Incêndio rural,0,3,0,9,2025-10-18T18:11:00Z,Lousada,Porto,Norte,-8.315237,41.312162,Resolução/Conclusão
26157242,Arnóia,Tâmega e Sousa,309,2025-10-18T19:38:00Z,26157242,Em Resolução/Conclusão,3103,Incêndio rural,0,1,0,5,2025-10-18T19:38:00Z,Celorico De Basto,Braga,Norte,-8.018,41.37293,Resolução/Conclusão
26157070,"Margaride (Santa Eulália), Várzea, Lagares, Varziela e Moure",Tâmega e Sousa,309,2025-10-18T18:48:00Z,26157070,Em Resolução/Conclusão,3103,Incêndio rural,0,2,0,5,2025-10-18T18:48:00Z,Felgueiras,Porto,Norte,-8.200935,41.361848,Resolução/Conclusão
26157311,Arcozelo,Cávado,309,2025-10-18T19:53:00Z,26157311,Em Resolução/Conclusão,3105,Incêndio rural,0,1,0,3,2025-10-18T19:53:00Z,Barcelos,Braga,Norte,-8.602807,41.542748,Resolução/Conclusão
26157343,Refóios do Lima,Alto Minho,309,2025-10-18T20:06:00Z,26157343,Em Despacho,3103,Incêndio rural,0,0,0,0,2025-10-18T20:06:00Z,Ponte De Lima,Viana Do Castelo,Norte,-8.52699,41.82005,Despacho
26157384,"Vila Chã, Codal e Vila Cova de Perrinho",Area M. Porto,309,2025-10-18T20:09:00Z,26157384,Em Resolução/Conclusão,3105,Incêndio rural,0,2,0,6,2025-10-18T20:09:00Z,Vale De Cambra,Aveiro,Norte,-8.397232,40.8884,Resolução/Conclusão
26156244,"Real, Ataíde e Oliveira",Tâmega e Sousa,309,2025-10-18T15:35:00Z,26156244,Em Resolução/Conclusão,3103,Incêndio rural,0,9,0,26,2025-10-18T15:35:00Z,Amarante,Porto,Norte,-8.171672,41.257368,Resolução/Conclusão
26156294,Calde,Viseu Dão Lafões,310,2025-10-18T15:50:00Z,26156294,Em Resolução/Conclusão,3101,Incêndio rural,0,4,0,12,2025-10-18T15:50:00Z,Viseu,Viseu,Centro,-7.940081,40.763201,Resolução/Conclusão
26156812,Mesão Frio (Santo André),Douro,309,2025-10-18T17:49:00Z,26156812,Em Resolução/Conclusão,3103,Incêndio rural,0,2,0,10,2025-10-18T17:49:00Z,Mesão Frio,Vila Real,Norte,-7.884862,41.178395,Resolução/Conclusão
26157099,Anjos e Vilar do Chão,Ave,309,2025-10-18T19:06:00Z,26157099,Em Resolução/Conclusão,3103,Incêndio rural,0,1,0,5,2025-10-18T19:06:00Z,Vieira Do Minho,Braga,Norte,-8.06865,41.616567,Resolução/Conclusão
26157298,Sobrosa,Area M. Porto,309,2025-10-18T19:52:00Z,26157298,Em Resolução/Conclusão,3103,Incêndio rural,0,2,0,6,2025-10-18T19:52:00Z,Paredes,Porto,Norte,-8.346017,41.253862,Resolução/Conclusão
26157299,Sapataria,Oeste,311,2025-10-18T19:48:00Z,26157299,Em Resolução/Conclusão,3111,Queima,0,2,0,7,2025-10-18T19:48:00Z,Sobral De Monte Agraço,Lisboa,Centro,-9.208422,38.965236,Resolução/Conclusão
26157383,Almendra,Douro,309,2025-10-18T20:16:00Z,26157383,Em Despacho,3103,Incêndio rural,0,3,0,11,2025-10-18T20:16:00Z,Vila Nova De Foz Côa,Guarda,Norte,-7.007005,41.034316,Despacho
26157385,"Algodres, Vale de Afonsinho e Vilar de Amargo",Beiras e Serra da Estrela,310,2025-10-18T20:18:00Z,26157385,Em Despacho,3103,Incêndio rural,0,4,0,16,2025-10-18T20:18:00Z,Figueira De Castelo Rodrigo,Guarda,Centro,-7.056547,40.95181,Despacho
26157419,Cendufe,Alto Minho,309,2025-10-18T20:27:00Z,26157419,Em Despacho,3103,Incêndio rural,0,0,0,0,2025-10-18T20:27:00Z,Arcos De Valdevez,Viana Do Castelo,Norte,-8.495175,41.814215,Despacho
