id,address,subregion,neighborhood,date,id.1,state,nature,nature_description,aerial_means,terrestrial_means,aquatic_means,operational,date.1,Concelho,Distrito,NUTII_DSG,longitude,latitude,state_2
26269190,Fornos de Algodres,Beiras e Serra da Estrela,310,2025-11-11T15:05:00Z,26269190,Em Resolução/Conclusão,3103,Incêndio rural,0,3,0,11,2025-11-11T15:05:00Z,Fornos De Algodres,Guarda,Centro,-7.573805,40.606717,Resolução/Conclusão
26269371,Sesimbra (Castelo),Península de Setúbal,311,2025-11-11T15:37:00Z,26269371,Em Despacho,3111,Queima,0,1,0,4,2025-11-11T15:37:00Z,Sesimbra,Setúbal,Área Metropolitana De Lisboa,-9.12513,38.46044,Despacho
26268565,Sobral da Adiça,Baixo Alentejo,312,2025-11-11T13:11:00Z,26268565,Em Resolução/Conclusão,3105,Incêndio rural,0,4,0,14,2025-11-11T13:11:00Z,Moura,Beja,Alentejo,-7.271995,38.031979,Resolução/Conclusão
26269292,Ourique,Baixo Alentejo,312,2025-11-11T15:25:00Z,26269292,Em Despacho,3105,Incêndio rural,0,1,0,2,2025-11-11T15:25:00Z,Ourique,Beja,Alentejo,-8.18388,37.5829,Despacho
26269435,Vila do Bispo e Raposeira,Algarve,313,2025-11-11T15:49:00Z,26269435,Em Despacho,3103,Incêndio rural,0,0,0,0,2025-11-11T15:49:00Z,Vila Do Bispo,Faro,Algarve,-8.921049,37.0797,Despacho
