id,address,subregion,neighborhood,date,id.1,state,nature,nature_description,aerial_means,terrestrial_means,aquatic_means,operational,date.1,Concelho,Distrito,NUTII_DSG,longitude,latitude,state_2
25749681,Fornos de Maceira Dão,Viseu Dão Lafões,310,2025-07-29T01:19:00Z,25749681,Em Resolução/Conclusão,3103,Incêndio rural,0,4,0,13,2025-07-29T01:19:00Z,Mangualde,Viseu,Centro,-7.806963,40.617022,Resolução/Conclusão
25749831,Valdreu,Cávado,309,2025-07-29T02:54:00Z,25749831,Em Resolução/Conclusão,3103,Incêndio rural,0,0,0,0,2025-07-29T02:54:00Z,Vila Verde,Braga,Norte,-8.326492,41.720598,Resolução/Conclusão
25750701,Capela,Tâmega e Sousa,309,2025-07-29T09:26:00Z,25750701,Em Resolução/Conclusão,3103,Incêndio rural,0,54,0,195,2025-07-29T09:26:00Z,Penafiel,Porto,Norte,-8.345202,41.09353,Resolução/Conclusão
25754493,Couto,Alto Minho,309,2025-07-29T21:31:00Z,25754493,Em Resolução/Conclusão,3103,Incêndio rural,0,3,0,12,2025-07-29T21:31:00Z,Arcos De Valdevez,Viana Do Castelo,Norte,-8.421102,41.874577,Resolução/Conclusão
25754777,Turiz,Cávado,309,2025-07-29T22:42:00Z,25754777,Em Resolução/Conclusão,3103,Incêndio rural,0,1,0,5,2025-07-29T22:42:00Z,Vila Verde,Braga,Norte,-8.460475,41.630965,Resolução/Conclusão
25754978,"Sé, Santa Maria e Meixedo",Terras de Trás-os-Montes,309,2025-07-29T23:55:00Z,25754978,Em Resolução/Conclusão,3103,Incêndio rural,0,2,0,8,2025-07-29T23:55:00Z,Bragança,Bragança,Norte,-6.768517,41.817607,Resolução/Conclusão
25748118,Canelas e Espiunca,Area M. Porto,309,2025-07-28T17:16:00Z,25748118,Em Curso,3101,Incêndio rural,0,258,0,767,2025-07-28T17:16:00Z,Arouca,Aveiro,Norte,-8.212231,40.969918,Curso
25749320,Rebordões (Santa Maria),Alto Minho,309,2025-07-28T22:47:00Z,25749320,Em Curso,3103,Incêndio rural,0,49,0,167,2025-07-28T22:47:00Z,Ponte De Lima,Viana Do Castelo,Norte,-8.588365,41.729993,Curso
25749641,Silva Escura e Dornelas,Região de Aveiro,310,2025-07-29T01:02:00Z,25749641,Em Resolução/Conclusão,3101,Incêndio rural,0,27,0,70,2025-07-29T01:02:00Z,Sever Do Vouga,Aveiro,Centro,-8.399623,40.769354,Resolução/Conclusão
25753134,Glória,Alentejo Central,312,2025-07-29T16:26:00Z,25753134,Em Resolução/Conclusão,3105,Incêndio rural,0,19,0,51,2025-07-29T16:26:00Z,Estremoz,Évora,Alentejo,-7.5567,38.793148,Resolução/Conclusão
25753666,São Cristóvão de Nogueira,Tâmega e Sousa,309,2025-07-29T18:21:00Z,25753666,Em Resolução/Conclusão,3103,Incêndio rural,0,5,0,16,2025-07-29T18:21:00Z,Cinfães,Viseu,Norte,-8.134771,41.05519,Resolução/Conclusão
25754671,Turiz,Cávado,309,2025-07-29T22:21:00Z,25754671,Em Resolução/Conclusão,3103,Incêndio rural,0,3,0,12,2025-07-29T22:21:00Z,Vila Verde,Braga,Norte,-8.459462,41.632832,Resolução/Conclusão
25754704,Cumeeira,Região de Coimbra,310,2025-07-29T22:28:00Z,25754704,Em Resolução/Conclusão,3105,Incêndio rural,0,8,0,27,2025-07-29T22:28:00Z,Penela,Coimbra,Centro,-8.37417,39.93333,Resolução/Conclusão
25754871,Soalhães,Tâmega e Sousa,309,2025-07-29T23:16:00Z,25754871,Em Resolução/Conclusão,3103,Incêndio rural,0,2,0,10,2025-07-29T23:16:00Z,Marco De Canaveses,Porto,Norte,-8.106107,41.150275,Resolução/Conclusão
25749937,Tarouquela,Tâmega e Sousa,309,2025-07-29T04:11:00Z,25749937,Em Curso,3103,Incêndio rural,0,12,0,42,2025-07-29T04:11:00Z,Cinfães,Viseu,Norte,-8.173308,41.072792,Curso
25751046,Castelejo,Beiras e Serra da Estrela,310,2025-07-29T10:13:00Z,25751046,Em Resolução/Conclusão,3103,Incêndio rural,0,7,0,18,2025-07-29T10:13:00Z,Fundão,Castelo Branco,Centro,-7.604291,40.108879,Resolução/Conclusão
25751241,Molelos,Viseu Dão Lafões,310,2025-07-29T10:43:00Z,25751241,Em Resolução/Conclusão,3103,Incêndio rural,0,20,0,57,2025-07-29T10:43:00Z,Tondela,Viseu,Centro,-8.09574,40.551495,Resolução/Conclusão
25751355,"Crato e Mártires, Flor da Rosa e Vale do Peso",Alto Alentejo,312,2025-07-29T10:59:00Z,25751355,Em Resolução/Conclusão,3103,Incêndio rural,0,1,0,4,2025-07-29T10:59:00Z,Crato,Portalegre,Alentejo,-7.641857,39.351982,Resolução/Conclusão
25751893,"Espírito Santo, Nossa Senhora da Graça e São Simão",Alto Alentejo,312,2025-07-29T12:32:00Z,25751893,Em Curso,3101,Incêndio rural,0,106,0,323,2025-07-29T12:32:00Z,Nisa,Portalegre,Alentejo,-7.634827,39.571162,Curso
25753170,"Leiria, Pousos, Barreira e Cortes",Região de Leiria,310,2025-07-29T16:36:00Z,25753170,Em Resolução/Conclusão,3101,Incêndio rural,0,5,0,15,2025-07-29T16:36:00Z,Leiria,Leiria,Centro,-8.795755,39.709552,Resolução/Conclusão
25754374,Antime e Silvares (São Clemente),Ave,309,2025-07-29T21:05:00Z,25754374,Em Curso,3103,Incêndio rural,0,8,0,32,2025-07-29T21:05:00Z,Fafe,Braga,Norte,-8.173587,41.42497,Curso
25754540,NA,NA,0,2025-07-29T21:47:00Z,25754540,Em Resolução/Conclusão,3103,Incêndio rural,0,4,0,14,2025-07-29T21:47:00Z,Figueira De Castelo Rodrigo,Guarda,Centro,-6.876718,40.827343,Resolução/Conclusão
25754558,"Lebução, Fiães e Nozelos",Alto Tâmega e Barroso,309,2025-07-29T21:49:00Z,25754558,Em Resolução/Conclusão,3103,Incêndio rural,0,4,0,17,2025-07-29T21:49:00Z,Valpaços,Vila Real,Norte,-7.245732,41.745677,Resolução/Conclusão
25754749,Carvalho,Região de Coimbra,310,2025-07-29T22:35:00Z,25754749,Em Resolução/Conclusão,3103,Incêndio rural,0,5,0,18,2025-07-29T22:35:00Z,Penacova,Coimbra,Centro,-8.29389,40.30944,Resolução/Conclusão
25754833,Ribeira do Neiva,Cávado,309,2025-07-29T23:03:00Z,25754833,Em Curso,3103,Incêndio rural,0,2,0,10,2025-07-29T23:03:00Z,Vila Verde,Braga,Norte,-8.512335,41.694843,Curso
25738747,Lindoso,Alto Minho,309,2025-07-26T21:47:00Z,25738747,Em Curso,3103,Incêndio rural,0,133,0,389,2025-07-26T21:47:00Z,Ponte Da Barca,Viana Do Castelo,Norte,-8.220528,41.865272,Curso
25747773,Aranhas,Beira Baixa,310,2025-07-28T16:36:00Z,25747773,Em Curso,3103,Incêndio rural,0,122,0,363,2025-07-28T16:36:00Z,Penamacor,Castelo Branco,Centro,-7.14438,40.117542,Curso
25749611,Sameice e Santa Eulália,Beiras e Serra da Estrela,310,2025-07-29T00:44:00Z,25749611,Em Resolução/Conclusão,3103,Incêndio rural,0,2,0,10,2025-07-29T00:44:00Z,Seia,Guarda,Centro,-7.77621,40.42021,Resolução/Conclusão
25750845,Fornos,Tâmega e Sousa,309,2025-07-29T09:46:00Z,25750845,Em Curso,3103,Incêndio rural,0,15,0,56,2025-07-29T09:46:00Z,Castelo De Paiva,Aveiro,Norte,-8.247077,41.050502,Curso
25751999,Pombal,Região de Leiria,310,2025-07-29T12:53:00Z,25751999,Em Resolução/Conclusão,3101,Incêndio rural,0,5,0,14,2025-07-29T12:53:00Z,Pombal,Leiria,Centro,-8.6801,39.93227,Resolução/Conclusão
25752083,Alcanede,Lezíria do Tejo,311,2025-07-29T13:12:00Z,25752083,Em Curso,3103,Incêndio rural,0,127,0,434,2025-07-29T13:12:00Z,Santarém,Santarém,Alentejo,-8.802682,39.405543,Curso
25752719,Poiares e Canelas,Douro,309,2025-07-29T15:02:00Z,25752719,Em Resolução/Conclusão,3103,Incêndio rural,0,0,0,0,2025-07-29T15:02:00Z,Peso Da Régua,Vila Real,Norte,-7.725132,41.1933,Resolução/Conclusão
25752828,Monsaraz,Alentejo Central,312,2025-07-29T15:22:00Z,25752828,Em Resolução/Conclusão,3103,Incêndio rural,0,6,0,18,2025-07-29T15:22:00Z,Reguengos De Monsaraz,Évora,Alentejo,-7.387908,38.43499,Resolução/Conclusão
25754273,Valdreu,Cávado,309,2025-07-29T20:41:00Z,25754273,Em Resolução/Conclusão,3103,Incêndio rural,0,10,0,35,2025-07-29T20:41:00Z,Vila Verde,Braga,Norte,-8.335448,41.721792,Resolução/Conclusão
25754330,Aguiar de Sousa,Area M. Porto,309,2025-07-29T20:54:00Z,25754330,Em Resolução/Conclusão,3103,Incêndio rural,0,3,0,10,2025-07-29T20:54:00Z,Paredes,Porto,Norte,-8.425778,41.128088,Resolução/Conclusão
25754793,São Martinho de Sardoura,Tâmega e Sousa,309,2025-07-29T22:44:00Z,25754793,Em Resolução/Conclusão,3103,Incêndio rural,0,2,0,10,2025-07-29T22:44:00Z,Castelo De Paiva,Aveiro,Norte,-8.277728,41.051797,Resolução/Conclusão
25754823,"Mortágua, Vale de Remígio, Cortegaça e Almaça",Região de Coimbra,310,2025-07-29T22:59:00Z,25754823,Em Resolução/Conclusão,3101,Incêndio rural,0,7,0,18,2025-07-29T22:59:00Z,Mortágua,Viseu,Centro,-8.189455,40.369375,Resolução/Conclusão
25754973,Azambuja,Lezíria do Tejo,311,2025-07-30T00:00:00Z,25754973,Em Curso,3103,Incêndio rural,0,6,0,21,2025-07-30T00:00:00Z,Azambuja,Lisboa,Alentejo,-8.864506,39.067885,Curso
