id,address,subregion,neighborhood,date,id.1,state,nature,nature_description,aerial_means,terrestrial_means,aquatic_means,operational,date.1,Concelho,Distrito,NUTII_DSG,longitude,latitude
25507326,Águas Santas,Area M. Porto,309,2025-06-10T21:47:00Z,25507326,Em resolução,2101,Incêndio em edifícios habitacionais,0,9,0,29,2025-06-10T21:47:00Z,Maia,Porto,Norte,-8.558595,41.203898
25507392,"S.maria, S.miguel, S.martinho, S.pedro Penaferrim",Grande Lisboa,311,2025-06-10T22:05:00Z,25507392,Em conclusão,3103,Incêndio rural,0,6,0,17,2025-06-10T22:05:00Z,Sintra,Lisboa,Área Metropolitana De Lisboa,-9.361422,38.748188
25507679,"Cristelos, Boim e Ordem",Tâmega e Sousa,309,2025-06-10T23:48:00Z,25507679,Em despacho,3103,Incêndio rural,0,1,0,5,2025-06-10T23:48:00Z,Lousada,Porto,Norte,-8.308614,41.286387
25507402,Pedrouços,Area M. Porto,309,2025-06-10T22:08:00Z,25507402,Em conclusão,2301,Incêndio em transporte rodoviário,0,3,0,7,2025-06-10T22:08:00Z,Maia,Porto,Norte,-8.587972,41.180862
25507452,Santa Maria de Marvão,Alto Alentejo,312,2025-06-10T22:24:00Z,25507452,Em conclusão,3201,Detritos não confinados,0,3,0,8,2025-06-10T22:24:00Z,Marvão,Portalegre,Alentejo,-7.39952,39.399253
