id,address,subregion,neighborhood,date,id.1,state,nature,nature_description,aerial_means,terrestrial_means,aquatic_means,operational,date.1,Concelho,Distrito,NUTII_DSG,longitude,latitude,state_2
25608554,Brinches,Baixo Alentejo,312,2025-07-01T11:00:00Z,25608554,Em Resolução/Conclusão,3105,Incêndio rural,0,1,0,1,2025-07-01T11:00:00Z,Serpa,Beja,Alentejo,-7.526577,38.015208,Resolução/Conclusão
25608601,São Domingos de Ana Loura,Alentejo Central,312,2025-07-01T11:18:00Z,25608601,Em Resolução/Conclusão,3105,Incêndio rural,0,17,0,41,2025-07-01T11:18:00Z,Estremoz,Évora,Alentejo,-7.50152,38.882248,Resolução/Conclusão
25609774,Meinedo,Tâmega e Sousa,309,2025-07-01T14:32:00Z,25609774,Em Resolução/Conclusão,3103,Incêndio rural,0,4,0,15,2025-07-01T14:32:00Z,Lousada,Porto,Norte,-8.24293,41.25225,Resolução/Conclusão
25610209,Frazão Arreigada,Tâmega e Sousa,309,2025-07-01T15:40:00Z,25610209,Em Resolução/Conclusão,3103,Incêndio rural,0,2,0,6,2025-07-01T15:40:00Z,Paços De Ferreira,Porto,Norte,-8.402112,41.244948,Resolução/Conclusão
25610474,Cadaval e Pêro Moniz,Oeste,311,2025-07-01T16:38:00Z,25610474,Em Resolução/Conclusão,3105,Incêndio rural,0,3,0,9,2025-07-01T16:38:00Z,Cadaval,Lisboa,Centro,-9.124325,39.219219,Resolução/Conclusão
25610758,Melres e Medas,Area M. Porto,309,2025-07-01T17:37:00Z,25610758,Em Despacho,3103,Incêndio rural,0,2,0,7,2025-07-01T17:37:00Z,Gondomar,Porto,Norte,-8.452265,41.07585,Despacho
25610794,Samões,Terras de Trás-os-Montes,309,2025-07-01T17:49:00Z,25610794,Em Despacho,3103,Incêndio rural,1,6,0,25,2025-07-01T17:49:00Z,Vila Flor,Bragança,Norte,-7.180777,41.30522,Despacho
25599357,Alpalhão,Alto Alentejo,312,2025-06-29T16:55:00Z,25599357,Em Resolução/Conclusão,3103,Incêndio rural,0,1,0,5,2025-06-29T16:55:00Z,Nisa,Portalegre,Alentejo,-7.63684,39.452513,Resolução/Conclusão
25599382,Almaceda,Beira Baixa,310,2025-06-29T17:03:00Z,25599382,Em Resolução/Conclusão,3101,Incêndio rural,0,37,0,104,2025-06-29T17:03:00Z,Castelo Branco,Castelo Branco,Centro,-7.65644,39.97,Resolução/Conclusão
25606759,São Miguel do Outeiro e Sabugosa,Viseu Dão Lafões,310,2025-07-01T00:26:00Z,25606759,Em Resolução/Conclusão,3101,Incêndio rural,0,1,0,1,2025-07-01T00:26:00Z,Tondela,Viseu,Centro,-8.056143,40.560622,Resolução/Conclusão
25608124,Sobrosa,Area M. Porto,309,2025-07-01T10:05:00Z,25608124,Em Resolução/Conclusão,3103,Incêndio rural,0,1,0,3,2025-07-01T10:05:00Z,Paredes,Porto,Norte,-8.359308,41.257133,Resolução/Conclusão
25608406,Pias,Baixo Alentejo,312,2025-07-01T10:36:00Z,25608406,Em Resolução/Conclusão,3105,Incêndio rural,0,7,0,21,2025-07-01T10:36:00Z,Serpa,Beja,Alentejo,-7.512387,38.016925,Resolução/Conclusão
25608967,Alvite,Douro,309,2025-07-01T12:19:00Z,25608967,Em Resolução/Conclusão,3103,Incêndio rural,0,22,0,81,2025-07-01T12:19:00Z,Moimenta Da Beira,Viseu,Norte,-7.741182,40.9536,Resolução/Conclusão
25609076,Santa Bárbara de Nexe,Algarve,313,2025-07-01T12:35:00Z,25609076,Em Resolução/Conclusão,3103,Incêndio rural,0,10,0,31,2025-07-01T12:35:00Z,Faro,Faro,Algarve,-7.974543,37.097958,Resolução/Conclusão
25609274,"Freixianda, Ribeira do Fárrio e Formigais",Médio Tejo,311,2025-07-01T13:13:00Z,25609274,Em Resolução/Conclusão,3103,Incêndio rural,0,0,0,0,2025-07-01T13:13:00Z,Ourém,Santarém,Centro,-8.461388,39.737318,Resolução/Conclusão
25607039,Lomba,Area M. Porto,309,2025-07-01T04:11:00Z,25607039,Em Resolução/Conclusão,3103,Incêndio rural,0,2,0,7,2025-07-01T04:11:00Z,Gondomar,Porto,Norte,-8.425045,41.031572,Resolução/Conclusão
25609629,Gondoriz,Alto Minho,309,2025-07-01T14:08:00Z,25609629,Em Resolução/Conclusão,3103,Incêndio rural,0,1,0,4,2025-07-01T14:08:00Z,Arcos De Valdevez,Viana Do Castelo,Norte,-8.394378,41.884688,Resolução/Conclusão
25610197,Poceirão e Marateca,Península de Setúbal,311,2025-07-01T15:42:00Z,25610197,Em Resolução/Conclusão,3103,Incêndio rural,0,2,0,4,2025-07-01T15:42:00Z,Palmela,Setúbal,Área Metropolitana De Lisboa,-8.652802,38.556155,Resolução/Conclusão
25610365,Cabreiro,Alto Minho,309,2025-07-01T16:16:00Z,25610365,Em Resolução/Conclusão,3103,Incêndio rural,0,3,0,8,2025-07-01T16:16:00Z,Arcos De Valdevez,Viana Do Castelo,Norte,-8.385378,41.945965,Resolução/Conclusão
25603618,Messejana,Baixo Alentejo,312,2025-06-30T13:09:00Z,25603618,Em Resolução/Conclusão,3101,Incêndio rural,0,45,0,133,2025-06-30T13:09:00Z,Aljustrel,Beja,Alentejo,-8.169013,37.814978,Resolução/Conclusão
25604086,Alvarenga,Area M. Porto,309,2025-06-30T14:23:00Z,25604086,Em Resolução/Conclusão,3103,Incêndio rural,0,4,0,15,2025-06-30T14:23:00Z,Arouca,Aveiro,Norte,-8.16662,40.977807,Resolução/Conclusão
25604815,Ermidas-Sado,Alentejo Litoral,312,2025-06-30T16:36:00Z,25604815,Em Resolução/Conclusão,3103,Incêndio rural,0,3,0,11,2025-06-30T16:36:00Z,Santiago Do Cacém,Setúbal,Alentejo,-8.353481,38.015813,Resolução/Conclusão
25605147,Vale do Côa,Beiras e Serra da Estrela,310,2025-06-30T17:42:00Z,25605147,Em Resolução/Conclusão,3103,Incêndio rural,0,19,0,70,2025-06-30T17:42:00Z,Pinhel,Guarda,Centro,-7.114995,40.946045,Resolução/Conclusão
25606628,Lobão da Beira,Viseu Dão Lafões,310,2025-06-30T23:39:00Z,25606628,Em Resolução/Conclusão,3103,Incêndio rural,0,1,0,1,2025-06-30T23:39:00Z,Tondela,Viseu,Centro,-8.04042,40.571925,Resolução/Conclusão
25606803,Canas de Santa Maria,Viseu Dão Lafões,310,2025-07-01T00:36:00Z,25606803,Em Resolução/Conclusão,3101,Incêndio rural,0,3,0,8,2025-07-01T00:36:00Z,Tondela,Viseu,Centro,-8.056338,40.560735,Resolução/Conclusão
25609986,Penafiel,Tâmega e Sousa,309,2025-07-01T15:05:00Z,25609986,Em Resolução/Conclusão,3103,Incêndio rural,0,5,0,14,2025-07-01T15:05:00Z,Penafiel,Porto,Norte,-8.280964,41.200887,Resolução/Conclusão
25610143,Nossa Senhora Das Misericórdias,Médio Tejo,311,2025-07-01T15:32:00Z,25610143,Em Resolução/Conclusão,3103,Incêndio rural,0,22,0,72,2025-07-01T15:32:00Z,Ourém,Santarém,Centro,-8.600277,39.655883,Resolução/Conclusão
25610845,Carnaxide e Queijas,Grande Lisboa,311,2025-07-01T17:56:00Z,25610845,Em Resolução/Conclusão,3103,Incêndio rural,0,3,0,12,2025-07-01T17:56:00Z,Oeiras,Lisboa,Área Metropolitana De Lisboa,-9.23466,38.72929,Resolução/Conclusão
25610897,Frechas,Terras de Trás-os-Montes,309,2025-07-01T17:59:00Z,25610897,Em Resolução/Conclusão,3103,Incêndio rural,0,3,0,11,2025-07-01T17:59:00Z,Mirandela,Bragança,Norte,-7.161956,41.412993,Resolução/Conclusão
