id,address,subregion,neighborhood,date,id.1,state,nature,nature_description,aerial_means,terrestrial_means,aquatic_means,operational,date.1,Concelho,Distrito,NUTII_DSG,longitude,latitude
25063232,Santa Maria do Castelo e Santiago e Santa Susana,Alentejo Litoral,312,2025-03-09T19:02:00Z,25063232,Em conclusão,1101,Cheia,0,0,0,0,2025-03-09T19:02:00Z,Alcácer Do Sal,Setúbal,Alentejo,-8.48167,38.29806
25137803,"Ovar, São João, Arada e São Vicente de Pereira Jusã",Região de Aveiro,310,2025-03-23T14:36:00Z,25137803,Em conclusão,3301,Queda de árvore,0,0,0,0,2025-03-23T14:36:00Z,Ovar,Aveiro,Centro,-8.632482,40.864029
25137855,Serzedo e Perosinho,Area M. Porto,309,2025-03-23T14:53:00Z,25137855,Em curso,3301,Queda de árvore,0,1,0,3,2025-03-23T14:53:00Z,Vila Nova De Gaia,Porto,Norte,-8.60991,41.06352
25137872,"Algés, Linda-a-Velha e Cruz Quebrada-Dafundo",Grande Lisboa,311,2025-03-23T14:51:00Z,25137872,Em curso,3311,Queda de elementos de estruturas edificados,0,2,0,7,2025-03-23T14:51:00Z,Oeiras,Lisboa,Área Metropolitana De Lisboa,-9.22967,38.696612
25137889,Carnaxide e Queijas,Grande Lisboa,311,2025-03-23T14:30:00Z,25137889,Em despacho,3301,Queda de árvore,0,1,0,3,2025-03-23T14:30:00Z,Oeiras,Lisboa,Área Metropolitana De Lisboa,-9.259903,38.718843
25137954,Envendos,Médio Tejo,311,2025-03-23T15:17:00Z,25137954,Em despacho,3313,Deslizamento de terras,0,1,0,3,2025-03-23T15:17:00Z,Mação,Santarém,Centro,-7.877454,39.572071
25068300,Almeirim,Lezíria do Tejo,311,2025-03-10T20:52:00Z,25068300,Em curso,1101,Cheia,0,0,0,0,2025-03-10T20:52:00Z,Almeirim,Santarém,Alentejo,-8.635002,39.187436
25121298,Gafanhoeira (São Pedro) e Sabugueiro,Alentejo Central,312,2025-03-20T14:26:00Z,25121298,Em resolução,3301,Queda de árvore,0,0,0,0,2025-03-20T14:26:00Z,Arraiolos,Évora,Alentejo,-8.088754,38.754507
25135245,Grândola e Santa Margarida da Serra,Alentejo Litoral,312,2025-03-22T22:40:00Z,25135245,Em conclusão,3313,Deslizamento de terras,0,1,0,2,2025-03-22T22:40:00Z,Grândola,Setúbal,Alentejo,-8.486669,38.134589
25135936,Penacova,Região de Coimbra,310,2025-03-23T07:35:00Z,25135936,Em despacho,3313,Deslizamento de terras,0,1,0,1,2025-03-23T07:35:00Z,Penacova,Coimbra,Centro,-8.27651,40.251768
25136077,Carvalhal,Alentejo Litoral,312,2025-03-23T08:03:00Z,25136077,Em despacho,3301,Queda de árvore,0,2,0,6,2025-03-23T08:03:00Z,Grândola,Setúbal,Alentejo,-8.859443,38.458082
25137283,"S.maria, S.miguel, S.martinho, S.pedro Penaferrim",Grande Lisboa,311,2025-03-23T12:35:00Z,25137283,Em curso,3301,Queda de árvore,0,1,0,4,2025-03-23T12:35:00Z,Sintra,Lisboa,Área Metropolitana De Lisboa,-9.40542,38.820035
25137685,Góis,Região de Coimbra,310,2025-03-23T14:10:00Z,25137685,Em despacho,3313,Deslizamento de terras,0,1,0,2,2025-03-23T14:10:00Z,Góis,Coimbra,Centro,-8.096722,40.171701
25059714,Torrão,Alentejo Litoral,312,2025-03-08T22:10:00Z,25059714,Em curso,1101,Cheia,0,1,0,2,2025-03-08T22:10:00Z,Alcácer Do Sal,Setúbal,Alentejo,-8.359133,38.252053
25070044,Praia do Ribatejo,Médio Tejo,311,2025-03-10T19:30:00Z,25070044,Em curso,1101,Cheia,0,0,0,0,2025-03-10T19:30:00Z,Vila Nova Da Barquinha,Santarém,Centro,-8.357309,39.485638
25071496,São Manços e São Vicente do Pigeiro,Alentejo Central,312,2025-03-11T13:18:00Z,25071496,Em curso,1101,Cheia,0,2,0,4,2025-03-11T13:18:00Z,Évora,Évora,Alentejo,-7.713313,38.513673
25131211,"Custóias, Leça do Balio e Guifões",Area M. Porto,309,2025-03-22T07:57:00Z,25131211,Em resolução,3315,Inundação de estruturas por precipitação intensa,0,2,0,3,2025-03-22T07:57:00Z,Matosinhos,Porto,Norte,-8.629265,41.200591
25087162,Pedrógão,Baixo Alentejo,312,2025-03-14T17:00:00Z,25087162,Em curso,1101,Cheia,0,0,0,0,2025-03-14T17:00:00Z,Vidigueira,Beja,Alentejo,-7.630327,38.110775
25128056,Santa Maria do Castelo e Santiago e Santa Susana,Alentejo Litoral,312,2025-03-21T14:41:00Z,25128056,Em curso,1101,Cheia,0,0,0,0,2025-03-21T14:41:00Z,Alcácer Do Sal,Setúbal,Alentejo,-8.434671,38.401157
25136821,Budens,Algarve,313,2025-03-23T10:37:00Z,25136821,Em curso,3301,Queda de árvore,0,3,0,8,2025-03-23T10:37:00Z,Vila Do Bispo,Faro,Algarve,-8.813082,37.074005
25137893,Moita,Península de Setúbal,311,2025-03-23T14:58:00Z,25137893,Em despacho,3321,Dano na rede de fornecimento de eletricidade ,0,1,0,4,2025-03-23T14:58:00Z,Moita,Setúbal,Área Metropolitana De Lisboa,-8.960014,38.636677
25137959,"Almargem do Bispo, Pêro Pinheiro e Montelavar",Grande Lisboa,311,2025-03-23T15:09:00Z,25137959,Em despacho,3301,Queda de árvore,0,1,0,2,2025-03-23T15:09:00Z,Sintra,Lisboa,Área Metropolitana De Lisboa,-9.259177,38.818835
25137991,a Dos Cunhados e Maceira,Oeste,311,2025-03-23T15:14:00Z,25137991,Em despacho,3301,Queda de árvore,0,1,0,2,2025-03-23T15:14:00Z,Torres Vedras,Lisboa,Centro,-9.293374,39.15087
25137815,Almeirim,Lezíria do Tejo,311,2025-03-23T14:43:00Z,25137815,Em conclusão,3301,Queda de árvore,0,1,0,3,2025-03-23T14:43:00Z,Almeirim,Santarém,Alentejo,-8.588832,39.142251
25137860,Poceirão e Marateca,Península de Setúbal,311,2025-03-23T14:53:00Z,25137860,Em despacho,3301,Queda de árvore,0,1,0,3,2025-03-23T14:53:00Z,Palmela,Setúbal,Área Metropolitana De Lisboa,-8.796299,38.568359
