id,address,subregion,neighborhood,date,id.1,state,nature,nature_description,aerial_means,terrestrial_means,aquatic_means,operational,date.1,Concelho,Distrito,NUTII_DSG,longitude,latitude
24887920,"Mangualde, Mesquitela e Cunha Alta",Viseu Dão Lafões,310,2025-01-29T14:44:00Z,24887920,Em curso,3311,Queda de elementos de estruturas edificados,0,2,0,6,2025-01-29T14:44:00Z,Mangualde,Viseu,Centro,-7.73026,40.598771
24888538,Palhais e Coina,Península de Setúbal,311,2025-01-29T17:02:00Z,24888538,Em despacho,3329,Queda de estruturas temporárias ou móveis,0,0,0,0,2025-01-29T17:02:00Z,Barreiro,Setúbal,Área Metropolitana De Lisboa,-9.043332,38.595522
24888770,Pontével,Lezíria do Tejo,311,2025-01-29T17:56:00Z,24888770,Em despacho,3301,Queda de árvore,0,1,0,4,2025-01-29T17:56:00Z,Cartaxo,Santarém,Alentejo,-8.834097,39.147337
24888823,Vila Ruiva,Baixo Alentejo,312,2025-01-29T17:56:00Z,24888823,Em resolução,3301,Queda de árvore,0,2,0,6,2025-01-29T17:56:00Z,Cuba,Beja,Alentejo,-7.935585,38.282542
24888854,Fernão Ferro,Península de Setúbal,311,2025-01-29T18:11:00Z,24888854,Em curso,3321,Dano na rede de fornecimento de eletricidade ,0,0,0,0,2025-01-29T18:11:00Z,Seixal,Setúbal,Área Metropolitana De Lisboa,-9.06529,38.55208
24888857,"Perafita, Lavra e Santa Cruz do Bispo",Area M. Porto,309,2025-01-29T18:04:00Z,24888857,Em despacho,3311,Queda de elementos de estruturas edificados,0,2,0,5,2025-01-29T18:04:00Z,Matosinhos,Porto,Norte,-8.699522,41.236271
24888972,Queluz e Belas,Grande Lisboa,311,2025-01-29T18:25:00Z,24888972,Em despacho,3317,Inundação de estruturas por água canalizada,0,1,0,2,2025-01-29T18:25:00Z,Sintra,Lisboa,Área Metropolitana De Lisboa,-9.253541,38.753134
24888990,Almancil,Algarve,313,2025-01-29T18:17:00Z,24888990,Em conclusão,3301,Queda de árvore,0,2,0,7,2025-01-29T18:17:00Z,Loulé,Faro,Algarve,-8.056598,37.071941
24889038,Almeirim,Lezíria do Tejo,311,2025-01-29T18:45:00Z,24889038,Em resolução,3311,Queda de elementos de estruturas edificados,0,2,0,4,2025-01-29T18:45:00Z,Almeirim,Santarém,Alentejo,-8.635002,39.187436
24889055,Ramada e Caneças,Grande Lisboa,311,2025-01-29T18:39:00Z,24889055,Em despacho,3315,Inundação de estruturas por precipitação intensa,0,1,0,4,2025-01-29T18:39:00Z,Odivelas,Lisboa,Área Metropolitana De Lisboa,-9.224517,38.811058
24889089,"S.julião, N.s. da Anunciada e S. Maria da Graça",Península de Setúbal,311,2025-01-29T18:38:00Z,24889089,Em curso,3301,Queda de árvore,0,2,0,7,2025-01-29T18:38:00Z,Setúbal,Setúbal,Área Metropolitana De Lisboa,-8.889983,38.529955
24889174,Ceira,Região de Coimbra,310,2025-01-29T19:06:00Z,24889174,Em despacho,3313,Deslizamento de terras,0,1,0,2,2025-01-29T19:06:00Z,Coimbra,Coimbra,Centro,-8.376144,40.175952
24889190,Baleizão,Baixo Alentejo,312,2025-01-29T19:15:00Z,24889190,Em resolução,3301,Queda de árvore,0,1,0,4,2025-01-29T19:15:00Z,Beja,Beja,Alentejo,-7.744973,38.008943
24889223,"Alto do Seixalinho, Santo André e Verderena",Península de Setúbal,311,2025-01-29T19:20:00Z,24889223,Em despacho,3301,Queda de árvore,0,1,0,5,2025-01-29T19:20:00Z,Barreiro,Setúbal,Área Metropolitana De Lisboa,-9.061632,38.64534
24889258,Batalha,Região de Leiria,310,2025-01-29T19:30:00Z,24889258,Em despacho,3321,Dano na rede de fornecimento de eletricidade ,0,1,0,5,2025-01-29T19:30:00Z,Batalha,Leiria,Centro,-8.808767,39.640166
24887398,Sines,Alentejo Litoral,312,2025-01-29T13:40:00Z,24887398,Em conclusão,3315,Inundação de estruturas por precipitação intensa,0,2,0,3,2025-01-29T13:40:00Z,Sines,Setúbal,Alentejo,-8.830877,37.967532
24888368,Carcavelos e Parede,Grande Lisboa,311,2025-01-29T16:41:00Z,24888368,Em despacho,3329,Queda de estruturas temporárias ou móveis,0,4,0,7,2025-01-29T16:41:00Z,Cascais,Lisboa,Área Metropolitana De Lisboa,-9.354515,38.699212
24888459,Almalaguês,Região de Coimbra,310,2025-01-29T17:03:00Z,24888459,Em despacho,3301,Queda de árvore,0,2,0,6,2025-01-29T17:03:00Z,Coimbra,Coimbra,Centro,-8.390062,40.130893
24888582,Azeitão (São Lourenço e São Simão),Península de Setúbal,311,2025-01-29T17:26:00Z,24888582,Em curso,3301,Queda de árvore,0,1,0,1,2025-01-29T17:26:00Z,Setúbal,Setúbal,Área Metropolitana De Lisboa,-9.009421,38.51905
24888702,Corroios,Península de Setúbal,311,2025-01-29T17:45:00Z,24888702,Em curso,3301,Queda de árvore,0,2,0,8,2025-01-29T17:45:00Z,Seixal,Setúbal,Área Metropolitana De Lisboa,-9.152695,38.58063
24888768,Salvaterra de Magos e Foros de Salvaterra,Lezíria do Tejo,311,2025-01-29T17:55:00Z,24888768,Em resolução,3301,Queda de árvore,0,1,0,5,2025-01-29T17:55:00Z,Salvaterra De Magos,Santarém,Alentejo,-8.742882,39.064162
24851780,"São Miguel, Santa Eufémia e Rabaçal",Região de Coimbra,310,2025-01-21T23:25:00Z,24851780,Em curso,3315,Inundação de estruturas por precipitação intensa,0,0,0,0,2025-01-21T23:25:00Z,Penela,Coimbra,Centro,-8.399036,40.025502
24888495,Azeitão (São Lourenço e São Simão),Península de Setúbal,311,2025-01-29T17:11:00Z,24888495,Em curso,3301,Queda de árvore,0,3,0,11,2025-01-29T17:11:00Z,Setúbal,Setúbal,Área Metropolitana De Lisboa,-9.02457,38.52792
24888512,Poceirão e Marateca,Península de Setúbal,311,2025-01-29T17:14:00Z,24888512,Em curso,3311,Queda de elementos de estruturas edificados,0,1,0,1,2025-01-29T17:14:00Z,Palmela,Setúbal,Área Metropolitana De Lisboa,-8.77907,38.57641
24888529,Quinta do Conde,Península de Setúbal,311,2025-01-29T17:17:00Z,24888529,Em curso,3301,Queda de árvore,0,2,0,8,2025-01-29T17:17:00Z,Seixal,Setúbal,Área Metropolitana De Lisboa,-9.063159,38.551927
24888548,Chamusca e Pinheiro Grande,Lezíria do Tejo,311,2025-01-29T17:19:00Z,24888548,Em despacho,3301,Queda de árvore,0,1,0,2,2025-01-29T17:19:00Z,Chamusca,Santarém,Alentejo,-8.490477,39.362372
24877003,Malagueira e Horta Das Figueiras,Alentejo Central,312,2025-01-27T11:41:00Z,24877003,Em conclusão,3315,Inundação de estruturas por precipitação intensa,0,0,0,0,2025-01-27T11:41:00Z,Évora,Évora,Alentejo,-7.924277,38.57285
24888317,"Algés, Linda-a-Velha e Cruz Quebrada-Dafundo",Grande Lisboa,311,2025-01-29T16:45:00Z,24888317,Em conclusão,3301,Queda de árvore,0,3,0,8,2025-01-29T16:45:00Z,Oeiras,Lisboa,Área Metropolitana De Lisboa,-9.24406,38.71071
24888560,Benavente,Lezíria do Tejo,311,2025-01-29T17:20:00Z,24888560,Em conclusão,3301,Queda de árvore,0,0,0,0,2025-01-29T17:20:00Z,Benavente,Santarém,Alentejo,-8.806315,38.977417
24888585,Sesimbra (Castelo),Península de Setúbal,311,2025-01-29T17:26:00Z,24888585,Em curso,3301,Queda de árvore,0,1,0,4,2025-01-29T17:26:00Z,Sesimbra,Setúbal,Área Metropolitana De Lisboa,-9.12354,38.48974
24888599,Charneca de Caparica e Sobreda,Península de Setúbal,311,2025-01-29T17:29:00Z,24888599,Em curso,3321,Dano na rede de fornecimento de eletricidade ,0,0,0,0,2025-01-29T17:29:00Z,Almada,Setúbal,Área Metropolitana De Lisboa,-9.175575,38.61425
24888751,Fernão Ferro,Península de Setúbal,311,2025-01-29T17:04:00Z,24888751,Em curso,3301,Queda de árvore,0,2,0,6,2025-01-29T17:04:00Z,Seixal,Setúbal,Área Metropolitana De Lisboa,-9.087621,38.571409
24888867,Setúbal (São Sebastião),Península de Setúbal,311,2025-01-29T18:13:00Z,24888867,Em curso,3329,Queda de estruturas temporárias ou móveis,0,0,0,0,2025-01-29T18:13:00Z,Setúbal,Setúbal,Área Metropolitana De Lisboa,-8.88187,38.5292
24888919,Marinha Grande,Região de Leiria,310,2025-01-29T18:22:00Z,24888919,Em despacho,3321,Dano na rede de fornecimento de eletricidade ,0,1,0,2,2025-01-29T18:22:00Z,Marinha Grande,Leiria,Centro,-9.031541,39.751234
24888928,Colares,Grande Lisboa,311,2025-01-29T17:30:00Z,24888928,Em curso,3301,Queda de árvore,0,1,0,4,2025-01-29T17:30:00Z,Sintra,Lisboa,Área Metropolitana De Lisboa,-9.438572,38.807058
24888958,Ramada e Caneças,Grande Lisboa,311,2025-01-29T18:17:00Z,24888958,Em despacho,3315,Inundação de estruturas por precipitação intensa,0,1,0,4,2025-01-29T18:17:00Z,Odivelas,Lisboa,Área Metropolitana De Lisboa,-9.224517,38.811058
24889033,"S.julião, N.s. da Anunciada e S. Maria da Graça",Península de Setúbal,311,2025-01-29T18:18:00Z,24889033,Em curso,3311,Queda de elementos de estruturas edificados,0,0,0,0,2025-01-29T18:18:00Z,Setúbal,Setúbal,Área Metropolitana De Lisboa,-8.889983,38.529955
24889062,Setúbal (São Sebastião),Península de Setúbal,311,2025-01-29T17:57:00Z,24889062,Em curso,3311,Queda de elementos de estruturas edificados,0,1,0,2,2025-01-29T17:57:00Z,Setúbal,Setúbal,Área Metropolitana De Lisboa,-8.87514,38.536356
24889018,Alvora e Loureda,Alto Minho,309,2025-01-29T18:41:00Z,24889018,Em despacho,3301,Queda de árvore,0,1,0,5,2025-01-29T18:41:00Z,Arcos De Valdevez,Viana Do Castelo,Norte,-8.432729,41.954412
24889043,Serpa (Salvador e Santa Maria),Baixo Alentejo,312,2025-01-29T18:40:00Z,24889043,Em conclusão,3301,Queda de árvore,0,2,0,6,2025-01-29T18:40:00Z,Serpa,Beja,Alentejo,-7.598493,37.938087
24889170,"Marvila, Ribeira Santarém, S.salvador, S.nicolau",Lezíria do Tejo,311,2025-01-29T19:12:00Z,24889170,Em despacho,3313,Deslizamento de terras,0,1,0,1,2025-01-29T19:12:00Z,Santarém,Santarém,Alentejo,-8.671677,39.236474
24889220,Charneca de Caparica e Sobreda,Península de Setúbal,311,2025-01-29T18:30:00Z,24889220,Em curso,3301,Queda de árvore,0,1,0,3,2025-01-29T18:30:00Z,Almada,Setúbal,Área Metropolitana De Lisboa,-9.190193,38.591584
24889245,"Seixal, Arrentela e Aldeia de Paio Pires",Península de Setúbal,311,2025-01-29T19:28:00Z,24889245,Em despacho,3301,Queda de árvore,0,1,0,3,2025-01-29T19:28:00Z,Seixal,Setúbal,Área Metropolitana De Lisboa,-9.104804,38.642769
24888913,Melides,Alentejo Litoral,312,2025-01-29T18:07:00Z,24888913,Em despacho,3301,Queda de árvore,0,2,0,7,2025-01-29T18:07:00Z,Grândola,Setúbal,Alentejo,-8.726303,38.148035
24888947,Alcochete,Península de Setúbal,311,2025-01-29T18:24:00Z,24888947,Em despacho,3329,Queda de estruturas temporárias ou móveis,0,1,0,1,2025-01-29T18:24:00Z,Benavente,Santarém,Alentejo,-8.91027,38.736052
24888962,Glória do Ribatejo e Granho,Lezíria do Tejo,311,2025-01-29T18:29:00Z,24888962,Em resolução,3321,Dano na rede de fornecimento de eletricidade ,0,2,0,6,2025-01-29T18:29:00Z,Salvaterra De Magos,Santarém,Alentejo,-8.629712,39.06718
24888981,Maceira,Região de Leiria,310,2025-01-29T18:25:00Z,24888981,Em despacho,3311,Queda de elementos de estruturas edificados,0,2,0,4,2025-01-29T18:25:00Z,Leiria,Leiria,Centro,-8.871156,39.70103
24889048,Santo Quintino,Oeste,311,2025-01-29T18:00:00Z,24889048,Em curso,3309,Desabamento de estruturas edificadas,0,3,0,5,2025-01-29T18:00:00Z,Sobral De Monte Agraço,Lisboa,Centro,-9.147809,39.00271
24889049,"Santiago do Cacém, S.cruz e São Bartolomeu da Serra",Alentejo Litoral,312,2025-01-29T18:40:00Z,24889049,Em despacho,3329,Queda de estruturas temporárias ou móveis,0,1,0,2,2025-01-29T18:40:00Z,Santiago Do Cacém,Setúbal,Alentejo,-8.686842,38.007072
24889063,Atalaia e Alto-Estanqueiro-Jardia,Península de Setúbal,311,2025-01-29T17:39:00Z,24889063,Em curso,3301,Queda de árvore,0,2,0,5,2025-01-29T17:39:00Z,Montijo,Setúbal,Área Metropolitana De Lisboa,-8.92703,38.665732
24889092,Vale de Santarém,Lezíria do Tejo,311,2025-01-29T18:55:00Z,24889092,Em conclusão,3313,Deslizamento de terras,0,1,0,1,2025-01-29T18:55:00Z,Santarém,Santarém,Alentejo,-8.741708,39.195498
24889160,São João Baptista e Santa Maria Dos Olivais,Médio Tejo,311,2025-01-29T19:09:00Z,24889160,Em resolução,3329,Queda de estruturas temporárias ou móveis,0,3,0,7,2025-01-29T19:09:00Z,Tomar,Santarém,Centro,-8.38079,39.624717
24889162,Castanheira do Ribatejo e Cachoeiras,Grande Lisboa,311,2025-01-29T19:08:00Z,24889162,Em resolução,3315,Inundação de estruturas por precipitação intensa,0,1,0,3,2025-01-29T19:08:00Z,Vila Franca De Xira,Lisboa,Área Metropolitana De Lisboa,-8.966389,38.987034
24889169,Santana de Cambas,Baixo Alentejo,312,2025-01-29T18:55:00Z,24889169,Em conclusão,3301,Queda de árvore,0,1,0,2,2025-01-29T18:55:00Z,Mértola,Beja,Alentejo,-7.656047,37.65596
24889192,Sesimbra (Castelo),Península de Setúbal,311,2025-01-29T18:56:00Z,24889192,Em despacho,3301,Queda de árvore,0,1,0,5,2025-01-29T18:56:00Z,Sesimbra,Setúbal,Área Metropolitana De Lisboa,-9.112506,38.449031
24889194,Barreiro e Lavradio,Península de Setúbal,311,2025-01-29T19:19:00Z,24889194,Em curso,3311,Queda de elementos de estruturas edificados,0,1,0,5,2025-01-29T19:19:00Z,Barreiro,Setúbal,Área Metropolitana De Lisboa,-9.0747,38.66243
24889201,Sesimbra (Castelo),Península de Setúbal,311,2025-01-29T19:00:00Z,24889201,Em despacho,3301,Queda de árvore,0,1,0,3,2025-01-29T19:00:00Z,Sesimbra,Setúbal,Área Metropolitana De Lisboa,-9.137729,38.450619
24889259,Rocas do Vouga,Região de Aveiro,310,2025-01-29T19:30:00Z,24889259,Em despacho,3301,Queda de árvore,0,1,0,3,2025-01-29T19:30:00Z,Sever Do Vouga,Aveiro,Centro,-8.335576,40.740669
24889268,São Miguel de Machede,Alentejo Central,312,2025-01-29T19:30:00Z,24889268,Em curso,3301,Queda de árvore,0,1,0,2,2025-01-29T19:30:00Z,Évora,Évora,Alentejo,-7.743694,38.64527
24889279,Caparica e Trafaria,Península de Setúbal,311,2025-01-29T17:32:00Z,24889279,Em despacho,3301,Queda de árvore,0,1,0,3,2025-01-29T17:32:00Z,Almada,Setúbal,Área Metropolitana De Lisboa,-9.217456,38.648984
24889146,"Santa Iria de Azoia, São João da Talha e Bobadela",Grande Lisboa,311,2025-01-29T18:55:00Z,24889146,Em resolução,3301,Queda de árvore,0,3,0,9,2025-01-29T18:55:00Z,Loures,Lisboa,Área Metropolitana De Lisboa,-9.098065,38.824783
24889163,Laranjeiro e Feijó,Península de Setúbal,311,2025-01-29T19:11:00Z,24889163,Em curso,3329,Queda de estruturas temporárias ou móveis,0,1,0,4,2025-01-29T19:11:00Z,Almada,Setúbal,Área Metropolitana De Lisboa,-9.162379,38.66196
24889166,Vila Verde e Barbudo,Cávado,309,2025-01-29T19:08:00Z,24889166,Em curso,3301,Queda de árvore,0,1,0,2,2025-01-29T19:08:00Z,Vila Verde,Braga,Norte,-8.422757,41.645175
24889180,Amora,Península de Setúbal,311,2025-01-29T19:02:00Z,24889180,Em despacho,3311,Queda de elementos de estruturas edificados,0,1,0,3,2025-01-29T19:02:00Z,Seixal,Setúbal,Área Metropolitana De Lisboa,-9.128863,38.61388
24889197,Torrão,Alentejo Litoral,312,2025-01-29T19:14:00Z,24889197,Em conclusão,3329,Queda de estruturas temporárias ou móveis,0,2,0,4,2025-01-29T19:14:00Z,Alcácer Do Sal,Setúbal,Alentejo,-8.21787,38.293198
24889200,Matosinhos e Leça da Palmeira,Area M. Porto,309,2025-01-29T19:19:00Z,24889200,Em despacho,3311,Queda de elementos de estruturas edificados,0,1,0,3,2025-01-29T19:19:00Z,Matosinhos,Porto,Norte,-8.692583,41.193749
24889230,Almeirim,Lezíria do Tejo,311,2025-01-29T19:12:00Z,24889230,Em despacho,3315,Inundação de estruturas por precipitação intensa,0,2,0,4,2025-01-29T19:12:00Z,Almeirim,Santarém,Alentejo,-8.588832,39.142251
24889280,Santo António da Charneca,Península de Setúbal,311,2025-01-29T19:23:00Z,24889280,Em despacho,3311,Queda de elementos de estruturas edificados,0,1,0,5,2025-01-29T19:23:00Z,Barreiro,Setúbal,Área Metropolitana De Lisboa,-9.029919,38.624451
24889226,Charneca de Caparica e Sobreda,Península de Setúbal,311,2025-01-29T19:09:00Z,24889226,Em curso,3301,Queda de árvore,0,1,0,3,2025-01-29T19:09:00Z,Almada,Setúbal,Área Metropolitana De Lisboa,-9.206824,38.629265
24889251,Quinta do Anjo,Península de Setúbal,311,2025-01-29T19:23:00Z,24889251,Em despacho,3301,Queda de árvore,0,1,0,5,2025-01-29T19:23:00Z,Palmela,Setúbal,Área Metropolitana De Lisboa,-8.970285,38.583894
24889267,Venteira,Grande Lisboa,311,2025-01-29T19:24:00Z,24889267,Em curso,3301,Queda de árvore,0,2,0,8,2025-01-29T19:24:00Z,Amadora,Lisboa,Área Metropolitana De Lisboa,-9.240965,38.755077
24889276,São João de Areias,Viseu Dão Lafões,310,2025-01-29T19:31:00Z,24889276,Em despacho,3315,Inundação de estruturas por precipitação intensa,0,1,0,3,2025-01-29T19:31:00Z,Santa Comba Dão,Viseu,Centro,-8.07839,40.394114
24889296,Porto Salvo,Grande Lisboa,311,2025-01-29T19:30:00Z,24889296,Em despacho,3311,Queda de elementos de estruturas edificados,0,1,0,4,2025-01-29T19:30:00Z,Oeiras,Lisboa,Área Metropolitana De Lisboa,-9.305901,38.719291
24889281,São João Das Lampas e Terrugem,Grande Lisboa,311,2025-01-29T19:31:00Z,24889281,Em despacho,3329,Queda de estruturas temporárias ou móveis,0,1,0,1,2025-01-29T19:31:00Z,Sintra,Lisboa,Área Metropolitana De Lisboa,-9.442718,38.844843
24889299,Albergaria-a-Velha e Valmaior,Região de Aveiro,310,2025-01-29T19:40:00Z,24889299,Em despacho,3301,Queda de árvore,0,1,0,2,2025-01-29T19:40:00Z,Albergaria-a-Velha,Aveiro,Centro,-8.479745,40.688996
