id,address,subregion,neighborhood,date,id.1,state,nature,nature_description,aerial_means,terrestrial_means,aquatic_means,operational,date.1,Concelho,Distrito,NUTII_DSG,longitude,latitude
25020666,Aljezur,Algarve,313,2025-02-28T06:31:00Z,25020666,Em despacho,3315,Inundação de estruturas por precipitação intensa,0,2,0,3,2025-02-28T06:31:00Z,Aljezur,Faro,Algarve,-8.803144,37.313343
25021087,Odeceixe,Algarve,313,2025-02-28T08:52:00Z,25021087,Em despacho,3313,Deslizamento de terras,0,3,0,4,2025-02-28T08:52:00Z,Aljezur,Faro,Algarve,-8.774846,37.434235
25021230,Charneca de Caparica e Sobreda,Península de Setúbal,311,2025-02-28T09:28:00Z,25021230,Em despacho,3315,Inundação de estruturas por precipitação intensa,0,1,0,6,2025-02-28T09:28:00Z,Almada,Setúbal,Área Metropolitana De Lisboa,-9.206824,38.629265
25021555,"S.julião, N.s. da Anunciada e S. Maria da Graça",Península de Setúbal,311,2025-02-28T10:23:00Z,25021555,Em despacho,3301,Queda de árvore,0,1,0,5,2025-02-28T10:23:00Z,Setúbal,Setúbal,Área Metropolitana De Lisboa,-8.889983,38.529955
25005550,Sines,Alentejo Litoral,312,2025-02-24T19:12:00Z,25005550,Em conclusão,3313,Deslizamento de terras,0,0,0,0,2025-02-24T19:12:00Z,Sines,Setúbal,Alentejo,-8.849778,37.961314
24877003,Malagueira e Horta Das Figueiras,Alentejo Central,312,2025-01-27T11:41:00Z,24877003,Em conclusão,3315,Inundação de estruturas por precipitação intensa,0,0,0,0,2025-01-27T11:41:00Z,Évora,Évora,Alentejo,-7.924277,38.57285
25018171,São Domingos de Rana,Grande Lisboa,311,2025-02-27T14:11:00Z,25018171,Em despacho,3315,Inundação de estruturas por precipitação intensa,0,3,0,4,2025-02-27T14:11:00Z,Cascais,Lisboa,Área Metropolitana De Lisboa,-9.340115,38.702729
25021149,Bordeira,Algarve,313,2025-02-28T09:01:00Z,25021149,Em despacho,3313,Deslizamento de terras,0,3,0,3,2025-02-28T09:01:00Z,Aljezur,Faro,Algarve,-8.868554,37.195822
