id,address,subregion,neighborhood,date,id.1,state,nature,nature_description,aerial_means,terrestrial_means,aquatic_means,operational,date.1,Concelho,Distrito,NUTII_DSG,longitude,latitude,state_2
25601698,Penamacor,Beira Baixa,310,2025-06-30T07:38:00Z,25601698,Em Resolução/Conclusão,3101,Incêndio rural,0,5,0,15,2025-06-30T07:38:00Z,Penamacor,Castelo Branco,Centro,-7.081393,40.1962,Resolução/Conclusão
25602673,Castro Verde e Casével,Baixo Alentejo,312,2025-06-30T10:26:00Z,25602673,Em Resolução/Conclusão,3107,Consolidação de rescaldo de incêndio rural,0,2,0,5,2025-06-30T10:26:00Z,Castro Verde,Beja,Alentejo,-8.080915,37.697259,Resolução/Conclusão
25603543,Alcoentre,Lezíria do Tejo,311,2025-06-30T12:52:00Z,25603543,Em Despacho,3109,Gestão de combustível,0,1,0,3,2025-06-30T12:52:00Z,Azambuja,Lisboa,Alentejo,-8.968984,39.206794,Despacho
25603618,Messejana,Baixo Alentejo,312,2025-06-30T13:09:00Z,25603618,Em Curso,3101,Incêndio rural,6,64,0,198,2025-06-30T13:09:00Z,Aljustrel,Beja,Alentejo,-8.169013,37.814978,Curso
25603684,Vilarinho Dos Freires,Douro,309,2025-06-30T13:15:00Z,25603684,Em Despacho,3107,Consolidação de rescaldo de incêndio rural,0,3,0,8,2025-06-30T13:15:00Z,Peso Da Régua,Vila Real,Norte,-7.731495,41.205995,Despacho
25604086,Alvarenga,Area M. Porto,309,2025-06-30T14:23:00Z,25604086,Em Curso,3103,Incêndio rural,8,27,0,104,2025-06-30T14:23:00Z,Arouca,Aveiro,Norte,-8.16662,40.977807,Curso
25604815,Ferreira do Alentejo e Canhestros,Baixo Alentejo,312,2025-06-30T16:36:00Z,25604815,Em Curso,3103,Incêndio rural,0,12,0,33,2025-06-30T16:36:00Z,Ferreira Do Alentejo,Beja,Alentejo,-8.295967,38.03591,Curso
25604845,Ermidas-Sado,Alentejo Litoral,312,2025-06-30T16:39:00Z,25604845,Em Curso,3103,Incêndio rural,0,6,0,12,2025-06-30T16:39:00Z,Santiago Do Cacém,Setúbal,Alentejo,-8.349728,38.016615,Curso
25604872,"Seixal, Arrentela e Aldeia de Paio Pires",Península de Setúbal,311,2025-06-30T16:46:00Z,25604872,Em Resolução/Conclusão,3103,Incêndio rural,0,6,0,16,2025-06-30T16:46:00Z,Seixal,Setúbal,Área Metropolitana De Lisboa,-9.081878,38.609937,Resolução/Conclusão
25604938,Alvalade,Alentejo Litoral,312,2025-06-30T16:40:00Z,25604938,Em Curso,3103,Incêndio rural,1,9,0,31,2025-06-30T16:40:00Z,Santiago Do Cacém,Setúbal,Alentejo,-8.390153,37.933937,Curso
25605022,Paços de Ferreira,Tâmega e Sousa,309,2025-06-30T17:07:00Z,25605022,Em Resolução/Conclusão,3103,Incêndio rural,0,1,0,5,2025-06-30T17:07:00Z,Paços De Ferreira,Porto,Norte,-8.384598,41.265688,Resolução/Conclusão
25605031,"Sandim, Olival, Lever e Crestuma",Area M. Porto,309,2025-06-30T17:10:00Z,25605031,Em Resolução/Conclusão,3103,Incêndio rural,0,1,0,5,2025-06-30T17:10:00Z,Vila Nova De Gaia,Porto,Norte,-8.502382,41.048753,Resolução/Conclusão
25605099,Ermidas-Sado,Alentejo Litoral,312,2025-06-30T17:26:00Z,25605099,Em Despacho,3103,Incêndio rural,0,2,0,8,2025-06-30T17:26:00Z,Santiago Do Cacém,Setúbal,Alentejo,-8.386974,38.001513,Despacho
25605147,Santa Comba,Douro,309,2025-06-30T17:42:00Z,25605147,Em Despacho,3103,Incêndio rural,1,2,0,16,2025-06-30T17:42:00Z,Vila Nova De Foz Côa,Guarda,Norte,-7.14367,40.97355,Despacho
25445507,Cabeça Gorda,Baixo Alentejo,312,2025-05-29T12:44:00Z,25445507,Em Resolução/Conclusão,3101,Incêndio rural,0,0,0,0,2025-05-29T12:44:00Z,Beja,Beja,Alentejo,-7.811333,37.900468,Resolução/Conclusão
25599361,Chancelaria,Médio Tejo,311,2025-06-29T16:59:00Z,25599361,Em Resolução/Conclusão,3101,Incêndio rural,0,4,0,12,2025-06-29T16:59:00Z,Torres Novas,Santarém,Centro,-8.54621,39.518782,Resolução/Conclusão
25602519,Cousso,Alto Minho,309,2025-06-30T10:04:00Z,25602519,Em Resolução/Conclusão,3107,Consolidação de rescaldo de incêndio rural,0,1,0,4,2025-06-30T10:04:00Z,Melgaço,Viana Do Castelo,Norte,-8.27583,42.053508,Resolução/Conclusão
25602886,Duas Igrejas,Tâmega e Sousa,309,2025-06-30T10:48:00Z,25602886,Em Despacho,3107,Consolidação de rescaldo de incêndio rural,0,1,0,5,2025-06-30T10:48:00Z,Penafiel,Porto,Norte,-8.278005,41.170128,Despacho
25603690,Romariz,Area M. Porto,309,2025-06-30T13:23:00Z,25603690,Em Resolução/Conclusão,3103,Incêndio rural,0,4,0,16,2025-06-30T13:23:00Z,Santa Maria Da Feira,Aveiro,Norte,-8.449163,40.954263,Resolução/Conclusão
25604223,Campos e Louredo,Ave,309,2025-06-30T14:53:00Z,25604223,Em Despacho,3107,Consolidação de rescaldo de incêndio rural,0,1,0,5,2025-06-30T14:53:00Z,Póvoa De Lanhoso,Braga,Norte,-8.294605,41.550835,Despacho
25604307,Ventosa e Cova,Ave,309,2025-06-30T15:06:00Z,25604307,Em Despacho,3107,Consolidação de rescaldo de incêndio rural,0,1,0,5,2025-06-30T15:06:00Z,Vieira Do Minho,Braga,Norte,-8.168892,41.676273,Despacho
25604341,Lustosa e Barrosas (Santo Estêvão),Tâmega e Sousa,309,2025-06-30T15:13:00Z,25604341,Em Resolução/Conclusão,3103,Incêndio rural,0,2,0,10,2025-06-30T15:13:00Z,Lousada,Porto,Norte,-8.32484,41.34255,Resolução/Conclusão
25604426,Selho (São Cristóvão),Ave,309,2025-06-30T15:26:00Z,25604426,Em Curso,3103,Incêndio rural,0,10,0,30,2025-06-30T15:26:00Z,Guimarães,Braga,Norte,-8.350317,41.412065,Curso
25602092,Santa Marinha,Alto Tâmega e Barroso,309,2025-06-30T08:59:00Z,25602092,Em Curso,3107,Consolidação de rescaldo de incêndio rural,0,3,0,9,2025-06-30T08:59:00Z,Ribeira De Pena,Vila Real,Norte,-7.781975,41.547104,Curso
25603965,Cabreiro,Alto Minho,309,2025-06-30T14:10:00Z,25603965,Em Resolução/Conclusão,3103,Incêndio rural,0,2,0,8,2025-06-30T14:10:00Z,Arcos De Valdevez,Viana Do Castelo,Norte,-8.385903,41.944667,Resolução/Conclusão
25604181,São João de Ver,Area M. Porto,309,2025-06-30T14:45:00Z,25604181,Em Resolução/Conclusão,3103,Incêndio rural,0,4,0,13,2025-06-30T14:45:00Z,Santa Maria Da Feira,Aveiro,Norte,-8.554135,40.95554,Resolução/Conclusão
25604566,Quinchães,Ave,309,2025-06-30T15:51:00Z,25604566,Em Resolução/Conclusão,3103,Incêndio rural,0,2,0,10,2025-06-30T15:51:00Z,Fafe,Braga,Norte,-8.13985,41.4376,Resolução/Conclusão
25605016,Castro Verde e Casével,Baixo Alentejo,312,2025-06-30T17:00:00Z,25605016,Em Resolução/Conclusão,3105,Incêndio rural,0,3,0,10,2025-06-30T17:00:00Z,Castro Verde,Beja,Alentejo,-8.087691,37.744112,Resolução/Conclusão
25605186,Ponte de Vagos e Santa Catarina,Região de Aveiro,310,2025-06-30T17:49:00Z,25605186,Em Despacho,3105,Incêndio rural,0,2,0,10,2025-06-30T17:49:00Z,Vagos,Aveiro,Centro,-8.677943,40.476608,Despacho
25604527,Orada,Alentejo Central,312,2025-06-30T15:43:00Z,25604527,Em Resolução/Conclusão,3103,Incêndio rural,0,7,0,23,2025-06-30T15:43:00Z,Borba,Évora,Alentejo,-7.46493,38.835928,Resolução/Conclusão
25604826,"Arga (Baixo, Cima e São João)",Alto Minho,309,2025-06-30T16:38:00Z,25604826,Em Resolução/Conclusão,3103,Incêndio rural,0,3,0,13,2025-06-30T16:38:00Z,Caminha,Viana Do Castelo,Norte,-8.678965,41.834868,Resolução/Conclusão
25599357,Alpalhão,Alto Alentejo,312,2025-06-29T16:55:00Z,25599357,Em Resolução/Conclusão,3103,Incêndio rural,0,15,0,49,2025-06-29T16:55:00Z,Nisa,Portalegre,Alentejo,-7.63684,39.452513,Resolução/Conclusão
25599382,Almaceda,Beira Baixa,310,2025-06-29T17:03:00Z,25599382,Em Resolução/Conclusão,3101,Incêndio rural,2,51,0,153,2025-06-29T17:03:00Z,Castelo Branco,Castelo Branco,Centro,-7.65644,39.97,Resolução/Conclusão
25602624,Lomba,Area M. Porto,309,2025-06-30T10:19:00Z,25602624,Em Resolução/Conclusão,3103,Incêndio rural,0,2,0,7,2025-06-30T10:19:00Z,Gondomar,Porto,Norte,-8.408252,41.034001,Resolução/Conclusão
25603801,Almodôvar e Graça Dos Padrões,Baixo Alentejo,312,2025-06-30T13:35:00Z,25603801,Em Resolução/Conclusão,3105,Incêndio rural,0,9,0,19,2025-06-30T13:35:00Z,Almodôvar,Beja,Alentejo,-8.121232,37.544488,Resolução/Conclusão
25604069,Galveias,Alto Alentejo,312,2025-06-30T14:26:00Z,25604069,Em Resolução/Conclusão,3103,Incêndio rural,0,16,0,38,2025-06-30T14:26:00Z,Ponte De Sor,Portalegre,Alentejo,-8.026567,39.117655,Resolução/Conclusão
25604246,Bustelo,Tâmega e Sousa,309,2025-06-30T14:55:00Z,25604246,Em Resolução/Conclusão,3103,Incêndio rural,0,5,0,20,2025-06-30T14:55:00Z,Penafiel,Porto,Norte,-8.255573,41.232038,Resolução/Conclusão
25604462,Penafiel,Tâmega e Sousa,309,2025-06-30T15:35:00Z,25604462,Em Resolução/Conclusão,3103,Incêndio rural,0,5,0,11,2025-06-30T15:35:00Z,Penafiel,Porto,Norte,-8.266104,41.21627,Resolução/Conclusão
25604703,Fronteira,Alto Alentejo,312,2025-06-30T16:13:00Z,25604703,Em Resolução/Conclusão,3105,Incêndio rural,0,10,0,34,2025-06-30T16:13:00Z,Fronteira,Portalegre,Alentejo,-7.7002370000000004,39.103278,Resolução/Conclusão
25605178,Viana do Alentejo,Alentejo Central,312,2025-06-30T17:45:00Z,25605178,Em Despacho,3105,Incêndio rural,0,2,0,7,2025-06-30T17:45:00Z,Viana Do Alentejo,Évora,Alentejo,-7.999946,38.34021,Despacho
25605062,Lago,Cávado,309,2025-06-30T17:25:00Z,25605062,Em Resolução/Conclusão,3103,Incêndio rural,1,4,0,22,2025-06-30T17:25:00Z,Amares,Braga,Norte,-8.418153,41.60586,Resolução/Conclusão
25605132,"Camarate, Unhos e Apelação",Grande Lisboa,311,2025-06-30T17:32:00Z,25605132,Em Curso,3103,Incêndio rural,0,3,0,12,2025-06-30T17:32:00Z,Loures,Lisboa,Área Metropolitana De Lisboa,-9.1124,38.80819,Curso
