id,address,subregion,neighborhood,date,id.1,state,nature,nature_description,aerial_means,terrestrial_means,aquatic_means,operational,date.1,Concelho,Distrito,NUTII_DSG,longitude,latitude
25466369,Melides,Alentejo Litoral,312,2025-06-02T13:27:00Z,25466369,Em conclusão,3103,Incêndio rural,0,4,0,6,2025-06-02T13:27:00Z,Grândola,Setúbal,Alentejo,-8.754243,38.19534
25467128,Monte Redondo e Carreira,Região de Leiria,310,2025-06-02T15:48:00Z,25467128,Em conclusão,3103,Incêndio rural,0,2,0,7,2025-06-02T15:48:00Z,Leiria,Leiria,Centro,-8.860783,39.89848
25470223,Biscainho,Lezíria do Tejo,311,2025-06-03T10:11:00Z,25470223,Em despacho,3111,Queima,0,2,0,7,2025-06-03T10:11:00Z,Coruche,Santarém,Alentejo,-8.64958,38.907801
25469928,Além da Ribeira e Pedreira,Médio Tejo,311,2025-06-03T09:19:00Z,25469928,Em despacho,3109,Gestão de combustível,0,1,0,1,2025-06-03T09:19:00Z,Tomar,Santarém,Centro,-8.416189,39.64089
25469992,"Vila Chã, Codal e Vila Cova de Perrinho",Area M. Porto,309,2025-06-03T09:27:00Z,25469992,Em resolução,2117,Incêndio em edifícios comerciais e gares de transporte,0,3,0,7,2025-06-03T09:27:00Z,Vale De Cambra,Aveiro,Norte,-8.399593,40.868575
