id,address,subregion,neighborhood,date,id.1,state,nature,nature_description,aerial_means,terrestrial_means,aquatic_means,operational,date.1,Concelho,Distrito,NUTII_DSG,longitude,latitude,state_2
25774883,Arnóia,Tâmega e Sousa,309,2025-08-02T18:20:00Z,25774883,Em Resolução/Conclusão,3103,Incêndio rural,0,1,0,1,2025-08-02T18:20:00Z,Celorico De Basto,Braga,Norte,-7.998983,41.348727,Resolução/Conclusão
25818455,Sobral de São Miguel,Beiras e Serra da Estrela,310,2025-08-10T15:02:00Z,25818455,Em Resolução/Conclusão,3103,Incêndio rural,0,19,0,61,2025-08-10T15:02:00Z,Covilhã,Castelo Branco,Centro,-7.77307,40.200173,Resolução/Conclusão
25834631,Paços,Douro,309,2025-08-13T12:57:00Z,25834631,Em Resolução/Conclusão,3103,Incêndio rural,0,1,0,5,2025-08-13T12:57:00Z,Sabrosa,Vila Real,Norte,-7.620647,41.233283,Resolução/Conclusão
25837154,"Tavares (Chãs, Várzea e Travanca)",Viseu Dão Lafões,310,2025-08-13T21:27:00Z,25837154,Em Resolução/Conclusão,3103,Incêndio rural,0,0,0,0,2025-08-13T21:27:00Z,Mangualde,Viseu,Centro,-7.647492,40.608359,Resolução/Conclusão
25841466,São Miguel do Mato,Viseu Dão Lafões,310,2025-08-14T16:48:00Z,25841466,Em Resolução/Conclusão,3103,Incêndio rural,0,1,0,4,2025-08-14T16:48:00Z,Vouzela,Viseu,Centro,-8.0267,40.71845,Resolução/Conclusão
25846431,Rans,Tâmega e Sousa,309,2025-08-15T14:30:00Z,25846431,Em Resolução/Conclusão,3103,Incêndio rural,0,6,0,22,2025-08-15T14:30:00Z,Penafiel,Porto,Norte,-8.313492,41.173853,Resolução/Conclusão
25846480,Sabugal e Aldeia de Santo António,Beiras e Serra da Estrela,310,2025-08-15T14:41:00Z,25846480,Em Curso,3103,Incêndio rural,0,21,0,79,2025-08-15T14:41:00Z,Sabugal,Guarda,Centro,-7.125037,40.34023,Curso
25848400,Portela do Fojo-Machio,Região de Coimbra,310,2025-08-15T21:27:00Z,25848400,Em Resolução/Conclusão,3103,Incêndio rural,0,2,0,9,2025-08-15T21:27:00Z,Pampilhosa Da Serra,Coimbra,Centro,-7.999655,40.01507,Resolução/Conclusão
25776263,"Pena, Quintã e Vila Cova",Douro,309,2025-08-02T23:45:00Z,25776263,Em Resolução/Conclusão,3103,Incêndio rural,0,46,0,146,2025-08-02T23:45:00Z,Vila Real,Vila Real,Norte,-7.811902,41.317355,Resolução/Conclusão
25813482,Freches e Torres,Beiras e Serra da Estrela,310,2025-08-09T16:21:00Z,25813482,Em Curso,3103,Incêndio rural,0,142,0,432,2025-08-09T16:21:00Z,Trancoso,Guarda,Centro,-7.363745,40.709022,Curso
25830378,Ermidas-Sado,Alentejo Litoral,312,2025-08-12T16:42:00Z,25830378,Em Resolução/Conclusão,3101,Incêndio rural,0,0,0,0,2025-08-12T16:42:00Z,Santiago Do Cacém,Setúbal,Alentejo,-8.407646,38.059897,Resolução/Conclusão
25832250,Ferreira de Aves,Viseu Dão Lafões,310,2025-08-13T00:03:00Z,25832250,Em Curso,3103,Incêndio rural,0,334,0,1029,2025-08-13T00:03:00Z,Sátão,Viseu,Centro,-7.647793,40.79568,Curso
25835457,Quirás e Pinheiro Novo,Terras de Trás-os-Montes,309,2025-08-13T15:25:00Z,25835457,Em Resolução/Conclusão,3103,Incêndio rural,0,3,0,5,2025-08-13T15:25:00Z,Vinhais,Bragança,Norte,-7.170375,41.939618,Resolução/Conclusão
25836309,Cinfães,Tâmega e Sousa,309,2025-08-13T18:17:00Z,25836309,Em Resolução/Conclusão,3103,Incêndio rural,0,34,0,124,2025-08-13T18:17:00Z,Cinfães,Viseu,Norte,-8.071502,41.049757,Resolução/Conclusão
25840505,Ribeira de Nisa e Carreiras,Alto Alentejo,312,2025-08-14T14:01:00Z,25840505,Em Resolução/Conclusão,3101,Incêndio rural,0,65,0,189,2025-08-14T14:01:00Z,Portalegre,Portalegre,Alentejo,-7.47009,39.374707,Resolução/Conclusão
25840858,Moreira de Rei,Beiras e Serra da Estrela,310,2025-08-14T14:53:00Z,25840858,Em Curso,3103,Incêndio rural,0,9,0,27,2025-08-14T14:53:00Z,Trancoso,Guarda,Centro,-7.31259,40.870748,Curso
25844050,"Pena, Quintã e Vila Cova",Douro,309,2025-08-15T04:16:00Z,25844050,Em Resolução/Conclusão,3103,Incêndio rural,0,5,0,17,2025-08-15T04:16:00Z,Vila Real,Vila Real,Norte,-7.861022,41.318705,Resolução/Conclusão
25844080,Vale de Espinho,Beiras e Serra da Estrela,310,2025-08-15T04:35:00Z,25844080,Em Resolução/Conclusão,3103,Incêndio rural,0,2,0,4,2025-08-15T04:35:00Z,Sabugal,Guarda,Centro,-6.937728,40.270523,Resolução/Conclusão
25845736,Travancas e Roriz,Alto Tâmega e Barroso,309,2025-08-15T12:20:00Z,25845736,Em Resolução/Conclusão,3103,Incêndio rural,0,22,0,75,2025-08-15T12:20:00Z,Chaves,Vila Real,Norte,-7.316357,41.775985,Resolução/Conclusão
25848469,Vilar Seco de Lomba,Terras de Trás-os-Montes,309,2025-08-15T21:40:00Z,25848469,Em Resolução/Conclusão,3103,Incêndio rural,0,6,0,19,2025-08-15T21:40:00Z,Vinhais,Bragança,Norte,-7.146892,41.869005,Resolução/Conclusão
25848651,Árvore,Area M. Porto,309,2025-08-15T22:32:00Z,25848651,Em Despacho,3103,Incêndio rural,0,0,0,0,2025-08-15T22:32:00Z,Vila Do Conde,Porto,Norte,-8.72239,41.34055,Despacho
25848652,Santa Clara,Grande Lisboa,311,2025-08-15T22:32:00Z,25848652,Em Despacho,3103,Incêndio rural,0,1,0,5,2025-08-15T22:32:00Z,Lisboa,Lisboa,Área Metropolitana De Lisboa,-9.166295,38.78426,Despacho
25775263,Torgueda,Douro,309,2025-08-02T19:49:00Z,25775263,Em Resolução/Conclusão,3101,Incêndio rural,0,4,0,15,2025-08-02T19:49:00Z,Vila Real,Vila Real,Norte,-7.785983,41.274952,Resolução/Conclusão
25807426,Alvite,Douro,309,2025-08-08T14:31:00Z,25807426,Em Resolução/Conclusão,3103,Incêndio rural,0,5,0,26,2025-08-08T14:31:00Z,Moimenta Da Beira,Viseu,Norte,-7.688727,40.96613,Resolução/Conclusão
25841363,Santar e Moreira,Viseu Dão Lafões,310,2025-08-14T16:28:00Z,25841363,Em Resolução/Conclusão,3103,Incêndio rural,0,0,0,0,2025-08-14T16:28:00Z,Nelas,Viseu,Centro,-7.883308,40.563075,Resolução/Conclusão
25845171,Pêra do Moço,Beiras e Serra da Estrela,310,2025-08-15T10:44:00Z,25845171,Em Curso,3103,Incêndio rural,0,89,0,253,2025-08-15T10:44:00Z,Guarda,Guarda,Centro,-7.20956,40.61267,Curso
25846016,Poiares,Douro,309,2025-08-15T13:17:00Z,25846016,Em Curso,3105,Incêndio rural,0,93,0,286,2025-08-15T13:17:00Z,Freixo De Espada à Cinta,Bragança,Norte,-6.843393,41.075787,Curso
25846516,Fratel,Beira Baixa,310,2025-08-15T14:47:00Z,25846516,Em Resolução/Conclusão,3101,Incêndio rural,0,1,0,5,2025-08-15T14:47:00Z,Vila Velha De Ródão,Castelo Branco,Centro,-7.742691,39.680033,Resolução/Conclusão
25846968,Jazente,Tâmega e Sousa,309,2025-08-15T16:13:00Z,25846968,Em Resolução/Conclusão,3103,Incêndio rural,0,2,0,7,2025-08-15T16:13:00Z,Amarante,Porto,Norte,-8.05495,41.233247,Resolução/Conclusão
25847211,Campelo,Região de Leiria,310,2025-08-15T17:01:00Z,25847211,Em Resolução/Conclusão,3101,Incêndio rural,0,61,0,209,2025-08-15T17:01:00Z,Figueiró Dos Vinhos,Leiria,Centro,-8.258518,39.952923,Resolução/Conclusão
25847552,"Espírito Santo, Nossa Senhora da Graça e São Simão",Alto Alentejo,312,2025-08-15T18:13:00Z,25847552,Em Curso,3101,Incêndio rural,0,39,0,140,2025-08-15T18:13:00Z,Nisa,Portalegre,Alentejo,-7.676539,39.448501,Curso
25847695,Gião,Area M. Porto,309,2025-08-15T18:47:00Z,25847695,Em Resolução/Conclusão,3103,Incêndio rural,0,2,0,8,2025-08-15T18:47:00Z,Vila Do Conde,Porto,Norte,-8.688193,41.318842,Resolução/Conclusão
25847829,"Coruche, Fajarda e Erra",Lezíria do Tejo,311,2025-08-15T19:17:00Z,25847829,Em Resolução/Conclusão,3103,Incêndio rural,0,7,0,32,2025-08-15T19:17:00Z,Coruche,Santarém,Alentejo,-8.443772,38.996218,Resolução/Conclusão
25846689,Nevogilde,Tâmega e Sousa,309,2025-08-15T15:15:00Z,25846689,Em Resolução/Conclusão,3103,Incêndio rural,0,1,0,5,2025-08-15T15:15:00Z,Lousada,Porto,Norte,-8.319273,41.256657,Resolução/Conclusão
25846857,Moimenta e Montouto,Terras de Trás-os-Montes,309,2025-08-15T15:48:00Z,25846857,Em Resolução/Conclusão,3103,Incêndio rural,0,5,0,24,2025-08-15T15:48:00Z,Vinhais,Bragança,Norte,-6.977869,41.945187,Resolução/Conclusão
25847258,Donai,Terras de Trás-os-Montes,309,2025-08-15T17:10:00Z,25847258,Em Resolução/Conclusão,3105,Incêndio rural,0,1,0,5,2025-08-15T17:10:00Z,Bragança,Bragança,Norte,-6.793388,41.828848,Resolução/Conclusão
25847827,"Algoso, Campo de Víboras e Uva",Terras de Trás-os-Montes,309,2025-08-15T19:17:00Z,25847827,Em Resolução/Conclusão,3103,Incêndio rural,0,4,0,22,2025-08-15T19:17:00Z,Vimioso,Bragança,Norte,-6.590437,41.456827,Resolução/Conclusão
25848443,Carapinheira,Região de Coimbra,310,2025-08-15T21:30:00Z,25848443,Em Resolução/Conclusão,3101,Incêndio rural,0,2,0,5,2025-08-15T21:30:00Z,Montemor-o-Velho,Coimbra,Centro,-8.65348,40.210157,Resolução/Conclusão
25848593,Portela e Extremo,Alto Minho,309,2025-08-15T22:13:00Z,25848593,Em Resolução/Conclusão,3103,Incêndio rural,0,1,0,5,2025-08-15T22:13:00Z,Arcos De Valdevez,Viana Do Castelo,Norte,-8.444357,41.952672,Resolução/Conclusão
25848696,Palmeira,Cávado,309,2025-08-15T22:38:00Z,25848696,Em Despacho,3103,Incêndio rural,0,3,0,11,2025-08-15T22:38:00Z,Braga,Braga,Norte,-8.434231,41.59113,Despacho
25785983,Caçarilhe e Infesta,Tâmega e Sousa,309,2025-08-04T18:22:00Z,25785983,Em Resolução/Conclusão,3103,Incêndio rural,0,4,0,14,2025-08-04T18:22:00Z,Celorico De Basto,Braga,Norte,-8.04611,41.419858,Resolução/Conclusão
25792058,Cibões e Brufe,Cávado,309,2025-08-05T19:10:00Z,25792058,Em Resolução/Conclusão,3103,Incêndio rural,0,1,0,5,2025-08-05T19:10:00Z,Terras De Bouro,Braga,Norte,-8.293932,41.764918,Resolução/Conclusão
25820422,Távora e Pereiro,Douro,309,2025-08-10T22:27:00Z,25820422,Em Resolução/Conclusão,3103,Incêndio rural,0,41,0,125,2025-08-10T22:27:00Z,Tabuaço,Viseu,Norte,-7.55556,41.097602,Resolução/Conclusão
25832672,Piódão,Região de Coimbra,310,2025-08-13T05:08:00Z,25832672,Em Curso,3103,Incêndio rural,0,343,0,1019,2025-08-13T05:08:00Z,Arganil,Coimbra,Centro,-7.81972,40.23083,Curso
25835176,Faíl e Vila Chã de Sá,Viseu Dão Lafões,310,2025-08-13T14:35:00Z,25835176,Em Resolução/Conclusão,3103,Incêndio rural,0,4,0,12,2025-08-13T14:35:00Z,Viseu,Viseu,Centro,-7.951177,40.594167,Resolução/Conclusão
25840417,Lousã e Vilarinho,Região de Coimbra,310,2025-08-14T13:46:00Z,25840417,Em Curso,3101,Incêndio rural,0,108,0,349,2025-08-14T13:46:00Z,Lousã,Coimbra,Centro,-8.201561,40.080016,Curso
25841546,São João de Lourosa,Viseu Dão Lafões,310,2025-08-14T16:55:00Z,25841546,Em Resolução/Conclusão,3103,Incêndio rural,0,0,0,0,2025-08-14T16:55:00Z,Viseu,Viseu,Centro,-7.9337,40.6126,Resolução/Conclusão
25843752,Samões,Terras de Trás-os-Montes,309,2025-08-15T01:27:00Z,25843752,Em Resolução/Conclusão,3103,Incêndio rural,0,2,0,10,2025-08-15T01:27:00Z,Vila Flor,Bragança,Norte,-7.201532,41.29735,Resolução/Conclusão
25844195,Moimenta e Montouto,Terras de Trás-os-Montes,309,2025-08-15T06:13:00Z,25844195,Em Resolução/Conclusão,3103,Incêndio rural,0,1,0,5,2025-08-15T06:13:00Z,Vinhais,Bragança,Norte,-6.972763,41.943523,Resolução/Conclusão
25848382,"Romãs, Decermilo e Vila Longa",Viseu Dão Lafões,310,2025-08-15T21:22:00Z,25848382,Em Resolução/Conclusão,3103,Incêndio rural,0,3,0,10,2025-08-15T21:22:00Z,Sátão,Viseu,Centro,-7.635258,40.75467,Resolução/Conclusão
