id,address,subregion,neighborhood,date,id.1,state,nature,nature_description,aerial_means,terrestrial_means,aquatic_means,operational,date.1,Concelho,Distrito,NUTII_DSG,longitude,latitude
25472295,Poceirão e Marateca,Península de Setúbal,311,2025-06-03T16:44:00Z,25472295,Em conclusão,3103,Incêndio rural,0,0,0,0,2025-06-03T16:44:00Z,Palmela,Setúbal,Área Metropolitana De Lisboa,-8.721872,38.5774
25473123,Gondar,Ave,309,2025-06-03T20:17:00Z,25473123,Em conclusão,2301,Incêndio em transporte rodoviário,0,2,0,6,2025-06-03T20:17:00Z,Guimarães,Braga,Norte,-8.3761,41.42194
25466369,Melides,Alentejo Litoral,312,2025-06-02T13:27:00Z,25466369,Em conclusão,3103,Incêndio rural,0,2,0,4,2025-06-02T13:27:00Z,Grândola,Setúbal,Alentejo,-8.754243,38.19534
25467128,Monte Redondo e Carreira,Região de Leiria,310,2025-06-02T15:48:00Z,25467128,Em conclusão,3103,Incêndio rural,0,1,0,2,2025-06-02T15:48:00Z,Leiria,Leiria,Centro,-8.860783,39.89848
25473201,Escapães,Area M. Porto,309,2025-06-03T20:41:00Z,25473201,Em despacho,3103,Incêndio rural,0,0,0,0,2025-06-03T20:41:00Z,Santa Maria Da Feira,Aveiro,Norte,-8.499133,40.93711
25472550,Avenidas Novas,Grande Lisboa,311,2025-06-03T17:42:00Z,25472550,Em resolução,2101,Incêndio em edifícios habitacionais,0,11,0,36,2025-06-03T17:42:00Z,Lisboa,Lisboa,Área Metropolitana De Lisboa,-9.147605,38.73891
