id,address,subregion,neighborhood,date,id.1,state,nature,nature_description,aerial_means,terrestrial_means,aquatic_means,operational,date.1,Concelho,Distrito,NUTII_DSG,longitude,latitude
25554773,Cativelos,Beiras e Serra da Estrela,310,2025-06-20T17:46:00Z,25554773,Em conclusão,3103,Incêndio rural,0,5,0,18,2025-06-20T17:46:00Z,Gouveia,Guarda,Centro,-7.702992,40.53306
25556492,Benavente,Lezíria do Tejo,311,2025-06-21T02:23:00Z,25556492,Em conclusão,3103,Incêndio rural,0,2,0,7,2025-06-21T02:23:00Z,Benavente,Santarém,Alentejo,-8.785175,38.937145
25556550,Sequeiros e Gradiz,Viseu Dão Lafões,310,2025-06-21T02:54:00Z,25556550,Em despacho,3103,Incêndio rural,0,4,0,17,2025-06-21T02:54:00Z,Aguiar Da Beira,Guarda,Centro,-7.512141,40.85382
25553154,Pedrógão,Baixo Alentejo,312,2025-06-20T12:23:00Z,25553154,Em conclusão,3103,Incêndio rural,0,24,0,66,2025-06-20T12:23:00Z,Vidigueira,Beja,Alentejo,-7.549947,38.179912
25556530,Faro (Sé e São Pedro),Algarve,313,2025-06-21T02:39:00Z,25556530,Em conclusão,2129,Incêndio em edifícios degradados ou devolutos,0,4,0,10,2025-06-21T02:39:00Z,Faro,Faro,Algarve,-7.91976,37.01491
