id,address,subregion,neighborhood,date,id.1,state,nature,nature_description,aerial_means,terrestrial_means,aquatic_means,operational,date.1,Concelho,Distrito,NUTII_DSG,longitude,latitude
25533857,São Bento do Mato,Alentejo Central,312,2025-06-16T13:54:00Z,25533857,Em conclusão,3103,Incêndio rural,0,0,0,0,2025-06-16T13:54:00Z,Évora,Évora,Alentejo,-7.757107,38.691162
25535997,Assunção,Alto Alentejo,312,2025-06-16T21:38:00Z,25535997,Em conclusão,3105,Incêndio rural,0,8,0,22,2025-06-16T21:38:00Z,Arronches,Portalegre,Alentejo,-7.289763,39.116048
25536147,Faro (Sé e São Pedro),Algarve,313,2025-06-16T22:27:00Z,25536147,Em conclusão,3201,Detritos não confinados,0,2,0,6,2025-06-16T22:27:00Z,Faro,Faro,Algarve,-7.92543,37.00798
25533960,Nossa Senhora da Tourega e Nossa Senhora de Guadalupe,Alentejo Central,312,2025-06-16T14:13:00Z,25533960,Em conclusão,3101,Incêndio rural,0,48,0,126,2025-06-16T14:13:00Z,Évora,Évora,Alentejo,-8.04123,38.527212
25534587,Moimenta,Tâmega e Sousa,309,2025-06-16T16:18:00Z,25534587,Em conclusão,3103,Incêndio rural,0,13,0,48,2025-06-16T16:18:00Z,Cinfães,Viseu,Norte,-8.200023,41.04336
25535932,Lavradas,Alto Minho,309,2025-06-16T21:17:00Z,25535932,Em conclusão,3107,Consolidação de rescaldo de incêndio rural,0,2,0,5,2025-06-16T21:17:00Z,Ponte Da Barca,Viana Do Castelo,Norte,-8.472388,41.794045
25536252,Vila Franca,Alto Minho,309,2025-06-16T22:59:00Z,25536252,Em despacho,3103,Incêndio rural,0,1,0,5,2025-06-16T22:59:00Z,Viana Do Castelo,Viana Do Castelo,Norte,-8.759367,41.68805
25536266,"Pêra Velha, Aldeia de Nacomba e Ariz",Douro,309,2025-06-16T23:06:00Z,25536266,Em despacho,2101,Incêndio em edifícios habitacionais,0,0,0,0,2025-06-16T23:06:00Z,Moimenta Da Beira,Viseu,Norte,-7.65466,40.90632
25533984,Bacelo e Senhora da Saúde,Alentejo Central,312,2025-06-16T14:18:00Z,25533984,Em conclusão,3103,Incêndio rural,0,5,0,19,2025-06-16T14:18:00Z,Évora,Évora,Alentejo,-7.869122,38.593644
25534277,Caldas de São Jorge e Pigeiros,Area M. Porto,309,2025-06-16T15:11:00Z,25534277,Em conclusão,3101,Incêndio rural,0,8,0,22,2025-06-16T15:11:00Z,Santa Maria Da Feira,Aveiro,Norte,-8.486413,40.939453
25534756,Redondo,Alentejo Central,312,2025-06-16T16:49:00Z,25534756,Em conclusão,3103,Incêndio rural,0,0,0,0,2025-06-16T16:49:00Z,Redondo,Évora,Alentejo,-7.516817,38.672308
25534804,Alvares,Região de Coimbra,310,2025-06-16T17:00:00Z,25534804,Em conclusão,3101,Incêndio rural,0,9,0,25,2025-06-16T17:00:00Z,Góis,Coimbra,Centro,-8.08667,40.05333
25535674,Ceivães e Badim,Alto Minho,309,2025-06-16T20:20:00Z,25535674,Em curso,3107,Consolidação de rescaldo de incêndio rural,0,3,0,7,2025-06-16T20:20:00Z,Monção,Viana Do Castelo,Norte,-8.375257,42.073545
25535747,Alvares,Região de Coimbra,310,2025-06-16T20:38:00Z,25535747,Em conclusão,3103,Incêndio rural,0,6,0,19,2025-06-16T20:38:00Z,Góis,Coimbra,Centro,-8.07249,40.03204
25536260,Cercal,Alentejo Litoral,312,2025-06-16T23:03:00Z,25536260,Em despacho,3103,Incêndio rural,0,0,0,0,2025-06-16T23:03:00Z,Santiago Do Cacém,Setúbal,Alentejo,-8.612944,37.82766
25533448,"N.s. Conceição, S. Brás Matos, Juromenha",Alentejo Central,312,2025-06-16T12:26:00Z,25533448,Em conclusão,3105,Incêndio rural,0,3,0,5,2025-06-16T12:26:00Z,Alandroal,Évora,Alentejo,-7.367343,38.691792
25533546,Capelins (Santo António),Alentejo Central,312,2025-06-16T12:49:00Z,25533546,Em conclusão,3103,Incêndio rural,0,42,0,122,2025-06-16T12:49:00Z,Alandroal,Évora,Alentejo,-7.336945,38.553132
25534652,São Bartolomeu de Messines,Algarve,313,2025-06-16T16:32:00Z,25534652,Em conclusão,3103,Incêndio rural,0,8,0,23,2025-06-16T16:32:00Z,Portimão,Faro,Algarve,-8.553227,37.123845
25534702,Ruivães e Novais,Ave,309,2025-06-16T16:38:00Z,25534702,Em conclusão,3103,Incêndio rural,0,4,0,10,2025-06-16T16:38:00Z,Vila Nova De Famalicão,Braga,Norte,-8.428942,41.39486
25536120,Laranjeiro e Feijó,Península de Setúbal,311,2025-06-16T22:08:00Z,25536120,Em resolução,3103,Incêndio rural,0,4,0,17,2025-06-16T22:08:00Z,Almada,Setúbal,Área Metropolitana De Lisboa,-9.16841,38.659108
25536255,Santa Marta de Portuzelo,Alto Minho,309,2025-06-16T23:00:00Z,25536255,Em despacho,2101,Incêndio em edifícios habitacionais,0,3,0,10,2025-06-16T23:00:00Z,Viana Do Castelo,Viana Do Castelo,Norte,-8.77292,41.70345
