id,address,subregion,neighborhood,date,id.1,state,nature,nature_description,aerial_means,terrestrial_means,aquatic_means,operational,date.1,Concelho,Distrito,NUTII_DSG,longitude,latitude
25256782,Aveiras de Cima,Lezíria do Tejo,311,2025-04-18T16:12:00Z,25256782,Em despacho,3301,Queda de árvore,0,1,0,1,2025-04-18T16:12:00Z,Azambuja,Lisboa,Alentejo,-8.897636,39.139731
25256935,Mira,Região de Coimbra,310,2025-04-18T16:57:00Z,25256935,Em despacho,3301,Queda de árvore,0,2,0,6,2025-04-18T16:57:00Z,Mira,Coimbra,Centro,-8.764506,40.44828
25068300,Almeirim,Lezíria do Tejo,311,2025-03-10T20:52:00Z,25068300,Em curso,1101,Cheia,0,0,0,0,2025-03-10T20:52:00Z,Almeirim,Santarém,Alentejo,-8.635002,39.187436
25256870,Santa Bárbara de Nexe,Algarve,313,2025-04-18T16:36:00Z,25256870,Em despacho,3321,Dano na rede de fornecimento de eletricidade ,0,1,0,2,2025-04-18T16:36:00Z,Faro,Faro,Algarve,-7.93934,37.11928
25256900,Ferreira,Tâmega e Sousa,309,2025-04-18T16:39:00Z,25256900,Em despacho,3301,Queda de árvore,0,1,0,2,2025-04-18T16:39:00Z,Paços De Ferreira,Porto,Norte,-8.350322,41.264706
25070044,Praia do Ribatejo,Médio Tejo,311,2025-03-10T19:30:00Z,25070044,Em curso,1101,Cheia,0,0,0,0,2025-03-10T19:30:00Z,Vila Nova Da Barquinha,Santarém,Centro,-8.357309,39.485638
25071496,São Manços e São Vicente do Pigeiro,Alentejo Central,312,2025-03-11T13:18:00Z,25071496,Em conclusão,1101,Cheia,0,0,0,0,2025-03-11T13:18:00Z,Évora,Évora,Alentejo,-7.713313,38.513673
25202441,Serpa (Salvador e Santa Maria),Baixo Alentejo,312,2025-04-06T10:25:00Z,25202441,Em conclusão,1101,Cheia,0,0,0,0,2025-04-06T10:25:00Z,Serpa,Beja,Alentejo,-7.555783,37.88592
25256887,"Cedofeita, Ildefonso, Sé, Miragaia, Nicolau e Vitória",Area M. Porto,309,2025-04-18T16:36:00Z,25256887,Em despacho,3315,Inundação de estruturas por precipitação intensa,0,1,0,5,2025-04-18T16:36:00Z,Porto,Porto,Norte,-8.615939,41.15359
