id,address,subregion,neighborhood,date,id.1,state,nature,nature_description,aerial_means,terrestrial_means,aquatic_means,operational,date.1,Concelho,Distrito,NUTII_DSG,longitude,latitude
25485173,Monchique,Algarve,313,2025-06-06T10:40:00Z,25485173,Em resolução,2101,Incêndio em edifícios habitacionais,0,4,0,8,2025-06-06T10:40:00Z,Monchique,Faro,Algarve,-8.614574,37.284529
25484535,Jou,Douro,309,2025-06-06T08:55:00Z,25484535,Em despacho,3107,Consolidação de rescaldo de incêndio rural,0,1,0,5,2025-06-06T08:55:00Z,Murça,Vila Real,Norte,-7.415113,41.46365
25484778,Vieira de Leiria,Região de Leiria,310,2025-06-06T09:40:00Z,25484778,Em conclusão,3111,Queima,0,3,0,9,2025-06-06T09:40:00Z,Marinha Grande,Leiria,Centro,-8.92962,39.869257
25484913,Muxagata,Douro,309,2025-06-06T09:20:00Z,25484913,Em curso,3109,Gestão de combustível,0,2,0,10,2025-06-06T09:20:00Z,Vila Nova De Foz Côa,Guarda,Norte,-7.162523,41.021165
25485098,Torre de Coelheiros,Alentejo Central,312,2025-06-06T10:37:00Z,25485098,Em conclusão,3103,Incêndio rural,0,7,0,25,2025-06-06T10:37:00Z,Évora,Évora,Alentejo,-7.949472,38.414978
25485164,Igreja Nova e Cheleiros,Grande Lisboa,311,2025-06-06T10:37:00Z,25485164,Em resolução,3111,Queima,0,3,0,12,2025-06-06T10:37:00Z,Mafra,Lisboa,Área Metropolitana De Lisboa,-9.319624,38.922723
