id,address,subregion,neighborhood,date,id.1,state,nature,nature_description,aerial_means,terrestrial_means,aquatic_means,operational,date.1,Concelho,Distrito,NUTII_DSG,longitude,latitude
24905168,Lamego (Almacave e Sé),Douro,309,2025-02-02T12:03:00Z,24905168,Em despacho,3317,Inundação de estruturas por água canalizada,0,1,0,2,2025-02-02T12:03:00Z,Lamego,Viseu,Norte,-7.818885,41.098809
24905184,Odivelas,Grande Lisboa,311,2025-02-02T11:57:00Z,24905184,Em conclusão,3321,Dano na rede de fornecimento de eletricidade ,0,1,0,5,2025-02-02T11:57:00Z,Odivelas,Lisboa,Área Metropolitana De Lisboa,-9.182813,38.793425
24851780,"São Miguel, Santa Eufémia e Rabaçal",Região de Coimbra,310,2025-01-21T23:25:00Z,24851780,Em curso,3315,Inundação de estruturas por precipitação intensa,0,0,0,0,2025-01-21T23:25:00Z,Penela,Coimbra,Centro,-8.399036,40.025502
24905087,"S.maria, S.miguel, S.martinho, S.pedro Penaferrim",Grande Lisboa,311,2025-02-02T11:49:00Z,24905087,Em despacho,3301,Queda de árvore,0,1,0,4,2025-02-02T11:49:00Z,Sintra,Lisboa,Área Metropolitana De Lisboa,-9.393304,38.794377
24905196,Aveiras de Baixo,Lezíria do Tejo,311,2025-02-02T12:12:00Z,24905196,Em despacho,3301,Queda de árvore,0,2,0,5,2025-02-02T12:12:00Z,Azambuja,Lisboa,Alentejo,-8.869588,39.111989
24877003,Malagueira e Horta Das Figueiras,Alentejo Central,312,2025-01-27T11:41:00Z,24877003,Em conclusão,3315,Inundação de estruturas por precipitação intensa,0,0,0,0,2025-01-27T11:41:00Z,Évora,Évora,Alentejo,-7.924277,38.57285
