id,address,subregion,neighborhood,date,id.1,state,nature,nature_description,aerial_means,terrestrial_means,aquatic_means,operational,date.1,Concelho,Distrito,NUTII_DSG,longitude,latitude,state_2
25974698,Bacelo e Senhora da Saúde,Alentejo Central,312,2025-09-11T11:52:00Z,25974698,Em Resolução/Conclusão,3103,Incêndio rural,0,5,0,13,2025-09-11T11:52:00Z,Évora,Évora,Alentejo,-7.909892,38.588517,Resolução/Conclusão
25974950,Almancil,Algarve,313,2025-09-11T12:13:00Z,25974950,Em Despacho,3111,Queima,0,1,0,3,2025-09-11T12:13:00Z,Loulé,Faro,Algarve,-8.028466,37.086336,Despacho
25832672,Piódão,Região de Coimbra,310,2025-08-13T05:08:00Z,25832672,Em Resolução/Conclusão,3103,Incêndio rural,0,14,0,41,2025-08-13T05:08:00Z,Arganil,Coimbra,Centro,-7.81972,40.23083,Resolução/Conclusão
25973249,Seiça,Médio Tejo,311,2025-09-11T05:33:00Z,25973249,Em Resolução/Conclusão,3111,Queima,0,0,0,0,2025-09-11T05:33:00Z,Ourém,Santarém,Centro,-8.517263,39.688323,Resolução/Conclusão
25974851,Loulé (São Clemente),Algarve,313,2025-09-11T12:27:00Z,25974851,Em Curso,3103,Incêndio rural,0,1,0,5,2025-09-11T12:27:00Z,Loulé,Faro,Algarve,-8.03661,37.12734,Curso
25952858,Figueira de Castelo Rodrigo,Beiras e Serra da Estrela,310,2025-09-06T16:22:00Z,25952858,Em Resolução/Conclusão,3103,Incêndio rural,0,4,0,17,2025-09-06T16:22:00Z,Figueira De Castelo Rodrigo,Guarda,Centro,-6.934648,40.906778,Resolução/Conclusão
25974684,Freixo de Espada à Cinta e Mazouco,Douro,309,2025-09-11T11:50:00Z,25974684,Em Despacho,3103,Incêndio rural,0,2,0,10,2025-09-11T11:50:00Z,Freixo De Espada à Cinta,Bragança,Norte,-6.858835,41.07877,Despacho
25951176,Sandomil,Beiras e Serra da Estrela,310,2025-09-06T10:29:00Z,25951176,Em Resolução/Conclusão,3103,Incêndio rural,0,17,0,59,2025-09-06T10:29:00Z,Seia,Guarda,Centro,-7.76001,40.351547,Resolução/Conclusão
25974805,"Coruche, Fajarda e Erra",Lezíria do Tejo,311,2025-09-11T12:16:00Z,25974805,Em Curso,3103,Incêndio rural,0,2,0,6,2025-09-11T12:16:00Z,Coruche,Santarém,Alentejo,-8.47345,38.966735,Curso
