id,address,subregion,neighborhood,date,id.1,state,nature,nature_description,aerial_means,terrestrial_means,aquatic_means,operational,date.1,Concelho,Distrito,NUTII_DSG,longitude,latitude
25457724,Santo André,Alentejo Litoral,312,2025-05-31T18:30:00Z,25457724,Em conclusão,2127,"Incêndio em edifícios e recintos industriais, oficinas e armazéns",0,7,0,18,2025-05-31T18:30:00Z,Santiago Do Cacém,Setúbal,Alentejo,-8.784407,38.048083
25461382,Pegões,Península de Setúbal,311,2025-06-01T13:30:00Z,25461382,Em curso,3201,Detritos não confinados,0,2,0,4,2025-06-01T13:30:00Z,Montijo,Setúbal,Área Metropolitana De Lisboa,-8.659163,38.685652
25463655,Mafra,Grande Lisboa,311,2025-06-01T23:31:00Z,25463655,Em conclusão,2101,Incêndio em edifícios habitacionais,0,4,0,14,2025-06-01T23:31:00Z,Mafra,Lisboa,Área Metropolitana De Lisboa,-9.374608,38.968088
25463709,Grijó e Sermonde,Area M. Porto,309,2025-06-02T00:05:00Z,25463709,Em resolução,3103,Incêndio rural,0,2,0,11,2025-06-02T00:05:00Z,Vila Nova De Gaia,Porto,Norte,-8.56704,41.03704
25462342,Cascais e Estoril,Grande Lisboa,311,2025-06-01T17:18:00Z,25462342,Em conclusão,2129,Incêndio em edifícios degradados ou devolutos,0,1,0,2,2025-06-01T17:18:00Z,Cascais,Lisboa,Área Metropolitana De Lisboa,-9.398951,38.710795
25463445,Vilar de Andorinho,Area M. Porto,309,2025-06-01T22:13:00Z,25463445,Em conclusão,3103,Incêndio rural,0,0,0,0,2025-06-01T22:13:00Z,Vila Nova De Gaia,Porto,Norte,-8.57747,41.092745
25463478,Formariz e Ferreira,Alto Minho,309,2025-06-01T22:30:00Z,25463478,Em curso,3103,Incêndio rural,0,5,0,17,2025-06-01T22:30:00Z,Paredes De Coura,Viana Do Castelo,Norte,-8.563595,41.960807
25463569,Vialonga,Grande Lisboa,311,2025-06-01T23:04:00Z,25463569,Em conclusão,2101,Incêndio em edifícios habitacionais,0,4,0,11,2025-06-01T23:04:00Z,Vila Franca De Xira,Lisboa,Área Metropolitana De Lisboa,-9.08927,38.85782
25463742,Caria,Beiras e Serra da Estrela,310,2025-06-02T00:15:00Z,25463742,Em conclusão,2101,Incêndio em edifícios habitacionais,0,2,0,7,2025-06-02T00:15:00Z,Belmonte,Castelo Branco,Centro,-7.358665,40.316547
