id,address,subregion,neighborhood,date,id.1,state,nature,nature_description,aerial_means,terrestrial_means,aquatic_means,operational,date.1,Concelho,Distrito,NUTII_DSG,longitude,latitude,state_2
25749681,Fornos de Maceira Dão,Viseu Dão Lafões,310,2025-07-29T01:19:00Z,25749681,Em Resolução/Conclusão,3103,Incêndio rural,0,5,0,16,2025-07-29T01:19:00Z,Mangualde,Viseu,Centro,-7.806963,40.617022,Resolução/Conclusão
25750701,Capela,Tâmega e Sousa,309,2025-07-29T09:26:00Z,25750701,Em Curso,3103,Incêndio rural,1,47,0,173,2025-07-29T09:26:00Z,Penafiel,Porto,Norte,-8.345202,41.09353,Curso
25755329,Ansião,Região de Leiria,310,2025-07-30T03:57:00Z,25755329,Em Resolução/Conclusão,3101,Incêndio rural,0,1,0,2,2025-07-30T03:57:00Z,Ansião,Leiria,Centro,-8.413872,39.930002,Resolução/Conclusão
25756818,Beça,Alto Tâmega e Barroso,309,2025-07-30T11:19:00Z,25756818,Em Resolução/Conclusão,3101,Incêndio rural,0,7,0,26,2025-07-30T11:19:00Z,Boticas,Vila Real,Norte,-7.696038,41.690308,Resolução/Conclusão
25757267,Penacova,Região de Coimbra,310,2025-07-30T12:46:00Z,25757267,Em Resolução/Conclusão,3101,Incêndio rural,0,6,0,24,2025-07-30T12:46:00Z,Vila Nova De Poiares,Coimbra,Centro,-8.23722,40.24306,Resolução/Conclusão
25748118,Canelas e Espiunca,Area M. Porto,309,2025-07-28T17:16:00Z,25748118,Em Curso,3101,Incêndio rural,6,265,0,771,2025-07-28T17:16:00Z,Arouca,Aveiro,Norte,-8.212231,40.969918,Curso
25749320,Rebordões (Santa Maria),Alto Minho,309,2025-07-28T22:47:00Z,25749320,Em Curso,3103,Incêndio rural,0,53,0,166,2025-07-28T22:47:00Z,Ponte De Lima,Viana Do Castelo,Norte,-8.588365,41.729993,Curso
25749641,Silva Escura e Dornelas,Região de Aveiro,310,2025-07-29T01:02:00Z,25749641,Em Resolução/Conclusão,3101,Incêndio rural,0,31,0,94,2025-07-29T01:02:00Z,Sever Do Vouga,Aveiro,Centro,-8.399623,40.769354,Resolução/Conclusão
25753666,São Cristóvão de Nogueira,Tâmega e Sousa,309,2025-07-29T18:21:00Z,25753666,Em Curso,3103,Incêndio rural,0,7,0,25,2025-07-29T18:21:00Z,Cinfães,Viseu,Norte,-8.134771,41.05519,Curso
25755320,Aguda,Região de Leiria,310,2025-07-30T03:51:00Z,25755320,Em Resolução/Conclusão,3101,Incêndio rural,0,1,0,2,2025-07-30T03:51:00Z,Figueiró Dos Vinhos,Leiria,Centro,-8.325572,39.927893,Resolução/Conclusão
25755571,Maceira,Beiras e Serra da Estrela,310,2025-07-30T07:20:00Z,25755571,Em Resolução/Conclusão,3103,Incêndio rural,0,1,0,5,2025-07-30T07:20:00Z,Fornos De Algodres,Guarda,Centro,-7.475667,40.697278,Resolução/Conclusão
25756006,Pinhanços,Beiras e Serra da Estrela,310,2025-07-30T09:07:00Z,25756006,Em Curso,3103,Incêndio rural,1,61,0,195,2025-07-30T09:07:00Z,Seia,Guarda,Centro,-7.708132,40.473517,Curso
25756459,Nespereira,Tâmega e Sousa,309,2025-07-30T10:20:00Z,25756459,Em Curso,3103,Incêndio rural,0,6,0,32,2025-07-30T10:20:00Z,Cinfães,Viseu,Norte,-8.141828,41.030877,Curso
25756626,Pinelo,Terras de Trás-os-Montes,309,2025-07-30T10:45:00Z,25756626,Em Resolução/Conclusão,3103,Incêndio rural,0,3,0,7,2025-07-30T10:45:00Z,Vimioso,Bragança,Norte,-6.545307,41.675165,Resolução/Conclusão
25757361,Algueirão-Mem Martins,Grande Lisboa,311,2025-07-30T13:06:00Z,25757361,Em Resolução/Conclusão,3103,Incêndio rural,0,30,0,105,2025-07-30T13:06:00Z,Sintra,Lisboa,Área Metropolitana De Lisboa,-9.353645,38.79424,Resolução/Conclusão
25757512,"Requeixo, Nossa Senhora de Fátima e Nariz",Região de Aveiro,310,2025-07-30T13:24:00Z,25757512,Em Resolução/Conclusão,3101,Incêndio rural,0,2,0,7,2025-07-30T13:24:00Z,Aveiro,Aveiro,Centro,-8.576009,40.577003,Resolução/Conclusão
25757513,Rio Douro,Ave,309,2025-07-30T13:34:00Z,25757513,Em Resolução/Conclusão,3103,Incêndio rural,0,4,0,16,2025-07-30T13:34:00Z,Cabeceiras De Basto,Braga,Norte,-7.949223,41.543387,Resolução/Conclusão
25757579,Coronado (São Romão e São Mamede),Area M. Porto,309,2025-07-30T13:42:00Z,25757579,Em Resolução/Conclusão,3103,Incêndio rural,1,13,0,47,2025-07-30T13:42:00Z,Trofa,Porto,Norte,-8.570827,41.295073,Resolução/Conclusão
25757728,Campo e Sobrado,Area M. Porto,309,2025-07-30T14:10:00Z,25757728,Em Despacho,3101,Incêndio rural,0,1,0,5,2025-07-30T14:10:00Z,Valongo,Porto,Norte,-8.468037,41.181584,Despacho
25757761,Campo e Sobrado,Area M. Porto,309,2025-07-30T14:15:00Z,25757761,Em Despacho,3101,Incêndio rural,0,1,0,6,2025-07-30T14:15:00Z,Valongo,Porto,Norte,-8.468037,41.181584,Despacho
25749937,Tarouquela,Tâmega e Sousa,309,2025-07-29T04:11:00Z,25749937,Em Curso,3103,Incêndio rural,0,19,0,67,2025-07-29T04:11:00Z,Cinfães,Viseu,Norte,-8.173308,41.072792,Curso
25751046,Castelejo,Beiras e Serra da Estrela,310,2025-07-29T10:13:00Z,25751046,Em Resolução/Conclusão,3103,Incêndio rural,0,4,0,10,2025-07-29T10:13:00Z,Fundão,Castelo Branco,Centro,-7.604291,40.108879,Resolução/Conclusão
25751241,Molelos,Viseu Dão Lafões,310,2025-07-29T10:43:00Z,25751241,Em Resolução/Conclusão,3103,Incêndio rural,0,6,0,21,2025-07-29T10:43:00Z,Tondela,Viseu,Centro,-8.09574,40.551495,Resolução/Conclusão
25751355,"Crato e Mártires, Flor da Rosa e Vale do Peso",Alto Alentejo,312,2025-07-29T10:59:00Z,25751355,Em Resolução/Conclusão,3103,Incêndio rural,0,1,0,4,2025-07-29T10:59:00Z,Crato,Portalegre,Alentejo,-7.641857,39.351982,Resolução/Conclusão
25751893,"Espírito Santo, Nossa Senhora da Graça e São Simão",Alto Alentejo,312,2025-07-29T12:32:00Z,25751893,Em Resolução/Conclusão,3101,Incêndio rural,0,85,0,253,2025-07-29T12:32:00Z,Nisa,Portalegre,Alentejo,-7.634827,39.571162,Resolução/Conclusão
25753170,"Leiria, Pousos, Barreira e Cortes",Região de Leiria,310,2025-07-29T16:36:00Z,25753170,Em Resolução/Conclusão,3101,Incêndio rural,0,3,0,11,2025-07-29T16:36:00Z,Leiria,Leiria,Centro,-8.795755,39.709552,Resolução/Conclusão
25755083,Avelar,Região de Leiria,310,2025-07-30T00:57:00Z,25755083,Em Resolução/Conclusão,3103,Incêndio rural,0,2,0,4,2025-07-30T00:57:00Z,Ansião,Leiria,Centro,-8.341278,39.93576,Resolução/Conclusão
25755317,Oliveira do Douro,Tâmega e Sousa,309,2025-07-30T03:45:00Z,25755317,Em Resolução/Conclusão,3103,Incêndio rural,0,2,0,6,2025-07-30T03:45:00Z,Cinfães,Viseu,Norte,-8.075338,41.08348,Resolução/Conclusão
25755669,Lordelo,Area M. Porto,309,2025-07-30T07:51:00Z,25755669,Em Resolução/Conclusão,3103,Incêndio rural,0,18,0,76,2025-07-30T07:51:00Z,Paredes,Porto,Norte,-8.419573,41.244742,Resolução/Conclusão
25756355,Padreiro (Salvador e Santa Cristina),Alto Minho,309,2025-07-30T10:02:00Z,25756355,Em Resolução/Conclusão,3103,Incêndio rural,0,0,0,0,2025-07-30T10:02:00Z,Arcos De Valdevez,Viana Do Castelo,Norte,-8.492345,41.833095,Resolução/Conclusão
25757930,São Domingos de Rana,Grande Lisboa,311,2025-07-30T14:37:00Z,25757930,Em Despacho,3103,Incêndio rural,0,1,0,4,2025-07-30T14:37:00Z,Cascais,Lisboa,Área Metropolitana De Lisboa,-9.347651,38.740483,Despacho
25757964,"Gondomar (São Cosme), Valbom e Jovim",Area M. Porto,309,2025-07-30T14:44:00Z,25757964,Em Despacho,3101,Incêndio rural,0,2,0,7,2025-07-30T14:44:00Z,Gondomar,Porto,Norte,-8.535295,41.129255,Despacho
25757286,Santa Cruz do Douro e São Tomé de Covelas,Tâmega e Sousa,309,2025-07-30T12:52:00Z,25757286,Em Curso,3103,Incêndio rural,0,13,0,46,2025-07-30T12:52:00Z,Baião,Porto,Norte,-7.971262,41.122462,Curso
25757436,Rego,Tâmega e Sousa,309,2025-07-30T13:21:00Z,25757436,Em Resolução/Conclusão,3103,Incêndio rural,0,3,0,11,2025-07-30T13:21:00Z,Celorico De Basto,Braga,Norte,-8.079918,41.437935,Resolução/Conclusão
25757570,Rio Tinto,Area M. Porto,309,2025-07-30T13:36:00Z,25757570,Em Resolução/Conclusão,3103,Incêndio rural,0,3,0,9,2025-07-30T13:36:00Z,Gondomar,Porto,Norte,-8.560102,41.179302,Resolução/Conclusão
25757671,São Jorge e Ermelo,Alto Minho,309,2025-07-30T14:05:00Z,25757671,Em Resolução/Conclusão,3103,Incêndio rural,0,2,0,8,2025-07-30T14:05:00Z,Arcos De Valdevez,Viana Do Castelo,Norte,-8.382293,41.821069,Resolução/Conclusão
25757686,Chãos,Médio Tejo,311,2025-07-30T14:09:00Z,25757686,Em Resolução/Conclusão,3101,Incêndio rural,0,12,0,43,2025-07-30T14:09:00Z,Ferreira Do Zêzere,Santarém,Centro,-8.38389,39.698572,Resolução/Conclusão
25757853,São Jorge e Ermelo,Alto Minho,309,2025-07-30T14:35:00Z,25757853,Em Curso,3103,Incêndio rural,0,1,0,9,2025-07-30T14:35:00Z,Arcos De Valdevez,Viana Do Castelo,Norte,-8.35418,41.81357,Curso
25757921,São Domingos de Rana,Grande Lisboa,311,2025-07-30T14:40:00Z,25757921,Em Curso,3103,Incêndio rural,0,0,0,0,2025-07-30T14:40:00Z,Cascais,Lisboa,Área Metropolitana De Lisboa,-9.340115,38.702729,Curso
25757473,Côja e Barril de Alva,Região de Coimbra,310,2025-07-30T13:25:00Z,25757473,Em Resolução/Conclusão,3101,Incêndio rural,0,13,0,48,2025-07-30T13:25:00Z,Arganil,Coimbra,Centro,-7.97694,40.25889,Resolução/Conclusão
25757766,Calde,Viseu Dão Lafões,310,2025-07-30T14:19:00Z,25757766,Em Resolução/Conclusão,3103,Incêndio rural,2,21,0,83,2025-07-30T14:19:00Z,Viseu,Viseu,Centro,-7.898995,40.758803,Resolução/Conclusão
25757884,Sopo,Alto Minho,309,2025-07-30T14:39:00Z,25757884,Em Resolução/Conclusão,3101,Incêndio rural,0,3,0,14,2025-07-30T14:39:00Z,Vila Nova De Cerveira,Viana Do Castelo,Norte,-8.742605,41.899539,Resolução/Conclusão
25757957,São Domingos de Rana,Grande Lisboa,311,2025-07-30T14:45:00Z,25757957,Em Despacho,3103,Incêndio rural,0,1,0,5,2025-07-30T14:45:00Z,Cascais,Lisboa,Área Metropolitana De Lisboa,-9.31977,38.723655,Despacho
25757966,Beduído e Veiros,Região de Aveiro,310,2025-07-30T14:52:00Z,25757966,Em Resolução/Conclusão,3103,Incêndio rural,0,6,0,17,2025-07-30T14:52:00Z,Estarreja,Aveiro,Centro,-8.573611,40.75444,Resolução/Conclusão
25757991,Tabuadelo e São Faustino,Ave,309,2025-07-30T14:57:00Z,25757991,Em Despacho,3103,Incêndio rural,1,7,0,36,2025-07-30T14:57:00Z,Guimarães,Braga,Norte,-8.300312,41.39616,Despacho
25757971,Ninho do Açor e Sobral do Campo,Beira Baixa,310,2025-07-30T14:54:00Z,25757971,Em Curso,3103,Incêndio rural,8,25,0,111,2025-07-30T14:54:00Z,Castelo Branco,Castelo Branco,Centro,-7.56989,39.994727,Curso
25738747,Lindoso,Alto Minho,309,2025-07-26T21:47:00Z,25738747,Em Curso,3103,Incêndio rural,5,126,0,386,2025-07-26T21:47:00Z,Ponte Da Barca,Viana Do Castelo,Norte,-8.220528,41.865272,Curso
25747773,Aranhas,Beira Baixa,310,2025-07-28T16:36:00Z,25747773,Em Resolução/Conclusão,3103,Incêndio rural,0,110,0,329,2025-07-28T16:36:00Z,Penamacor,Castelo Branco,Centro,-7.14438,40.117542,Resolução/Conclusão
25749611,Sameice e Santa Eulália,Beiras e Serra da Estrela,310,2025-07-29T00:44:00Z,25749611,Em Resolução/Conclusão,3103,Incêndio rural,0,1,0,5,2025-07-29T00:44:00Z,Seia,Guarda,Centro,-7.77621,40.42021,Resolução/Conclusão
25750845,Fornos,Tâmega e Sousa,309,2025-07-29T09:46:00Z,25750845,Em Resolução/Conclusão,3103,Incêndio rural,0,13,0,43,2025-07-29T09:46:00Z,Castelo De Paiva,Aveiro,Norte,-8.247077,41.050502,Resolução/Conclusão
25751999,Pombal,Região de Leiria,310,2025-07-29T12:53:00Z,25751999,Em Resolução/Conclusão,3101,Incêndio rural,0,4,0,9,2025-07-29T12:53:00Z,Pombal,Leiria,Centro,-8.6801,39.93227,Resolução/Conclusão
25752083,Alcanede,Lezíria do Tejo,311,2025-07-29T13:12:00Z,25752083,Em Resolução/Conclusão,3103,Incêndio rural,0,88,0,270,2025-07-29T13:12:00Z,Santarém,Santarém,Alentejo,-8.802682,39.405543,Resolução/Conclusão
25755311,"Bagunte, Ferreiró, Outeiro Maior e Parada",Area M. Porto,309,2025-07-30T03:35:00Z,25755311,Em Resolução/Conclusão,3103,Incêndio rural,0,2,0,4,2025-07-30T03:35:00Z,Vila Do Conde,Porto,Norte,-8.679147,41.35679,Resolução/Conclusão
25755418,"Silvares, Pias, Nogueira e Alvarenga",Tâmega e Sousa,309,2025-07-30T05:16:00Z,25755418,Em Resolução/Conclusão,3103,Incêndio rural,0,3,0,11,2025-07-30T05:16:00Z,Lousada,Porto,Norte,-8.278102,41.301833,Resolução/Conclusão
25755452,Travancas e Roriz,Alto Tâmega e Barroso,309,2025-07-30T06:01:00Z,25755452,Em Resolução/Conclusão,3103,Incêndio rural,0,1,0,5,2025-07-30T06:01:00Z,Chaves,Vila Real,Norte,-7.319995,41.815377,Resolução/Conclusão
25755711,São Jorge e Ermelo,Alto Minho,309,2025-07-30T08:10:00Z,25755711,Em Resolução/Conclusão,3103,Incêndio rural,0,0,0,0,2025-07-30T08:10:00Z,Arcos De Valdevez,Viana Do Castelo,Norte,-8.35823,41.813058,Resolução/Conclusão
25756606,São João de Areias,Viseu Dão Lafões,310,2025-07-30T10:43:00Z,25756606,Em Resolução/Conclusão,3101,Incêndio rural,0,10,0,34,2025-07-30T10:43:00Z,Santa Comba Dão,Viseu,Centro,-8.093252,40.380433,Resolução/Conclusão
25756620,Recarei,Area M. Porto,309,2025-07-30T10:47:00Z,25756620,Em Curso,3103,Incêndio rural,2,42,0,131,2025-07-30T10:47:00Z,Paredes,Porto,Norte,-8.416721,41.151,Curso
25757488,Antime e Silvares (São Clemente),Ave,309,2025-07-30T13:27:00Z,25757488,Em Resolução/Conclusão,3103,Incêndio rural,0,1,0,5,2025-07-30T13:27:00Z,Fafe,Braga,Norte,-8.16342,41.430679,Resolução/Conclusão
25757747,Sangalhos,Região de Aveiro,310,2025-07-30T14:17:00Z,25757747,Em Resolução/Conclusão,3105,Incêndio rural,0,5,0,18,2025-07-30T14:17:00Z,Anadia,Aveiro,Centro,-8.476373,40.484678,Resolução/Conclusão
25757792,"Almargem do Bispo, Pêro Pinheiro e Montelavar",Grande Lisboa,311,2025-07-30T14:19:00Z,25757792,Em Curso,3103,Incêndio rural,0,16,0,58,2025-07-30T14:19:00Z,Sintra,Lisboa,Área Metropolitana De Lisboa,-9.311187,38.830933,Curso
25757849,Porto Salvo,Grande Lisboa,311,2025-07-30T14:32:00Z,25757849,Em Despacho,3103,Incêndio rural,0,8,0,29,2025-07-30T14:32:00Z,Oeiras,Lisboa,Área Metropolitana De Lisboa,-9.30779,38.7268,Despacho
25757890,Milharado,Grande Lisboa,311,2025-07-30T14:41:00Z,25757890,Em Curso,3103,Incêndio rural,1,9,0,40,2025-07-30T14:41:00Z,Mafra,Lisboa,Área Metropolitana De Lisboa,-9.170143,38.951171,Curso
