id,address,subregion,neighborhood,date,id.1,state,nature,nature_description,aerial_means,terrestrial_means,aquatic_means,operational,date.1,Concelho,Distrito,NUTII_DSG,longitude,latitude
24851780,"São Miguel, Santa Eufémia e Rabaçal",Região de Coimbra,310,2025-01-21T23:25:00Z,24851780,Em curso,3315,Inundação de estruturas por precipitação intensa,0,0,0,0,2025-01-21T23:25:00Z,Penela,Coimbra,Centro,-8.399036,40.025502
24899041,Buarcos,Região de Coimbra,310,2025-01-31T21:09:00Z,24899041,Em despacho,3329,Queda de estruturas temporárias ou móveis,0,1,0,2,2025-01-31T21:09:00Z,Figueira Da Foz,Coimbra,Centro,-8.861923,40.150493
24877003,Malagueira e Horta Das Figueiras,Alentejo Central,312,2025-01-27T11:41:00Z,24877003,Em conclusão,3315,Inundação de estruturas por precipitação intensa,0,0,0,0,2025-01-27T11:41:00Z,Évora,Évora,Alentejo,-7.924277,38.57285
24898634,Ranhados,Viseu Dão Lafões,310,2025-01-31T19:27:00Z,24898634,Em despacho,3317,Inundação de estruturas por água canalizada,0,1,0,2,2025-01-31T19:27:00Z,Viseu,Viseu,Centro,-7.887212,40.646937
24898849,Caldelas,Ave,309,2025-01-31T20:18:00Z,24898849,Em despacho,3317,Inundação de estruturas por água canalizada,0,1,0,2,2025-01-31T20:18:00Z,Guimarães,Braga,Norte,-8.344354,41.491575
