id,address,subregion,neighborhood,date,id.1,state,nature,nature_description,aerial_means,terrestrial_means,aquatic_means,operational,date.1,Concelho,Distrito,NUTII_DSG,longitude,latitude,state_2
26110435,Ala e Vilarinho do Monte,Terras de Trás-os-Montes,309,2025-10-09T11:02:00Z,26110435,Em Resolução/Conclusão,3103,Incêndio rural,0,7,0,17,2025-10-09T11:02:00Z,Macedo De Cavaleiros,Bragança,Norte,-7.074403,41.591523,Resolução/Conclusão
26112141,Penamacor,Beira Baixa,310,2025-10-09T16:22:00Z,26112141,Em Resolução/Conclusão,3103,Incêndio rural,0,0,0,0,2025-10-09T16:22:00Z,Penamacor,Castelo Branco,Centro,-7.172652,40.166245,Resolução/Conclusão
26112242,Monte e Queimadela,Ave,309,2025-10-09T16:44:00Z,26112242,Em Curso,3103,Incêndio rural,1,3,0,21,2025-10-09T16:44:00Z,Fafe,Braga,Norte,-8.14296,41.494592,Curso
26112360,Sobrado e Bairros,Tâmega e Sousa,309,2025-10-09T17:13:00Z,26112360,Em Despacho,3103,Incêndio rural,1,4,0,23,2025-10-09T17:13:00Z,Castelo De Paiva,Aveiro,Norte,-8.272282,41.043322,Despacho
26111029,Nogueira da Montanha,Alto Tâmega e Barroso,309,2025-10-09T13:00:00Z,26111029,Em Resolução/Conclusão,3103,Incêndio rural,0,2,0,7,2025-10-09T13:00:00Z,Chaves,Vila Real,Norte,-7.445764,41.685791,Resolução/Conclusão
26111867,Outeiro,Alto Tâmega e Barroso,309,2025-10-09T15:27:00Z,26111867,Em Resolução/Conclusão,3103,Incêndio rural,0,3,0,15,2025-10-09T15:27:00Z,Montalegre,Vila Real,Norte,-7.967067,41.814502,Resolução/Conclusão
26093602,Castro Daire,Viseu Dão Lafões,310,2025-10-05T22:05:00Z,26093602,Em Resolução/Conclusão,3103,Incêndio rural,0,0,0,0,2025-10-05T22:05:00Z,Castro Daire,Viseu,Centro,-7.9408,40.925289,Resolução/Conclusão
26110902,Salir de Matos,Oeste,311,2025-10-09T12:33:00Z,26110902,Em Resolução/Conclusão,3103,Incêndio rural,0,1,0,2,2025-10-09T12:33:00Z,Caldas Da Rainha,Leiria,Centro,-9.096202,39.422148,Resolução/Conclusão
26111743,"Ovar, São João, Arada e São Vicente de Pereira Jusã",Região de Aveiro,310,2025-10-09T15:06:00Z,26111743,Em Resolução/Conclusão,3101,Incêndio rural,0,5,0,17,2025-10-09T15:06:00Z,Ovar,Aveiro,Centro,-8.564737,40.869942,Resolução/Conclusão
26111804,Santa Catarina da Serra e Chainça,Região de Leiria,310,2025-10-09T15:17:00Z,26111804,Em Resolução/Conclusão,3103,Incêndio rural,0,1,0,2,2025-10-09T15:17:00Z,Ourém,Santarém,Centro,-8.660518,39.614093,Resolução/Conclusão
26112320,Mindelo,Area M. Porto,309,2025-10-09T16:48:00Z,26112320,Em Resolução/Conclusão,3103,Incêndio rural,0,2,0,7,2025-10-09T16:48:00Z,Vila Do Conde,Porto,Norte,-8.721492,41.321552,Resolução/Conclusão
26111603,Rendufinho,Ave,309,2025-10-09T14:47:00Z,26111603,Em Resolução/Conclusão,3103,Incêndio rural,1,11,0,43,2025-10-09T14:47:00Z,Póvoa De Lanhoso,Braga,Norte,-8.2432,41.616318,Resolução/Conclusão
26111762,Alcabideche,Grande Lisboa,311,2025-10-09T15:02:00Z,26111762,Em Resolução/Conclusão,3111,Queima,0,1,0,5,2025-10-09T15:02:00Z,Cascais,Lisboa,Área Metropolitana De Lisboa,-9.41439,38.712196,Resolução/Conclusão
26111803,Alfena,Area M. Porto,309,2025-10-09T15:17:00Z,26111803,Em Resolução/Conclusão,3103,Incêndio rural,0,3,0,9,2025-10-09T15:17:00Z,Valongo,Porto,Norte,-8.534717,41.217832,Resolução/Conclusão
26111894,Madalena,Area M. Porto,309,2025-10-09T15:31:00Z,26111894,Em Resolução/Conclusão,3111,Queima,0,1,0,5,2025-10-09T15:31:00Z,Vila Nova De Gaia,Porto,Norte,-8.635154,41.10463,Resolução/Conclusão
26112321,Turcifal,Oeste,311,2025-10-09T17:01:00Z,26112321,Em Curso,3101,Incêndio rural,1,6,0,25,2025-10-09T17:01:00Z,Torres Vedras,Lisboa,Centro,-9.255618,39.031445,Curso
