id,address,subregion,neighborhood,date,id.1,state,nature,nature_description,aerial_means,terrestrial_means,aquatic_means,operational,date.1,Concelho,Distrito,NUTII_DSG,longitude,latitude
25575374,Beja (Salvador e Santa Maria da Feira),Baixo Alentejo,312,2025-06-24T21:58:00Z,25575374,Em conclusão,3105,Incêndio rural,0,3,0,9,2025-06-24T21:58:00Z,Beja,Beja,Alentejo,-7.860073,38.027303
25575382,Campelo e Ovil,Tâmega e Sousa,309,2025-06-24T22:05:00Z,25575382,Em conclusão,3103,Incêndio rural,0,2,0,7,2025-06-24T22:05:00Z,Baião,Porto,Norte,-8.041163,41.152933
25575432,Fânzeres e São Pedro da Cova,Area M. Porto,309,2025-06-24T22:13:00Z,25575432,Em despacho,3103,Incêndio rural,0,1,0,5,2025-06-24T22:13:00Z,Gondomar,Porto,Norte,-8.511531,41.155311
25575353,Odivelas,Grande Lisboa,311,2025-06-24T21:45:00Z,25575353,Em conclusão,2101,Incêndio em edifícios habitacionais,0,1,0,5,2025-06-24T21:45:00Z,Odivelas,Lisboa,Área Metropolitana De Lisboa,-9.182813,38.793425
25575271,Castêlo da Maia,Area M. Porto,309,2025-06-24T21:21:00Z,25575271,Em conclusão,3105,Incêndio rural,0,1,0,5,2025-06-24T21:21:00Z,Maia,Porto,Norte,-8.614143,41.278895
25575068,Colares,Grande Lisboa,311,2025-06-24T20:26:00Z,25575068,Em conclusão,3111,Queima,0,1,0,2,2025-06-24T20:26:00Z,Sintra,Lisboa,Área Metropolitana De Lisboa,-9.451332,38.81232
25575386,Sobreposta,Cávado,309,2025-06-24T22:04:00Z,25575386,Em curso,3103,Incêndio rural,0,4,0,20,2025-06-24T22:04:00Z,Braga,Braga,Norte,-8.33661,41.55385
25575255,"Ovar, São João, Arada e São Vicente de Pereira Jusã",Região de Aveiro,310,2025-06-24T21:17:00Z,25575255,Em conclusão,3103,Incêndio rural,0,1,0,5,2025-06-24T21:17:00Z,Ovar,Aveiro,Centro,-8.590452,40.894257
25575422,Lagares e Figueira,Tâmega e Sousa,309,2025-06-24T22:09:00Z,25575422,Em despacho,3103,Incêndio rural,0,4,0,17,2025-06-24T22:09:00Z,Penafiel,Porto,Norte,-8.35102,41.116135
25575396,Caldas da Rainha - Santo Onofre e Serra do Bouro,Oeste,311,2025-06-24T22:05:00Z,25575396,Em resolução,3111,Queima,0,4,0,11,2025-06-24T22:05:00Z,Caldas Da Rainha,Leiria,Centro,-9.148929,39.401713
25575410,Nespereira,Ave,309,2025-06-24T22:15:00Z,25575410,Em despacho,3107,Consolidação de rescaldo de incêndio rural,0,1,0,5,2025-06-24T22:15:00Z,Guimarães,Braga,Norte,-8.327213,41.406748
25575445,"St.tirso, Couto (S.cristina e S.miguel) e Burgães",Area M. Porto,309,2025-06-24T22:14:00Z,25575445,Em despacho,3103,Incêndio rural,0,1,0,5,2025-06-24T22:14:00Z,Santo Tirso,Porto,Norte,-8.474679,41.335886
