id,address,subregion,neighborhood,date,id.1,state,nature,nature_description,aerial_means,terrestrial_means,aquatic_means,operational,date.1,Concelho,Distrito,NUTII_DSG,longitude,latitude,state_2
26106068,Santa Marinha do Zêzere,Tâmega e Sousa,309,2025-10-08T12:07:00Z,26106068,Em Resolução/Conclusão,3103,Incêndio rural,0,1,0,5,2025-10-08T12:07:00Z,Baião,Porto,Norte,-7.945993,41.155528,Resolução/Conclusão
26106843,Viade de Baixo e Fervidelas,Alto Tâmega e Barroso,309,2025-10-08T14:56:00Z,26106843,Em Resolução/Conclusão,3103,Incêndio rural,0,1,0,5,2025-10-08T14:56:00Z,Montalegre,Vila Real,Norte,-7.828502,41.766327,Resolução/Conclusão
26108129,Calvos e Frades,Ave,309,2025-10-08T20:04:00Z,26108129,Em Resolução/Conclusão,3103,Incêndio rural,0,4,0,17,2025-10-08T20:04:00Z,Póvoa De Lanhoso,Braga,Norte,-8.244257,41.614605,Resolução/Conclusão
26108397,Galafura e Covelinhas,Douro,309,2025-10-08T21:17:00Z,26108397,Em Despacho,3103,Incêndio rural,0,3,0,15,2025-10-08T21:17:00Z,Peso Da Régua,Vila Real,Norte,-7.693502,41.15873,Despacho
26108447,Castelo Branco,Beira Baixa,310,2025-10-08T21:37:00Z,26108447,Em Curso,3101,Incêndio rural,0,7,0,26,2025-10-08T21:37:00Z,Castelo Branco,Castelo Branco,Centro,-7.490756,39.816895,Curso
26093602,Castro Daire,Viseu Dão Lafões,310,2025-10-05T22:05:00Z,26093602,Em Resolução/Conclusão,3103,Incêndio rural,0,0,0,0,2025-10-05T22:05:00Z,Castro Daire,Viseu,Centro,-7.9408,40.925289,Resolução/Conclusão
26108128,Casteleiro,Beiras e Serra da Estrela,310,2025-10-08T20:00:00Z,26108128,Em Resolução/Conclusão,3103,Incêndio rural,0,3,0,11,2025-10-08T20:00:00Z,Sabugal,Guarda,Centro,-7.2051,40.31671,Resolução/Conclusão
26108270,Rio de Moinhos,Tâmega e Sousa,309,2025-10-08T20:41:00Z,26108270,Em Resolução/Conclusão,3103,Incêndio rural,0,1,0,5,2025-10-08T20:41:00Z,Penafiel,Porto,Norte,-8.266107,41.119853,Resolução/Conclusão
26108443,Samora Correia,Lezíria do Tejo,311,2025-10-08T21:37:00Z,26108443,Em Curso,3111,Queima,0,3,0,9,2025-10-08T21:37:00Z,Benavente,Santarém,Alentejo,-8.86482,38.92268,Curso
