id,address,subregion,neighborhood,date,id.1,state,nature,nature_description,aerial_means,terrestrial_means,aquatic_means,operational,date.1,Concelho,Distrito,NUTII_DSG,longitude,latitude
25057015,Santa Maria do Castelo e Santiago e Santa Susana,Alentejo Litoral,312,2025-03-08T10:20:00Z,25057015,Em curso,1101,Cheia,0,0,0,0,2025-03-08T10:20:00Z,Alcácer Do Sal,Setúbal,Alentejo,-8.432801,38.398147
25063232,Santa Maria do Castelo e Santiago e Santa Susana,Alentejo Litoral,312,2025-03-09T19:02:00Z,25063232,Em curso,1101,Cheia,0,0,0,0,2025-03-09T19:02:00Z,Alcácer Do Sal,Setúbal,Alentejo,-8.48167,38.29806
25080301,São José da Lamarosa,Lezíria do Tejo,311,2025-03-13T10:58:00Z,25080301,Em despacho,3321,Dano na rede de fornecimento de eletricidade ,0,1,0,1,2025-03-13T10:58:00Z,Coruche,Santarém,Alentejo,-8.464709,39.066108
25059714,Torrão,Alentejo Litoral,312,2025-03-08T22:10:00Z,25059714,Em curso,1101,Cheia,0,0,0,0,2025-03-08T22:10:00Z,Alcácer Do Sal,Setúbal,Alentejo,-8.359133,38.252053
25070044,Praia do Ribatejo,Médio Tejo,311,2025-03-10T19:30:00Z,25070044,Em curso,1101,Cheia,0,0,0,0,2025-03-10T19:30:00Z,Vila Nova Da Barquinha,Santarém,Centro,-8.357309,39.485638
25071496,São Manços e São Vicente do Pigeiro,Alentejo Central,312,2025-03-11T13:18:00Z,25071496,Em curso,1101,Cheia,0,2,0,4,2025-03-11T13:18:00Z,Évora,Évora,Alentejo,-7.713313,38.513673
25067716,Salir,Algarve,313,2025-03-10T18:27:00Z,25067716,Em curso,3313,Deslizamento de terras,0,0,0,0,2025-03-10T18:27:00Z,Loulé,Faro,Algarve,-7.957935,37.23457
25068300,Almeirim,Lezíria do Tejo,311,2025-03-10T20:52:00Z,25068300,Em curso,1101,Cheia,0,0,0,0,2025-03-10T20:52:00Z,Almeirim,Santarém,Alentejo,-8.635002,39.187436
25079959,Silves,Algarve,313,2025-03-13T09:43:00Z,25079959,Em conclusão,3301,Queda de árvore,0,8,0,21,2025-03-13T09:43:00Z,Silves,Faro,Algarve,-8.464216,37.197646
25080400,Carcavelos e Parede,Grande Lisboa,311,2025-03-13T11:03:00Z,25080400,Em despacho,3315,Inundação de estruturas por precipitação intensa,0,1,0,2,2025-03-13T11:03:00Z,Cascais,Lisboa,Área Metropolitana De Lisboa,-9.355169,38.690219
