id,address,subregion,neighborhood,date,id.1,state,nature,nature_description,aerial_means,terrestrial_means,aquatic_means,operational,date.1,Concelho,Distrito,NUTII_DSG,longitude,latitude,state_2
26093991,Santa Comba,Beiras e Serra da Estrela,310,2025-10-06T01:09:00Z,26093991,Em Resolução/Conclusão,3101,Incêndio rural,0,2,0,7,2025-10-06T01:09:00Z,Seia,Guarda,Centro,-7.745905,40.442718,Resolução/Conclusão
26096901,"Geraz do Lima (S.maria, S.leocádia, Moreira), Deão",Alto Minho,309,2025-10-06T14:44:00Z,26096901,Em Resolução/Conclusão,3103,Incêndio rural,0,4,0,14,2025-10-06T14:44:00Z,Viana Do Castelo,Viana Do Castelo,Norte,-8.674877,41.687823,Resolução/Conclusão
26103252,Baguim do Monte (Rio Tinto),Area M. Porto,309,2025-10-07T19:19:00Z,26103252,Em Resolução/Conclusão,3103,Incêndio rural,0,1,0,5,2025-10-07T19:19:00Z,Gondomar,Porto,Norte,-8.542001,41.19305,Resolução/Conclusão
26101873,Outeiro,Alto Tâmega e Barroso,309,2025-10-07T14:48:00Z,26101873,Em Resolução/Conclusão,3103,Incêndio rural,0,1,0,5,2025-10-07T14:48:00Z,Montalegre,Vila Real,Norte,-7.953362,41.798845,Resolução/Conclusão
26102138,Sobral da Adiça,Baixo Alentejo,312,2025-10-07T15:40:00Z,26102138,Em Resolução/Conclusão,3105,Incêndio rural,0,0,0,0,2025-10-07T15:40:00Z,Moura,Beja,Alentejo,-7.333733,38.01696,Resolução/Conclusão
26103307,Ferreiros de Tendais,Tâmega e Sousa,309,2025-10-07T19:40:00Z,26103307,Em Despacho,3103,Incêndio rural,0,4,0,20,2025-10-07T19:40:00Z,Cinfães,Viseu,Norte,-8.051061,41.047881,Despacho
26093602,Castro Daire,Viseu Dão Lafões,310,2025-10-05T22:05:00Z,26093602,Em Resolução/Conclusão,3103,Incêndio rural,0,1,0,5,2025-10-05T22:05:00Z,Castro Daire,Viseu,Centro,-7.9408,40.925289,Resolução/Conclusão
26102637,Santa Cruz do Douro e São Tomé de Covelas,Tâmega e Sousa,309,2025-10-07T17:17:00Z,26102637,Em Resolução/Conclusão,3105,Incêndio rural,0,1,0,5,2025-10-07T17:17:00Z,Baião,Porto,Norte,-8.001688,41.108637,Resolução/Conclusão
26103262,Marinhais,Lezíria do Tejo,311,2025-10-07T19:29:00Z,26103262,Em Resolução/Conclusão,3105,Incêndio rural,0,6,0,20,2025-10-07T19:29:00Z,Salvaterra De Magos,Santarém,Alentejo,-8.731658,39.048068,Resolução/Conclusão
