id,address,subregion,neighborhood,date,id.1,state,nature,nature_description,aerial_means,terrestrial_means,aquatic_means,operational,date.1,Concelho,Distrito,NUTII_DSG,longitude,latitude
25553875,Ermelo e Pardelhas,Ave,309,2025-06-20T14:38:00Z,25553875,Em resolução,3107,Consolidação de rescaldo de incêndio rural,0,5,0,16,2025-06-20T14:38:00Z,Mondim De Basto,Vila Real,Norte,-7.870974,41.353823
25554773,Cativelos,Beiras e Serra da Estrela,310,2025-06-20T17:46:00Z,25554773,Em conclusão,3103,Incêndio rural,0,7,0,28,2025-06-20T17:46:00Z,Gouveia,Guarda,Centro,-7.702992,40.53306
25556224,Baixa da Banheira e Vale da Amoreira,Península de Setúbal,311,2025-06-20T23:45:00Z,25556224,Em curso,2101,Incêndio em edifícios habitacionais,0,3,0,9,2025-06-20T23:45:00Z,Moita,Setúbal,Área Metropolitana De Lisboa,-9.043028,38.662183
25553679,Lomba,Area M. Porto,309,2025-06-20T14:12:00Z,25553679,Em conclusão,3103,Incêndio rural,0,1,0,4,2025-06-20T14:12:00Z,Gondomar,Porto,Norte,-8.405722,41.033878
25555029,Rego,Tâmega e Sousa,309,2025-06-20T18:42:00Z,25555029,Em conclusão,3101,Incêndio rural,0,1,0,5,2025-06-20T18:42:00Z,Celorico De Basto,Braga,Norte,-8.055957,41.431612
25553154,Pedrógão,Baixo Alentejo,312,2025-06-20T12:23:00Z,25553154,Em conclusão,3103,Incêndio rural,0,48,0,137,2025-06-20T12:23:00Z,Vidigueira,Beja,Alentejo,-7.549947,38.179912
25556237,Cernadelo e Lousada (São Miguel e Santa Margarida),Tâmega e Sousa,309,2025-06-20T23:56:00Z,25556237,Em despacho,3103,Incêndio rural,0,1,0,5,2025-06-20T23:56:00Z,Lousada,Porto,Norte,-8.263424,41.30424
