id,address,subregion,neighborhood,date,id.1,state,nature,nature_description,aerial_means,terrestrial_means,aquatic_means,operational,date.1,Concelho,Distrito,NUTII_DSG,longitude,latitude,state_2
25881398,Seixo de Ansiães,Douro,309,2025-08-22T11:45:00Z,25881398,Em Resolução/Conclusão,3103,Incêndio rural,0,2,0,9,2025-08-22T11:45:00Z,Carrazeda De Ansiães,Bragança,Norte,-7.255142,41.178095,Resolução/Conclusão
25886637,Santiago Maior,Alentejo Central,312,2025-08-23T13:04:00Z,25886637,Em Resolução/Conclusão,3103,Incêndio rural,0,1,0,2,2025-08-23T13:04:00Z,Alandroal,Évora,Alentejo,-7.47096,38.53413,Resolução/Conclusão
25887019,Pedrógão Grande,Região de Leiria,310,2025-08-23T14:27:00Z,25887019,Em Curso,3101,Incêndio rural,12,67,0,278,2025-08-23T14:27:00Z,Pedrógão Grande,Leiria,Centro,-8.15364,39.9136,Curso
25887180,Alfena,Area M. Porto,309,2025-08-23T15:03:00Z,25887180,Em Despacho,3103,Incêndio rural,0,0,0,0,2025-08-23T15:03:00Z,Valongo,Porto,Norte,-8.522154,41.2396,Despacho
25846016,Poiares,Douro,309,2025-08-15T13:17:00Z,25846016,Em Resolução/Conclusão,3103,Incêndio rural,0,6,0,12,2025-08-15T13:17:00Z,Freixo De Espada à Cinta,Bragança,Norte,-6.843393,41.075787,Resolução/Conclusão
25887189,Canaviais,Alentejo Central,312,2025-08-23T15:04:00Z,25887189,Em Despacho,3103,Incêndio rural,1,6,0,28,2025-08-23T15:04:00Z,Évora,Évora,Alentejo,-7.899381,38.616252,Despacho
25884981,Ervedosa,Terras de Trás-os-Montes,309,2025-08-23T04:39:00Z,25884981,Em Resolução/Conclusão,3103,Incêndio rural,0,8,0,21,2025-08-23T04:39:00Z,Vinhais,Bragança,Norte,-7.091225,41.725538,Resolução/Conclusão
25885553,Rio Frio,Alto Minho,309,2025-08-23T09:14:00Z,25885553,Em Curso,3103,Incêndio rural,2,9,0,31,2025-08-23T09:14:00Z,Arcos De Valdevez,Viana Do Castelo,Norte,-8.496635,41.850237,Curso
25818455,Sobral de São Miguel,Beiras e Serra da Estrela,310,2025-08-10T15:02:00Z,25818455,Em Resolução/Conclusão,3103,Incêndio rural,0,1,0,1,2025-08-10T15:02:00Z,Covilhã,Castelo Branco,Centro,-7.77307,40.200173,Resolução/Conclusão
25881792,Fontelo,Douro,309,2025-08-22T13:00:00Z,25881792,Em Resolução/Conclusão,3103,Incêndio rural,0,9,0,29,2025-08-22T13:00:00Z,Armamar,Viseu,Norte,-7.73329,41.12587,Resolução/Conclusão
25852580,São João de Tarouca,Douro,309,2025-08-16T17:00:00Z,25852580,Em Resolução/Conclusão,3103,Incêndio rural,0,3,0,12,2025-08-16T17:00:00Z,Tarouca,Viseu,Norte,-7.760748,40.986773,Resolução/Conclusão
25846480,Sabugal e Aldeia de Santo António,Beiras e Serra da Estrela,310,2025-08-15T14:41:00Z,25846480,Em Resolução/Conclusão,3103,Incêndio rural,0,31,0,101,2025-08-15T14:41:00Z,Sabugal,Guarda,Centro,-7.125037,40.34023,Resolução/Conclusão
25885629,Rio Frio,Alto Minho,309,2025-08-23T09:31:00Z,25885629,Em Resolução/Conclusão,3103,Incêndio rural,0,3,0,12,2025-08-23T09:31:00Z,Arcos De Valdevez,Viana Do Castelo,Norte,-8.511693,41.855503,Resolução/Conclusão
25887084,Argoncilhe,Area M. Porto,309,2025-08-23T14:41:00Z,25887084,Em Resolução/Conclusão,3103,Incêndio rural,0,2,0,7,2025-08-23T14:41:00Z,Santa Maria Da Feira,Aveiro,Norte,-8.53442,41.00727,Resolução/Conclusão
25886330,Mondim de Basto,Ave,309,2025-08-23T11:57:00Z,25886330,Em Resolução/Conclusão,3103,Incêndio rural,0,2,0,7,2025-08-23T11:57:00Z,Mondim De Basto,Vila Real,Norte,-7.96065,41.40686,Resolução/Conclusão
25813482,Freches e Torres,Beiras e Serra da Estrela,310,2025-08-09T16:21:00Z,25813482,Em Resolução/Conclusão,3103,Incêndio rural,0,6,0,24,2025-08-09T16:21:00Z,Trancoso,Guarda,Centro,-7.363745,40.709022,Resolução/Conclusão
25851721,Arnóia,Tâmega e Sousa,309,2025-08-16T14:24:00Z,25851721,Em Resolução/Conclusão,3103,Incêndio rural,0,9,0,36,2025-08-16T14:24:00Z,Celorico De Basto,Braga,Norte,-7.994469,41.369836,Resolução/Conclusão
25832250,Ferreira de Aves,Viseu Dão Lafões,310,2025-08-13T00:03:00Z,25832250,Em Resolução/Conclusão,3103,Incêndio rural,0,12,0,41,2025-08-13T00:03:00Z,Sátão,Viseu,Centro,-7.647793,40.79568,Resolução/Conclusão
25886931,São Pedro de France,Viseu Dão Lafões,310,2025-08-23T14:12:00Z,25886931,Em Resolução/Conclusão,3103,Incêndio rural,1,14,0,50,2025-08-23T14:12:00Z,Viseu,Viseu,Centro,-7.771042,40.704264,Resolução/Conclusão
25832672,Piódão,Região de Coimbra,310,2025-08-13T05:08:00Z,25832672,Em Curso,3103,Incêndio rural,14,516,0,1548,2025-08-13T05:08:00Z,Arganil,Coimbra,Centro,-7.81972,40.23083,Curso
25887127,São Miguel de Vila Boa,Viseu Dão Lafões,310,2025-08-23T14:49:00Z,25887127,Em Resolução/Conclusão,3103,Incêndio rural,0,3,0,9,2025-08-23T14:49:00Z,Sátão,Viseu,Centro,-7.756575,40.691102,Resolução/Conclusão
25840417,Lousã e Vilarinho,Região de Coimbra,310,2025-08-14T13:46:00Z,25840417,Em Resolução/Conclusão,3101,Incêndio rural,1,16,0,60,2025-08-14T13:46:00Z,Lousã,Coimbra,Centro,-8.201561,40.080016,Resolução/Conclusão
25886166,Chavães,Douro,309,2025-08-23T11:23:00Z,25886166,Em Resolução/Conclusão,3103,Incêndio rural,0,3,0,11,2025-08-23T11:23:00Z,Tabuaço,Viseu,Norte,-7.55471,41.094255,Resolução/Conclusão
25857322,"Barcel, Marmelos e Valverde da Gestosa",Terras de Trás-os-Montes,309,2025-08-17T15:53:00Z,25857322,Em Resolução/Conclusão,3103,Incêndio rural,0,9,0,22,2025-08-17T15:53:00Z,Mirandela,Bragança,Norte,-7.209414,41.409479,Resolução/Conclusão
25886909,Santa Marinha e São Pedro da Afurada,Area M. Porto,309,2025-08-23T14:08:00Z,25886909,Em Resolução/Conclusão,3103,Incêndio rural,0,2,0,7,2025-08-23T14:08:00Z,Vila Nova De Gaia,Porto,Norte,-8.614408,41.13259,Resolução/Conclusão
25886169,Sapiãos,Alto Tâmega e Barroso,309,2025-08-23T11:25:00Z,25886169,Em Resolução/Conclusão,3103,Incêndio rural,0,3,0,12,2025-08-23T11:25:00Z,Boticas,Vila Real,Norte,-7.614905,41.710882,Resolução/Conclusão
25883011,Almofala,Viseu Dão Lafões,310,2025-08-22T17:00:00Z,25883011,Em Resolução/Conclusão,3103,Incêndio rural,0,33,0,97,2025-08-22T17:00:00Z,Castro Daire,Viseu,Centro,-7.767003,40.956183,Resolução/Conclusão
25861685,Santa Catarina da Serra e Chainça,Região de Leiria,310,2025-08-18T13:03:00Z,25861685,Em Resolução/Conclusão,3103,Incêndio rural,0,2,0,5,2025-08-18T13:03:00Z,Leiria,Leiria,Centro,-8.698656,39.708305,Resolução/Conclusão
25872413,Cinco Vilas e Reigada,Beiras e Serra da Estrela,310,2025-08-20T14:58:00Z,25872413,Em Resolução/Conclusão,3103,Incêndio rural,0,14,0,46,2025-08-20T14:58:00Z,Figueira De Castelo Rodrigo,Guarda,Centro,-6.95815,40.775573,Resolução/Conclusão
25882910,Picão e Ermida,Viseu Dão Lafões,310,2025-08-22T16:39:00Z,25882910,Em Resolução/Conclusão,3103,Incêndio rural,0,0,0,0,2025-08-22T16:39:00Z,Carregal Do Sal,Viseu,Centro,-7.945985,40.448677000000004,Resolução/Conclusão
25860828,Vilar de Perdizes e Meixide,Alto Tâmega e Barroso,309,2025-08-18T10:25:00Z,25860828,Em Resolução/Conclusão,3103,Incêndio rural,0,11,0,43,2025-08-18T10:25:00Z,NA,NA,NA,-7.63634,41.880008,Resolução/Conclusão
25882003,"Mamouros, Alva e Ribolhos",Viseu Dão Lafões,310,2025-08-22T13:50:00Z,25882003,Em Resolução/Conclusão,3103,Incêndio rural,0,0,0,0,2025-08-22T13:50:00Z,Castro Daire,Viseu,Centro,-7.964705,40.861392,Resolução/Conclusão
25877725,São Cipriano e Vil de Souto,Viseu Dão Lafões,310,2025-08-21T16:05:00Z,25877725,Em Resolução/Conclusão,3103,Incêndio rural,0,1,0,5,2025-08-21T16:05:00Z,Viseu,Viseu,Centro,-7.959537,40.61783,Resolução/Conclusão
25886683,Friões,Alto Tâmega e Barroso,309,2025-08-23T13:16:00Z,25886683,Em Curso,3103,Incêndio rural,1,8,0,31,2025-08-23T13:16:00Z,Valpaços,Vila Real,Norte,-7.387168,41.66758,Curso
25882071,Vila Marim,Douro,309,2025-08-22T14:02:00Z,25882071,Em Resolução/Conclusão,3103,Incêndio rural,0,13,0,44,2025-08-22T14:02:00Z,Vila Real,Vila Real,Norte,-7.814082,41.353615,Resolução/Conclusão
25836309,Cinfães,Tâmega e Sousa,309,2025-08-13T18:17:00Z,25836309,Em Resolução/Conclusão,3103,Incêndio rural,0,1,0,2,2025-08-13T18:17:00Z,Cinfães,Viseu,Norte,-8.071502,41.049757,Resolução/Conclusão
25885112,Moimenta e Montouto,Terras de Trás-os-Montes,309,2025-08-23T06:25:00Z,25885112,Em Resolução/Conclusão,3103,Incêndio rural,0,3,0,9,2025-08-23T06:25:00Z,Vinhais,Bragança,Norte,-6.953277,41.941952,Resolução/Conclusão
25840505,Ribeira de Nisa e Carreiras,Alto Alentejo,312,2025-08-14T14:01:00Z,25840505,Em Resolução/Conclusão,3101,Incêndio rural,0,2,0,7,2025-08-14T14:01:00Z,Portalegre,Portalegre,Alentejo,-7.47009,39.374707,Resolução/Conclusão
