id,address,subregion,neighborhood,date,id.1,state,nature,nature_description,aerial_means,terrestrial_means,aquatic_means,operational,date.1,Concelho,Distrito,NUTII_DSG,longitude,latitude
25472295,Poceirão e Marateca,Península de Setúbal,311,2025-06-03T16:44:00Z,25472295,Em conclusão,3103,Incêndio rural,0,6,0,17,2025-06-03T16:44:00Z,Palmela,Setúbal,Área Metropolitana De Lisboa,-8.721872,38.5774
25472983,Rio de Mouro,Grande Lisboa,311,2025-06-03T19:35:00Z,25472983,Em despacho,3103,Incêndio rural,0,1,0,5,2025-06-03T19:35:00Z,Sintra,Lisboa,Área Metropolitana De Lisboa,-9.345889,38.76768
25466369,Melides,Alentejo Litoral,312,2025-06-02T13:27:00Z,25466369,Em conclusão,3103,Incêndio rural,0,2,0,4,2025-06-02T13:27:00Z,Grândola,Setúbal,Alentejo,-8.754243,38.19534
25467128,Monte Redondo e Carreira,Região de Leiria,310,2025-06-02T15:48:00Z,25467128,Em conclusão,3103,Incêndio rural,0,1,0,2,2025-06-02T15:48:00Z,Leiria,Leiria,Centro,-8.860783,39.89848
25471554,Aljustrel e Rio de Moinhos,Baixo Alentejo,312,2025-06-03T14:07:00Z,25471554,Em conclusão,2129,Incêndio em edifícios degradados ou devolutos,0,0,0,0,2025-06-03T14:07:00Z,Aljustrel,Beja,Alentejo,-8.170588,37.88196
25472687,Banho e Carvalhosa,Tâmega e Sousa,309,2025-06-03T18:15:00Z,25472687,Em conclusão,3103,Incêndio rural,0,2,0,7,2025-06-03T18:15:00Z,Marco De Canaveses,Porto,Norte,-8.150493,41.247505
25473008,Carcavelos e Parede,Grande Lisboa,311,2025-06-03T19:44:00Z,25473008,Em despacho,2101,Incêndio em edifícios habitacionais,0,0,0,0,2025-06-03T19:44:00Z,Cascais,Lisboa,Área Metropolitana De Lisboa,-9.3494,38.69371
25472550,Avenidas Novas,Grande Lisboa,311,2025-06-03T17:42:00Z,25472550,Em curso,2101,Incêndio em edifícios habitacionais,0,11,0,36,2025-06-03T17:42:00Z,Lisboa,Lisboa,Área Metropolitana De Lisboa,-9.147605,38.73891
25473036,"Margaride (Santa Eulália), Várzea, Lagares, Varziela e Moure",Tâmega e Sousa,309,2025-06-03T19:45:00Z,25473036,Em conclusão,2301,Incêndio em transporte rodoviário,0,1,0,3,2025-06-03T19:45:00Z,Felgueiras,Porto,Norte,-8.198478,41.362498
