id,address,subregion,neighborhood,date,id.1,state,nature,nature_description,aerial_means,terrestrial_means,aquatic_means,operational,date.1,Concelho,Distrito,NUTII_DSG,longitude,latitude,state_2
25773830,Andrães,Douro,309,2025-08-02T14:23:00Z,25773830,Em Resolução/Conclusão,3103,Incêndio rural,0,0,0,0,2025-08-02T14:23:00Z,Vila Real,Vila Real,Norte,-7.671293,41.267593,Resolução/Conclusão
25774883,Arnóia,Tâmega e Sousa,309,2025-08-02T18:20:00Z,25774883,Em Resolução/Conclusão,3103,Incêndio rural,0,2,0,3,2025-08-02T18:20:00Z,Celorico De Basto,Braga,Norte,-7.998983,41.348727,Resolução/Conclusão
25804968,Alvadia,Alto Tâmega e Barroso,309,2025-08-08T07:21:00Z,25804968,Em Resolução/Conclusão,3103,Incêndio rural,0,22,0,77,2025-08-08T07:21:00Z,Ribeira De Pena,Vila Real,Norte,-7.782872,41.457452,Resolução/Conclusão
25814493,Cota,Viseu Dão Lafões,310,2025-08-09T20:08:00Z,25814493,Em Resolução/Conclusão,3101,Incêndio rural,0,1,0,5,2025-08-09T20:08:00Z,Viseu,Viseu,Centro,-7.80263,40.777299,Resolução/Conclusão
25818455,Sobral de São Miguel,Beiras e Serra da Estrela,310,2025-08-10T15:02:00Z,25818455,Em Curso,3103,Incêndio rural,0,131,0,415,2025-08-10T15:02:00Z,Covilhã,Castelo Branco,Centro,-7.77307,40.200173,Curso
25821327,Pinheiro,Ave,309,2025-08-11T06:17:00Z,25821327,Em Resolução/Conclusão,3103,Incêndio rural,0,2,0,7,2025-08-11T06:17:00Z,Guimarães,Braga,Norte,-8.282833,41.420987,Resolução/Conclusão
25821328,Vilar de Andorinho,Area M. Porto,309,2025-08-11T06:18:00Z,25821328,Em Resolução/Conclusão,3103,Incêndio rural,0,1,0,5,2025-08-11T06:18:00Z,Vila Nova De Gaia,Porto,Norte,-8.585057,41.108505,Resolução/Conclusão
25821360,Alcoentre,Lezíria do Tejo,311,2025-08-11T06:40:00Z,25821360,Em Resolução/Conclusão,3103,Incêndio rural,0,6,0,21,2025-08-11T06:40:00Z,Azambuja,Lisboa,Alentejo,-8.962168,39.182868,Resolução/Conclusão
25785983,Caçarilhe e Infesta,Tâmega e Sousa,309,2025-08-04T18:22:00Z,25785983,Em Resolução/Conclusão,3103,Incêndio rural,0,12,0,38,2025-08-04T18:22:00Z,Celorico De Basto,Braga,Norte,-8.04611,41.419858,Resolução/Conclusão
25792058,Cibões e Brufe,Cávado,309,2025-08-05T19:10:00Z,25792058,Em Resolução/Conclusão,3103,Incêndio rural,0,1,0,5,2025-08-05T19:10:00Z,Terras De Bouro,Braga,Norte,-8.293932,41.764918,Resolução/Conclusão
25820422,Távora e Pereiro,Douro,309,2025-08-10T22:27:00Z,25820422,Em Curso,3103,Incêndio rural,0,21,0,72,2025-08-10T22:27:00Z,Tabuaço,Viseu,Norte,-7.55556,41.097602,Curso
25821490,Vreia de Jales,Alto Tâmega e Barroso,309,2025-08-11T07:40:00Z,25821490,Em Curso,3103,Incêndio rural,0,3,0,15,2025-08-11T07:40:00Z,Vila Pouca De Aguiar,Vila Real,Norte,-7.639565,41.41667,Curso
25775263,Torgueda,Douro,309,2025-08-02T19:49:00Z,25775263,Em Resolução/Conclusão,3101,Incêndio rural,0,8,0,25,2025-08-02T19:49:00Z,Vila Real,Vila Real,Norte,-7.785983,41.274952,Resolução/Conclusão
25803707,Almofala e Escarigo,Beiras e Serra da Estrela,310,2025-08-07T20:50:00Z,25803707,Em Resolução/Conclusão,3103,Incêndio rural,0,1,0,5,2025-08-07T20:50:00Z,Figueira De Castelo Rodrigo,Guarda,Centro,-6.847203,40.887165,Resolução/Conclusão
25807426,Alvite,Douro,309,2025-08-08T14:31:00Z,25807426,Em Resolução/Conclusão,3103,Incêndio rural,0,57,0,198,2025-08-08T14:31:00Z,Moimenta Da Beira,Viseu,Norte,-7.688727,40.96613,Resolução/Conclusão
25812717,"Mangualde, Mesquitela e Cunha Alta",Viseu Dão Lafões,310,2025-08-09T12:50:00Z,25812717,Em Resolução/Conclusão,3103,Incêndio rural,0,4,0,14,2025-08-09T12:50:00Z,Mangualde,Viseu,Centro,-7.778468,40.59536,Resolução/Conclusão
25817277,Lorvão,Região de Coimbra,310,2025-08-10T11:09:00Z,25817277,Em Resolução/Conclusão,3101,Incêndio rural,0,1,0,5,2025-08-10T11:09:00Z,Penacova,Coimbra,Centro,-8.31417,40.23889,Resolução/Conclusão
25817913,Valpedre,Tâmega e Sousa,309,2025-08-10T13:18:00Z,25817913,Em Resolução/Conclusão,3103,Incêndio rural,0,2,0,7,2025-08-10T13:18:00Z,Penafiel,Porto,Norte,-8.30697,41.14208,Resolução/Conclusão
25819119,Póvoa de Penela,Douro,309,2025-08-10T17:23:00Z,25819119,Em Resolução/Conclusão,3103,Incêndio rural,0,2,0,9,2025-08-10T17:23:00Z,Penedono,Viseu,Norte,-7.389118,41.032508,Resolução/Conclusão
25821250,Cabeçudo,Beira Baixa,310,2025-08-11T05:10:00Z,25821250,Em Resolução/Conclusão,3101,Incêndio rural,0,2,0,4,2025-08-11T05:10:00Z,Sertã,Castelo Branco,Centro,-8.145563,39.83359,Resolução/Conclusão
25821391,Galegos,Tâmega e Sousa,309,2025-08-11T07:03:00Z,25821391,Em Resolução/Conclusão,3103,Incêndio rural,0,1,0,5,2025-08-11T07:03:00Z,Penafiel,Porto,Norte,-8.313717,41.173005,Resolução/Conclusão
25821450,Fornos,Tâmega e Sousa,309,2025-08-11T07:23:00Z,25821450,Em Resolução/Conclusão,3103,Incêndio rural,0,7,0,28,2025-08-11T07:23:00Z,Castelo De Paiva,Aveiro,Norte,-8.255654,41.055046,Resolução/Conclusão
25776263,"Pena, Quintã e Vila Cova",Douro,309,2025-08-02T23:45:00Z,25776263,Em Resolução/Conclusão,3103,Incêndio rural,0,123,0,367,2025-08-02T23:45:00Z,Vila Real,Vila Real,Norte,-7.811902,41.317355,Resolução/Conclusão
25783717,Cunha Baixa,Viseu Dão Lafões,310,2025-08-04T11:48:00Z,25783717,Em Resolução/Conclusão,3101,Incêndio rural,0,1,0,2,2025-08-04T11:48:00Z,Mangualde,Viseu,Centro,-7.764411,40.559738,Resolução/Conclusão
25787860,Faíl e Vila Chã de Sá,Viseu Dão Lafões,310,2025-08-05T05:55:00Z,25787860,Em Resolução/Conclusão,3103,Incêndio rural,0,0,0,0,2025-08-05T05:55:00Z,Viseu,Viseu,Centro,-7.987877,40.601342,Resolução/Conclusão
25802450,Canas de Santa Maria,Viseu Dão Lafões,310,2025-08-07T16:14:00Z,25802450,Em Resolução/Conclusão,3103,Incêndio rural,0,1,0,2,2025-08-07T16:14:00Z,Tondela,Viseu,Centro,-8.032777,40.56017,Resolução/Conclusão
25808937,Abrunhosa-a-Velha,Viseu Dão Lafões,310,2025-08-08T19:26:00Z,25808937,Em Resolução/Conclusão,3103,Incêndio rural,0,2,0,7,2025-08-08T19:26:00Z,Mangualde,Viseu,Centro,-7.647667,40.572515,Resolução/Conclusão
25813482,Freches e Torres,Beiras e Serra da Estrela,310,2025-08-09T16:21:00Z,25813482,Em Curso,3103,Incêndio rural,0,225,0,633,2025-08-09T16:21:00Z,Trancoso,Guarda,Centro,-7.363745,40.709022,Curso
25820333,Recezinhos (São Martinho),Tâmega e Sousa,309,2025-08-10T22:05:00Z,25820333,Em Resolução/Conclusão,3103,Incêndio rural,0,3,0,12,2025-08-10T22:05:00Z,Penafiel,Porto,Norte,-8.20734,41.225325,Resolução/Conclusão
