id,address,subregion,neighborhood,date,id.1,state,nature,nature_description,aerial_means,terrestrial_means,aquatic_means,operational,date.1,Concelho,Distrito,NUTII_DSG,longitude,latitude,state_2
26165313,Vimieiro,Alentejo Central,312,2025-10-20T15:11:00Z,26165313,Em Resolução/Conclusão,3103,Incêndio rural,0,5,0,15,2025-10-20T15:11:00Z,Arraiolos,Évora,Alentejo,-7.904952,38.831922,Resolução/Conclusão
26166164,São Bartolomeu Dos Galegos e Moledo,Oeste,311,2025-10-20T18:11:00Z,26166164,Em Despacho,3103,Incêndio rural,0,1,0,4,2025-10-20T18:11:00Z,Lourinhã,Lisboa,Centro,-9.291027,39.289601,Despacho
26164572,Castro Verde e Casével,Baixo Alentejo,312,2025-10-20T12:54:00Z,26164572,Em Resolução/Conclusão,3105,Incêndio rural,0,1,0,2,2025-10-20T12:54:00Z,Castro Verde,Beja,Alentejo,-8.01625,37.63235,Resolução/Conclusão
26160929,Caranguejeira,Região de Leiria,310,2025-10-19T16:50:00Z,26160929,Em Resolução/Conclusão,3101,Incêndio rural,0,1,0,2,2025-10-19T16:50:00Z,Leiria,Leiria,Centro,-8.697637,39.726483,Resolução/Conclusão
26165861,Colos,Alentejo Litoral,312,2025-10-20T17:03:00Z,26165861,Em Resolução/Conclusão,3103,Incêndio rural,0,5,0,13,2025-10-20T17:03:00Z,Odemira,Beja,Alentejo,-8.569803,37.791463,Resolução/Conclusão
26165961,Mourão,Alentejo Central,312,2025-10-20T17:23:00Z,26165961,Em Resolução/Conclusão,3105,Incêndio rural,0,0,0,0,2025-10-20T17:23:00Z,Mourão,Évora,Alentejo,-7.362653,38.349628,Resolução/Conclusão
26166045,Penamacor,Beira Baixa,310,2025-10-20T17:47:00Z,26166045,Em Resolução/Conclusão,3103,Incêndio rural,0,5,0,16,2025-10-20T17:47:00Z,Penamacor,Castelo Branco,Centro,-7.268641,40.11529,Resolução/Conclusão
