id,address,subregion,neighborhood,date,id.1,state,nature,nature_description,aerial_means,terrestrial_means,aquatic_means,operational,date.1,Concelho,Distrito,NUTII_DSG,longitude,latitude
25491602,Torre de Moncorvo,Douro,309,2025-06-07T15:40:00Z,25491602,Em conclusão,3103,Incêndio rural,0,1,0,5,2025-06-07T15:40:00Z,Torre De Moncorvo,Bragança,Norte,-7.096635,41.162693
25493599,Atouguia da Baleia,Oeste,311,2025-06-08T00:36:00Z,25493599,Em resolução,3107,Consolidação de rescaldo de incêndio rural,0,1,0,5,2025-06-08T00:36:00Z,Peniche,Leiria,Centro,-9.349842,39.339438
25492068,Charneca de Caparica e Sobreda,Península de Setúbal,311,2025-06-07T17:21:00Z,25492068,Em conclusão,3101,Incêndio rural,0,5,0,12,2025-06-07T17:21:00Z,Almada,Setúbal,Área Metropolitana De Lisboa,-9.19733,38.584712
25493587,"Esposende, Marinhas e Gandra",Cávado,309,2025-06-08T00:35:00Z,25493587,Em curso,3203,Detritos confinados,0,2,0,4,2025-06-08T00:35:00Z,Esposende,Braga,Norte,-8.786144,41.56393
25493327,Garvão e Santa Luzia,Baixo Alentejo,312,2025-06-07T23:02:00Z,25493327,Em conclusão,3103,Incêndio rural,0,20,0,58,2025-06-07T23:02:00Z,Ourique,Beja,Alentejo,-8.394977,37.741793
