id,address,subregion,neighborhood,date,id.1,state,nature,nature_description,aerial_means,terrestrial_means,aquatic_means,operational,date.1,Concelho,Distrito,NUTII_DSG,longitude,latitude,state_2
25665133,Lindoso,Alto Minho,309,2025-07-12T02:50:00Z,25665133,Em Curso,3103,Incêndio rural,2,23,0,76,2025-07-12T02:50:00Z,Ponte Da Barca,Viana Do Castelo,Norte,-8.224007,41.852543,Curso
25671499,Girabolhos,Beiras e Serra da Estrela,310,2025-07-13T12:38:00Z,25671499,Em Resolução/Conclusão,3103,Incêndio rural,0,7,0,22,2025-07-13T12:38:00Z,Seia,Guarda,Centro,-7.740278,40.497927,Resolução/Conclusão
25671853,Chão de Couce,Região de Leiria,310,2025-07-13T14:10:00Z,25671853,Em Resolução/Conclusão,3103,Incêndio rural,1,5,0,25,2025-07-13T14:10:00Z,Ansião,Leiria,Centro,-8.39122,39.90822,Resolução/Conclusão
25672001,Navió e Vitorino Dos Piães,Alto Minho,309,2025-07-13T14:40:00Z,25672001,Em Despacho,3103,Incêndio rural,1,0,0,6,2025-07-13T14:40:00Z,Ponte De Lima,Viana Do Castelo,Norte,-8.620745,41.68075,Despacho
25671746,Frazão Arreigada,Tâmega e Sousa,309,2025-07-13T13:35:00Z,25671746,Em Resolução/Conclusão,3103,Incêndio rural,0,2,0,5,2025-07-13T13:35:00Z,Paços De Ferreira,Porto,Norte,-8.385862,41.265767,Resolução/Conclusão
25667313,Santa Eufémia e Boa Vista,Região de Leiria,310,2025-07-12T14:36:00Z,25667313,Em Resolução/Conclusão,3103,Incêndio rural,0,1,0,2,2025-07-12T14:36:00Z,Leiria,Leiria,Centro,-8.761077,39.76109,Resolução/Conclusão
25670541,Fornos,Tâmega e Sousa,309,2025-07-13T09:15:00Z,25670541,Em Resolução/Conclusão,3103,Incêndio rural,0,0,0,0,2025-07-13T09:15:00Z,Castelo De Paiva,Aveiro,Norte,-8.242377,41.056052,Resolução/Conclusão
25670889,Moimenta e Montouto,Terras de Trás-os-Montes,309,2025-07-13T10:27:00Z,25670889,Em Resolução/Conclusão,3103,Incêndio rural,0,8,0,26,2025-07-13T10:27:00Z,Vinhais,Bragança,Norte,-7.014782,41.93917,Resolução/Conclusão
25671460,Lomar e Arcos,Cávado,309,2025-07-13T12:25:00Z,25671460,Em Resolução/Conclusão,3101,Incêndio rural,0,15,0,41,2025-07-13T12:25:00Z,Braga,Braga,Norte,-8.439812,41.513755,Resolução/Conclusão
25671808,Sangalhos,Região de Aveiro,310,2025-07-13T13:55:00Z,25671808,Em Resolução/Conclusão,3101,Incêndio rural,0,1,0,5,2025-07-13T13:55:00Z,Anadia,Aveiro,Centro,-8.444472,40.498342,Resolução/Conclusão
25671993,"Margaride (Santa Eulália), Várzea, Lagares, Varziela e Moure",Tâmega e Sousa,309,2025-07-13T14:40:00Z,25671993,Em Despacho,3105,Incêndio rural,0,1,0,3,2025-07-13T14:40:00Z,Felgueiras,Porto,Norte,-8.208929,41.36522,Despacho
25662814,Soajo,Alto Minho,309,2025-07-11T15:16:00Z,25662814,Em Resolução/Conclusão,3103,Incêndio rural,0,0,0,0,2025-07-11T15:16:00Z,Arcos De Valdevez,Viana Do Castelo,Norte,-8.22891,41.87654,Resolução/Conclusão
25671379,Alvarenga,Area M. Porto,309,2025-07-13T12:08:00Z,25671379,Em Resolução/Conclusão,3103,Incêndio rural,0,3,0,8,2025-07-13T12:08:00Z,Arouca,Aveiro,Norte,-8.16534,40.97754,Resolução/Conclusão
25671765,Santa Maria de Sardoura,Tâmega e Sousa,309,2025-07-13T13:42:00Z,25671765,Em Resolução/Conclusão,3105,Incêndio rural,0,7,0,30,2025-07-13T13:42:00Z,Castelo De Paiva,Aveiro,Norte,-8.297935,41.066115,Resolução/Conclusão
25671838,Guarda,Beiras e Serra da Estrela,310,2025-07-13T14:01:00Z,25671838,Em Resolução/Conclusão,3103,Incêndio rural,0,2,0,6,2025-07-13T14:01:00Z,Guarda,Guarda,Centro,-7.274928,40.520977,Resolução/Conclusão
25672006,"Aboim, Felgueiras, Gontim e Pedraído",Ave,309,2025-07-13T14:42:00Z,25672006,Em Despacho,3103,Incêndio rural,2,0,0,12,2025-07-13T14:42:00Z,Fafe,Braga,Norte,-8.101377,41.531189,Despacho
25672011,Mazarefes e Vila Fria,Alto Minho,309,2025-07-13T14:44:00Z,25672011,Em Despacho,3105,Incêndio rural,0,0,0,0,2025-07-13T14:44:00Z,Viana Do Castelo,Viana Do Castelo,Norte,-8.77307,41.66537,Despacho
