id,address,subregion,neighborhood,date,id.1,state,nature,nature_description,aerial_means,terrestrial_means,aquatic_means,operational,date.1,Concelho,Distrito,NUTII_DSG,longitude,latitude
25071496,São Manços e São Vicente do Pigeiro,Alentejo Central,312,2025-03-11T13:18:00Z,25071496,Em conclusão,1101,Cheia,0,0,0,0,2025-03-11T13:18:00Z,Évora,Évora,Alentejo,-7.713313,38.513673
25414219,Alcanede,Lezíria do Tejo,311,2025-05-23T08:20:00Z,25414219,Em resolução,3301,Queda de árvore,0,1,0,4,2025-05-23T08:20:00Z,Santarém,Santarém,Alentejo,-8.820545,39.417631
25414588,Canaviais,Alentejo Central,312,2025-05-23T09:33:00Z,25414588,Em resolução,3317,Inundação de estruturas por água canalizada,0,1,0,2,2025-05-23T09:33:00Z,Évora,Évora,Alentejo,-7.896228,38.616015
25414246,Carcavelos e Parede,Grande Lisboa,311,2025-05-23T08:47:00Z,25414246,Em curso,3311,Queda de elementos de estruturas edificados,0,1,0,2,2025-05-23T08:47:00Z,Cascais,Lisboa,Área Metropolitana De Lisboa,-9.33068,38.688414
25414748,Carrazedo de Montenegro e Curros,Alto Tâmega e Barroso,309,2025-05-23T10:10:00Z,25414748,Em despacho,3301,Queda de árvore,0,1,0,4,2025-05-23T10:10:00Z,Valpaços,Vila Real,Norte,-7.439305,41.537447
