id,address,subregion,neighborhood,date,id.1,state,nature,nature_description,aerial_means,terrestrial_means,aquatic_means,operational,date.1,Concelho,Distrito,NUTII_DSG,longitude,latitude
24877003,Malagueira e Horta Das Figueiras,Alentejo Central,312,2025-01-27T11:41:00Z,24877003,Em conclusão,3315,Inundação de estruturas por precipitação intensa,0,0,0,0,2025-01-27T11:41:00Z,Évora,Évora,Alentejo,-7.924277,38.57285
25036621,São Martinho do Porto,Oeste,311,2025-03-03T17:16:00Z,25036621,Em curso,3315,Inundação de estruturas por precipitação intensa,0,1,0,2,2025-03-03T17:16:00Z,Alcobaça,Leiria,Centro,-9.131915,39.510842
25036646,São Domingos de Rana,Grande Lisboa,311,2025-03-03T16:53:00Z,25036646,Em despacho,3315,Inundação de estruturas por precipitação intensa,0,1,0,4,2025-03-03T16:53:00Z,Cascais,Lisboa,Área Metropolitana De Lisboa,-9.341616,38.744019
25036540,Ervedal,Alto Alentejo,312,2025-03-03T17:05:00Z,25036540,Em curso,3315,Inundação de estruturas por precipitação intensa,0,3,0,7,2025-03-03T17:05:00Z,Avis,Portalegre,Alentejo,-7.815335,39.044073
25036637,"Santiago do Cacém, S.cruz e São Bartolomeu da Serra",Alentejo Litoral,312,2025-03-03T17:10:00Z,25036637,Em curso,3315,Inundação de estruturas por precipitação intensa,0,2,0,4,2025-03-03T17:10:00Z,Santiago Do Cacém,Setúbal,Alentejo,-8.708165,38.017495
