id,address,subregion,neighborhood,date,id.1,state,nature,nature_description,aerial_means,terrestrial_means,aquatic_means,operational,date.1,Concelho,Distrito,NUTII_DSG,longitude,latitude,state_2
25716558,Alquerubim,Região de Aveiro,310,2025-07-22T14:38:00Z,25716558,Em Resolução/Conclusão,3101,Incêndio rural,0,14,0,45,2025-07-22T14:38:00Z,Albergaria-a-Velha,Aveiro,Centro,-8.51459,40.626095,Resolução/Conclusão
25716857,Martinchel,Médio Tejo,311,2025-07-22T15:32:00Z,25716857,Em Resolução/Conclusão,3103,Incêndio rural,0,1,0,5,2025-07-22T15:32:00Z,Abrantes,Santarém,Centro,-8.324118,39.531405,Resolução/Conclusão
25717375,Barão de São Miguel,Algarve,313,2025-07-22T17:22:00Z,25717375,Em Resolução/Conclusão,3103,Incêndio rural,0,5,0,20,2025-07-22T17:22:00Z,Vila Do Bispo,Faro,Algarve,-8.7891,37.09274,Resolução/Conclusão
25717625,Charneca de Caparica e Sobreda,Península de Setúbal,311,2025-07-22T18:20:00Z,25717625,Em Resolução/Conclusão,3105,Incêndio rural,0,5,0,23,2025-07-22T18:20:00Z,Almada,Setúbal,Área Metropolitana De Lisboa,-9.19046,38.61425,Resolução/Conclusão
25716135,Palaçoulo,Terras de Trás-os-Montes,309,2025-07-22T13:22:00Z,25716135,Em Resolução/Conclusão,3103,Incêndio rural,0,2,0,7,2025-07-22T13:22:00Z,Miranda Do Douro,Bragança,Norte,-6.430875,41.404038,Resolução/Conclusão
25716294,Canelas e Fermelã,Região de Aveiro,310,2025-07-22T13:52:00Z,25716294,Em Resolução/Conclusão,3103,Incêndio rural,0,4,0,11,2025-07-22T13:52:00Z,Estarreja,Aveiro,Centro,-8.543075,40.697923,Resolução/Conclusão
25716660,Alvarenga,Area M. Porto,309,2025-07-22T14:52:00Z,25716660,Em Resolução/Conclusão,3103,Incêndio rural,0,3,0,12,2025-07-22T14:52:00Z,Arouca,Aveiro,Norte,-8.16521,40.97857,Resolução/Conclusão
25716928,Panque,Cávado,309,2025-07-22T15:40:00Z,25716928,Em Resolução/Conclusão,3103,Incêndio rural,0,2,0,7,2025-07-22T15:40:00Z,Barcelos,Braga,Norte,-8.57951,41.642005,Resolução/Conclusão
25716969,"Malhou, Louriceira e Espinheiro",Médio Tejo,311,2025-07-22T15:53:00Z,25716969,Em Resolução/Conclusão,3103,Incêndio rural,0,0,0,0,2025-07-22T15:53:00Z,Alcanena,Santarém,Centro,-8.73465,39.47079,Resolução/Conclusão
25717037,Lagares,Região de Coimbra,310,2025-07-22T16:12:00Z,25717037,Em Resolução/Conclusão,3103,Incêndio rural,0,1,0,2,2025-07-22T16:12:00Z,Oliveira Do Hospital,Coimbra,Centro,-7.838258,40.397767,Resolução/Conclusão
25712338,Cercal,Alentejo Litoral,312,2025-07-21T17:38:00Z,25712338,Em Resolução/Conclusão,3103,Incêndio rural,0,19,0,52,2025-07-21T17:38:00Z,Santiago Do Cacém,Setúbal,Alentejo,-8.682272,37.791582,Resolução/Conclusão
25716617,Alquerubim,Região de Aveiro,310,2025-07-22T14:47:00Z,25716617,Em Resolução/Conclusão,3101,Incêndio rural,0,11,0,42,2025-07-22T14:47:00Z,Albergaria-a-Velha,Aveiro,Centro,-8.503263,40.635405,Resolução/Conclusão
25717167,Pinhel,Beiras e Serra da Estrela,310,2025-07-22T16:40:00Z,25717167,Em Resolução/Conclusão,3103,Incêndio rural,0,11,0,43,2025-07-22T16:40:00Z,Pinhel,Guarda,Centro,-7.060442,40.781598,Resolução/Conclusão
25717282,Faiões,Alto Tâmega e Barroso,309,2025-07-22T17:03:00Z,25717282,Em Resolução/Conclusão,3103,Incêndio rural,0,7,0,29,2025-07-22T17:03:00Z,Chaves,Vila Real,Norte,-7.435467,41.749257,Resolução/Conclusão
25717418,Darque,Alto Minho,309,2025-07-22T17:27:00Z,25717418,Em Resolução/Conclusão,3111,Queima,0,2,0,7,2025-07-22T17:27:00Z,Viana Do Castelo,Viana Do Castelo,Norte,-8.795578,41.685158,Resolução/Conclusão
25717520,Castelo Branco,Beira Baixa,310,2025-07-22T17:59:00Z,25717520,Em Curso,3103,Incêndio rural,6,35,0,126,2025-07-22T17:59:00Z,Castelo Branco,Castelo Branco,Centro,-7.461503,39.85421,Curso
25717489,Aveiras de Cima,Lezíria do Tejo,311,2025-07-22T17:53:00Z,25717489,Em Resolução/Conclusão,3103,Incêndio rural,0,7,0,22,2025-07-22T17:53:00Z,Azambuja,Lisboa,Alentejo,-8.890308,39.150947,Resolução/Conclusão
25711397,Vale da Pedra,Lezíria do Tejo,311,2025-07-21T14:16:00Z,25711397,Em Resolução/Conclusão,3103,Incêndio rural,0,0,0,0,2025-07-21T14:16:00Z,Cartaxo,Santarém,Alentejo,-8.783137,39.110872,Resolução/Conclusão
25715993,Azueira e Sobral da Abelheira,Grande Lisboa,311,2025-07-22T12:53:00Z,25715993,Em Resolução/Conclusão,3101,Incêndio rural,0,13,0,46,2025-07-22T12:53:00Z,Mafra,Lisboa,Área Metropolitana De Lisboa,-9.323877,38.988737,Resolução/Conclusão
25716118,Alvite,Douro,309,2025-07-22T13:18:00Z,25716118,Em Resolução/Conclusão,3101,Incêndio rural,0,2,0,4,2025-07-22T13:18:00Z,Moimenta Da Beira,Viseu,Norte,-7.71388,40.952273,Resolução/Conclusão
25717131,Adaúfe,Cávado,309,2025-07-22T16:33:00Z,25717131,Em Resolução/Conclusão,3105,Incêndio rural,0,3,0,8,2025-07-22T16:33:00Z,Braga,Braga,Norte,-8.400517,41.599615,Resolução/Conclusão
25717395,Pinhal Novo,Península de Setúbal,311,2025-07-22T17:22:00Z,25717395,Em Resolução/Conclusão,3103,Incêndio rural,0,9,0,25,2025-07-22T17:22:00Z,Palmela,Setúbal,Área Metropolitana De Lisboa,-8.918077,38.61166,Resolução/Conclusão
25717724,Branca,Região de Aveiro,310,2025-07-22T18:46:00Z,25717724,Em Despacho,3111,Queima,0,0,0,0,2025-07-22T18:46:00Z,Albergaria-a-Velha,Aveiro,Centro,-8.477664,40.743933,Despacho
