id,address,subregion,neighborhood,date,id.1,state,nature,nature_description,aerial_means,terrestrial_means,aquatic_means,operational,date.1,Concelho,Distrito,NUTII_DSG,longitude,latitude,state_2
25846480,Sabugal e Aldeia de Santo António,Beiras e Serra da Estrela,310,2025-08-15T14:41:00Z,25846480,Em Resolução/Conclusão,3103,Incêndio rural,0,11,0,33,2025-08-15T14:41:00Z,Sabugal,Guarda,Centro,-7.125037,40.34023,Resolução/Conclusão
25891770,São Martinho de Antas e Paradela de Guiães,Douro,309,2025-08-24T15:06:00Z,25891770,Em Resolução/Conclusão,3101,Incêndio rural,0,7,0,23,2025-08-24T15:06:00Z,Sabrosa,Vila Real,Norte,-7.640418,41.23664,Resolução/Conclusão
25906729,Moreira do Rei e Várzea Cova,Ave,309,2025-08-27T16:13:00Z,25906729,Em Resolução/Conclusão,3103,Incêndio rural,0,13,0,50,2025-08-27T16:13:00Z,Fafe,Braga,Norte,-8.082387,41.501265,Resolução/Conclusão
25907114,Póvoa de Atalaia e Atalaia do Campo,Beiras e Serra da Estrela,310,2025-08-27T17:43:00Z,25907114,Em Resolução/Conclusão,3103,Incêndio rural,0,3,0,11,2025-08-27T17:43:00Z,Fundão,Castelo Branco,Centro,-7.442368,40.06239,Resolução/Conclusão
25907482,Campanhó e Paradança,Ave,309,2025-08-27T19:12:00Z,25907482,Em Resolução/Conclusão,3103,Incêndio rural,0,4,0,16,2025-08-27T19:12:00Z,Mondim De Basto,Vila Real,Norte,-7.965877,41.391997,Resolução/Conclusão
25907497,Mões,Viseu Dão Lafões,310,2025-08-27T19:15:00Z,25907497,Em Resolução/Conclusão,3103,Incêndio rural,1,5,0,31,2025-08-27T19:15:00Z,Castro Daire,Viseu,Centro,-7.9419,40.82366,Resolução/Conclusão
25813482,Freches e Torres,Beiras e Serra da Estrela,310,2025-08-09T16:21:00Z,25813482,Em Resolução/Conclusão,3103,Incêndio rural,0,1,0,5,2025-08-09T16:21:00Z,Trancoso,Guarda,Centro,-7.363745,40.709022,Resolução/Conclusão
25832250,Ferreira de Aves,Viseu Dão Lafões,310,2025-08-13T00:03:00Z,25832250,Em Resolução/Conclusão,3103,Incêndio rural,0,1,0,2,2025-08-13T00:03:00Z,Sátão,Viseu,Centro,-7.647793,40.79568,Resolução/Conclusão
25836309,Cinfães,Tâmega e Sousa,309,2025-08-13T18:17:00Z,25836309,Em Resolução/Conclusão,3103,Incêndio rural,0,1,0,2,2025-08-13T18:17:00Z,Cinfães,Viseu,Norte,-8.071502,41.049757,Resolução/Conclusão
25906185,Rossas,Ave,309,2025-08-27T14:20:00Z,25906185,Em Resolução/Conclusão,3103,Incêndio rural,0,1,0,5,2025-08-27T14:20:00Z,Vieira Do Minho,Braga,Norte,-8.123105,41.59202,Resolução/Conclusão
25907002,Abambres,Terras de Trás-os-Montes,309,2025-08-27T17:14:00Z,25907002,Em Resolução/Conclusão,3103,Incêndio rural,0,2,0,6,2025-08-27T17:14:00Z,Mirandela,Bragança,Norte,-7.185527,41.53309,Resolução/Conclusão
25907531,Ardãos e Bobadela,Alto Tâmega e Barroso,309,2025-08-27T19:23:00Z,25907531,Em Despacho,3103,Incêndio rural,0,3,0,15,2025-08-27T19:23:00Z,Boticas,Vila Real,Norte,-7.611253,41.762541,Despacho
25832672,Piódão,Região de Coimbra,310,2025-08-13T05:08:00Z,25832672,Em Resolução/Conclusão,3103,Incêndio rural,0,71,0,195,2025-08-13T05:08:00Z,Arganil,Coimbra,Centro,-7.81972,40.23083,Resolução/Conclusão
25897250,Viade de Baixo e Fervidelas,Alto Tâmega e Barroso,309,2025-08-25T17:20:00Z,25897250,Em Resolução/Conclusão,3103,Incêndio rural,0,7,0,26,2025-08-25T17:20:00Z,Montalegre,Vila Real,Norte,-7.860477,41.725298,Resolução/Conclusão
25898107,Mondrões,Douro,309,2025-08-25T20:46:00Z,25898107,Em Resolução/Conclusão,3103,Incêndio rural,0,0,0,0,2025-08-25T20:46:00Z,Vila Real,Vila Real,Norte,-7.804065,41.318255,Resolução/Conclusão
25901717,Vale,Alto Minho,309,2025-08-26T15:32:00Z,25901717,Em Resolução/Conclusão,3103,Incêndio rural,0,14,0,44,2025-08-26T15:32:00Z,Arcos De Valdevez,Viana Do Castelo,Norte,-8.345968,41.863728,Resolução/Conclusão
25906999,Portela e Extremo,Alto Minho,309,2025-08-27T17:13:00Z,25906999,Em Resolução/Conclusão,3103,Incêndio rural,0,5,0,20,2025-08-27T17:13:00Z,Arcos De Valdevez,Viana Do Castelo,Norte,-8.452815,41.962128,Resolução/Conclusão
25907492,Fânzeres e São Pedro da Cova,Area M. Porto,309,2025-08-27T19:14:00Z,25907492,Em Resolução/Conclusão,3103,Incêndio rural,0,1,0,3,2025-08-27T19:14:00Z,Gondomar,Porto,Norte,-8.494742,41.14204,Resolução/Conclusão
25907626,Ourentã,Região de Coimbra,310,2025-08-27T19:52:00Z,25907626,Em Despacho,3105,Incêndio rural,0,0,0,0,2025-08-27T19:52:00Z,Cantanhede,Coimbra,Centro,-8.552372,40.385278,Despacho
25883011,Almofala,Viseu Dão Lafões,310,2025-08-22T17:00:00Z,25883011,Em Resolução/Conclusão,3103,Incêndio rural,0,1,0,2,2025-08-22T17:00:00Z,Castro Daire,Viseu,Centro,-7.767003,40.956183,Resolução/Conclusão
25887019,Pedrógão Grande,Região de Leiria,310,2025-08-23T14:27:00Z,25887019,Em Resolução/Conclusão,3101,Incêndio rural,0,29,0,97,2025-08-23T14:27:00Z,Pedrógão Grande,Leiria,Centro,-8.15364,39.9136,Resolução/Conclusão
25906355,Caçarilhe e Infesta,Tâmega e Sousa,309,2025-08-27T14:53:00Z,25906355,Em Resolução/Conclusão,3103,Incêndio rural,0,4,0,12,2025-08-27T14:53:00Z,Celorico De Basto,Braga,Norte,-8.03357,41.420303,Resolução/Conclusão
25906500,Beduído e Veiros,Região de Aveiro,310,2025-08-27T15:22:00Z,25906500,Em Resolução/Conclusão,3101,Incêndio rural,0,4,0,10,2025-08-27T15:22:00Z,Estarreja,Aveiro,Centro,-8.533697,40.763657,Resolução/Conclusão
25906523,Picão e Ermida,Viseu Dão Lafões,310,2025-08-27T15:26:00Z,25906523,Em Resolução/Conclusão,3103,Incêndio rural,0,14,0,58,2025-08-27T15:26:00Z,Castro Daire,Viseu,Centro,-7.9416079999999996,40.947432,Resolução/Conclusão
25907366,Rio Frio,Alto Minho,309,2025-08-27T18:43:00Z,25907366,Em Resolução/Conclusão,3103,Incêndio rural,0,1,0,2,2025-08-27T18:43:00Z,Arcos De Valdevez,Viana Do Castelo,Norte,-8.504153,41.852855,Resolução/Conclusão
25907561,Landeira,Alentejo Central,312,2025-08-27T19:25:00Z,25907561,Em Curso,3101,Incêndio rural,1,5,0,28,2025-08-27T19:25:00Z,Vendas Novas,Évora,Alentejo,-8.606644,38.595686,Curso
