id,address,subregion,neighborhood,date,id.1,state,nature,nature_description,aerial_means,terrestrial_means,aquatic_means,operational,date.1,Concelho,Distrito,NUTII_DSG,longitude,latitude,state_2
25845171,Pêra do Moço,Beiras e Serra da Estrela,310,2025-08-15T10:44:00Z,25845171,Em Resolução/Conclusão,3103,Incêndio rural,0,0,0,0,2025-08-15T10:44:00Z,Guarda,Guarda,Centro,-7.20956,40.61267,Resolução/Conclusão
25846016,Poiares,Douro,309,2025-08-15T13:17:00Z,25846016,Em Resolução/Conclusão,3103,Incêndio rural,0,23,0,66,2025-08-15T13:17:00Z,Freixo De Espada à Cinta,Bragança,Norte,-6.843393,41.075787,Resolução/Conclusão
25847211,Campelo,Região de Leiria,310,2025-08-15T17:01:00Z,25847211,Em Resolução/Conclusão,3101,Incêndio rural,0,7,0,26,2025-08-15T17:01:00Z,Figueiró Dos Vinhos,Leiria,Centro,-8.258518,39.952923,Resolução/Conclusão
25861685,Santa Catarina da Serra e Chainça,Região de Leiria,310,2025-08-18T13:03:00Z,25861685,Em Resolução/Conclusão,3103,Incêndio rural,0,1,0,2,2025-08-18T13:03:00Z,Leiria,Leiria,Centro,-8.698656,39.708305,Resolução/Conclusão
25872413,Cinco Vilas e Reigada,Beiras e Serra da Estrela,310,2025-08-20T14:58:00Z,25872413,Em Curso,3103,Incêndio rural,0,40,0,158,2025-08-20T14:58:00Z,Figueira De Castelo Rodrigo,Guarda,Centro,-6.95815,40.775573,Curso
25875044,Pedroso e Seixezelo,Area M. Porto,309,2025-08-21T06:30:00Z,25875044,Em Resolução/Conclusão,3103,Incêndio rural,0,2,0,11,2025-08-21T06:30:00Z,Vila Nova De Gaia,Porto,Norte,-8.581543,41.083505,Resolução/Conclusão
25875053,Alvados e Alcaria,Região de Leiria,310,2025-08-21T06:39:00Z,25875053,Em Despacho,3103,Incêndio rural,0,1,0,5,2025-08-21T06:39:00Z,Porto De Mós,Leiria,Centro,-8.79191,39.57588,Despacho
25875055,Meirinhas,Região de Leiria,310,2025-08-21T06:42:00Z,25875055,Em Despacho,3111,Queima,0,0,0,0,2025-08-21T06:42:00Z,Pombal,Leiria,Centro,-8.716666,39.83417,Despacho
25818455,Sobral de São Miguel,Beiras e Serra da Estrela,310,2025-08-10T15:02:00Z,25818455,Em Resolução/Conclusão,3103,Incêndio rural,0,1,0,1,2025-08-10T15:02:00Z,Covilhã,Castelo Branco,Centro,-7.77307,40.200173,Resolução/Conclusão
25846480,Sabugal e Aldeia de Santo António,Beiras e Serra da Estrela,310,2025-08-15T14:41:00Z,25846480,Em Resolução/Conclusão,3103,Incêndio rural,0,103,0,381,2025-08-15T14:41:00Z,Sabugal,Guarda,Centro,-7.125037,40.34023,Resolução/Conclusão
25852580,São João de Tarouca,Douro,309,2025-08-16T17:00:00Z,25852580,Em Resolução/Conclusão,3103,Incêndio rural,0,6,0,19,2025-08-16T17:00:00Z,Tarouca,Viseu,Norte,-7.760748,40.986773,Resolução/Conclusão
25867021,Carrazeda de Ansiães,Douro,309,2025-08-19T13:27:00Z,25867021,Em Resolução/Conclusão,3103,Incêndio rural,0,23,0,73,2025-08-19T13:27:00Z,Carrazeda De Ansiães,Bragança,Norte,-7.28399,41.211137,Resolução/Conclusão
25868208,Vila da Ponte,Douro,309,2025-08-19T17:29:00Z,25868208,Em Resolução/Conclusão,3103,Incêndio rural,0,0,0,0,2025-08-19T17:29:00Z,Sernancelhe,Viseu,Norte,-7.51704,40.917505,Resolução/Conclusão
25868589,Proença-a-Nova e Peral,Beira Baixa,310,2025-08-19T19:06:00Z,25868589,Em Resolução/Conclusão,3101,Incêndio rural,0,0,0,0,2025-08-19T19:06:00Z,Proença-a-Nova,Castelo Branco,Centro,-7.90942,39.713548,Resolução/Conclusão
25868876,Louredo e Fornelos,Douro,309,2025-08-19T20:10:00Z,25868876,Em Resolução/Conclusão,3103,Incêndio rural,0,3,0,12,2025-08-19T20:10:00Z,Santa Marta De Penaguião,Vila Real,Norte,-7.825263,41.239325,Resolução/Conclusão
25874923,Eixo e Eirol,Região de Aveiro,310,2025-08-21T04:35:00Z,25874923,Em Resolução/Conclusão,3103,Incêndio rural,0,2,0,7,2025-08-21T04:35:00Z,Aveiro,Aveiro,Centro,-8.566748,40.605854,Resolução/Conclusão
25813482,Freches e Torres,Beiras e Serra da Estrela,310,2025-08-09T16:21:00Z,25813482,Em Resolução/Conclusão,3103,Incêndio rural,0,11,0,36,2025-08-09T16:21:00Z,Trancoso,Guarda,Centro,-7.363745,40.709022,Resolução/Conclusão
25832250,Ferreira de Aves,Viseu Dão Lafões,310,2025-08-13T00:03:00Z,25832250,Em Resolução/Conclusão,3103,Incêndio rural,0,15,0,46,2025-08-13T00:03:00Z,Sátão,Viseu,Centro,-7.647793,40.79568,Resolução/Conclusão
25836309,Cinfães,Tâmega e Sousa,309,2025-08-13T18:17:00Z,25836309,Em Resolução/Conclusão,3103,Incêndio rural,0,1,0,2,2025-08-13T18:17:00Z,Cinfães,Viseu,Norte,-8.071502,41.049757,Resolução/Conclusão
25840505,Ribeira de Nisa e Carreiras,Alto Alentejo,312,2025-08-14T14:01:00Z,25840505,Em Resolução/Conclusão,3101,Incêndio rural,0,3,0,9,2025-08-14T14:01:00Z,Portalegre,Portalegre,Alentejo,-7.47009,39.374707,Resolução/Conclusão
25851721,Arnóia,Tâmega e Sousa,309,2025-08-16T14:24:00Z,25851721,Em Resolução/Conclusão,3103,Incêndio rural,0,9,0,33,2025-08-16T14:24:00Z,Celorico De Basto,Braga,Norte,-7.994469,41.369836,Resolução/Conclusão
25860828,Vilar de Perdizes e Meixide,Alto Tâmega e Barroso,309,2025-08-18T10:25:00Z,25860828,Em Resolução/Conclusão,3103,Incêndio rural,0,112,0,332,2025-08-18T10:25:00Z,NA,NA,NA,-7.63634,41.880008,Resolução/Conclusão
25867995,Lomba,Area M. Porto,309,2025-08-19T16:36:00Z,25867995,Em Resolução/Conclusão,3103,Incêndio rural,0,8,0,31,2025-08-19T16:36:00Z,Gondomar,Porto,Norte,-8.41085,41.05968,Resolução/Conclusão
25868316,"Espírito Santo, Nossa Senhora da Graça e São Simão",Alto Alentejo,312,2025-08-19T17:52:00Z,25868316,Em Resolução/Conclusão,3101,Incêndio rural,0,4,0,14,2025-08-19T17:52:00Z,Nisa,Portalegre,Alentejo,-7.710377,39.493737,Resolução/Conclusão
25874982,Mancelos,Tâmega e Sousa,309,2025-08-21T05:26:00Z,25874982,Em Resolução/Conclusão,3103,Incêndio rural,0,3,0,9,2025-08-21T05:26:00Z,Amarante,Porto,Norte,-8.14907,41.266612,Resolução/Conclusão
25875049,Carregosa,Area M. Porto,309,2025-08-21T06:36:00Z,25875049,Em Despacho,3103,Incêndio rural,0,1,0,5,2025-08-21T06:36:00Z,Oliveira De Azeméis,Aveiro,Norte,-8.413084,40.87453,Despacho
25832672,Piódão,Região de Coimbra,310,2025-08-13T05:08:00Z,25832672,Em Curso,3103,Incêndio rural,0,567,0,1674,2025-08-13T05:08:00Z,Arganil,Coimbra,Centro,-7.81972,40.23083,Curso
25840417,Lousã e Vilarinho,Região de Coimbra,310,2025-08-14T13:46:00Z,25840417,Em Resolução/Conclusão,3101,Incêndio rural,0,20,0,60,2025-08-14T13:46:00Z,Lousã,Coimbra,Centro,-8.201561,40.080016,Resolução/Conclusão
25857322,"Barcel, Marmelos e Valverde da Gestosa",Terras de Trás-os-Montes,309,2025-08-17T15:53:00Z,25857322,Em Resolução/Conclusão,3103,Incêndio rural,0,58,0,147,2025-08-17T15:53:00Z,Mirandela,Bragança,Norte,-7.209414,41.409479,Resolução/Conclusão
25859212,Moimenta,Cávado,309,2025-08-17T23:49:00Z,25859212,Em Resolução/Conclusão,3103,Incêndio rural,0,1,0,5,2025-08-17T23:49:00Z,Terras De Bouro,Braga,Norte,-8.303262,41.711533,Resolução/Conclusão
25869388,Armil,Ave,309,2025-08-19T22:29:00Z,25869388,Em Resolução/Conclusão,3103,Incêndio rural,0,15,0,48,2025-08-19T22:29:00Z,Fafe,Braga,Norte,-8.180218,41.423148,Resolução/Conclusão
25872014,Escudeiros e Penso (Santo Estêvão e São Vicente),Cávado,309,2025-08-20T13:43:00Z,25872014,Em Resolução/Conclusão,3103,Incêndio rural,0,0,0,0,2025-08-20T13:43:00Z,Braga,Braga,Norte,-8.426738,41.47378,Resolução/Conclusão
25872437,Alfena,Area M. Porto,309,2025-08-20T15:02:00Z,25872437,Em Resolução/Conclusão,3103,Incêndio rural,0,13,0,41,2025-08-20T15:02:00Z,Valongo,Porto,Norte,-8.535345,41.218567,Resolução/Conclusão
