id,address,subregion,neighborhood,date,id.1,state,nature,nature_description,aerial_means,terrestrial_means,aquatic_means,operational,date.1,Concelho,Distrito,NUTII_DSG,longitude,latitude
24789370,Alcanena e Vila Moreira,Médio Tejo,311,2025-01-08T07:50:00Z,24789370,Em curso,3311,Queda de elementos de estruturas edificados,0,1,0,2,2025-01-08T07:50:00Z,Alcanena,Santarém,Centro,-8.669221,39.464869
24789422,Alcanena e Vila Moreira,Médio Tejo,311,2025-01-08T08:00:00Z,24789422,Em despacho,3311,Queda de elementos de estruturas edificados,0,1,0,3,2025-01-08T08:00:00Z,Alcanena,Santarém,Centro,-8.669221,39.464869
24789536,Alcanena e Vila Moreira,Médio Tejo,311,2025-01-08T08:30:00Z,24789536,Em curso,3311,Queda de elementos de estruturas edificados,0,4,0,9,2025-01-08T08:30:00Z,Alcanena,Santarém,Centro,-8.669221,39.464869
24789545,Areosa,Alto Minho,309,2025-01-08T08:23:00Z,24789545,Em despacho,3315,Inundação de estruturas por precipitação intensa,0,0,0,0,2025-01-08T08:23:00Z,Viana Do Castelo,Viana Do Castelo,Norte,-8.841057,41.722906
24789606,Areosa,Alto Minho,309,2025-01-08T08:48:00Z,24789606,Em despacho,3329,Queda de estruturas temporárias ou móveis,0,0,0,0,2025-01-08T08:48:00Z,Viana Do Castelo,Viana Do Castelo,Norte,-8.841057,41.722906
24789761,Lalim,Douro,309,2025-01-08T09:18:00Z,24789761,Em despacho,3301,Queda de árvore,0,2,0,4,2025-01-08T09:18:00Z,Lamego,Viseu,Norte,-7.817973,41.040278
24789795,Brandara,Alto Minho,309,2025-01-08T09:00:00Z,24789795,Em curso,3315,Inundação de estruturas por precipitação intensa,0,0,0,0,2025-01-08T09:00:00Z,Ponte De Lima,Viana Do Castelo,Norte,-8.56433,41.793697
24789797,Santa Maria Maior e Monserrate e Meadela,Alto Minho,309,2025-01-08T09:16:00Z,24789797,Em despacho,3315,Inundação de estruturas por precipitação intensa,0,0,0,0,2025-01-08T09:16:00Z,Viana Do Castelo,Viana Do Castelo,Norte,-8.81652,41.703882
24789872,Balazar,Area M. Porto,309,2025-01-08T09:24:00Z,24789872,Em curso,3301,Queda de árvore,0,3,0,9,2025-01-08T09:24:00Z,Póvoa De Varzim,Porto,Norte,-8.631829,41.40519
24789929,Santa Maria Maior e Monserrate e Meadela,Alto Minho,309,2025-01-08T09:46:00Z,24789929,Em despacho,3315,Inundação de estruturas por precipitação intensa,0,1,0,2,2025-01-08T09:46:00Z,Viana Do Castelo,Viana Do Castelo,Norte,-8.83098,41.69219
24790006,"Geraz do Lima (S.maria, S.leocádia, Moreira), Deão",Alto Minho,309,2025-01-08T09:59:00Z,24790006,Em despacho,3301,Queda de árvore,0,1,0,3,2025-01-08T09:59:00Z,Viana Do Castelo,Viana Do Castelo,Norte,-8.682412,41.70418
24790113,Oliveira do Douro,Area M. Porto,309,2025-01-08T10:00:00Z,24790113,Em despacho,3315,Inundação de estruturas por precipitação intensa,0,1,0,2,2025-01-08T10:00:00Z,Vila Nova De Gaia,Porto,Norte,-8.58327,41.127164
24790122,Oliveira do Douro,Area M. Porto,309,2025-01-08T10:16:00Z,24790122,Em despacho,3315,Inundação de estruturas por precipitação intensa,0,0,0,0,2025-01-08T10:16:00Z,Vila Nova De Gaia,Porto,Norte,-8.574919,41.12037
24790131,Mafamude e Vilar do Paraíso,Area M. Porto,309,2025-01-08T10:09:00Z,24790131,Em despacho,3315,Inundação de estruturas por precipitação intensa,0,2,0,4,2025-01-08T10:09:00Z,Vila Nova De Gaia,Porto,Norte,-8.601126,41.126193
24790147,Mafamude e Vilar do Paraíso,Area M. Porto,309,2025-01-08T10:19:00Z,24790147,Em despacho,3315,Inundação de estruturas por precipitação intensa,0,0,0,0,2025-01-08T10:19:00Z,Vila Nova De Gaia,Porto,Norte,-8.618882,41.08057
24790254,Gulpilhares e Valadares,Area M. Porto,309,2025-01-08T10:37:00Z,24790254,Em despacho,3315,Inundação de estruturas por precipitação intensa,0,0,0,0,2025-01-08T10:37:00Z,Vila Nova De Gaia,Porto,Norte,-8.65255,41.07423
24790274,Aves,Area M. Porto,309,2025-01-08T10:33:00Z,24790274,Em despacho,3311,Queda de elementos de estruturas edificados,0,1,0,2,2025-01-08T10:33:00Z,Santo Tirso,Porto,Norte,-8.409234,41.368126
24790356,Madalena,Area M. Porto,309,2025-01-08T10:54:00Z,24790356,Em despacho,3315,Inundação de estruturas por precipitação intensa,0,1,0,2,2025-01-08T10:54:00Z,Vila Nova De Gaia,Porto,Norte,-8.660423,41.10587
24790397,Areosa,Alto Minho,309,2025-01-08T10:54:00Z,24790397,Em despacho,3315,Inundação de estruturas por precipitação intensa,0,1,0,2,2025-01-08T10:54:00Z,Viana Do Castelo,Viana Do Castelo,Norte,-8.841057,41.722906
24790413,Gavião e Atalaia,Alto Alentejo,312,2025-01-08T11:03:00Z,24790413,Em conclusão,3301,Queda de árvore,0,2,0,6,2025-01-08T11:03:00Z,Gavião,Portalegre,Alentejo,-7.90254,39.45053
24790422,Padronelo,Tâmega e Sousa,309,2025-01-08T11:05:00Z,24790422,Em despacho,3315,Inundação de estruturas por precipitação intensa,0,1,0,2,2025-01-08T11:05:00Z,Amarante,Porto,Norte,-8.049611,41.25678
24790424,Venade e Azevedo,Alto Minho,309,2025-01-08T11:05:00Z,24790424,Em despacho,3301,Queda de árvore,0,1,0,3,2025-01-08T11:05:00Z,Caminha,Viana Do Castelo,Norte,-8.813032,41.847246
24777071,Pedrógão Grande,Região de Leiria,310,2025-01-05T13:18:00Z,24777071,Em conclusão,3309,Desabamento de estruturas edificadas,0,1,0,1,2025-01-05T13:18:00Z,Pedrógão Grande,Leiria,Centro,-8.177567,39.933038
24789344,Alcanena e Vila Moreira,Médio Tejo,311,2025-01-08T07:40:00Z,24789344,Em despacho,3311,Queda de elementos de estruturas edificados,0,1,0,2,2025-01-08T07:40:00Z,Alcanena,Santarém,Centro,-8.669221,39.464869
24789362,Alcanena e Vila Moreira,Médio Tejo,311,2025-01-08T07:46:00Z,24789362,Em curso,3311,Queda de elementos de estruturas edificados,0,1,0,2,2025-01-08T07:46:00Z,Alcanena,Santarém,Centro,-8.669221,39.464869
24789428,Alcanena e Vila Moreira,Médio Tejo,311,2025-01-08T08:01:00Z,24789428,Em despacho,3311,Queda de elementos de estruturas edificados,0,1,0,2,2025-01-08T08:01:00Z,Alcanena,Santarém,Centro,-8.667184,39.45825
24789578,Santa Maria Maior e Monserrate e Meadela,Alto Minho,309,2025-01-08T08:41:00Z,24789578,Em despacho,3315,Inundação de estruturas por precipitação intensa,0,0,0,0,2025-01-08T08:41:00Z,Viana Do Castelo,Viana Do Castelo,Norte,-8.81652,41.703882
24789705,Santa Maria Maior e Monserrate e Meadela,Alto Minho,309,2025-01-08T08:12:00Z,24789705,Em curso,3315,Inundação de estruturas por precipitação intensa,0,0,0,0,2025-01-08T08:12:00Z,Viana Do Castelo,Viana Do Castelo,Norte,-8.81652,41.703882
24789712,Ventosa,Viseu Dão Lafões,310,2025-01-08T09:09:00Z,24789712,Em curso,3301,Queda de árvore,0,2,0,6,2025-01-08T09:09:00Z,Vouzela,Viseu,Centro,-8.113007,40.712031
24789803,Campanhã,Area M. Porto,309,2025-01-08T09:18:00Z,24789803,Em curso,3315,Inundação de estruturas por precipitação intensa,0,0,0,0,2025-01-08T09:18:00Z,Porto,Porto,Norte,-8.571543,41.154223
24789367,Alcanena e Vila Moreira,Médio Tejo,311,2025-01-08T07:44:00Z,24789367,Em curso,3311,Queda de elementos de estruturas edificados,0,1,0,2,2025-01-08T07:44:00Z,Alcanena,Santarém,Centro,-8.669221,39.464869
24789401,Alcanena e Vila Moreira,Médio Tejo,311,2025-01-08T07:57:00Z,24789401,Em despacho,3311,Queda de elementos de estruturas edificados,0,1,0,3,2025-01-08T07:57:00Z,Alcanena,Santarém,Centro,-8.669221,39.464869
24789535,Alcanena e Vila Moreira,Médio Tejo,311,2025-01-08T08:30:00Z,24789535,Em despacho,3311,Queda de elementos de estruturas edificados,0,1,0,4,2025-01-08T08:30:00Z,Alcanena,Santarém,Centro,-8.669221,39.464869
24789585,Santa Maria Maior e Monserrate e Meadela,Alto Minho,309,2025-01-08T08:43:00Z,24789585,Em despacho,3315,Inundação de estruturas por precipitação intensa,0,0,0,0,2025-01-08T08:43:00Z,Viana Do Castelo,Viana Do Castelo,Norte,-8.823112,41.6952
24789668,Areosa,Alto Minho,309,2025-01-08T09:02:00Z,24789668,Em despacho,3315,Inundação de estruturas por precipitação intensa,0,0,0,0,2025-01-08T09:02:00Z,Viana Do Castelo,Viana Do Castelo,Norte,-8.8476,41.70303
24789734,Santa Maria Maior e Monserrate e Meadela,Alto Minho,309,2025-01-08T08:15:00Z,24789734,Em curso,3315,Inundação de estruturas por precipitação intensa,0,0,0,0,2025-01-08T08:15:00Z,Viana Do Castelo,Viana Do Castelo,Norte,-8.81652,41.703882
24789524,Areosa,Alto Minho,309,2025-01-08T08:30:00Z,24789524,Em despacho,3315,Inundação de estruturas por precipitação intensa,0,0,0,0,2025-01-08T08:30:00Z,Viana Do Castelo,Viana Do Castelo,Norte,-8.843621,41.7015
24789540,Airó,Cávado,309,2025-01-08T08:24:00Z,24789540,Em curso,3321,Dano na rede de fornecimento de eletricidade ,0,3,0,6,2025-01-08T08:24:00Z,Barcelos,Braga,Norte,-8.558943,41.50844
24789625,Santa Maria Maior e Monserrate e Meadela,Alto Minho,309,2025-01-08T08:52:00Z,24789625,Em despacho,3315,Inundação de estruturas por precipitação intensa,0,0,0,0,2025-01-08T08:52:00Z,Viana Do Castelo,Viana Do Castelo,Norte,-8.81652,41.703882
24789941,Santa Maria Maior e Monserrate e Meadela,Alto Minho,309,2025-01-08T08:40:00Z,24789941,Em curso,3315,Inundação de estruturas por precipitação intensa,0,0,0,0,2025-01-08T08:40:00Z,Viana Do Castelo,Viana Do Castelo,Norte,-8.81345,41.69868
24789976,Areosa,Alto Minho,309,2025-01-08T09:45:00Z,24789976,Em curso,3315,Inundação de estruturas por precipitação intensa,0,1,0,2,2025-01-08T09:45:00Z,Viana Do Castelo,Viana Do Castelo,Norte,-8.847342,41.701798
24789992,Ramalde,Area M. Porto,309,2025-01-08T09:50:00Z,24789992,Em conclusão,3311,Queda de elementos de estruturas edificados,0,1,0,5,2025-01-08T09:50:00Z,Porto,Porto,Norte,-8.642922,41.17139
24790025,Santa Maria Maior e Monserrate e Meadela,Alto Minho,309,2025-01-08T10:02:00Z,24790025,Em despacho,3315,Inundação de estruturas por precipitação intensa,0,0,0,0,2025-01-08T10:02:00Z,Viana Do Castelo,Viana Do Castelo,Norte,-8.842106,41.6966
24789883,Arcozelo,Alto Minho,309,2025-01-08T09:10:00Z,24789883,Em despacho,3315,Inundação de estruturas por precipitação intensa,0,1,0,3,2025-01-08T09:10:00Z,Ponte De Lima,Viana Do Castelo,Norte,-8.597727,41.791041
24790117,Canelas,Area M. Porto,309,2025-01-08T09:55:00Z,24790117,Em despacho,3315,Inundação de estruturas por precipitação intensa,0,1,0,3,2025-01-08T09:55:00Z,Vila Nova De Gaia,Porto,Norte,-8.599603,41.079376
24790150,Gulpilhares e Valadares,Area M. Porto,309,2025-01-08T10:20:00Z,24790150,Em despacho,3315,Inundação de estruturas por precipitação intensa,0,0,0,0,2025-01-08T10:20:00Z,Vila Nova De Gaia,Porto,Norte,-8.654963,41.07587
24790169,Pedroso e Seixezelo,Area M. Porto,309,2025-01-08T10:17:00Z,24790169,Em curso,3315,Inundação de estruturas por precipitação intensa,0,0,0,0,2025-01-08T10:17:00Z,Vila Nova De Gaia,Porto,Norte,-8.55728,41.067659
24790236,Arcozelo,Area M. Porto,309,2025-01-08T10:35:00Z,24790236,Em despacho,3315,Inundação de estruturas por precipitação intensa,0,0,0,0,2025-01-08T10:35:00Z,Vila Nova De Gaia,Porto,Norte,-8.65013,41.06456
24790267,Mafamude e Vilar do Paraíso,Area M. Porto,309,2025-01-08T10:18:00Z,24790267,Em despacho,3315,Inundação de estruturas por precipitação intensa,0,1,0,2,2025-01-08T10:18:00Z,Vila Nova De Gaia,Porto,Norte,-8.601126,41.126193
24790270,Madalena,Area M. Porto,309,2025-01-08T10:40:00Z,24790270,Em despacho,3315,Inundação de estruturas por precipitação intensa,0,0,0,0,2025-01-08T10:40:00Z,Vila Nova De Gaia,Porto,Norte,-8.64258,41.10065
24790032,Faiões,Alto Tâmega e Barroso,309,2025-01-08T10:00:00Z,24790032,Em despacho,3301,Queda de árvore,0,1,0,3,2025-01-08T10:00:00Z,Chaves,Vila Real,Norte,-7.430996,41.751679
24790098,Parada do Monte e Cubalhão,Alto Minho,309,2025-01-08T09:44:00Z,24790098,Em despacho,3315,Inundação de estruturas por precipitação intensa,0,1,0,3,2025-01-08T09:44:00Z,Melgaço,Viana Do Castelo,Norte,-8.246738,42.039296
24790105,Mafamude e Vilar do Paraíso,Area M. Porto,309,2025-01-08T09:49:00Z,24790105,Em despacho,3315,Inundação de estruturas por precipitação intensa,0,1,0,3,2025-01-08T09:49:00Z,Vila Nova De Gaia,Porto,Norte,-8.622265,41.086486
24790112,Gaeiras,Oeste,311,2025-01-08T10:00:00Z,24790112,Em despacho,3329,Queda de estruturas temporárias ou móveis,0,2,0,6,2025-01-08T10:00:00Z,Óbidos,Leiria,Centro,-9.13344,39.373927
24790182,Gulpilhares e Valadares,Area M. Porto,309,2025-01-08T10:26:00Z,24790182,Em despacho,3315,Inundação de estruturas por precipitação intensa,0,0,0,0,2025-01-08T10:26:00Z,Vila Nova De Gaia,Porto,Norte,-8.632729,41.07996
24790264,Arca e Ponte de Lima,Alto Minho,309,2025-01-08T10:30:00Z,24790264,Em conclusão,3301,Queda de árvore,0,2,0,8,2025-01-08T10:30:00Z,Ponte De Lima,Viana Do Castelo,Norte,-8.566827,41.754588
24790078,"Nogueira, Meixedo e Vilar de Murteda",Alto Minho,309,2025-01-08T10:00:00Z,24790078,Em curso,3309,Desabamento de estruturas edificadas,0,0,0,0,2025-01-08T10:00:00Z,Viana Do Castelo,Viana Do Castelo,Norte,-8.701891,41.757805
24790109,Mafamude e Vilar do Paraíso,Area M. Porto,309,2025-01-08T10:14:00Z,24790109,Em despacho,3315,Inundação de estruturas por precipitação intensa,0,1,0,3,2025-01-08T10:14:00Z,Vila Nova De Gaia,Porto,Norte,-8.62338,41.10917
24790127,Gulpilhares e Valadares,Area M. Porto,309,2025-01-08T09:53:00Z,24790127,Em despacho,3315,Inundação de estruturas por precipitação intensa,0,1,0,2,2025-01-08T09:53:00Z,Vila Nova De Gaia,Porto,Norte,-8.635397,41.091832
24790176,Arcozelo,Area M. Porto,309,2025-01-08T10:10:00Z,24790176,Em curso,3315,Inundação de estruturas por precipitação intensa,0,2,0,4,2025-01-08T10:10:00Z,Vila Nova De Gaia,Porto,Norte,-8.640388,41.056331
24790192,Santa Marinha e São Pedro da Afurada,Area M. Porto,309,2025-01-08T10:00:00Z,24790192,Em despacho,3315,Inundação de estruturas por precipitação intensa,0,1,0,2,2025-01-08T10:00:00Z,Vila Nova De Gaia,Porto,Norte,-8.623778,41.1297
24790208,Macieira de Cambra,Area M. Porto,309,2025-01-08T10:20:00Z,24790208,Em curso,3309,Desabamento de estruturas edificadas,0,2,0,5,2025-01-08T10:20:00Z,Vale De Cambra,Aveiro,Norte,-8.385739,40.855831
24790378,Serzedo e Perosinho,Area M. Porto,309,2025-01-08T10:48:00Z,24790378,Em despacho,3315,Inundação de estruturas por precipitação intensa,0,1,0,2,2025-01-08T10:48:00Z,Vila Nova De Gaia,Porto,Norte,-8.616017,41.045992
24790284,Santa Maria Maior e Monserrate e Meadela,Alto Minho,309,2025-01-08T10:18:00Z,24790284,Em despacho,3311,Queda de elementos de estruturas edificados,0,2,0,2,2025-01-08T10:18:00Z,Viana Do Castelo,Viana Do Castelo,Norte,-8.81652,41.703882
24790335,"Ponte da Barca, V. N. Muía e Paço Vedro Magalhães",Alto Minho,309,2025-01-08T10:46:00Z,24790335,Em conclusão,3301,Queda de árvore,0,1,0,2,2025-01-08T10:46:00Z,Ponte Da Barca,Viana Do Castelo,Norte,-8.398802,41.796393
24790337,Gulpilhares e Valadares,Area M. Porto,309,2025-01-08T10:50:00Z,24790337,Em despacho,3315,Inundação de estruturas por precipitação intensa,0,0,0,0,2025-01-08T10:50:00Z,Vila Nova De Gaia,Porto,Norte,-8.64448,41.09652
24790421,Mafamude e Vilar do Paraíso,Area M. Porto,309,2025-01-08T11:05:00Z,24790421,Em despacho,3329,Queda de estruturas temporárias ou móveis,0,0,0,0,2025-01-08T11:05:00Z,Vila Nova De Gaia,Porto,Norte,-8.601126,41.126193
24790484,Serzedo e Perosinho,Area M. Porto,309,2025-01-08T10:57:00Z,24790484,Em despacho,3315,Inundação de estruturas por precipitação intensa,0,1,0,2,2025-01-08T10:57:00Z,Vila Nova De Gaia,Porto,Norte,-8.600642,41.053381
24790551,Vila Marim,Douro,309,2025-01-08T11:18:00Z,24790551,Em despacho,3315,Inundação de estruturas por precipitação intensa,0,1,0,2,2025-01-08T11:18:00Z,Vila Real,Vila Real,Norte,-7.764204,41.298542
24790553,Algueirão-Mem Martins,Grande Lisboa,311,2025-01-08T11:13:00Z,24790553,Em despacho,3315,Inundação de estruturas por precipitação intensa,0,1,0,2,2025-01-08T11:13:00Z,Sintra,Lisboa,Área Metropolitana De Lisboa,-9.333934,38.805379
24790412,Mafamude e Vilar do Paraíso,Area M. Porto,309,2025-01-08T10:50:00Z,24790412,Em despacho,3315,Inundação de estruturas por precipitação intensa,0,1,0,2,2025-01-08T10:50:00Z,Vila Nova De Gaia,Porto,Norte,-8.622265,41.086486
24790442,Miranda do Corvo,Região de Coimbra,310,2025-01-08T10:50:00Z,24790442,Em despacho,3301,Queda de árvore,0,1,0,1,2025-01-08T10:50:00Z,Miranda Do Corvo,Coimbra,Centro,-8.279655,40.07615
24790462,Avintes,Area M. Porto,309,2025-01-08T10:45:00Z,24790462,Em despacho,3329,Queda de estruturas temporárias ou móveis,0,1,0,1,2025-01-08T10:45:00Z,Vila Nova De Gaia,Porto,Norte,-8.551032,41.11378
24790494,"Marvila, Ribeira Santarém, S.salvador, S.nicolau",Lezíria do Tejo,311,2025-01-08T11:18:00Z,24790494,Em despacho,3329,Queda de estruturas temporárias ou móveis,0,1,0,5,2025-01-08T11:18:00Z,Santarém,Santarém,Alentejo,-8.678591,39.231938
24790280,Paredes,Area M. Porto,309,2025-01-08T10:19:00Z,24790280,Em despacho,3315,Inundação de estruturas por precipitação intensa,0,1,0,5,2025-01-08T10:19:00Z,Paredes,Porto,Norte,-8.32628,41.205322
24790366,São Bernardo,Região de Aveiro,310,2025-01-08T10:56:00Z,24790366,Em despacho,3321,Dano na rede de fornecimento de eletricidade ,0,1,0,3,2025-01-08T10:56:00Z,Aveiro,Aveiro,Centro,-8.610939,40.60567
24790439,Arcozelo,Area M. Porto,309,2025-01-08T10:30:00Z,24790439,Em despacho,3315,Inundação de estruturas por precipitação intensa,0,1,0,2,2025-01-08T10:30:00Z,Vila Nova De Gaia,Porto,Norte,-8.640388,41.056331
24790475,Santa Maria Maior e Monserrate e Meadela,Alto Minho,309,2025-01-08T11:13:00Z,24790475,Em despacho,3315,Inundação de estruturas por precipitação intensa,0,1,0,2,2025-01-08T11:13:00Z,Viana Do Castelo,Viana Do Castelo,Norte,-8.81652,41.703882
24790514,Apúlia e Fão,Cávado,309,2025-01-08T11:10:00Z,24790514,Em despacho,3301,Queda de árvore,0,1,0,2,2025-01-08T11:10:00Z,Esposende,Braga,Norte,-8.76808,41.49454
