id,address,subregion,neighborhood,date,id.1,state,nature,nature_description,aerial_means,terrestrial_means,aquatic_means,operational,date.1,Concelho,Distrito,NUTII_DSG,longitude,latitude,state_2
25832672,Piódão,Região de Coimbra,310,2025-08-13T05:08:00Z,25832672,Em Resolução/Conclusão,3103,Incêndio rural,0,14,0,41,2025-08-13T05:08:00Z,Arganil,Coimbra,Centro,-7.81972,40.23083,Resolução/Conclusão
25979976,Vilar de Maçada,Douro,309,2025-09-12T14:02:00Z,25979976,Em Resolução/Conclusão,3103,Incêndio rural,0,1,0,2,2025-09-12T14:02:00Z,Alijó,Vila Real,Norte,-7.557988,41.30626,Resolução/Conclusão
25980160,Carregal,Douro,309,2025-09-12T14:33:00Z,25980160,Em Resolução/Conclusão,3103,Incêndio rural,0,4,0,17,2025-09-12T14:33:00Z,Sernancelhe,Viseu,Norte,-7.565793,40.906512,Resolução/Conclusão
25980351,Bornes de Aguiar,Alto Tâmega e Barroso,309,2025-09-12T15:13:00Z,25980351,Em Resolução/Conclusão,3103,Incêndio rural,0,4,0,20,2025-09-12T15:13:00Z,Vila Pouca De Aguiar,Vila Real,Norte,-7.527495,41.557747,Resolução/Conclusão
25980485,Aguiar da Beira e Coruche,Viseu Dão Lafões,310,2025-09-12T15:31:00Z,25980485,Em Resolução/Conclusão,3103,Incêndio rural,0,2,0,10,2025-09-12T15:31:00Z,Aguiar Da Beira,Guarda,Centro,-7.560493,40.833985,Resolução/Conclusão
25980583,Outeiro,Alto Tâmega e Barroso,309,2025-09-12T15:57:00Z,25980583,Em Despacho,3103,Incêndio rural,0,4,0,20,2025-09-12T15:57:00Z,Montalegre,Vila Real,Norte,-7.969581,41.770809,Despacho
25980131,Carva e Vilares,Douro,309,2025-09-12T14:27:00Z,25980131,Em Curso,3103,Incêndio rural,10,19,0,97,2025-09-12T14:27:00Z,Murça,Vila Real,Norte,-7.55901,41.401343,Curso
25980548,Cabeça Santa,Tâmega e Sousa,309,2025-09-12T15:45:00Z,25980548,Em Resolução/Conclusão,3103,Incêndio rural,0,1,0,5,2025-09-12T15:45:00Z,Penafiel,Porto,Norte,-8.276403,41.135678,Resolução/Conclusão
25980616,Évora de Alcobaça,Oeste,311,2025-09-12T16:00:00Z,25980616,Em Resolução/Conclusão,3103,Incêndio rural,0,2,0,7,2025-09-12T16:00:00Z,Alcobaça,Leiria,Centro,-9.001805,39.511452,Resolução/Conclusão
25980713,Parambos,Douro,309,2025-09-12T16:25:00Z,25980713,Em Resolução/Conclusão,3103,Incêndio rural,1,6,0,26,2025-09-12T16:25:00Z,Carrazeda De Ansiães,Bragança,Norte,-7.363138,41.235258,Resolução/Conclusão
25980782,São Félix da Marinha,Area M. Porto,309,2025-09-12T16:39:00Z,25980782,Em Despacho,3103,Incêndio rural,0,1,0,5,2025-09-12T16:39:00Z,Vila Nova De Gaia,Porto,Norte,-8.64012,41.01932,Despacho
25951176,Sandomil,Beiras e Serra da Estrela,310,2025-09-06T10:29:00Z,25951176,Em Resolução/Conclusão,3103,Incêndio rural,0,17,0,59,2025-09-06T10:29:00Z,Seia,Guarda,Centro,-7.76001,40.351547,Resolução/Conclusão
25980003,Chavães,Douro,309,2025-09-12T14:05:00Z,25980003,Em Resolução/Conclusão,3103,Incêndio rural,0,7,0,25,2025-09-12T14:05:00Z,Tabuaço,Viseu,Norte,-7.553368,41.096233,Resolução/Conclusão
25980588,Pinheiro,Viseu Dão Lafões,310,2025-09-12T15:56:00Z,25980588,Em Resolução/Conclusão,3103,Incêndio rural,1,8,0,40,2025-09-12T15:56:00Z,Oliveira De Frades,Viseu,Centro,-8.211217,40.701199,Resolução/Conclusão
25980712,Eiras e São Paulo de Frades,Região de Coimbra,310,2025-09-12T16:24:00Z,25980712,Em Resolução/Conclusão,3101,Incêndio rural,1,5,0,25,2025-09-12T16:24:00Z,Coimbra,Coimbra,Centro,-8.377584,40.249796,Resolução/Conclusão
25952858,Figueira de Castelo Rodrigo,Beiras e Serra da Estrela,310,2025-09-06T16:22:00Z,25952858,Em Resolução/Conclusão,3103,Incêndio rural,0,2,0,7,2025-09-06T16:22:00Z,Figueira De Castelo Rodrigo,Guarda,Centro,-6.934648,40.906778,Resolução/Conclusão
25980034,Medelim,Beira Baixa,310,2025-09-12T14:12:00Z,25980034,Em Resolução/Conclusão,3105,Incêndio rural,0,1,0,2,2025-09-12T14:12:00Z,Idanha-a-Nova,Castelo Branco,Centro,-7.18952,40.048882,Resolução/Conclusão
