id,address,subregion,neighborhood,date,id.1,state,nature,nature_description,aerial_means,terrestrial_means,aquatic_means,operational,date.1,Concelho,Distrito,NUTII_DSG,longitude,latitude,state_2
26077823,São Cipriano e Vil de Souto,Viseu Dão Lafões,310,2025-10-02T14:18:00Z,26077823,Em Resolução/Conclusão,3103,Incêndio rural,0,1,0,2,2025-10-02T14:18:00Z,Viseu,Viseu,Centro,-7.953868,40.632302,Resolução/Conclusão
26078406,Arcozelo,Beiras e Serra da Estrela,310,2025-10-02T16:12:00Z,26078406,Em Resolução/Conclusão,3103,Incêndio rural,0,5,0,21,2025-10-02T16:12:00Z,Gouveia,Guarda,Centro,-7.635898,40.563733,Resolução/Conclusão
26022995,Bordeira,Algarve,313,2025-09-21T12:21:00Z,26022995,Em Resolução/Conclusão,3103,Incêndio rural,0,4,0,10,2025-09-21T12:21:00Z,Aljezur,Faro,Algarve,-8.825374,37.23495,Resolução/Conclusão
26081305,Montoito,Alentejo Central,312,2025-10-03T09:48:00Z,26081305,Em Despacho,3105,Incêndio rural,0,0,0,0,2025-10-03T09:48:00Z,Redondo,Évora,Alentejo,-7.558709,38.507584,Despacho
26073480,Alcanede,Lezíria do Tejo,311,2025-10-01T16:15:00Z,26073480,Em Resolução/Conclusão,3103,Incêndio rural,0,2,0,10,2025-10-01T16:15:00Z,Santarém,Santarém,Alentejo,-8.787427,39.400588,Resolução/Conclusão
26078806,"Tavares (Chãs, Várzea e Travanca)",Viseu Dão Lafões,310,2025-10-02T17:31:00Z,26078806,Em Resolução/Conclusão,3103,Incêndio rural,0,1,0,2,2025-10-02T17:31:00Z,Mangualde,Viseu,Centro,-7.638958,40.609205,Resolução/Conclusão
26081201,Ermesinde,Area M. Porto,309,2025-10-03T09:31:00Z,26081201,Em Despacho,3103,Incêndio rural,0,1,0,5,2025-10-03T09:31:00Z,Valongo,Porto,Norte,-8.53845,41.20353,Despacho
