id,address,subregion,neighborhood,date,id.1,state,nature,nature_description,aerial_means,terrestrial_means,aquatic_means,operational,date.1,Concelho,Distrito,NUTII_DSG,longitude,latitude
25059714,Torrão,Alentejo Litoral,312,2025-03-08T22:10:00Z,25059714,Em curso,1101,Cheia,0,1,0,2,2025-03-08T22:10:00Z,Alcácer Do Sal,Setúbal,Alentejo,-8.359133,38.252053
25070044,Praia do Ribatejo,Médio Tejo,311,2025-03-10T19:30:00Z,25070044,Em curso,1101,Cheia,0,0,0,0,2025-03-10T19:30:00Z,Vila Nova Da Barquinha,Santarém,Centro,-8.357309,39.485638
25071496,São Manços e São Vicente do Pigeiro,Alentejo Central,312,2025-03-11T13:18:00Z,25071496,Em curso,1101,Cheia,0,2,0,4,2025-03-11T13:18:00Z,Évora,Évora,Alentejo,-7.713313,38.513673
25130358,Grândola e Santa Margarida da Serra,Alentejo Litoral,312,2025-03-21T22:53:00Z,25130358,Em curso,3313,Deslizamento de terras,0,0,0,0,2025-03-21T22:53:00Z,Grândola,Setúbal,Alentejo,-8.621172,38.121494
25131211,"Custóias, Leça do Balio e Guifões",Area M. Porto,309,2025-03-22T07:57:00Z,25131211,Em curso,3315,Inundação de estruturas por precipitação intensa,0,6,0,10,2025-03-22T07:57:00Z,Matosinhos,Porto,Norte,-8.632716,41.208899
25131444,Cumeeira,Região de Coimbra,310,2025-03-22T08:50:00Z,25131444,Em despacho,3301,Queda de árvore,0,1,0,4,2025-03-22T08:50:00Z,Penela,Coimbra,Centro,-8.36246,39.948128
25131513,Louriçal,Região de Leiria,310,2025-03-22T08:45:00Z,25131513,Em despacho,3315,Inundação de estruturas por precipitação intensa,0,1,0,2,2025-03-22T08:45:00Z,Pombal,Leiria,Centro,-8.745623,40.007074
25131696,Matas e Cercal,Médio Tejo,311,2025-03-22T09:44:00Z,25131696,Em resolução,3311,Queda de elementos de estruturas edificados,0,1,0,1,2025-03-22T09:44:00Z,Ourém,Santarém,Centro,-8.641594,39.718476
25131731,Torres do Mondego,Região de Coimbra,310,2025-03-22T09:51:00Z,25131731,Em despacho,3301,Queda de árvore,0,0,0,0,2025-03-22T09:51:00Z,Coimbra,Coimbra,Centro,-8.380899,40.192152
25131997,Carvalhal Benfeito,Oeste,311,2025-03-22T10:26:00Z,25131997,Em conclusão,3301,Queda de árvore,0,1,0,5,2025-03-22T10:26:00Z,Caldas Da Rainha,Leiria,Centro,-9.044987,39.443106
25132045,Alcabideche,Grande Lisboa,311,2025-03-22T10:37:00Z,25132045,Em despacho,3301,Queda de árvore,0,1,0,3,2025-03-22T10:37:00Z,Cascais,Lisboa,Área Metropolitana De Lisboa,-9.435089,38.742243
25132131,Gondemaria e Olival,Médio Tejo,311,2025-03-22T10:57:00Z,25132131,Em curso,3311,Queda de elementos de estruturas edificados,0,4,0,5,2025-03-22T10:57:00Z,Ourém,Santarém,Centro,-8.606564,39.71232
25132180,Chamusca e Pinheiro Grande,Lezíria do Tejo,311,2025-03-22T11:06:00Z,25132180,Em despacho,3301,Queda de árvore,0,1,0,2,2025-03-22T11:06:00Z,Chamusca,Santarém,Alentejo,-8.450018,39.395816
25132247,"S.maria, S.miguel, S.martinho, S.pedro Penaferrim",Grande Lisboa,311,2025-03-22T10:36:00Z,25132247,Em resolução,3313,Deslizamento de terras,0,1,0,4,2025-03-22T10:36:00Z,Sintra,Lisboa,Área Metropolitana De Lisboa,-9.387899,38.805813
25132280,Darque,Alto Minho,309,2025-03-22T11:10:00Z,25132280,Em curso,3315,Inundação de estruturas por precipitação intensa,0,2,0,5,2025-03-22T11:10:00Z,Viana Do Castelo,Viana Do Castelo,Norte,-8.79826,41.683928
25132282,"Oeiras e S. Julião da Barra, Paço de Arcos e Caxias",Grande Lisboa,311,2025-03-22T11:19:00Z,25132282,Em conclusão,3315,Inundação de estruturas por precipitação intensa,0,1,0,4,2025-03-22T11:19:00Z,Oeiras,Lisboa,Área Metropolitana De Lisboa,-9.290593,38.696925
25132298,Madalena e Samaiões,Alto Tâmega e Barroso,309,2025-03-22T11:20:00Z,25132298,Em despacho,3301,Queda de árvore,0,1,0,4,2025-03-22T11:20:00Z,Chaves,Vila Real,Norte,-7.463513,41.738196
25132329,Costa da Caparica,Península de Setúbal,311,2025-03-22T10:50:00Z,25132329,Em despacho,3301,Queda de árvore,0,1,0,3,2025-03-22T10:50:00Z,Almada,Setúbal,Área Metropolitana De Lisboa,-9.227696,38.642583
25132333,Algueirão-Mem Martins,Grande Lisboa,311,2025-03-22T10:50:00Z,25132333,Em despacho,3301,Queda de árvore,0,1,0,5,2025-03-22T10:50:00Z,Sintra,Lisboa,Área Metropolitana De Lisboa,-9.340934,38.801232
25132347,Trouxemil e Torre de Vilela,Região de Coimbra,310,2025-03-22T11:34:00Z,25132347,Em curso,3315,Inundação de estruturas por precipitação intensa,0,2,0,3,2025-03-22T11:34:00Z,Coimbra,Coimbra,Centro,-8.452804,40.249612
25132349,Cinfães,Tâmega e Sousa,309,2025-03-22T11:37:00Z,25132349,Em resolução,3301,Queda de árvore,0,2,0,6,2025-03-22T11:37:00Z,Cinfães,Viseu,Norte,-8.08133,41.06333
25132415,"Requeixo, Nossa Senhora de Fátima e Nariz",Região de Aveiro,310,2025-03-22T11:29:00Z,25132415,Em despacho,3301,Queda de árvore,0,1,0,3,2025-03-22T11:29:00Z,Aveiro,Aveiro,Centro,-8.593476,40.540913
25132416,Cedrim e Paradela,Região de Aveiro,310,2025-03-22T11:44:00Z,25132416,Em despacho,3313,Deslizamento de terras,0,1,0,4,2025-03-22T11:44:00Z,Sever Do Vouga,Aveiro,Centro,-8.347322,40.711831
25132433,Silveira,Oeste,311,2025-03-22T11:15:00Z,25132433,Em despacho,3329,Queda de estruturas temporárias ou móveis,0,1,0,1,2025-03-22T11:15:00Z,Torres Vedras,Lisboa,Centro,-9.378656,39.132876
25132447,Lamas e Cercal,Oeste,311,2025-03-22T11:50:00Z,25132447,Em despacho,3301,Queda de árvore,0,1,0,1,2025-03-22T11:50:00Z,Cadaval,Lisboa,Centro,-9.069874,39.219536
25087162,Pedrógão,Baixo Alentejo,312,2025-03-14T17:00:00Z,25087162,Em curso,1101,Cheia,0,0,0,0,2025-03-14T17:00:00Z,Vidigueira,Beja,Alentejo,-7.630327,38.110775
25116465,Figueira Dos Cavaleiros,Baixo Alentejo,312,2025-03-20T07:21:00Z,25116465,Em conclusão,3301,Queda de árvore,0,0,0,0,2025-03-20T07:21:00Z,Ferreira Do Alentejo,Beja,Alentejo,-8.357377,38.111705
25128056,Santa Maria do Castelo e Santiago e Santa Susana,Alentejo Litoral,312,2025-03-21T14:41:00Z,25128056,Em curso,1101,Cheia,0,0,0,0,2025-03-21T14:41:00Z,Alcácer Do Sal,Setúbal,Alentejo,-8.434671,38.401157
25131298,Luso,Região de Coimbra,310,2025-03-22T08:24:00Z,25131298,Em despacho,3301,Queda de árvore,0,1,0,2,2025-03-22T08:24:00Z,Mealhada,Aveiro,Centro,-8.374509,40.375881
25131400,Navió e Vitorino Dos Piães,Alto Minho,309,2025-03-22T08:46:00Z,25131400,Em curso,3301,Queda de árvore,0,2,0,4,2025-03-22T08:46:00Z,Ponte De Lima,Viana Do Castelo,Norte,-8.613313,41.689875
25131407,São Romão de Neiva,Alto Minho,309,2025-03-22T08:47:00Z,25131407,Em despacho,3315,Inundação de estruturas por precipitação intensa,0,0,0,0,2025-03-22T08:47:00Z,Viana Do Castelo,Viana Do Castelo,Norte,-8.76857,41.63968
25131534,Mesão Frio (Santo André),Douro,309,2025-03-22T09:13:00Z,25131534,Em curso,3301,Queda de árvore,0,4,0,11,2025-03-22T09:13:00Z,Mesão Frio,Vila Real,Norte,-7.895862,41.152343
25132034,Ventosa,Viseu Dão Lafões,310,2025-03-22T10:37:00Z,25132034,Em curso,3301,Queda de árvore,0,0,0,0,2025-03-22T10:37:00Z,Vouzela,Viseu,Centro,-8.104723,40.710228
25132043,Miranda do Corvo,Região de Coimbra,310,2025-03-22T10:30:00Z,25132043,Em curso,3315,Inundação de estruturas por precipitação intensa,0,0,0,0,2025-03-22T10:30:00Z,Miranda Do Corvo,Coimbra,Centro,-8.339499,40.09407
25068300,Almeirim,Lezíria do Tejo,311,2025-03-10T20:52:00Z,25068300,Em curso,1101,Cheia,0,0,0,0,2025-03-10T20:52:00Z,Almeirim,Santarém,Alentejo,-8.635002,39.187436
25121298,Gafanhoeira (São Pedro) e Sabugueiro,Alentejo Central,312,2025-03-20T14:26:00Z,25121298,Em resolução,3301,Queda de árvore,0,0,0,0,2025-03-20T14:26:00Z,Arraiolos,Évora,Alentejo,-8.088754,38.754507
25129636,"S.maria, S.miguel, S.martinho, S.pedro Penaferrim",Grande Lisboa,311,2025-03-21T19:25:00Z,25129636,Em despacho,3301,Queda de árvore,0,1,0,5,2025-03-21T19:25:00Z,Sintra,Lisboa,Área Metropolitana De Lisboa,-9.366763,38.781718
25129961,"S.maria, S.miguel, S.martinho, S.pedro Penaferrim",Grande Lisboa,311,2025-03-21T20:52:00Z,25129961,Em despacho,3321,Dano na rede de fornecimento de eletricidade ,0,1,0,3,2025-03-21T20:52:00Z,Sintra,Lisboa,Área Metropolitana De Lisboa,-9.37954,38.79092
25130479,"S.maria, S.miguel, S.martinho, S.pedro Penaferrim",Grande Lisboa,311,2025-03-21T23:50:00Z,25130479,Em curso,3301,Queda de árvore,0,2,0,10,2025-03-21T23:50:00Z,Sintra,Lisboa,Área Metropolitana De Lisboa,-9.366763,38.781718
25131147,Covilhã e Canhoso,Beiras e Serra da Estrela,310,2025-03-22T07:51:00Z,25131147,Em despacho,3313,Deslizamento de terras,0,2,0,4,2025-03-22T07:51:00Z,Covilhã,Castelo Branco,Centro,-7.50305,40.28619
25131642,Gondemaria e Olival,Médio Tejo,311,2025-03-22T09:33:00Z,25131642,Em conclusão,3301,Queda de árvore,0,0,0,0,2025-03-22T09:33:00Z,Ourém,Santarém,Centro,-8.626446,39.720343
25063232,Santa Maria do Castelo e Santiago e Santa Susana,Alentejo Litoral,312,2025-03-09T19:02:00Z,25063232,Em conclusão,1101,Cheia,0,0,0,0,2025-03-09T19:02:00Z,Alcácer Do Sal,Setúbal,Alentejo,-8.48167,38.29806
25127944,Colares,Grande Lisboa,311,2025-03-21T14:29:00Z,25127944,Em curso,3301,Queda de árvore,0,1,0,5,2025-03-21T14:29:00Z,Sintra,Lisboa,Área Metropolitana De Lisboa,-9.432326,38.780106
25130567,Manteigas (Santa Maria),Beiras e Serra da Estrela,310,2025-03-22T00:50:00Z,25130567,Em curso,3313,Deslizamento de terras,0,1,0,2,2025-03-22T00:50:00Z,Manteigas,Guarda,Centro,-7.537826,40.403513
25131201,Cernache,Região de Coimbra,310,2025-03-22T08:07:00Z,25131201,Em despacho,3313,Deslizamento de terras,0,0,0,0,2025-03-22T08:07:00Z,Coimbra,Coimbra,Centro,-8.473586,40.13779
25131621,Azeitão (São Lourenço e São Simão),Península de Setúbal,311,2025-03-22T09:20:00Z,25131621,Em curso,3301,Queda de árvore,0,2,0,9,2025-03-22T09:20:00Z,Setúbal,Setúbal,Área Metropolitana De Lisboa,-9.04265,38.541479
25131689,Cascais e Estoril,Grande Lisboa,311,2025-03-22T09:38:00Z,25131689,Em despacho,3301,Queda de árvore,0,2,0,6,2025-03-22T09:38:00Z,Cascais,Lisboa,Área Metropolitana De Lisboa,-9.408908,38.704814
25131805,Midões,Região de Coimbra,310,2025-03-22T10:01:00Z,25131805,Em curso,3301,Queda de árvore,0,2,0,3,2025-03-22T10:01:00Z,Tábua,Coimbra,Centro,-7.959948,40.405726
25132221,Nossa Senhora do Pranto,Médio Tejo,311,2025-03-22T11:13:00Z,25132221,Em conclusão,3301,Queda de árvore,0,1,0,3,2025-03-22T11:13:00Z,Ferreira Do Zêzere,Santarém,Centro,-8.273289,39.751159
25132241,Ferreira do Zêzere,Médio Tejo,311,2025-03-22T11:14:00Z,25132241,Em resolução,3301,Queda de árvore,0,2,0,4,2025-03-22T11:14:00Z,Ferreira Do Zêzere,Santarém,Centro,-8.27883,39.690681
25132254,a Dos Cunhados e Maceira,Oeste,311,2025-03-22T11:10:00Z,25132254,Em despacho,3311,Queda de elementos de estruturas edificados,0,1,0,4,2025-03-22T11:10:00Z,Torres Vedras,Lisboa,Centro,-9.311984,39.156988
25132466,Teixoso e Sarzedo,Beiras e Serra da Estrela,310,2025-03-22T11:50:00Z,25132466,Em despacho,3315,Inundação de estruturas por precipitação intensa,0,1,0,2,2025-03-22T11:50:00Z,Covilhã,Castelo Branco,Centro,-7.455476,40.315622
25132483,"Mação, Penhascoso e Aboboreira",Médio Tejo,311,2025-03-22T12:01:00Z,25132483,Em resolução,3313,Deslizamento de terras,0,1,0,2,2025-03-22T12:01:00Z,Mação,Santarém,Centro,-8.036505,39.574549
25132125,Silgueiros,Viseu Dão Lafões,310,2025-03-22T10:55:00Z,25132125,Em despacho,3301,Queda de árvore,0,1,0,2,2025-03-22T10:55:00Z,Viseu,Viseu,Centro,-7.964273,40.561525
25132220,"Bigorne, Magueija e Pretarouca",Douro,309,2025-03-22T11:13:00Z,25132220,Em curso,3313,Deslizamento de terras,0,1,0,2,2025-03-22T11:13:00Z,Lamego,Viseu,Norte,-7.8684,41.03566
25132234,Treixedo e Nagozela,Viseu Dão Lafões,310,2025-03-22T11:08:00Z,25132234,Em resolução,3301,Queda de árvore,0,1,0,2,2025-03-22T11:08:00Z,Santa Comba Dão,Viseu,Centro,-8.097762,40.437368
25132236,São Vicente do Paul e Vale de Figueira,Lezíria do Tejo,311,2025-03-22T11:15:00Z,25132236,Em resolução,3301,Queda de árvore,0,1,0,5,2025-03-22T11:15:00Z,Santarém,Santarém,Alentejo,-8.656035,39.350473
25132250,Agualva e Mira-Sintra,Grande Lisboa,311,2025-03-22T11:09:00Z,25132250,Em curso,3301,Queda de árvore,0,3,0,9,2025-03-22T11:09:00Z,Sintra,Lisboa,Área Metropolitana De Lisboa,-9.289457,38.768998
25132336,"Aldoar, Foz do Douro e Nevogilde",Area M. Porto,309,2025-03-22T11:20:00Z,25132336,Em despacho,3311,Queda de elementos de estruturas edificados,0,1,0,3,2025-03-22T11:20:00Z,Porto,Porto,Norte,-8.672426,41.161999
25132411,Abade de Neiva,Cávado,309,2025-03-22T11:46:00Z,25132411,Em curso,3313,Deslizamento de terras,0,2,0,4,2025-03-22T11:46:00Z,Barcelos,Braga,Norte,-8.64209,41.554146
25132434,Caxarias,Médio Tejo,311,2025-03-22T11:52:00Z,25132434,Em despacho,3301,Queda de árvore,0,1,0,2,2025-03-22T11:52:00Z,Ourém,Santarém,Centro,-8.545905,39.70895
25132468,Condeixa-a-Velha e Condeixa-a-Nova,Região de Coimbra,310,2025-03-22T11:50:00Z,25132468,Em despacho,3315,Inundação de estruturas por precipitação intensa,0,1,0,2,2025-03-22T11:50:00Z,Condeixa-a-Nova,Coimbra,Centro,-8.492045,40.113509
25132479,Arruda Dos Vinhos,Oeste,311,2025-03-22T11:40:00Z,25132479,Em curso,3315,Inundação de estruturas por precipitação intensa,0,2,0,3,2025-03-22T11:40:00Z,Arruda Dos Vinhos,Lisboa,Centro,-9.06983,38.993124
25131690,Fajão-Vidual,Região de Coimbra,310,2025-03-22T08:51:00Z,25131690,Em curso,3313,Deslizamento de terras,0,2,0,4,2025-03-22T08:51:00Z,Pampilhosa Da Serra,Coimbra,Centro,-7.962955,40.144566
25131769,"S.maria, S.miguel, S.martinho, S.pedro Penaferrim",Grande Lisboa,311,2025-03-22T09:40:00Z,25131769,Em despacho,3301,Queda de árvore,0,1,0,4,2025-03-22T09:40:00Z,Sintra,Lisboa,Área Metropolitana De Lisboa,-9.380105,38.790996
25131783,"S.maria, S.miguel, S.martinho, S.pedro Penaferrim",Grande Lisboa,311,2025-03-22T09:35:00Z,25131783,Em despacho,3321,Dano na rede de fornecimento de eletricidade ,0,1,0,2,2025-03-22T09:35:00Z,Sintra,Lisboa,Área Metropolitana De Lisboa,-9.387899,38.805813
25131869,Quinta do Conde,Península de Setúbal,311,2025-03-22T09:58:00Z,25131869,Em curso,3301,Queda de árvore,0,1,0,5,2025-03-22T09:58:00Z,Sesimbra,Setúbal,Área Metropolitana De Lisboa,-9.03613,38.570355
25131933,Aldeia Das Dez,Região de Coimbra,310,2025-03-22T10:25:00Z,25131933,Em despacho,3329,Queda de estruturas temporárias ou móveis,0,1,0,2,2025-03-22T10:25:00Z,Oliveira Do Hospital,Coimbra,Centro,-7.860329,40.277656
25132058,Orvalho,Beira Baixa,310,2025-03-22T10:44:00Z,25132058,Em despacho,3311,Queda de elementos de estruturas edificados,0,1,0,2,2025-03-22T10:44:00Z,Oleiros,Castelo Branco,Centro,-7.791058,40.022607
25132151,Cernache,Região de Coimbra,310,2025-03-22T10:45:00Z,25132151,Em despacho,3315,Inundação de estruturas por precipitação intensa,0,2,0,5,2025-03-22T10:45:00Z,Coimbra,Coimbra,Centro,-8.473408,40.139683
25132256,São João Das Lampas e Terrugem,Grande Lisboa,311,2025-03-22T11:16:00Z,25132256,Em despacho,3301,Queda de árvore,0,1,0,2,2025-03-22T11:16:00Z,Sintra,Lisboa,Área Metropolitana De Lisboa,-9.442718,38.844843
25132271,Lanhoso,Ave,309,2025-03-22T11:18:00Z,25132271,Em despacho,3301,Queda de árvore,0,1,0,2,2025-03-22T11:18:00Z,Póvoa De Lanhoso,Braga,Norte,-8.295937,41.575819
25132307,Marinhais,Lezíria do Tejo,311,2025-03-22T11:27:00Z,25132307,Em conclusão,3301,Queda de árvore,0,2,0,7,2025-03-22T11:27:00Z,Salvaterra De Magos,Santarém,Alentejo,-8.697502,39.059248
25132323,Monchique,Algarve,313,2025-03-22T11:09:00Z,25132323,Em despacho,3301,Queda de árvore,0,1,0,2,2025-03-22T11:09:00Z,Monchique,Faro,Algarve,-8.559479,37.312673
25132324,Ericeira,Grande Lisboa,311,2025-03-22T11:26:00Z,25132324,Em despacho,3315,Inundação de estruturas por precipitação intensa,0,1,0,4,2025-03-22T11:26:00Z,Mafra,Lisboa,Área Metropolitana De Lisboa,-9.417289,38.967626
25132339,Colmeias e Memória,Região de Leiria,310,2025-03-22T11:29:00Z,25132339,Em despacho,3311,Queda de elementos de estruturas edificados,0,1,0,2,2025-03-22T11:29:00Z,Leiria,Leiria,Centro,-8.739163,39.80627
25132357,São Mamede de Infesta e Senhora da Hora,Area M. Porto,309,2025-03-22T11:32:00Z,25132357,Em despacho,3315,Inundação de estruturas por precipitação intensa,0,1,0,2,2025-03-22T11:32:00Z,Matosinhos,Porto,Norte,-8.665873,41.180837
25132388,Colares,Grande Lisboa,311,2025-03-22T11:41:00Z,25132388,Em despacho,3301,Queda de árvore,0,2,0,10,2025-03-22T11:41:00Z,Sintra,Lisboa,Área Metropolitana De Lisboa,-9.462038,38.768962
25132493,Santa Marinha e São Pedro da Afurada,Area M. Porto,309,2025-03-22T11:59:00Z,25132493,Em despacho,3315,Inundação de estruturas por precipitação intensa,0,1,0,3,2025-03-22T11:59:00Z,Vila Nova De Gaia,Porto,Norte,-8.624714,41.132843
25132285,Alverca do Ribatejo e Sobralinho,Grande Lisboa,311,2025-03-22T11:24:00Z,25132285,Em despacho,3311,Queda de elementos de estruturas edificados,0,1,0,2,2025-03-22T11:24:00Z,Vila Franca De Xira,Lisboa,Área Metropolitana De Lisboa,-9.04298,38.90004
25132335,"Espírito Santo, Nossa Senhora da Graça e São Simão",Alto Alentejo,312,2025-03-22T11:30:00Z,25132335,Em resolução,3313,Deslizamento de terras,0,4,0,6,2025-03-22T11:30:00Z,Nisa,Portalegre,Alentejo,-7.653854,39.571757
25132367,Sobrado e Bairros,Tâmega e Sousa,309,2025-03-22T11:30:00Z,25132367,Em despacho,3311,Queda de elementos de estruturas edificados,0,2,0,4,2025-03-22T11:30:00Z,Castelo De Paiva,Aveiro,Norte,-8.2699,41.041524
25132410,Arrifana,Região de Coimbra,310,2025-03-22T11:40:00Z,25132410,Em despacho,3301,Queda de árvore,0,1,0,2,2025-03-22T11:40:00Z,Vila Nova De Poiares,Coimbra,Centro,-8.302314,40.230119
25132437,"Seixal, Arrentela e Aldeia de Paio Pires",Península de Setúbal,311,2025-03-22T11:53:00Z,25132437,Em despacho,3301,Queda de árvore,0,1,0,3,2025-03-22T11:53:00Z,Seixal,Setúbal,Área Metropolitana De Lisboa,-9.08036,38.59118
25132442,"Ovar, São João, Arada e São Vicente de Pereira Jusã",Região de Aveiro,310,2025-03-22T11:48:00Z,25132442,Em conclusão,3321,Dano na rede de fornecimento de eletricidade ,0,1,0,2,2025-03-22T11:48:00Z,Ovar,Aveiro,Centro,-8.632482,40.864029
25132444,Bacelo e Senhora da Saúde,Alentejo Central,312,2025-03-22T11:55:00Z,25132444,Em despacho,3301,Queda de árvore,0,1,0,2,2025-03-22T11:55:00Z,Évora,Évora,Alentejo,-7.869122,38.593644
25132405,Pombal,Região de Leiria,310,2025-03-22T11:18:00Z,25132405,Em despacho,3321,Dano na rede de fornecimento de eletricidade ,0,1,0,2,2025-03-22T11:18:00Z,Pombal,Leiria,Centro,-8.624392,39.922995
25132406,"S.maria, S.miguel, S.martinho, S.pedro Penaferrim",Grande Lisboa,311,2025-03-22T10:42:00Z,25132406,Em despacho,3301,Queda de árvore,0,1,0,2,2025-03-22T10:42:00Z,Sintra,Lisboa,Área Metropolitana De Lisboa,-9.387899,38.805813
25132424,Nossa Senhora da Piedade,Médio Tejo,311,2025-03-22T11:49:00Z,25132424,Em despacho,3313,Deslizamento de terras,0,1,0,1,2025-03-22T11:49:00Z,Ourém,Santarém,Centro,-8.577082,39.6611
25132488,Santa Eulália,Area M. Porto,309,2025-03-22T11:39:00Z,25132488,Em despacho,3315,Inundação de estruturas por precipitação intensa,0,1,0,2,2025-03-22T11:39:00Z,Arouca,Aveiro,Norte,-8.273927,40.93694
25132489,"Almargem do Bispo, Pêro Pinheiro e Montelavar",Grande Lisboa,311,2025-03-22T12:02:00Z,25132489,Em despacho,3301,Queda de árvore,0,0,0,0,2025-03-22T12:02:00Z,Sintra,Lisboa,Área Metropolitana De Lisboa,-9.2766,38.83396
25132453,Gavião e Atalaia,Alto Alentejo,312,2025-03-22T11:55:00Z,25132453,Em resolução,3313,Deslizamento de terras,0,1,0,2,2025-03-22T11:55:00Z,Gavião,Portalegre,Alentejo,-7.879837,39.45002
25132462,Sado,Península de Setúbal,311,2025-03-22T11:10:00Z,25132462,Em curso,3301,Queda de árvore,0,1,0,2,2025-03-22T11:10:00Z,Setúbal,Setúbal,Área Metropolitana De Lisboa,-8.839368,38.514057
