id,address,subregion,neighborhood,date,id.1,state,nature,nature_description,aerial_means,terrestrial_means,aquatic_means,operational,date.1,Concelho,Distrito,NUTII_DSG,longitude,latitude,state_2
26166164,São Bartolomeu Dos Galegos e Moledo,Oeste,311,2025-10-20T18:11:00Z,26166164,Em Resolução/Conclusão,3111,Queima,0,1,0,4,2025-10-20T18:11:00Z,Lourinhã,Lisboa,Centro,-9.291027,39.289601,Resolução/Conclusão
26166331,Costa da Caparica,Península de Setúbal,311,2025-10-20T18:40:00Z,26166331,Em Despacho,3103,Incêndio rural,0,1,0,5,2025-10-20T18:40:00Z,Almada,Setúbal,Área Metropolitana De Lisboa,-9.227696,38.642583,Despacho
26160929,Caranguejeira,Região de Leiria,310,2025-10-19T16:50:00Z,26160929,Em Resolução/Conclusão,3101,Incêndio rural,0,1,0,2,2025-10-19T16:50:00Z,Leiria,Leiria,Centro,-8.697637,39.726483,Resolução/Conclusão
26165861,Colos,Alentejo Litoral,312,2025-10-20T17:03:00Z,26165861,Em Resolução/Conclusão,3103,Incêndio rural,0,5,0,13,2025-10-20T17:03:00Z,Odemira,Beja,Alentejo,-8.569803,37.791463,Resolução/Conclusão
26166045,Penamacor,Beira Baixa,310,2025-10-20T17:47:00Z,26166045,Em Resolução/Conclusão,3103,Incêndio rural,0,1,0,1,2025-10-20T17:47:00Z,Penamacor,Castelo Branco,Centro,-7.268593,40.11672,Resolução/Conclusão
26166277,Fanhões,Grande Lisboa,311,2025-10-20T18:33:00Z,26166277,Em Resolução/Conclusão,3111,Queima,0,1,0,5,2025-10-20T18:33:00Z,Loures,Lisboa,Área Metropolitana De Lisboa,-9.150645,38.878382,Resolução/Conclusão
26166284,"Oeiras e S. Julião da Barra, Paço de Arcos e Caxias",Grande Lisboa,311,2025-10-20T18:44:00Z,26166284,Em Despacho,3103,Incêndio rural,0,1,0,5,2025-10-20T18:44:00Z,Oeiras,Lisboa,Área Metropolitana De Lisboa,-9.302383,38.71165,Despacho
26166293,Costa da Caparica,Península de Setúbal,311,2025-10-20T18:45:00Z,26166293,Em Despacho,3103,Incêndio rural,0,0,0,0,2025-10-20T18:45:00Z,Almada,Setúbal,Área Metropolitana De Lisboa,-9.23344,38.65206,Despacho
