id,address,subregion,neighborhood,date,id.1,state,nature,nature_description,aerial_means,terrestrial_means,aquatic_means,operational,date.1,Concelho,Distrito,NUTII_DSG,longitude,latitude,state_2
25686241,Pedrógão Pequeno,Beira Baixa,310,2025-07-16T11:31:00Z,25686241,Em Resolução/Conclusão,3101,Incêndio rural,0,2,0,7,2025-07-16T11:31:00Z,Sertã,Castelo Branco,Centro,-8.081258,39.915592,Resolução/Conclusão
25686593,Leomil,Douro,309,2025-07-16T12:43:00Z,25686593,Em Resolução/Conclusão,3103,Incêndio rural,0,6,0,24,2025-07-16T12:43:00Z,Moimenta Da Beira,Viseu,Norte,-7.650842,40.979292,Resolução/Conclusão
25687827,Rochoso e Monte Margarida,Beiras e Serra da Estrela,310,2025-07-16T16:35:00Z,25687827,Em Resolução/Conclusão,3103,Incêndio rural,5,29,0,108,2025-07-16T16:35:00Z,Guarda,Guarda,Centro,-7.106608,40.527017,Resolução/Conclusão
25688147,Canelas,Area M. Porto,309,2025-07-16T17:51:00Z,25688147,Em Resolução/Conclusão,3103,Incêndio rural,0,1,0,5,2025-07-16T17:51:00Z,Vila Nova De Gaia,Porto,Norte,-8.60925,41.06654,Resolução/Conclusão
25688562,"Oeiras e S. Julião da Barra, Paço de Arcos e Caxias",Grande Lisboa,311,2025-07-16T19:11:00Z,25688562,Em Resolução/Conclusão,3111,Queima,0,0,0,0,2025-07-16T19:11:00Z,Oeiras,Lisboa,Área Metropolitana De Lisboa,-9.310159,38.698531,Resolução/Conclusão
25688580,São Martinho,Alentejo Litoral,312,2025-07-16T19:33:00Z,25688580,Em Curso,3103,Incêndio rural,0,7,0,26,2025-07-16T19:33:00Z,Alcácer Do Sal,Setúbal,Alentejo,-8.52418,38.42999,Curso
25682868,Sertã,Beira Baixa,310,2025-07-15T17:30:00Z,25682868,Em Resolução/Conclusão,3101,Incêndio rural,0,5,0,18,2025-07-15T17:30:00Z,Sertã,Castelo Branco,Centro,-8.092748,39.819602,Resolução/Conclusão
25686587,Mosteiros,Alto Alentejo,312,2025-07-16T12:39:00Z,25686587,Em Resolução/Conclusão,3105,Incêndio rural,0,15,0,48,2025-07-16T12:39:00Z,Arronches,Portalegre,Alentejo,-7.321508,39.167365,Resolução/Conclusão
25687214,Pena Verde,Viseu Dão Lafões,310,2025-07-16T14:28:00Z,25687214,Em Resolução/Conclusão,3103,Incêndio rural,0,5,0,16,2025-07-16T14:28:00Z,Aguiar Da Beira,Guarda,Centro,-7.509458,40.713056,Resolução/Conclusão
25687689,Ourentã,Região de Coimbra,310,2025-07-16T16:04:00Z,25687689,Em Resolução/Conclusão,3101,Incêndio rural,0,23,0,78,2025-07-16T16:04:00Z,Cantanhede,Coimbra,Centro,-8.546934,40.391214,Resolução/Conclusão
25682254,Panque,Cávado,309,2025-07-15T15:31:00Z,25682254,Em Resolução/Conclusão,3101,Incêndio rural,0,15,0,39,2025-07-15T15:31:00Z,Barcelos,Braga,Norte,-8.607035,41.626113,Resolução/Conclusão
25682641,São Bento,Região de Leiria,310,2025-07-15T16:44:00Z,25682641,Em Resolução/Conclusão,3101,Incêndio rural,0,2,0,7,2025-07-15T16:44:00Z,Porto De Mós,Leiria,Centro,-8.746525,39.524688,Resolução/Conclusão
25683057,Messejana,Baixo Alentejo,312,2025-07-15T18:10:00Z,25683057,Em Resolução/Conclusão,3101,Incêndio rural,0,12,0,28,2025-07-15T18:10:00Z,Aljustrel,Beja,Alentejo,-8.253787,37.845618,Resolução/Conclusão
25684761,Travancas e Roriz,Alto Tâmega e Barroso,309,2025-07-16T06:16:00Z,25684761,Em Resolução/Conclusão,3103,Incêndio rural,0,3,0,12,2025-07-16T06:16:00Z,Chaves,Vila Real,Norte,-7.321297,41.815978,Resolução/Conclusão
25686799,Souto Maior,Douro,309,2025-07-16T13:19:00Z,25686799,Em Curso,3101,Incêndio rural,7,88,0,292,2025-07-16T13:19:00Z,Sabrosa,Vila Real,Norte,-7.57839,41.287518,Curso
25687169,"Aboim, Felgueiras, Gontim e Pedraído",Ave,309,2025-07-16T14:24:00Z,25687169,Em Resolução/Conclusão,3103,Incêndio rural,0,5,0,16,2025-07-16T14:24:00Z,Fafe,Braga,Norte,-8.108798,41.552007,Resolução/Conclusão
25688101,Santa Clara,Grande Lisboa,311,2025-07-16T17:40:00Z,25688101,Em Resolução/Conclusão,3103,Incêndio rural,0,12,0,46,2025-07-16T17:40:00Z,Lisboa,Lisboa,Área Metropolitana De Lisboa,-9.153858,38.787355,Resolução/Conclusão
25688308,Adaúfe,Cávado,309,2025-07-16T18:33:00Z,25688308,Em Resolução/Conclusão,3103,Incêndio rural,0,4,0,16,2025-07-16T18:33:00Z,Braga,Braga,Norte,-8.400212,41.600028,Resolução/Conclusão
25688392,Cabril,Região de Coimbra,310,2025-07-16T18:47:00Z,25688392,Em Curso,3101,Incêndio rural,6,42,0,180,2025-07-16T18:47:00Z,Pampilhosa Da Serra,Coimbra,Centro,-7.86944,40.06556,Curso
25688456,"Caia, São Pedro e Alcáçova",Alto Alentejo,312,2025-07-16T19:02:00Z,25688456,Em Resolução/Conclusão,3105,Incêndio rural,0,5,0,13,2025-07-16T19:02:00Z,Elvas,Portalegre,Alentejo,-7.121262,38.881154,Resolução/Conclusão
25688626,Vila Nova de Cacela,Algarve,313,2025-07-16T19:45:00Z,25688626,Em Despacho,3103,Incêndio rural,0,4,0,17,2025-07-16T19:45:00Z,Vila Real De Santo António,Faro,Algarve,-7.560058,37.157087,Despacho
25688502,Prozelo,Alto Minho,309,2025-07-16T19:10:00Z,25688502,Em Resolução/Conclusão,3101,Incêndio rural,0,3,0,8,2025-07-16T19:10:00Z,Arcos De Valdevez,Viana Do Castelo,Norte,-8.436953,41.87344,Resolução/Conclusão
25688518,Figueiras e Covas,Tâmega e Sousa,309,2025-07-16T19:10:00Z,25688518,Em Resolução/Conclusão,3103,Incêndio rural,0,1,0,5,2025-07-16T19:10:00Z,Lousada,Porto,Norte,-8.331017,41.277807,Resolução/Conclusão
