id,address,subregion,neighborhood,date,id.1,state,nature,nature_description,aerial_means,terrestrial_means,aquatic_means,operational,date.1,Concelho,Distrito,NUTII_DSG,longitude,latitude
25574849,Carnota,Oeste,311,2025-06-24T19:28:00Z,25574849,Em conclusão,2101,Incêndio em edifícios habitacionais,0,4,0,11,2025-06-24T19:28:00Z,Alenquer,Lisboa,Centro,-9.05772,39.04375
25574055,Coronado (São Romão e São Mamede),Area M. Porto,309,2025-06-24T16:07:00Z,25574055,Em conclusão,3101,Incêndio rural,0,9,0,21,2025-06-24T16:07:00Z,Trofa,Porto,Norte,-8.575562,41.283106
25575255,"Ovar, São João, Arada e São Vicente de Pereira Jusã",Região de Aveiro,310,2025-06-24T21:17:00Z,25575255,Em resolução,3103,Incêndio rural,0,3,0,15,2025-06-24T21:17:00Z,Ovar,Aveiro,Centro,-8.590452,40.894257
25575271,Castêlo da Maia,Area M. Porto,309,2025-06-24T21:21:00Z,25575271,Em conclusão,3105,Incêndio rural,0,1,0,5,2025-06-24T21:21:00Z,Maia,Porto,Norte,-8.614143,41.278895
25575068,Colares,Grande Lisboa,311,2025-06-24T20:26:00Z,25575068,Em conclusão,3111,Queima,0,1,0,2,2025-06-24T20:26:00Z,Sintra,Lisboa,Área Metropolitana De Lisboa,-9.451332,38.81232
25575294,Moita,Península de Setúbal,311,2025-06-24T21:32:00Z,25575294,Em curso,2101,Incêndio em edifícios habitacionais,0,2,0,7,2025-06-24T21:32:00Z,Moita,Setúbal,Área Metropolitana De Lisboa,-8.99384,38.65576
25575243,Pontinha e Famões,Grande Lisboa,311,2025-06-24T21:07:00Z,25575243,Em conclusão,3111,Queima,0,3,0,12,2025-06-24T21:07:00Z,Odivelas,Lisboa,Área Metropolitana De Lisboa,-9.200241,38.764933
25574208,Ribeirão,Ave,309,2025-06-24T16:51:00Z,25574208,Em conclusão,3101,Incêndio rural,0,0,0,0,2025-06-24T16:51:00Z,Vila Nova De Famalicão,Braga,Norte,-8.582528,41.360623
