id,address,subregion,neighborhood,date,id.1,state,nature,nature_description,aerial_means,terrestrial_means,aquatic_means,operational,date.1,Concelho,Distrito,NUTII_DSG,longitude,latitude
24851780,"São Miguel, Santa Eufémia e Rabaçal",Região de Coimbra,310,2025-01-21T23:25:00Z,24851780,Em curso,3315,Inundação de estruturas por precipitação intensa,0,0,0,0,2025-01-21T23:25:00Z,Penela,Coimbra,Centro,-8.399036,40.025502
24873070,Sobrosa,Area M. Porto,309,2025-01-26T15:59:00Z,24873070,Em despacho,3315,Inundação de estruturas por precipitação intensa,0,1,0,2,2025-01-26T15:59:00Z,Paredes,Porto,Norte,-8.352394,41.249863
24873156,"Nossa Senhora da Conceição, São Pedro e São Dinis",Douro,309,2025-01-26T16:19:00Z,24873156,Em despacho,3329,Queda de estruturas temporárias ou móveis,0,1,0,1,2025-01-26T16:19:00Z,Vila Real,Vila Real,Norte,-7.74274,41.293969
24873355,Dem,Alto Minho,309,2025-01-26T17:05:00Z,24873355,Em conclusão,3301,Queda de árvore,0,1,0,4,2025-01-26T17:05:00Z,Caminha,Viana Do Castelo,Norte,-8.765688,41.837636
24873421,"Verim, Friande e Ajude",Ave,309,2025-01-26T17:20:00Z,24873421,Em despacho,3301,Queda de árvore,0,2,0,5,2025-01-26T17:20:00Z,Póvoa De Lanhoso,Braga,Norte,-8.287844,41.640453
24873423,"Margaride (Santa Eulália), Várzea, Lagares, Varziela e Moure",Tâmega e Sousa,309,2025-01-26T17:22:00Z,24873423,Em despacho,3329,Queda de estruturas temporárias ou móveis,0,1,0,2,2025-01-26T17:22:00Z,Felgueiras,Porto,Norte,-8.208433,41.365733
24873437,Eiras e Mei,Alto Minho,309,2025-01-26T17:28:00Z,24873437,Em despacho,3301,Queda de árvore,0,0,0,0,2025-01-26T17:28:00Z,Arcos De Valdevez,Viana Do Castelo,Norte,-8.469838,41.93914
24873454,Esmoriz,Região de Aveiro,310,2025-01-26T17:22:00Z,24873454,Em curso,3321,Dano na rede de fornecimento de eletricidade ,0,1,0,6,2025-01-26T17:22:00Z,Ovar,Aveiro,Centro,-8.637974,40.962156
24873471,Santa Marinha e São Pedro da Afurada,Area M. Porto,309,2025-01-26T17:34:00Z,24873471,Em despacho,3311,Queda de elementos de estruturas edificados,0,2,0,8,2025-01-26T17:34:00Z,Vila Nova De Gaia,Porto,Norte,-8.607183,41.13247
24873503,Paço de Sousa,Tâmega e Sousa,309,2025-01-26T17:29:00Z,24873503,Em despacho,3311,Queda de elementos de estruturas edificados,0,1,0,4,2025-01-26T17:29:00Z,Penafiel,Porto,Norte,-8.348796,41.163862
24873505,Malveira e São Miguel de Alcainça,Grande Lisboa,311,2025-01-26T17:40:00Z,24873505,Em despacho,3301,Queda de árvore,0,1,0,5,2025-01-26T17:40:00Z,Mafra,Lisboa,Área Metropolitana De Lisboa,-9.249398,38.929722
24873506,Antuzede e Vil de Matos,Região de Coimbra,310,2025-01-26T17:41:00Z,24873506,Em despacho,3301,Queda de árvore,0,2,0,5,2025-01-26T17:41:00Z,Coimbra,Coimbra,Centro,-8.494521,40.24818
24873523,"Sé, Santa Maria e Meixedo",Terras de Trás-os-Montes,309,2025-01-26T17:45:00Z,24873523,Em despacho,3301,Queda de árvore,0,0,0,0,2025-01-26T17:45:00Z,Bragança,Bragança,Norte,-6.751361,41.80672
24873537,Sangalhos,Região de Aveiro,310,2025-01-26T17:47:00Z,24873537,Em despacho,3301,Queda de árvore,0,0,0,0,2025-01-26T17:47:00Z,Anadia,Aveiro,Centro,-8.490482,40.484546
24873539,Fermentões,Ave,309,2025-01-26T17:45:00Z,24873539,Em despacho,3311,Queda de elementos de estruturas edificados,0,1,0,2,2025-01-26T17:45:00Z,Guimarães,Braga,Norte,-8.314269,41.456141
24873540,Canelas e Espiunca,Area M. Porto,309,2025-01-26T17:24:00Z,24873540,Em despacho,3301,Queda de árvore,0,1,0,2,2025-01-26T17:24:00Z,Arouca,Aveiro,Norte,-8.212231,40.969918
24873554,Parada de Ester e Ester,Viseu Dão Lafões,310,2025-01-26T17:19:00Z,24873554,Em despacho,3301,Queda de árvore,0,1,0,2,2025-01-26T17:19:00Z,Castro Daire,Viseu,Centro,-8.071387,40.932635
24873555,Riba de Âncora,Alto Minho,309,2025-01-26T17:46:00Z,24873555,Em despacho,3301,Queda de árvore,0,1,0,4,2025-01-26T17:46:00Z,Caminha,Viana Do Castelo,Norte,-8.811608,41.815288
24873556,Lordelo,Area M. Porto,309,2025-01-26T17:45:00Z,24873556,Em despacho,3301,Queda de árvore,0,1,0,4,2025-01-26T17:45:00Z,Paredes,Porto,Norte,-8.422737,41.239614
24873573,"Nossa Senhora da Conceição, São Pedro e São Dinis",Douro,309,2025-01-26T17:56:00Z,24873573,Em despacho,3329,Queda de estruturas temporárias ou móveis,0,0,0,0,2025-01-26T17:56:00Z,Vila Real,Vila Real,Norte,-7.739745,41.30403
24873588,"S.pedro e Santiago, S.maria e S.miguel e Matacães",Oeste,311,2025-01-26T17:53:00Z,24873588,Em despacho,3329,Queda de estruturas temporárias ou móveis,0,1,0,2,2025-01-26T17:53:00Z,Torres Vedras,Lisboa,Centro,-9.251952,39.091829
24872774,Fânzeres e São Pedro da Cova,Area M. Porto,309,2025-01-26T14:47:00Z,24872774,Em conclusão,3329,Queda de estruturas temporárias ou móveis,0,3,0,7,2025-01-26T14:47:00Z,Gondomar,Porto,Norte,-8.511531,41.155311
24873333,"Celeirós, Aveleda e Vimieiro",Cávado,309,2025-01-26T17:04:00Z,24873333,Em despacho,3301,Queda de árvore,0,2,0,4,2025-01-26T17:04:00Z,Braga,Braga,Norte,-8.44978,41.51462
24873349,Recardães e Espinhel,Região de Aveiro,310,2025-01-26T17:00:00Z,24873349,Em conclusão,3301,Queda de árvore,0,1,0,3,2025-01-26T17:00:00Z,Águeda,Aveiro,Centro,-8.493196,40.567253
24873426,Ponte,Ave,309,2025-01-26T17:23:00Z,24873426,Em despacho,3301,Queda de árvore,0,1,0,2,2025-01-26T17:23:00Z,Guimarães,Braga,Norte,-8.336857,41.469318
24873442,"Valença, Cristelo Covo e Arão",Alto Minho,309,2025-01-26T17:25:00Z,24873442,Em despacho,3311,Queda de elementos de estruturas edificados,0,1,0,2,2025-01-26T17:25:00Z,Valença,Viana Do Castelo,Norte,-8.644383,42.018188
24873458,Touvedo (São Lourenço e Salvador),Alto Minho,309,2025-01-26T17:25:00Z,24873458,Em curso,3301,Queda de árvore,0,1,0,2,2025-01-26T17:25:00Z,Ponte Da Barca,Viana Do Castelo,Norte,-8.360047,41.808592
24872923,Prado (São Miguel),Cávado,309,2025-01-26T15:20:00Z,24872923,Em despacho,3301,Queda de árvore,0,1,0,2,2025-01-26T15:20:00Z,Vila Verde,Braga,Norte,-8.434569,41.70253
24873023,Fornelo e Vairão,Area M. Porto,309,2025-01-26T15:38:00Z,24873023,Em conclusão,3301,Queda de árvore,0,1,0,2,2025-01-26T15:38:00Z,Vila Do Conde,Porto,Norte,-8.653252,41.331702
24873143,"St.tirso, Couto (S.cristina e S.miguel) e Burgães",Area M. Porto,309,2025-01-26T16:20:00Z,24873143,Em curso,3301,Queda de árvore,0,2,0,4,2025-01-26T16:20:00Z,Santo Tirso,Porto,Norte,-8.466513,41.351058
24873200,Nogueiró e Tenões,Cávado,309,2025-01-26T15:40:00Z,24873200,Em despacho,3301,Queda de árvore,0,1,0,2,2025-01-26T15:40:00Z,Braga,Braga,Norte,-8.389412,41.550753
24873243,Frazão Arreigada,Tâmega e Sousa,309,2025-01-26T16:39:00Z,24873243,Em conclusão,3321,Dano na rede de fornecimento de eletricidade ,0,1,0,2,2025-01-26T16:39:00Z,Paços De Ferreira,Porto,Norte,-8.405185,41.257386
24873252,"Romãs, Decermilo e Vila Longa",Viseu Dão Lafões,310,2025-01-26T16:44:00Z,24873252,Em despacho,3315,Inundação de estruturas por precipitação intensa,0,1,0,2,2025-01-26T16:44:00Z,Sátão,Viseu,Centro,-7.65827,40.755185
24873284,"Sandim, Olival, Lever e Crestuma",Area M. Porto,309,2025-01-26T16:28:00Z,24873284,Em conclusão,3301,Queda de árvore,0,3,0,7,2025-01-26T16:28:00Z,Vila Nova De Gaia,Porto,Norte,-8.502382,41.048753
24873291,Duas Igrejas,Area M. Porto,309,2025-01-26T16:44:00Z,24873291,Em despacho,3301,Queda de árvore,0,2,0,7,2025-01-26T16:44:00Z,Paredes,Porto,Norte,-8.376281,41.228302
24873366,"Romãs, Decermilo e Vila Longa",Viseu Dão Lafões,310,2025-01-26T17:10:00Z,24873366,Em despacho,3301,Queda de árvore,0,1,0,2,2025-01-26T17:10:00Z,Sátão,Viseu,Centro,-7.618743,40.771702
24873097,Ruivães e Campos,Ave,309,2025-01-26T16:09:00Z,24873097,Em despacho,3301,Queda de árvore,0,1,0,2,2025-01-26T16:09:00Z,Vieira Do Minho,Braga,Norte,-8.032822,41.664634
24873294,Vilela do Tâmega,Alto Tâmega e Barroso,309,2025-01-26T16:54:00Z,24873294,Em despacho,3301,Queda de árvore,0,1,0,5,2025-01-26T16:54:00Z,Chaves,Vila Real,Norte,-7.547292,41.691697
24873311,Eja,Tâmega e Sousa,309,2025-01-26T16:50:00Z,24873311,Em despacho,3301,Queda de árvore,0,1,0,2,2025-01-26T16:50:00Z,Penafiel,Porto,Norte,-8.301743,41.091904
24873348,Castro Daire,Viseu Dão Lafões,310,2025-01-26T16:09:00Z,24873348,Em curso,3315,Inundação de estruturas por precipitação intensa,0,1,0,1,2025-01-26T16:09:00Z,Castro Daire,Viseu,Centro,-7.9278130000000004,40.901854
24873361,Colmeias e Memória,Região de Leiria,310,2025-01-26T17:06:00Z,24873361,Em despacho,3321,Dano na rede de fornecimento de eletricidade ,0,2,0,7,2025-01-26T17:06:00Z,Leiria,Leiria,Centro,-8.650466,39.813005
24873397,Barrô e Aguada de Baixo,Região de Aveiro,310,2025-01-26T17:10:00Z,24873397,Em despacho,3301,Queda de árvore,0,1,0,2,2025-01-26T17:10:00Z,Águeda,Aveiro,Centro,-8.458783,40.514357
24873414,Mozelos,Area M. Porto,309,2025-01-26T17:21:00Z,24873414,Em curso,3321,Dano na rede de fornecimento de eletricidade ,0,1,0,2,2025-01-26T17:21:00Z,Santa Maria Da Feira,Aveiro,Norte,-8.56526,40.997101
24873393,Rebordões (Santa Maria),Alto Minho,309,2025-01-26T17:10:00Z,24873393,Em curso,3301,Queda de árvore,0,4,0,8,2025-01-26T17:10:00Z,Ponte De Lima,Viana Do Castelo,Norte,-8.582497,41.71627
24873416,Santa Cruz do Douro e São Tomé de Covelas,Tâmega e Sousa,309,2025-01-26T17:24:00Z,24873416,Em despacho,3313,Deslizamento de terras,0,0,0,0,2025-01-26T17:24:00Z,Baião,Porto,Norte,-8.02704,41.12467
24873432,Beça,Alto Tâmega e Barroso,309,2025-01-26T17:20:00Z,24873432,Em conclusão,3301,Queda de árvore,0,2,0,5,2025-01-26T17:20:00Z,Boticas,Vila Real,Norte,-7.725954,41.689176
24873436,São João da Madeira,Area M. Porto,309,2025-01-26T17:08:00Z,24873436,Em despacho,3301,Queda de árvore,0,1,0,2,2025-01-26T17:08:00Z,São João Da Madeira,Aveiro,Norte,-8.490365,40.895632
24873459,Insalde e Porreiras,Alto Minho,309,2025-01-26T17:29:00Z,24873459,Em curso,3301,Queda de árvore,0,1,0,2,2025-01-26T17:29:00Z,Paredes De Coura,Viana Do Castelo,Norte,-8.514677,41.955722
24873484,Paredes,Area M. Porto,309,2025-01-26T17:37:00Z,24873484,Em despacho,3301,Queda de árvore,0,0,0,0,2025-01-26T17:37:00Z,Paredes,Porto,Norte,-8.325115,41.20775
24873493,Valongo,Area M. Porto,309,2025-01-26T17:35:00Z,24873493,Em despacho,3309,Desabamento de estruturas edificadas,0,2,0,5,2025-01-26T17:35:00Z,Valongo,Porto,Norte,-8.48714,41.18783
24873533,São Martinho do Porto,Oeste,311,2025-01-26T17:35:00Z,24873533,Em despacho,3329,Queda de estruturas temporárias ou móveis,0,1,0,2,2025-01-26T17:35:00Z,Alcobaça,Leiria,Centro,-9.13322,39.520738
24873551,Bornes e Burga,Terras de Trás-os-Montes,309,2025-01-26T17:47:00Z,24873551,Em despacho,3301,Queda de árvore,0,2,0,6,2025-01-26T17:47:00Z,Macedo De Cavaleiros,Bragança,Norte,-7.009685,41.435018
24873569,Vinhais,Terras de Trás-os-Montes,309,2025-01-26T17:51:00Z,24873569,Em despacho,3301,Queda de árvore,0,2,0,4,2025-01-26T17:51:00Z,Vinhais,Bragança,Norte,-7.010501,41.803263
24873574,"Valença, Cristelo Covo e Arão",Alto Minho,309,2025-01-26T17:54:00Z,24873574,Em despacho,3311,Queda de elementos de estruturas edificados,0,1,0,2,2025-01-26T17:54:00Z,Valença,Viana Do Castelo,Norte,-8.644383,42.018188
24873578,Guilhufe e Urrô,Tâmega e Sousa,309,2025-01-26T17:56:00Z,24873578,Em despacho,3301,Queda de árvore,0,0,0,0,2025-01-26T17:56:00Z,Penafiel,Porto,Norte,-8.311341,41.20261
24873428,Pinheiro,Viseu Dão Lafões,310,2025-01-26T17:23:00Z,24873428,Em despacho,3301,Queda de árvore,0,1,0,3,2025-01-26T17:23:00Z,Aguiar Da Beira,Guarda,Centro,-7.611864,40.783801
24873480,"Almargem do Bispo, Pêro Pinheiro e Montelavar",Grande Lisboa,311,2025-01-26T17:24:00Z,24873480,Em resolução,3301,Queda de árvore,0,2,0,6,2025-01-26T17:24:00Z,Sintra,Lisboa,Área Metropolitana De Lisboa,-9.259177,38.818835
24873497,"Pinheiro da Bemposta, Travanca e Palmaz",Area M. Porto,309,2025-01-26T17:37:00Z,24873497,Em despacho,3301,Queda de árvore,0,1,0,2,2025-01-26T17:37:00Z,Oliveira De Azeméis,Aveiro,Norte,-8.468107,40.789674
24873498,Portela e Extremo,Alto Minho,309,2025-01-26T17:40:00Z,24873498,Em despacho,3301,Queda de árvore,0,1,0,3,2025-01-26T17:40:00Z,Arcos De Valdevez,Viana Do Castelo,Norte,-8.462649,41.957455
24873512,Arcos de Valdevez (São Paio) e Giela,Alto Minho,309,2025-01-26T17:44:00Z,24873512,Em despacho,3311,Queda de elementos de estruturas edificados,0,0,0,0,2025-01-26T17:44:00Z,Arcos De Valdevez,Viana Do Castelo,Norte,-8.4081,41.85633
24873518,Venda Nova e Pondras,Alto Tâmega e Barroso,309,2025-01-26T17:38:00Z,24873518,Em curso,3301,Queda de árvore,0,2,0,6,2025-01-26T17:38:00Z,Montalegre,Vila Real,Norte,-7.956621,41.671752
24873534,Algueirão-Mem Martins,Grande Lisboa,311,2025-01-26T17:30:00Z,24873534,Em despacho,3301,Queda de árvore,0,1,0,2,2025-01-26T17:30:00Z,Sintra,Lisboa,Área Metropolitana De Lisboa,-9.330827,38.796332
24873536,Santa Cruz da Trapa e São Cristóvão de Lafões,Viseu Dão Lafões,310,2025-01-26T17:45:00Z,24873536,Em curso,3301,Queda de árvore,0,1,0,2,2025-01-26T17:45:00Z,São Pedro Do Sul,Viseu,Centro,-8.179319,40.770555
24873543,"Coruche, Fajarda e Erra",Lezíria do Tejo,311,2025-01-26T17:48:00Z,24873543,Em despacho,3301,Queda de árvore,0,2,0,4,2025-01-26T17:48:00Z,Coruche,Santarém,Alentejo,-8.54111,38.890215
24873550,"Sé, Santa Maria e Meixedo",Terras de Trás-os-Montes,309,2025-01-26T17:46:00Z,24873550,Em curso,3315,Inundação de estruturas por precipitação intensa,0,0,0,0,2025-01-26T17:46:00Z,Bragança,Bragança,Norte,-6.761223,41.813164
24873575,Montemor-o-Velho e Gatões,Região de Coimbra,310,2025-01-26T17:25:00Z,24873575,Em despacho,3301,Queda de árvore,0,1,0,3,2025-01-26T17:25:00Z,Montemor-o-Velho,Coimbra,Centro,-8.684865,40.169486
