id,address,subregion,neighborhood,date,id.1,state,nature,nature_description,aerial_means,terrestrial_means,aquatic_means,operational,date.1,Concelho,Distrito,NUTII_DSG,longitude,latitude,state_2
25599357,Alpalhão,Alto Alentejo,312,2025-06-29T16:55:00Z,25599357,Em Resolução/Conclusão,3103,Incêndio rural,0,3,0,8,2025-06-29T16:55:00Z,Nisa,Portalegre,Alentejo,-7.63684,39.452513,Resolução/Conclusão
25599382,Almaceda,Beira Baixa,310,2025-06-29T17:03:00Z,25599382,Em Resolução/Conclusão,3101,Incêndio rural,1,38,0,113,2025-06-29T17:03:00Z,Castelo Branco,Castelo Branco,Centro,-7.65644,39.97,Resolução/Conclusão
25606759,São Miguel do Outeiro e Sabugosa,Viseu Dão Lafões,310,2025-07-01T00:26:00Z,25606759,Em Resolução/Conclusão,3101,Incêndio rural,0,1,0,1,2025-07-01T00:26:00Z,Tondela,Viseu,Centro,-8.056143,40.560622,Resolução/Conclusão
25607688,Cabreiro,Alto Minho,309,2025-07-01T08:52:00Z,25607688,Em Resolução/Conclusão,3103,Incêndio rural,0,1,0,3,2025-07-01T08:52:00Z,Arcos De Valdevez,Viana Do Castelo,Norte,-8.38598,41.944287,Resolução/Conclusão
25608124,Sobrosa,Area M. Porto,309,2025-07-01T10:05:00Z,25608124,Em Resolução/Conclusão,3103,Incêndio rural,0,5,0,17,2025-07-01T10:05:00Z,Paredes,Porto,Norte,-8.359308,41.257133,Resolução/Conclusão
25608406,Pias,Baixo Alentejo,312,2025-07-01T10:36:00Z,25608406,Em Resolução/Conclusão,3105,Incêndio rural,0,5,0,14,2025-07-01T10:36:00Z,Serpa,Beja,Alentejo,-7.512387,38.016925,Resolução/Conclusão
25608751,Chancelaria,Médio Tejo,311,2025-07-01T11:47:00Z,25608751,Em Resolução/Conclusão,3107,Consolidação de rescaldo de incêndio rural,0,5,0,15,2025-07-01T11:47:00Z,Torres Novas,Santarém,Centro,-8.53235,39.582905,Resolução/Conclusão
25608967,Alvite,Douro,309,2025-07-01T12:19:00Z,25608967,Em Resolução/Conclusão,3103,Incêndio rural,6,13,0,58,2025-07-01T12:19:00Z,Moimenta Da Beira,Viseu,Norte,-7.741182,40.9536,Resolução/Conclusão
25609076,Santa Bárbara de Nexe,Algarve,313,2025-07-01T12:35:00Z,25609076,Em Resolução/Conclusão,3103,Incêndio rural,0,11,0,36,2025-07-01T12:35:00Z,Faro,Faro,Algarve,-7.974543,37.097958,Resolução/Conclusão
25609274,"Freixianda, Ribeira do Fárrio e Formigais",Médio Tejo,311,2025-07-01T13:13:00Z,25609274,Em Resolução/Conclusão,3103,Incêndio rural,0,6,0,23,2025-07-01T13:13:00Z,Ourém,Santarém,Centro,-8.461388,39.737318,Resolução/Conclusão
25609442,Cervães,Cávado,309,2025-07-01T13:39:00Z,25609442,Em Despacho,3107,Consolidação de rescaldo de incêndio rural,0,0,0,0,2025-07-01T13:39:00Z,Vila Verde,Braga,Norte,-8.514738,41.59475,Despacho
25609578,Cabreiro,Alto Minho,309,2025-07-01T14:03:00Z,25609578,Em Despacho,3103,Incêndio rural,1,2,0,12,2025-07-01T14:03:00Z,Arcos De Valdevez,Viana Do Castelo,Norte,-8.355473,41.946262,Despacho
25607039,Lomba,Area M. Porto,309,2025-07-01T04:11:00Z,25607039,Em Resolução/Conclusão,3103,Incêndio rural,0,2,0,7,2025-07-01T04:11:00Z,Gondomar,Porto,Norte,-8.425045,41.031572,Resolução/Conclusão
25608662,Penafiel,Tâmega e Sousa,309,2025-07-01T11:32:00Z,25608662,Em Despacho,3107,Consolidação de rescaldo de incêndio rural,0,2,0,10,2025-07-01T11:32:00Z,Penafiel,Porto,Norte,-8.266901,41.21565,Despacho
25608964,Almofala,Viseu Dão Lafões,310,2025-07-01T12:18:00Z,25608964,Em Resolução/Conclusão,3103,Incêndio rural,1,18,0,68,2025-07-01T12:18:00Z,Castro Daire,Viseu,Centro,-7.792267,40.95106,Resolução/Conclusão
25609027,"Sé Nova, Santa Cruz, Almedina e São Bartolomeu",Região de Coimbra,310,2025-07-01T12:28:00Z,25609027,Em Resolução/Conclusão,3103,Incêndio rural,0,1,0,2,2025-07-01T12:28:00Z,Coimbra,Coimbra,Centro,-8.44682,40.228048,Resolução/Conclusão
25609363,Parada de Todeia,Area M. Porto,309,2025-07-01T13:24:00Z,25609363,Em Resolução/Conclusão,3103,Incêndio rural,0,3,0,15,2025-07-01T13:24:00Z,Paredes,Porto,Norte,-8.381308,41.170198,Resolução/Conclusão
25607968,Valpaços e Sanfins,Alto Tâmega e Barroso,309,2025-07-01T09:39:00Z,25607968,Em Resolução/Conclusão,3103,Incêndio rural,0,3,0,9,2025-07-01T09:39:00Z,Valpaços,Vila Real,Norte,-7.347507,41.599547,Resolução/Conclusão
25608554,Brinches,Baixo Alentejo,312,2025-07-01T11:00:00Z,25608554,Em Resolução/Conclusão,3105,Incêndio rural,0,5,0,15,2025-07-01T11:00:00Z,Serpa,Beja,Alentejo,-7.526577,38.015208,Resolução/Conclusão
25608601,São Domingos de Ana Loura,Alentejo Central,312,2025-07-01T11:18:00Z,25608601,Em Resolução/Conclusão,3105,Incêndio rural,2,21,0,62,2025-07-01T11:18:00Z,Estremoz,Évora,Alentejo,-7.50152,38.882248,Resolução/Conclusão
25608835,Alcoutim e Pereiro,Algarve,313,2025-07-01T11:58:00Z,25608835,Em Resolução/Conclusão,3103,Incêndio rural,0,8,0,27,2025-07-01T11:58:00Z,Alcoutim,Faro,Algarve,-7.507201,37.423521,Resolução/Conclusão
25608937,Recezinhos (São Mamede),Tâmega e Sousa,309,2025-07-01T12:08:00Z,25608937,Em Resolução/Conclusão,3107,Consolidação de rescaldo de incêndio rural,0,1,0,5,2025-07-01T12:08:00Z,Penafiel,Porto,Norte,-8.22576,41.24156,Resolução/Conclusão
25609423,Caldas de São Jorge e Pigeiros,Area M. Porto,309,2025-07-01T13:30:00Z,25609423,Em Despacho,3107,Consolidação de rescaldo de incêndio rural,0,1,0,5,2025-07-01T13:30:00Z,Santa Maria Da Feira,Aveiro,Norte,-8.48706,40.951914,Despacho
25609521,Quelfes,Algarve,313,2025-07-01T13:52:00Z,25609521,Em Despacho,3103,Incêndio rural,1,3,0,17,2025-07-01T13:52:00Z,Olhão,Faro,Algarve,-7.837451,37.03826,Despacho
25603618,Messejana,Baixo Alentejo,312,2025-06-30T13:09:00Z,25603618,Em Resolução/Conclusão,3101,Incêndio rural,0,56,0,162,2025-06-30T13:09:00Z,Aljustrel,Beja,Alentejo,-8.169013,37.814978,Resolução/Conclusão
25604086,Alvarenga,Area M. Porto,309,2025-06-30T14:23:00Z,25604086,Em Resolução/Conclusão,3103,Incêndio rural,0,4,0,15,2025-06-30T14:23:00Z,Arouca,Aveiro,Norte,-8.16662,40.977807,Resolução/Conclusão
25604815,Ermidas-Sado,Alentejo Litoral,312,2025-06-30T16:36:00Z,25604815,Em Resolução/Conclusão,3103,Incêndio rural,0,8,0,16,2025-06-30T16:36:00Z,Santiago Do Cacém,Setúbal,Alentejo,-8.353481,38.015813,Resolução/Conclusão
25605147,Vale do Côa,Beiras e Serra da Estrela,310,2025-06-30T17:42:00Z,25605147,Em Resolução/Conclusão,3103,Incêndio rural,0,21,0,73,2025-06-30T17:42:00Z,Pinhel,Guarda,Centro,-7.114995,40.946045,Resolução/Conclusão
25606628,Lobão da Beira,Viseu Dão Lafões,310,2025-06-30T23:39:00Z,25606628,Em Resolução/Conclusão,3103,Incêndio rural,0,1,0,1,2025-06-30T23:39:00Z,Tondela,Viseu,Centro,-8.04042,40.571925,Resolução/Conclusão
25606803,Canas de Santa Maria,Viseu Dão Lafões,310,2025-07-01T00:36:00Z,25606803,Em Resolução/Conclusão,3101,Incêndio rural,0,2,0,3,2025-07-01T00:36:00Z,Tondela,Viseu,Centro,-8.056338,40.560735,Resolução/Conclusão
25608625,Ventosa e Cova,Ave,309,2025-07-01T11:26:00Z,25608625,Em Curso,3107,Consolidação de rescaldo de incêndio rural,0,3,0,12,2025-07-01T11:26:00Z,Vieira Do Minho,Braga,Norte,-8.15785,41.668061,Curso
25609582,Cervães,Cávado,309,2025-07-01T14:04:00Z,25609582,Em Despacho,3103,Incêndio rural,1,6,0,28,2025-07-01T14:04:00Z,Vila Verde,Braga,Norte,-8.513801,41.595037,Despacho
25609243,São Miguel de Vila Boa,Viseu Dão Lafões,310,2025-07-01T13:05:00Z,25609243,Em Resolução/Conclusão,3103,Incêndio rural,0,8,0,31,2025-07-01T13:05:00Z,Sátão,Viseu,Centro,-7.748912,40.692535,Resolução/Conclusão
25609409,"Caia, São Pedro e Alcáçova",Alto Alentejo,312,2025-07-01T13:29:00Z,25609409,Em Resolução/Conclusão,3103,Incêndio rural,0,2,0,3,2025-07-01T13:29:00Z,Elvas,Portalegre,Alentejo,-7.16104,38.882878,Resolução/Conclusão
