id,address,subregion,neighborhood,date,id.1,state,nature,nature_description,aerial_means,terrestrial_means,aquatic_means,operational,date.1,Concelho,Distrito,NUTII_DSG,longitude,latitude,state_2
25832672,Piódão,Região de Coimbra,310,2025-08-13T05:08:00Z,25832672,Em Resolução/Conclusão,3103,Incêndio rural,0,0,0,0,2025-08-13T05:08:00Z,Arganil,Coimbra,Centro,-7.81972,40.23083,Resolução/Conclusão
25989850,Povolide,Viseu Dão Lafões,310,2025-09-14T16:49:00Z,25989850,Em Resolução/Conclusão,3103,Incêndio rural,0,1,0,1,2025-09-14T16:49:00Z,Viseu,Viseu,Centro,-7.785413,40.67811,Resolução/Conclusão
26001727,Travancas e Roriz,Alto Tâmega e Barroso,309,2025-09-17T06:54:00Z,26001727,Em Resolução/Conclusão,3103,Incêndio rural,0,3,0,12,2025-09-17T06:54:00Z,Chaves,Vila Real,Norte,-7.308297,41.8165,Resolução/Conclusão
26002870,Vale Das Fontes,Terras de Trás-os-Montes,309,2025-09-17T10:47:00Z,26002870,Em Resolução/Conclusão,3103,Incêndio rural,0,8,0,26,2025-09-17T10:47:00Z,Vinhais,Bragança,Norte,-7.106735,41.709982,Resolução/Conclusão
26003917,Ervidel,Baixo Alentejo,312,2025-09-17T14:10:00Z,26003917,Em Resolução/Conclusão,3103,Incêndio rural,0,2,0,4,2025-09-17T14:10:00Z,Aljustrel,Beja,Alentejo,-8.062808,37.967037,Resolução/Conclusão
26004049,Algueirão-Mem Martins,Grande Lisboa,311,2025-09-17T14:35:00Z,26004049,Em Resolução/Conclusão,3103,Incêndio rural,0,0,0,0,2025-09-17T14:35:00Z,Sintra,Lisboa,Área Metropolitana De Lisboa,-9.32778,38.8,Resolução/Conclusão
26004440,Palmela,Península de Setúbal,311,2025-09-17T15:52:00Z,26004440,Em Resolução/Conclusão,3103,Incêndio rural,0,3,0,5,2025-09-17T15:52:00Z,Palmela,Setúbal,Área Metropolitana De Lisboa,-8.901704,38.58184,Resolução/Conclusão
26004594,"Lobão, Gião, Louredo e Guisande",Area M. Porto,309,2025-09-17T16:23:00Z,26004594,Em Resolução/Conclusão,3103,Incêndio rural,0,2,0,8,2025-09-17T16:23:00Z,Santa Maria Da Feira,Aveiro,Norte,-8.467006,40.978988,Resolução/Conclusão
25951176,Sandomil,Beiras e Serra da Estrela,310,2025-09-06T10:29:00Z,25951176,Em Resolução/Conclusão,3103,Incêndio rural,0,3,0,15,2025-09-06T10:29:00Z,Seia,Guarda,Centro,-7.76001,40.351547,Resolução/Conclusão
25989064,Vila de Rei,Beira Baixa,310,2025-09-14T13:32:00Z,25989064,Em Resolução/Conclusão,3101,Incêndio rural,0,3,0,9,2025-09-14T13:32:00Z,Vila De Rei,Castelo Branco,Centro,-8.152412,39.660802,Resolução/Conclusão
26001447,Pelmá,Região de Leiria,310,2025-09-17T02:13:00Z,26001447,Em Resolução/Conclusão,3101,Incêndio rural,0,1,0,2,2025-09-17T02:13:00Z,Alvaiázere,Leiria,Centro,-8.425235,39.797637,Resolução/Conclusão
26003719,Monfortinho e Salvaterra do Extremo,Beira Baixa,310,2025-09-17T13:38:00Z,26003719,Em Resolução/Conclusão,3103,Incêndio rural,0,1,0,4,2025-09-17T13:38:00Z,Idanha-a-Nova,Castelo Branco,Centro,-6.920967,40.005183,Resolução/Conclusão
26003954,Repeses e São Salvador,Viseu Dão Lafões,310,2025-09-17T14:20:00Z,26003954,Em Resolução/Conclusão,3103,Incêndio rural,0,25,0,89,2025-09-17T14:20:00Z,Viseu,Viseu,Centro,-7.95257,40.644483,Resolução/Conclusão
25980131,Carva e Vilares,Douro,309,2025-09-12T14:27:00Z,25980131,Em Resolução/Conclusão,3103,Incêndio rural,0,18,0,58,2025-09-12T14:27:00Z,Murça,Vila Real,Norte,-7.55901,41.401343,Resolução/Conclusão
25980930,Santo André Das Tojeiras,Beira Baixa,310,2025-09-12T17:08:00Z,25980930,Em Resolução/Conclusão,3101,Incêndio rural,0,1,0,5,2025-09-12T17:08:00Z,Castelo Branco,Castelo Branco,Centro,-7.72701,39.809058,Resolução/Conclusão
25994117,Fortios,Alto Alentejo,312,2025-09-15T14:38:00Z,25994117,Em Resolução/Conclusão,3101,Incêndio rural,0,1,0,5,2025-09-15T14:38:00Z,Portalegre,Portalegre,Alentejo,-7.470015,39.279328,Resolução/Conclusão
26004412,Poceirão e Marateca,Península de Setúbal,311,2025-09-17T15:46:00Z,26004412,Em Resolução/Conclusão,3103,Incêndio rural,1,5,0,27,2025-09-17T15:46:00Z,Palmela,Setúbal,Área Metropolitana De Lisboa,-8.793192,38.71634,Resolução/Conclusão
26003298,Barreiros e Cepões,Viseu Dão Lafões,310,2025-09-17T12:05:00Z,26003298,Em Resolução/Conclusão,3103,Incêndio rural,0,5,0,13,2025-09-17T12:05:00Z,Viseu,Viseu,Centro,-7.825281,40.745844,Resolução/Conclusão
26003755,Meixedo e Padornelos,Alto Tâmega e Barroso,309,2025-09-17T13:43:00Z,26003755,Em Resolução/Conclusão,3103,Incêndio rural,0,6,0,25,2025-09-17T13:43:00Z,Montalegre,Vila Real,Norte,-7.732032,41.871064,Resolução/Conclusão
26004602,Aveleda e Rio de Onor,Terras de Trás-os-Montes,309,2025-09-17T16:33:00Z,26004602,Em Despacho,3103,Incêndio rural,1,8,0,36,2025-09-17T16:33:00Z,Bragança,Bragança,Norte,-6.67936,41.87109,Despacho
