id,address,subregion,neighborhood,date,id.1,state,nature,nature_description,aerial_means,terrestrial_means,aquatic_means,operational,date.1,Concelho,Distrito,NUTII_DSG,longitude,latitude
25299954,Santo António Dos Cavaleiros e Frielas,Grande Lisboa,311,2025-04-28T15:57:00Z,25299954,Em despacho,3329,Queda de estruturas temporárias ou móveis,0,0,0,0,2025-04-28T15:57:00Z,Loures,Lisboa,Área Metropolitana De Lisboa,-9.16947,38.80989
25299986,Peniche,Oeste,311,2025-04-28T15:58:00Z,25299986,Em despacho,3321,Dano na rede de fornecimento de eletricidade ,0,1,0,1,2025-04-28T15:58:00Z,Peniche,Leiria,Centro,-9.376833,39.357166
25300147,Canelas,Area M. Porto,309,2025-04-28T15:40:00Z,25300147,Em despacho,3317,Inundação de estruturas por água canalizada,0,1,0,3,2025-04-28T15:40:00Z,Vila Nova De Gaia,Porto,Norte,-8.599603,41.079376
25300640,"Sé, Santa Maria e Meixedo",Terras de Trás-os-Montes,309,2025-04-28T17:58:00Z,25300640,Em despacho,3317,Inundação de estruturas por água canalizada,0,1,0,2,2025-04-28T17:58:00Z,Bragança,Bragança,Norte,-6.761223,41.813164
25300656,Fafe,Ave,309,2025-04-28T18:07:00Z,25300656,Em despacho,3317,Inundação de estruturas por água canalizada,0,1,0,2,2025-04-28T18:07:00Z,Fafe,Braga,Norte,-8.1709,41.451326
25301024,Canidelo,Area M. Porto,309,2025-04-28T19:36:00Z,25301024,Em despacho,3317,Inundação de estruturas por água canalizada,0,1,0,3,2025-04-28T19:36:00Z,Vila Nova De Gaia,Porto,Norte,-8.6538,41.12878
25301129,Vila Nova de Famalicão e Calendário,Ave,309,2025-04-28T19:55:00Z,25301129,Em despacho,3317,Inundação de estruturas por água canalizada,0,1,0,2,2025-04-28T19:55:00Z,Vila Nova De Famalicão,Braga,Norte,-8.530915,41.39878
25299528,Bougado (São Martinho e Santiago),Area M. Porto,309,2025-04-28T14:12:00Z,25299528,Em despacho,3317,Inundação de estruturas por água canalizada,0,1,0,3,2025-04-28T14:12:00Z,Trofa,Porto,Norte,-8.58713,41.340548
25300160,Carcavelos e Parede,Grande Lisboa,311,2025-04-28T15:10:00Z,25300160,Em despacho,3317,Inundação de estruturas por água canalizada,0,1,0,2,2025-04-28T15:10:00Z,Cascais,Lisboa,Área Metropolitana De Lisboa,-9.36428,38.704278
25300185,Moita,Região de Aveiro,310,2025-04-28T16:25:00Z,25300185,Em conclusão,3317,Inundação de estruturas por água canalizada,0,1,0,2,2025-04-28T16:25:00Z,Anadia,Aveiro,Centro,-8.427725,40.427989
25071496,São Manços e São Vicente do Pigeiro,Alentejo Central,312,2025-03-11T13:18:00Z,25071496,Em conclusão,1101,Cheia,0,0,0,0,2025-03-11T13:18:00Z,Évora,Évora,Alentejo,-7.713313,38.513673
25299253,Malagueira e Horta Das Figueiras,Alentejo Central,312,2025-04-28T13:20:00Z,25299253,Em despacho,3317,Inundação de estruturas por água canalizada,0,1,0,2,2025-04-28T13:20:00Z,Évora,Évora,Alentejo,-7.917338,38.579056
25301247,Loulé (São Clemente),Algarve,313,2025-04-28T20:39:00Z,25301247,Em despacho,3317,Inundação de estruturas por água canalizada,0,0,0,0,2025-04-28T20:39:00Z,Loulé,Faro,Algarve,-8.00377,37.13231
25301392,Braga (São José de São Lázaro e São João do Souto),Cávado,309,2025-04-28T21:00:00Z,25301392,Em despacho,3317,Inundação de estruturas por água canalizada,0,1,0,2,2025-04-28T21:00:00Z,Braga,Braga,Norte,-8.419101,41.543217
25299815,Serzedo e Perosinho,Area M. Porto,309,2025-04-28T15:32:00Z,25299815,Em resolução,3317,Inundação de estruturas por água canalizada,0,1,0,3,2025-04-28T15:32:00Z,Vila Nova De Gaia,Porto,Norte,-8.6093,41.04811
25300889,Gafanha da Nazaré,Região de Aveiro,310,2025-04-28T19:05:00Z,25300889,Em curso,3317,Inundação de estruturas por água canalizada,0,1,0,5,2025-04-28T19:05:00Z,Ílhavo,Aveiro,Centro,-8.7257,40.63563
25300923,Campanhã,Area M. Porto,309,2025-04-28T19:14:00Z,25300923,Em despacho,3317,Inundação de estruturas por água canalizada,0,0,0,0,2025-04-28T19:14:00Z,Porto,Porto,Norte,-8.5854,41.16909
25300991,Gafanha da Nazaré,Região de Aveiro,310,2025-04-28T19:08:00Z,25300991,Em curso,3317,Inundação de estruturas por água canalizada,0,1,0,2,2025-04-28T19:08:00Z,Ílhavo,Aveiro,Centro,-8.719411,40.633995
25301048,São Pedro de Castelões,Area M. Porto,309,2025-04-28T18:34:00Z,25301048,Em curso,3317,Inundação de estruturas por água canalizada,0,2,0,6,2025-04-28T18:34:00Z,Vale De Cambra,Aveiro,Norte,-8.39388,40.815821
25301066,Vila Franca de Xira,Grande Lisboa,311,2025-04-28T19:47:00Z,25301066,Em despacho,3317,Inundação de estruturas por água canalizada,0,0,0,0,2025-04-28T19:47:00Z,Vila Franca De Xira,Lisboa,Área Metropolitana De Lisboa,-8.991111,38.94806
25301116,Vieira de Leiria,Região de Leiria,310,2025-04-28T19:55:00Z,25301116,Em despacho,3315,Inundação de estruturas por precipitação intensa,0,1,0,2,2025-04-28T19:55:00Z,Marinha Grande,Leiria,Centro,-8.929016,39.865463
25301355,Venda do Pinheiro e Santo Estêvão Das Galés,Grande Lisboa,311,2025-04-28T20:44:00Z,25301355,Em despacho,3317,Inundação de estruturas por água canalizada,0,1,0,5,2025-04-28T20:44:00Z,Mafra,Lisboa,Área Metropolitana De Lisboa,-9.228575,38.925416
25300575,São Pedro Fins,Area M. Porto,309,2025-04-28T17:51:00Z,25300575,Em despacho,3317,Inundação de estruturas por água canalizada,0,0,0,0,2025-04-28T17:51:00Z,Maia,Porto,Norte,-8.551389,41.24805
25300842,Castêlo da Maia,Area M. Porto,309,2025-04-28T18:52:00Z,25300842,Em despacho,3317,Inundação de estruturas por água canalizada,0,0,0,0,2025-04-28T18:52:00Z,Maia,Porto,Norte,-8.65007,41.2724
25300315,Bonfim,Area M. Porto,309,2025-04-28T16:56:00Z,25300315,Em despacho,3315,Inundação de estruturas por precipitação intensa,0,0,0,0,2025-04-28T16:56:00Z,Porto,Porto,Norte,-8.59788,41.14874
25300448,Sertã,Beira Baixa,310,2025-04-28T17:15:00Z,25300448,Em despacho,3317,Inundação de estruturas por água canalizada,0,1,0,3,2025-04-28T17:15:00Z,Sertã,Castelo Branco,Centro,-8.093411,39.79995
25300891,Bougado (São Martinho e Santiago),Area M. Porto,309,2025-04-28T18:46:00Z,25300891,Em despacho,3317,Inundação de estruturas por água canalizada,0,1,0,3,2025-04-28T18:46:00Z,Trofa,Porto,Norte,-8.558796,41.329536
25301008,Miranda do Corvo,Região de Coimbra,310,2025-04-28T19:30:00Z,25301008,Em curso,3317,Inundação de estruturas por água canalizada,0,0,0,0,2025-04-28T19:30:00Z,Miranda Do Corvo,Coimbra,Centro,-8.339499,40.09407
25301405,Souto da Carpalhosa e Ortigosa,Região de Leiria,310,2025-04-28T21:05:00Z,25301405,Em despacho,3317,Inundação de estruturas por água canalizada,0,1,0,5,2025-04-28T21:05:00Z,Leiria,Leiria,Centro,-8.837503,39.830931
25301343,Gandra,Area M. Porto,309,2025-04-28T20:43:00Z,25301343,Em despacho,3317,Inundação de estruturas por água canalizada,0,1,0,2,2025-04-28T20:43:00Z,Paredes,Porto,Norte,-8.432364,41.188841
25300735,Miranda do Corvo,Região de Coimbra,310,2025-04-28T18:00:00Z,25300735,Em curso,3317,Inundação de estruturas por água canalizada,0,0,0,0,2025-04-28T18:00:00Z,Miranda Do Corvo,Coimbra,Centro,-8.339499,40.09407
25300749,Pampilhosa,Região de Coimbra,310,2025-04-28T18:30:00Z,25300749,Em despacho,3317,Inundação de estruturas por água canalizada,0,1,0,2,2025-04-28T18:30:00Z,Mealhada,Aveiro,Centro,-8.420263,40.336152
25301000,Miranda do Corvo,Região de Coimbra,310,2025-04-28T18:50:00Z,25301000,Em curso,3317,Inundação de estruturas por água canalizada,0,0,0,0,2025-04-28T18:50:00Z,Miranda Do Corvo,Coimbra,Centro,-8.339499,40.09407
25301219,Serzedo e Perosinho,Area M. Porto,309,2025-04-28T20:32:00Z,25301219,Em despacho,3317,Inundação de estruturas por água canalizada,0,0,0,0,2025-04-28T20:32:00Z,Vila Nova De Gaia,Porto,Norte,-8.6093,41.04811
