id,address,subregion,neighborhood,date,id.1,state,nature,nature_description,aerial_means,terrestrial_means,aquatic_means,operational,date.1,Concelho,Distrito,NUTII_DSG,longitude,latitude,state_2
25980131,Carva e Vilares,Douro,309,2025-09-12T14:27:00Z,25980131,Em Resolução/Conclusão,3103,Incêndio rural,0,33,0,95,2025-09-12T14:27:00Z,Murça,Vila Real,Norte,-7.55901,41.401343,Resolução/Conclusão
25980930,Santo André Das Tojeiras,Beira Baixa,310,2025-09-12T17:08:00Z,25980930,Em Resolução/Conclusão,3101,Incêndio rural,0,1,0,5,2025-09-12T17:08:00Z,Castelo Branco,Castelo Branco,Centro,-7.72701,39.809058,Resolução/Conclusão
25990708,Vialonga,Grande Lisboa,311,2025-09-14T20:34:00Z,25990708,Em Resolução/Conclusão,3103,Incêndio rural,0,30,0,84,2025-09-14T20:34:00Z,Vila Franca De Xira,Lisboa,Área Metropolitana De Lisboa,-9.07461,38.888188,Resolução/Conclusão
25991594,Barreiros e Cepões,Viseu Dão Lafões,310,2025-09-15T03:33:00Z,25991594,Em Despacho,3103,Incêndio rural,0,3,0,14,2025-09-15T03:33:00Z,Viseu,Viseu,Centro,-7.777874,40.754713,Despacho
25832672,Piódão,Região de Coimbra,310,2025-08-13T05:08:00Z,25832672,Em Resolução/Conclusão,3103,Incêndio rural,0,0,0,0,2025-08-13T05:08:00Z,Arganil,Coimbra,Centro,-7.81972,40.23083,Resolução/Conclusão
25984495,São Salvador da Aramenha,Alto Alentejo,312,2025-09-13T13:28:00Z,25984495,Em Resolução/Conclusão,3101,Incêndio rural,0,3,0,9,2025-09-13T13:28:00Z,Marvão,Portalegre,Alentejo,-7.39094,39.36988,Resolução/Conclusão
25989850,Povolide,Viseu Dão Lafões,310,2025-09-14T16:49:00Z,25989850,Em Resolução/Conclusão,3103,Incêndio rural,0,1,0,4,2025-09-14T16:49:00Z,Viseu,Viseu,Centro,-7.785413,40.67811,Resolução/Conclusão
25951176,Sandomil,Beiras e Serra da Estrela,310,2025-09-06T10:29:00Z,25951176,Em Resolução/Conclusão,3103,Incêndio rural,0,2,0,10,2025-09-06T10:29:00Z,Seia,Guarda,Centro,-7.76001,40.351547,Resolução/Conclusão
25989064,Vila de Rei,Beira Baixa,310,2025-09-14T13:32:00Z,25989064,Em Resolução/Conclusão,3101,Incêndio rural,0,10,0,32,2025-09-14T13:32:00Z,Vila De Rei,Castelo Branco,Centro,-8.152412,39.660802,Resolução/Conclusão
25991552,Orgens,Viseu Dão Lafões,310,2025-09-15T02:54:00Z,25991552,Em Resolução/Conclusão,3111,Queima,0,2,0,6,2025-09-15T02:54:00Z,Viseu,Viseu,Centro,-7.949987,40.666853,Resolução/Conclusão
