id,address,subregion,neighborhood,date,id.1,state,nature,nature_description,aerial_means,terrestrial_means,aquatic_means,operational,date.1,Concelho,Distrito,NUTII_DSG,longitude,latitude,state_2
25846480,Sabugal e Aldeia de Santo António,Beiras e Serra da Estrela,310,2025-08-15T14:41:00Z,25846480,Em Resolução/Conclusão,3103,Incêndio rural,0,11,0,33,2025-08-15T14:41:00Z,Sabugal,Guarda,Centro,-7.125037,40.34023,Resolução/Conclusão
25910055,Rebordelo,Terras de Trás-os-Montes,309,2025-08-28T11:08:00Z,25910055,Em Curso,3103,Incêndio rural,11,29,0,111,2025-08-28T11:08:00Z,Vinhais,Bragança,Norte,-7.134773,41.765422,Curso
25910638,Vale,Alto Minho,309,2025-08-28T13:04:00Z,25910638,Em Resolução/Conclusão,3103,Incêndio rural,1,6,0,28,2025-08-28T13:04:00Z,Arcos De Valdevez,Viana Do Castelo,Norte,-8.336287,41.861395,Resolução/Conclusão
25910958,Podence e Santa Combinha,Terras de Trás-os-Montes,309,2025-08-28T14:10:00Z,25910958,Em Despacho,3103,Incêndio rural,1,3,0,20,2025-08-28T14:10:00Z,Macedo De Cavaleiros,Bragança,Norte,-6.926605,41.592639,Despacho
25883011,Almofala,Viseu Dão Lafões,310,2025-08-22T17:00:00Z,25883011,Em Resolução/Conclusão,3103,Incêndio rural,0,1,0,2,2025-08-22T17:00:00Z,Castro Daire,Viseu,Centro,-7.767003,40.956183,Resolução/Conclusão
25887019,Pedrógão Grande,Região de Leiria,310,2025-08-23T14:27:00Z,25887019,Em Resolução/Conclusão,3101,Incêndio rural,0,14,0,47,2025-08-23T14:27:00Z,Pedrógão Grande,Leiria,Centro,-8.15364,39.9136,Resolução/Conclusão
25906523,Picão e Ermida,Viseu Dão Lafões,310,2025-08-27T15:26:00Z,25906523,Em Resolução/Conclusão,3103,Incêndio rural,0,1,0,2,2025-08-27T15:26:00Z,Castro Daire,Viseu,Centro,-7.9416079999999996,40.947432,Resolução/Conclusão
25910026,Santa Lucrécia de Algeriz e Navarra,Cávado,309,2025-08-28T11:02:00Z,25910026,Em Resolução/Conclusão,3103,Incêndio rural,0,1,0,5,2025-08-28T11:02:00Z,Braga,Braga,Norte,-8.376365,41.605148,Resolução/Conclusão
25910542,Salvador e Santo Aleixo de Além-Tâmega,Alto Tâmega e Barroso,309,2025-08-28T12:42:00Z,25910542,Em Resolução/Conclusão,3103,Incêndio rural,0,9,0,25,2025-08-28T12:42:00Z,Ribeira De Pena,Vila Real,Norte,-7.807364,41.50306,Resolução/Conclusão
25813482,Freches e Torres,Beiras e Serra da Estrela,310,2025-08-09T16:21:00Z,25813482,Em Resolução/Conclusão,3103,Incêndio rural,0,1,0,5,2025-08-09T16:21:00Z,Trancoso,Guarda,Centro,-7.363745,40.709022,Resolução/Conclusão
25832250,Ferreira de Aves,Viseu Dão Lafões,310,2025-08-13T00:03:00Z,25832250,Em Resolução/Conclusão,3103,Incêndio rural,0,1,0,2,2025-08-13T00:03:00Z,Sátão,Viseu,Centro,-7.647793,40.79568,Resolução/Conclusão
25836309,Cinfães,Tâmega e Sousa,309,2025-08-13T18:17:00Z,25836309,Em Resolução/Conclusão,3103,Incêndio rural,0,1,0,2,2025-08-13T18:17:00Z,Cinfães,Viseu,Norte,-8.071502,41.049757,Resolução/Conclusão
25910498,Cortiçadas de Lavre e Lavre,Alentejo Central,312,2025-08-28T12:32:00Z,25910498,Em Curso,3103,Incêndio rural,2,17,0,58,2025-08-28T12:32:00Z,Montemor-o-Novo,Évora,Alentejo,-8.362108,38.73748,Curso
25910615,Cabeça Boa,Douro,309,2025-08-28T13:00:00Z,25910615,Em Resolução/Conclusão,3103,Incêndio rural,0,6,0,22,2025-08-28T13:00:00Z,Torre De Moncorvo,Bragança,Norte,-7.11561,41.180175,Resolução/Conclusão
25910697,Chancelaria,Médio Tejo,311,2025-08-28T13:19:00Z,25910697,Em Resolução/Conclusão,3103,Incêndio rural,0,16,0,57,2025-08-28T13:19:00Z,Torres Novas,Santarém,Centro,-8.564728,39.548563,Resolução/Conclusão
25910698,Nogueira e Silva Escura,Area M. Porto,309,2025-08-28T13:06:00Z,25910698,Em Resolução/Conclusão,3103,Incêndio rural,0,1,0,3,2025-08-28T13:06:00Z,Maia,Porto,Norte,-8.588632,41.238505,Resolução/Conclusão
25910796,Gralhas,Alto Tâmega e Barroso,309,2025-08-28T13:42:00Z,25910796,Em Curso,3103,Incêndio rural,1,7,0,37,2025-08-28T13:42:00Z,Montalegre,Vila Real,Norte,-7.719135,41.880207,Curso
25832672,Piódão,Região de Coimbra,310,2025-08-13T05:08:00Z,25832672,Em Resolução/Conclusão,3103,Incêndio rural,0,40,0,127,2025-08-13T05:08:00Z,Arganil,Coimbra,Centro,-7.81972,40.23083,Resolução/Conclusão
25840417,Lousã e Vilarinho,Região de Coimbra,310,2025-08-14T13:46:00Z,25840417,Em Resolução/Conclusão,3101,Incêndio rural,0,3,0,7,2025-08-14T13:46:00Z,Lousã,Coimbra,Centro,-8.201561,40.080016,Resolução/Conclusão
25910932,Aljubarrota,Oeste,311,2025-08-28T14:05:00Z,25910932,Em Despacho,3103,Incêndio rural,0,4,0,16,2025-08-28T14:05:00Z,Alcobaça,Leiria,Centro,-8.889481,39.564013,Despacho
