id,address,subregion,neighborhood,date,id.1,state,nature,nature_description,aerial_means,terrestrial_means,aquatic_means,operational,date.1,Concelho,Distrito,NUTII_DSG,longitude,latitude,state_2
26157385,"Algodres, Vale de Afonsinho e Vilar de Amargo",Beiras e Serra da Estrela,310,2025-10-18T20:18:00Z,26157385,Em Resolução/Conclusão,3103,Incêndio rural,0,1,0,5,2025-10-18T20:18:00Z,Figueira De Castelo Rodrigo,Guarda,Centro,-7.026137,40.954202,Resolução/Conclusão
26160929,Caranguejeira,Região de Leiria,310,2025-10-19T16:50:00Z,26160929,Em Resolução/Conclusão,3101,Incêndio rural,0,10,0,41,2025-10-19T16:50:00Z,Leiria,Leiria,Centro,-8.70299,39.72953,Resolução/Conclusão
26159689,Casegas e Ourondo,Beiras e Serra da Estrela,310,2025-10-19T11:45:00Z,26159689,Em Resolução/Conclusão,3105,Incêndio rural,0,2,0,5,2025-10-19T11:45:00Z,Covilhã,Castelo Branco,Centro,-7.68118,40.146567,Resolução/Conclusão
26160651,"Mação, Penhascoso e Aboboreira",Médio Tejo,311,2025-10-19T15:39:00Z,26160651,Em Resolução/Conclusão,3103,Incêndio rural,0,1,0,2,2025-10-19T15:39:00Z,Mação,Santarém,Centro,-8.051782,39.610225,Resolução/Conclusão
26160916,"S.pedro e Santiago, S.maria e S.miguel e Matacães",Oeste,311,2025-10-19T16:40:00Z,26160916,Em Resolução/Conclusão,3103,Incêndio rural,0,3,0,6,2025-10-19T16:40:00Z,Torres Vedras,Lisboa,Centro,-9.221366,39.05699,Resolução/Conclusão
26161201,"Seixal, Arrentela e Aldeia de Paio Pires",Península de Setúbal,311,2025-10-19T18:06:00Z,26161201,Em Resolução/Conclusão,3103,Incêndio rural,0,2,0,9,2025-10-19T18:06:00Z,Seixal,Setúbal,Área Metropolitana De Lisboa,-9.09676,38.59135,Resolução/Conclusão
