id,address,subregion,neighborhood,date,id.1,state,nature,nature_description,aerial_means,terrestrial_means,aquatic_means,operational,date.1,Concelho,Distrito,NUTII_DSG,longitude,latitude
25589607,Fratel,Beira Baixa,310,2025-06-27T18:23:00Z,25589607,Em conclusão,3103,Incêndio rural,0,5,0,16,2025-06-27T18:23:00Z,Vila Velha De Ródão,Castelo Branco,Centro,-7.717527,39.624502
25590157,Croca,Tâmega e Sousa,309,2025-06-27T20:57:00Z,25590157,Em conclusão,2115,Incêndio em edifícios hoteleiros e de restauração,0,4,0,10,2025-06-27T20:57:00Z,Penafiel,Porto,Norte,-8.25165,41.220047
25590173,"Abrunheira, Verride e Vila Nova da Barca",Região de Coimbra,310,2025-06-27T21:00:00Z,25590173,Em conclusão,2301,Incêndio em transporte rodoviário,0,12,0,43,2025-06-27T21:00:00Z,Montemor-o-Velho,Coimbra,Centro,-8.744938,40.128483
25590200,Aveleda,Tâmega e Sousa,309,2025-06-27T20:55:00Z,25590200,Em conclusão,2101,Incêndio em edifícios habitacionais,0,1,0,2,2025-06-27T20:55:00Z,Lousada,Porto,Norte,-8.255563,41.285202
25590566,Caldas de São Jorge e Pigeiros,Area M. Porto,309,2025-06-27T22:20:00Z,25590566,Em despacho,3103,Incêndio rural,0,2,0,7,2025-06-27T22:20:00Z,Santa Maria Da Feira,Aveiro,Norte,-8.496356,40.954077
25589193,Ribeira do Neiva,Cávado,309,2025-06-27T17:18:00Z,25589193,Em conclusão,3103,Incêndio rural,0,2,0,10,2025-06-27T17:18:00Z,Vila Verde,Braga,Norte,-8.467598,41.72493
25590144,Salvaterra de Magos e Foros de Salvaterra,Lezíria do Tejo,311,2025-06-27T20:54:00Z,25590144,Em conclusão,2101,Incêndio em edifícios habitacionais,0,1,0,2,2025-06-27T20:54:00Z,Salvaterra De Magos,Santarém,Alentejo,-8.76338,39.00186
25590580,Romariz,Area M. Porto,309,2025-06-27T22:34:00Z,25590580,Em despacho,3103,Incêndio rural,0,4,0,14,2025-06-27T22:34:00Z,Santa Maria Da Feira,Aveiro,Norte,-8.450997,40.95515
25590612,Atouguia da Baleia,Oeste,311,2025-06-27T22:34:00Z,25590612,Em despacho,2127,"Incêndio em edifícios e recintos industriais, oficinas e armazéns",0,4,0,11,2025-06-27T22:34:00Z,Peniche,Leiria,Centro,-9.317393,39.325858
25588493,Ribeirão,Ave,309,2025-06-27T14:58:00Z,25588493,Em conclusão,3103,Incêndio rural,0,1,0,5,2025-06-27T14:58:00Z,Vila Nova De Famalicão,Braga,Norte,-8.558043,41.368877
25589254,Monforte,Alto Alentejo,312,2025-06-27T17:30:00Z,25589254,Em conclusão,3103,Incêndio rural,0,5,0,17,2025-06-27T17:30:00Z,Monforte,Portalegre,Alentejo,-7.370965,39.01471
25589411,Vila Velha de Ródão,Beira Baixa,310,2025-06-27T18:03:00Z,25589411,Em conclusão,3103,Incêndio rural,0,8,0,25,2025-06-27T18:03:00Z,Vila Velha De Ródão,Castelo Branco,Centro,-7.707447,39.634637
25589915,São Cristóvão,Alentejo Central,312,2025-06-27T19:57:00Z,25589915,Em conclusão,3105,Incêndio rural,0,14,0,48,2025-06-27T19:57:00Z,Montemor-o-Novo,Évora,Alentejo,-8.316474,38.489023
25590322,Moncarapacho e Fuseta,Algarve,313,2025-06-27T21:32:00Z,25590322,Em curso,3111,Queima,0,3,0,6,2025-06-27T21:32:00Z,Olhão,Faro,Algarve,-7.79091,37.05677
25589115,"St.tirso, Couto (S.cristina e S.miguel) e Burgães",Area M. Porto,309,2025-06-27T17:04:00Z,25589115,Em conclusão,3103,Incêndio rural,0,4,0,14,2025-06-27T17:04:00Z,Santo Tirso,Porto,Norte,-8.49937,41.35176
25590235,Felgar e Souto da Velha,Douro,309,2025-06-27T21:08:00Z,25590235,Em resolução,2201,Incêndio em equipamentos ou produtos,0,3,0,9,2025-06-27T21:08:00Z,Torre De Moncorvo,Bragança,Norte,-6.97107,41.184328
25590437,São Gens,Ave,309,2025-06-27T21:57:00Z,25590437,Em curso,3103,Incêndio rural,0,3,0,15,2025-06-27T21:57:00Z,Fafe,Braga,Norte,-8.111402,41.447595
25590636,Vila Nova de Famalicão e Calendário,Ave,309,2025-06-27T22:35:00Z,25590636,Em despacho,2129,Incêndio em edifícios degradados ou devolutos,0,2,0,7,2025-06-27T22:35:00Z,Vila Nova De Famalicão,Braga,Norte,-8.530915,41.39878
25590406,Santo António Dos Cavaleiros e Frielas,Grande Lisboa,311,2025-06-27T21:51:00Z,25590406,Em conclusão,2101,Incêndio em edifícios habitacionais,0,1,0,5,2025-06-27T21:51:00Z,Loures,Lisboa,Área Metropolitana De Lisboa,-9.17915,38.8096
25590642,São João de Ver,Area M. Porto,309,2025-06-27T22:40:00Z,25590642,Em despacho,3103,Incêndio rural,0,1,0,5,2025-06-27T22:40:00Z,Santa Maria Da Feira,Aveiro,Norte,-8.549167,40.95385
