id,address,subregion,neighborhood,date,id.1,state,nature,nature_description,aerial_means,terrestrial_means,aquatic_means,operational,date.1,Concelho,Distrito,NUTII_DSG,longitude,latitude
25268961,Amora,Península de Setúbal,311,2025-04-21T19:28:00Z,25268961,Em conclusão,3321,Dano na rede de fornecimento de eletricidade ,0,1,0,3,2025-04-21T19:28:00Z,Seixal,Setúbal,Área Metropolitana De Lisboa,-9.125227,38.624582
25071496,São Manços e São Vicente do Pigeiro,Alentejo Central,312,2025-03-11T13:18:00Z,25071496,Em conclusão,1101,Cheia,0,0,0,0,2025-03-11T13:18:00Z,Évora,Évora,Alentejo,-7.713313,38.513673
25202441,Serpa (Salvador e Santa Maria),Baixo Alentejo,312,2025-04-06T10:25:00Z,25202441,Em conclusão,1101,Cheia,0,0,0,0,2025-04-06T10:25:00Z,Serpa,Beja,Alentejo,-7.555783,37.88592
25268756,Odivelas,Grande Lisboa,311,2025-04-21T18:36:00Z,25268756,Em curso,3321,Dano na rede de fornecimento de eletricidade ,0,1,0,4,2025-04-21T18:36:00Z,Odivelas,Lisboa,Área Metropolitana De Lisboa,-9.182813,38.793425
25269004,Malveira e São Miguel de Alcainça,Grande Lisboa,311,2025-04-21T19:37:00Z,25269004,Em despacho,3321,Dano na rede de fornecimento de eletricidade ,0,1,0,5,2025-04-21T19:37:00Z,Mafra,Lisboa,Área Metropolitana De Lisboa,-9.249398,38.929722
