id,address,subregion,neighborhood,date,id.1,state,nature,nature_description,aerial_means,terrestrial_means,aquatic_means,operational,date.1,Concelho,Distrito,NUTII_DSG,longitude,latitude
24890427,Donai,Terras de Trás-os-Montes,309,2025-01-30T06:27:00Z,24890427,Em despacho,3301,Queda de árvore,0,2,0,4,2025-01-30T06:27:00Z,Bragança,Bragança,Norte,-6.793388,41.828848
24890911,Mondim de Basto,Ave,309,2025-01-30T09:00:00Z,24890911,Em despacho,3313,Deslizamento de terras,0,2,0,3,2025-01-30T09:00:00Z,Mondim De Basto,Vila Real,Norte,-7.939411,41.401613
24891614,Olhão,Algarve,313,2025-01-30T10:00:00Z,24891614,Em despacho,3301,Queda de árvore,0,0,0,0,2025-01-30T10:00:00Z,Olhão,Faro,Algarve,-7.843133,37.022054
24892298,Amor,Região de Leiria,310,2025-01-30T13:10:00Z,24892298,Em despacho,3321,Dano na rede de fornecimento de eletricidade ,0,1,0,2,2025-01-30T13:10:00Z,Leiria,Leiria,Centro,-8.84787,39.78274
24892564,Tavira (Santa Maria e Santiago),Algarve,313,2025-01-30T14:00:00Z,24892564,Em despacho,3301,Queda de árvore,0,3,0,5,2025-01-30T14:00:00Z,Tavira,Faro,Algarve,-7.64691,37.130442
24892684,Aljezur,Algarve,313,2025-01-30T14:29:00Z,24892684,Em despacho,3321,Dano na rede de fornecimento de eletricidade ,0,1,0,3,2025-01-30T14:29:00Z,Aljezur,Faro,Algarve,-8.85088,37.31256
24891951,"Sé Nova, Santa Cruz, Almedina e São Bartolomeu",Região de Coimbra,310,2025-01-30T11:52:00Z,24891951,Em curso,3311,Queda de elementos de estruturas edificados,0,1,0,1,2025-01-30T11:52:00Z,Coimbra,Coimbra,Centro,-8.425582,40.205556
24892521,Antas e Ourozinho,Douro,309,2025-01-30T13:48:00Z,24892521,Em despacho,3301,Queda de árvore,0,3,0,6,2025-01-30T13:48:00Z,Penedono,Viseu,Norte,-7.387337,40.945555
24892555,Corroios,Península de Setúbal,311,2025-01-30T13:57:00Z,24892555,Em despacho,3301,Queda de árvore,0,1,0,3,2025-01-30T13:57:00Z,Seixal,Setúbal,Área Metropolitana De Lisboa,-9.143762,38.636133
24892580,Setúbal (São Sebastião),Península de Setúbal,311,2025-01-30T14:06:00Z,24892580,Em despacho,3301,Queda de árvore,0,1,0,5,2025-01-30T14:06:00Z,Setúbal,Setúbal,Área Metropolitana De Lisboa,-8.862337,38.527365
24877003,Malagueira e Horta Das Figueiras,Alentejo Central,312,2025-01-27T11:41:00Z,24877003,Em conclusão,3315,Inundação de estruturas por precipitação intensa,0,0,0,0,2025-01-27T11:41:00Z,Évora,Évora,Alentejo,-7.924277,38.57285
24890489,Vila Real de Santo António,Algarve,313,2025-01-30T07:00:00Z,24890489,Em conclusão,3301,Queda de árvore,0,2,0,4,2025-01-30T07:00:00Z,Vila Real De Santo António,Faro,Algarve,-7.426935,37.187906
24891348,Faro (Sé e São Pedro),Algarve,313,2025-01-30T10:17:00Z,24891348,Em curso,3301,Queda de árvore,0,2,0,7,2025-01-30T10:17:00Z,Faro,Faro,Algarve,-7.907983,37.02212
24851780,"São Miguel, Santa Eufémia e Rabaçal",Região de Coimbra,310,2025-01-21T23:25:00Z,24851780,Em curso,3315,Inundação de estruturas por precipitação intensa,0,0,0,0,2025-01-21T23:25:00Z,Penela,Coimbra,Centro,-8.399036,40.025502
24892090,Santa Bárbara de Nexe,Algarve,313,2025-01-30T11:55:00Z,24892090,Em despacho,3301,Queda de árvore,0,1,0,4,2025-01-30T11:55:00Z,Faro,Faro,Algarve,-7.974444,37.103397
24892442,Faro (Sé e São Pedro),Algarve,313,2025-01-30T13:00:00Z,24892442,Em despacho,3329,Queda de estruturas temporárias ou móveis,0,1,0,4,2025-01-30T13:00:00Z,Faro,Faro,Algarve,-7.908261,37.006372
24892572,"Leiria, Pousos, Barreira e Cortes",Região de Leiria,310,2025-01-30T13:57:00Z,24892572,Em despacho,3301,Queda de árvore,0,1,0,2,2025-01-30T13:57:00Z,Leiria,Leiria,Centro,-8.795452,39.709593
24892607,"Nogueira, Fraião e Lamaçães",Cávado,309,2025-01-30T13:41:00Z,24892607,Em despacho,3317,Inundação de estruturas por água canalizada,0,1,0,3,2025-01-30T13:41:00Z,Braga,Braga,Norte,-8.399912,41.531469
24892588,Vila Boa de Quires e Maureles,Tâmega e Sousa,309,2025-01-30T14:05:00Z,24892588,Em despacho,3301,Queda de árvore,0,1,0,3,2025-01-30T14:05:00Z,Marco De Canaveses,Porto,Norte,-8.204123,41.19461
24892602,Costa da Caparica,Península de Setúbal,311,2025-01-30T14:08:00Z,24892602,Em despacho,3329,Queda de estruturas temporárias ou móveis,0,1,0,6,2025-01-30T14:08:00Z,Almada,Setúbal,Área Metropolitana De Lisboa,-9.227696,38.642583
24892697,"Camarate, Unhos e Apelação",Grande Lisboa,311,2025-01-30T14:25:00Z,24892697,Em despacho,3301,Queda de árvore,0,1,0,4,2025-01-30T14:25:00Z,Loures,Lisboa,Área Metropolitana De Lisboa,-9.123232,38.812862
24892713,Dois Portos e Runa,Oeste,311,2025-01-30T14:20:00Z,24892713,Em despacho,3301,Queda de árvore,0,1,0,4,2025-01-30T14:20:00Z,Torres Vedras,Lisboa,Centro,-9.178735,39.064587
24892608,Bombarral e Vale Covo,Oeste,311,2025-01-30T13:48:00Z,24892608,Em despacho,3301,Queda de árvore,0,1,0,2,2025-01-30T13:48:00Z,Bombarral,Leiria,Centro,-9.16385,39.232252
24892658,Cernache,Região de Coimbra,310,2025-01-30T14:17:00Z,24892658,Em despacho,3301,Queda de árvore,0,1,0,2,2025-01-30T14:17:00Z,Coimbra,Coimbra,Centro,-8.473408,40.139683
