id,address,subregion,neighborhood,date,id.1,state,nature,nature_description,aerial_means,terrestrial_means,aquatic_means,operational,date.1,Concelho,Distrito,NUTII_DSG,longitude,latitude
24872759,"Alhandra, São João Dos Montes e Calhandriz",Grande Lisboa,311,2025-01-26T14:47:00Z,24872759,Em curso,3321,Dano na rede de fornecimento de eletricidade ,0,3,0,8,2025-01-26T14:47:00Z,Vila Franca De Xira,Lisboa,Área Metropolitana De Lisboa,-9.029303,38.94243
24872773,Ílhavo (São Salvador),Região de Aveiro,310,2025-01-26T14:55:00Z,24872773,Em despacho,3321,Dano na rede de fornecimento de eletricidade ,0,0,0,0,2025-01-26T14:55:00Z,Ílhavo,Aveiro,Centro,-8.699143,40.613385
24872809,Campeã,Douro,309,2025-01-26T15:05:00Z,24872809,Em despacho,3301,Queda de árvore,0,0,0,0,2025-01-26T15:05:00Z,Vila Real,Vila Real,Norte,-7.884838,41.28225
24872560,"Oeiras e S. Julião da Barra, Paço de Arcos e Caxias",Grande Lisboa,311,2025-01-26T14:00:00Z,24872560,Em despacho,3317,Inundação de estruturas por água canalizada,0,1,0,4,2025-01-26T14:00:00Z,Oeiras,Lisboa,Área Metropolitana De Lisboa,-9.310159,38.698531
24872693,"Mangualde, Mesquitela e Cunha Alta",Viseu Dão Lafões,310,2025-01-26T14:39:00Z,24872693,Em despacho,3315,Inundação de estruturas por precipitação intensa,0,1,0,3,2025-01-26T14:39:00Z,Mangualde,Viseu,Centro,-7.764584,40.587178
24872729,Soure,Região de Coimbra,310,2025-01-26T14:35:00Z,24872729,Em curso,3301,Queda de árvore,0,0,0,0,2025-01-26T14:35:00Z,Soure,Coimbra,Centro,-8.57271,40.071803
24872746,Ruivães e Campos,Ave,309,2025-01-26T14:49:00Z,24872746,Em despacho,3313,Deslizamento de terras,0,3,0,6,2025-01-26T14:49:00Z,Vieira Do Minho,Braga,Norte,-8.032822,41.664634
24872778,"Santa Maria da Feira, Travanca, Sanfins e Espargo",Area M. Porto,309,2025-01-26T14:49:00Z,24872778,Em despacho,3301,Queda de árvore,0,2,0,3,2025-01-26T14:49:00Z,Santa Maria Da Feira,Aveiro,Norte,-8.555837,40.9255
24872779,Vandoma,Area M. Porto,309,2025-01-26T15:05:00Z,24872779,Em despacho,3321,Dano na rede de fornecimento de eletricidade ,0,1,0,5,2025-01-26T15:05:00Z,Paredes,Porto,Norte,-8.39836,41.18917
24851780,"São Miguel, Santa Eufémia e Rabaçal",Região de Coimbra,310,2025-01-21T23:25:00Z,24851780,Em curso,3315,Inundação de estruturas por precipitação intensa,0,0,0,0,2025-01-21T23:25:00Z,Penela,Coimbra,Centro,-8.399036,40.025502
24872671,Ramada e Caneças,Grande Lisboa,311,2025-01-26T14:26:00Z,24872671,Em curso,3313,Deslizamento de terras,0,1,0,3,2025-01-26T14:26:00Z,Odivelas,Lisboa,Área Metropolitana De Lisboa,-9.225171,38.812571
24872701,Santo António Dos Olivais,Região de Coimbra,310,2025-01-26T14:36:00Z,24872701,Em despacho,3329,Queda de estruturas temporárias ou móveis,0,1,0,3,2025-01-26T14:36:00Z,Coimbra,Coimbra,Centro,-8.426807,40.217261
24872704,Bárrio e Cepões,Alto Minho,309,2025-01-26T14:43:00Z,24872704,Em despacho,3301,Queda de árvore,0,1,0,2,2025-01-26T14:43:00Z,Ponte De Lima,Viana Do Castelo,Norte,-8.574836,41.832336
24872804,"Sé, Santa Maria e Meixedo",Terras de Trás-os-Montes,309,2025-01-26T14:55:00Z,24872804,Em despacho,3311,Queda de elementos de estruturas edificados,0,1,0,2,2025-01-26T14:55:00Z,Bragança,Bragança,Norte,-6.761223,41.813164
24872749,Vila Verde,Região de Coimbra,310,2025-01-26T14:40:00Z,24872749,Em despacho,3329,Queda de estruturas temporárias ou móveis,0,1,0,3,2025-01-26T14:40:00Z,Figueira Da Foz,Coimbra,Centro,-8.800856,40.146359
24872774,Fânzeres e São Pedro da Cova,Area M. Porto,309,2025-01-26T14:47:00Z,24872774,Em despacho,3329,Queda de estruturas temporárias ou móveis,0,1,0,2,2025-01-26T14:47:00Z,Gondomar,Porto,Norte,-8.511531,41.155311
24872792,Cortegaça,Região de Aveiro,310,2025-01-26T14:57:00Z,24872792,Em conclusão,3301,Queda de árvore,0,2,0,8,2025-01-26T14:57:00Z,Ovar,Aveiro,Centro,-8.634253,40.941462
24872876,Ílhavo (São Salvador),Região de Aveiro,310,2025-01-26T15:16:00Z,24872876,Em despacho,3311,Queda de elementos de estruturas edificados,0,1,0,1,2025-01-26T15:16:00Z,Ílhavo,Aveiro,Centro,-8.662178,40.571236
24872908,Canelas,Area M. Porto,309,2025-01-26T15:22:00Z,24872908,Em despacho,3301,Queda de árvore,0,1,0,3,2025-01-26T15:22:00Z,Vila Nova De Gaia,Porto,Norte,-8.600638,41.079331
24872810,"Nogueira, Meixedo e Vilar de Murteda",Alto Minho,309,2025-01-26T14:55:00Z,24872810,Em curso,3301,Queda de árvore,0,1,0,2,2025-01-26T14:55:00Z,Viana Do Castelo,Viana Do Castelo,Norte,-8.725476,41.756916
24872863,Valado Dos Frades,Oeste,311,2025-01-26T15:10:00Z,24872863,Em despacho,3301,Queda de árvore,0,2,0,4,2025-01-26T15:10:00Z,Nazaré,Leiria,Centro,-8.996794,39.584879
24872878,Nazaré,Oeste,311,2025-01-26T15:10:00Z,24872878,Em curso,3329,Queda de estruturas temporárias ou móveis,0,2,0,4,2025-01-26T15:10:00Z,Nazaré,Leiria,Centro,-9.062127,39.596083
24872913,Barco,Ave,309,2025-01-26T15:20:00Z,24872913,Em despacho,3301,Queda de árvore,0,1,0,2,2025-01-26T15:20:00Z,Guimarães,Braga,Norte,-8.330056,41.500328
24872836,Cerdal,Alto Minho,309,2025-01-26T15:05:00Z,24872836,Em despacho,3301,Queda de árvore,0,2,0,4,2025-01-26T15:05:00Z,Valença,Viana Do Castelo,Norte,-8.610077,41.973993
24872838,Apúlia e Fão,Cávado,309,2025-01-26T15:00:00Z,24872838,Em despacho,3301,Queda de árvore,0,1,0,2,2025-01-26T15:00:00Z,Esposende,Braga,Norte,-8.76808,41.49454
24872902,Abade de Neiva,Cávado,309,2025-01-26T15:25:00Z,24872902,Em despacho,3301,Queda de árvore,0,0,0,0,2025-01-26T15:25:00Z,Barcelos,Braga,Norte,-8.65198,41.54725
24872904,Oliveira (Santa Maria),Ave,309,2025-01-26T15:20:00Z,24872904,Em despacho,3321,Dano na rede de fornecimento de eletricidade ,0,1,0,2,2025-01-26T15:20:00Z,Vila Nova De Famalicão,Braga,Norte,-8.402107,41.406152
