id,address,subregion,neighborhood,date,id.1,state,nature,nature_description,aerial_means,terrestrial_means,aquatic_means,operational,date.1,Concelho,Distrito,NUTII_DSG,longitude,latitude,state_2
26234645,Pavia,Alentejo Central,312,2025-11-04T12:25:00Z,26234645,Em Resolução/Conclusão,3105,Incêndio rural,0,2,0,7,2025-11-04T12:25:00Z,Mora,Évora,Alentejo,-7.962658,38.879832,Resolução/Conclusão
26234388,"Mogadouro, Valverde, Vale de Porco e Vilar de Rei",Terras de Trás-os-Montes,309,2025-11-04T11:20:00Z,26234388,Em Resolução/Conclusão,3103,Incêndio rural,0,4,0,8,2025-11-04T11:20:00Z,Mogadouro,Bragança,Norte,-6.80943,41.304492,Resolução/Conclusão
26234933,Gavião e Atalaia,Alto Alentejo,312,2025-11-04T13:24:00Z,26234933,Em Resolução/Conclusão,3111,Queima,0,4,0,14,2025-11-04T13:24:00Z,Gavião,Portalegre,Alentejo,-7.892987,39.453757,Resolução/Conclusão
26234568,Ourique,Baixo Alentejo,312,2025-11-04T12:11:00Z,26234568,Em Resolução/Conclusão,3105,Incêndio rural,0,2,0,4,2025-11-04T12:11:00Z,Ourique,Beja,Alentejo,-8.215227,37.641455,Resolução/Conclusão
26234164,Serpa (Salvador e Santa Maria),Baixo Alentejo,312,2025-11-04T10:54:00Z,26234164,Em Resolução/Conclusão,3105,Incêndio rural,0,4,0,10,2025-11-04T10:54:00Z,Serpa,Beja,Alentejo,-7.574085,37.93265,Resolução/Conclusão
26234973,Porto Covo,Alentejo Litoral,312,2025-11-04T13:36:00Z,26234973,Em Despacho,3103,Incêndio rural,0,0,0,0,2025-11-04T13:36:00Z,Sines,Setúbal,Alentejo,-8.784976,37.8559,Despacho
