id,address,subregion,neighborhood,date,id.1,state,nature,nature_description,aerial_means,terrestrial_means,aquatic_means,operational,date.1,Concelho,Distrito,NUTII_DSG,longitude,latitude,state_2
26093602,Castro Daire,Viseu Dão Lafões,310,2025-10-05T22:05:00Z,26093602,Em Resolução/Conclusão,3103,Incêndio rural,0,16,0,55,2025-10-05T22:05:00Z,Castro Daire,Viseu,Centro,-7.927072,40.927072,Resolução/Conclusão
26094440,Rio de Moinhos,Tâmega e Sousa,309,2025-10-06T07:03:00Z,26094440,Em Curso,3101,Incêndio rural,0,4,0,13,2025-10-06T07:03:00Z,Penafiel,Porto,Norte,-8.265447,41.119273,Curso
26095321,Nossa Senhora da Expectação,Alto Alentejo,312,2025-10-06T10:06:00Z,26095321,Em Despacho,3105,Incêndio rural,0,2,0,7,2025-10-06T10:06:00Z,Campo Maior,Portalegre,Alentejo,-6.978389,39.022147,Despacho
26094798,Nogueira do Cravo e Pindelo,Area M. Porto,309,2025-10-06T08:43:00Z,26094798,Em Resolução/Conclusão,3103,Incêndio rural,0,3,0,15,2025-10-06T08:43:00Z,Oliveira De Azeméis,Aveiro,Norte,-8.442878,40.857777,Resolução/Conclusão
26093023,Castro Daire,Viseu Dão Lafões,310,2025-10-05T19:06:00Z,26093023,Em Resolução/Conclusão,3103,Incêndio rural,0,0,0,0,2025-10-05T19:06:00Z,Castro Daire,Viseu,Centro,-7.9408,40.925289,Resolução/Conclusão
26093991,Santa Comba,Beiras e Serra da Estrela,310,2025-10-06T01:09:00Z,26093991,Em Resolução/Conclusão,3103,Incêndio rural,0,6,0,15,2025-10-06T01:09:00Z,Seia,Guarda,Centro,-7.745905,40.442718,Resolução/Conclusão
26094776,Meixedo e Padornelos,Alto Tâmega e Barroso,309,2025-10-06T08:40:00Z,26094776,Em Resolução/Conclusão,3103,Incêndio rural,0,3,0,11,2025-10-06T08:40:00Z,Montalegre,Vila Real,Norte,-7.750963,41.864478,Resolução/Conclusão
