id,address,subregion,neighborhood,date,id.1,state,nature,nature_description,aerial_means,terrestrial_means,aquatic_means,operational,date.1,Concelho,Distrito,NUTII_DSG,longitude,latitude
24789257,Labruja,Alto Minho,309,2025-01-08T06:47:00Z,24789257,Em conclusão,3301,Queda de árvore,0,2,0,7,2025-01-08T06:47:00Z,Ponte De Lima,Viana Do Castelo,Norte,-8.606853,41.828505
24789306,Bonfim,Area M. Porto,309,2025-01-08T06:29:00Z,24789306,Em despacho,3301,Queda de árvore,0,1,0,5,2025-01-08T06:29:00Z,Porto,Porto,Norte,-8.596119,41.151713
24789339,Mafamude e Vilar do Paraíso,Area M. Porto,309,2025-01-08T07:32:00Z,24789339,Em despacho,3311,Queda de elementos de estruturas edificados,0,1,0,3,2025-01-08T07:32:00Z,Vila Nova De Gaia,Porto,Norte,-8.611105,41.107184
24777071,Pedrógão Grande,Região de Leiria,310,2025-01-05T13:18:00Z,24777071,Em conclusão,3309,Desabamento de estruturas edificadas,0,1,0,1,2025-01-05T13:18:00Z,Pedrógão Grande,Leiria,Centro,-8.177567,39.933038
24789337,Vilar e Mosteiró,Area M. Porto,309,2025-01-08T07:38:00Z,24789337,Em despacho,3329,Queda de estruturas temporárias ou móveis,0,0,0,0,2025-01-08T07:38:00Z,Vila Do Conde,Porto,Norte,-8.670878,41.27924
