id,address,subregion,neighborhood,date,id.1,state,nature,nature_description,aerial_means,terrestrial_means,aquatic_means,operational,date.1,Concelho,Distrito,NUTII_DSG,longitude,latitude,state_2
26226069,Vila Nova de São Bento e Vale de Vargo,Baixo Alentejo,312,2025-11-02T14:28:00Z,26226069,Em Resolução/Conclusão,3103,Incêndio rural,0,3,0,5,2025-11-02T14:28:00Z,Serpa,Beja,Alentejo,-7.379525,37.845442,Resolução/Conclusão
26226937,Quelfes,Algarve,313,2025-11-02T18:02:00Z,26226937,Em Resolução/Conclusão,3103,Incêndio rural,0,2,0,6,2025-11-02T18:02:00Z,Olhão,Faro,Algarve,-7.820507,37.058941,Resolução/Conclusão
26226941,Malagueira e Horta Das Figueiras,Alentejo Central,312,2025-11-02T18:04:00Z,26226941,Em Despacho,3103,Incêndio rural,0,2,0,7,2025-11-02T18:04:00Z,Évora,Évora,Alentejo,-7.940293,38.578195,Despacho
26226451,Lagoa e Carvoeiro,Algarve,313,2025-11-02T15:56:00Z,26226451,Em Resolução/Conclusão,3103,Incêndio rural,0,4,0,10,2025-11-02T15:56:00Z,Lagoa,Faro,Algarve,-8.449309,37.134614,Resolução/Conclusão
26226810,Aveleda e Rio de Onor,Terras de Trás-os-Montes,309,2025-11-02T17:26:00Z,26226810,Em Despacho,3103,Incêndio rural,0,2,0,6,2025-11-02T17:26:00Z,Bragança,Bragança,Norte,-6.56759,41.90348,Despacho
