id,address,subregion,neighborhood,date,id.1,state,nature,nature_description,aerial_means,terrestrial_means,aquatic_means,operational,date.1,Concelho,Distrito,NUTII_DSG,longitude,latitude,state_2
25775263,Torgueda,Douro,309,2025-08-02T19:49:00Z,25775263,Em Resolução/Conclusão,3101,Incêndio rural,0,7,0,23,2025-08-02T19:49:00Z,Vila Real,Vila Real,Norte,-7.785983,41.274952,Resolução/Conclusão
25807426,Alvite,Douro,309,2025-08-08T14:31:00Z,25807426,Em Resolução/Conclusão,3103,Incêndio rural,0,28,0,105,2025-08-08T14:31:00Z,Moimenta Da Beira,Viseu,Norte,-7.688727,40.96613,Resolução/Conclusão
25812717,"Mangualde, Mesquitela e Cunha Alta",Viseu Dão Lafões,310,2025-08-09T12:50:00Z,25812717,Em Resolução/Conclusão,3103,Incêndio rural,0,1,0,3,2025-08-09T12:50:00Z,Mangualde,Viseu,Centro,-7.778468,40.59536,Resolução/Conclusão
25817277,Lorvão,Região de Coimbra,310,2025-08-10T11:09:00Z,25817277,Em Resolução/Conclusão,3101,Incêndio rural,0,1,0,5,2025-08-10T11:09:00Z,Penacova,Coimbra,Centro,-8.31417,40.23889,Resolução/Conclusão
25817913,Valpedre,Tâmega e Sousa,309,2025-08-10T13:18:00Z,25817913,Em Resolução/Conclusão,3103,Incêndio rural,0,4,0,10,2025-08-10T13:18:00Z,Penafiel,Porto,Norte,-8.311582,41.144047,Resolução/Conclusão
25823188,Fornos,Tâmega e Sousa,309,2025-08-11T12:07:00Z,25823188,Em Resolução/Conclusão,3105,Incêndio rural,0,1,0,5,2025-08-11T12:07:00Z,Castelo De Paiva,Aveiro,Norte,-8.247402,41.051843,Resolução/Conclusão
25824172,Vila Boa de Quires e Maureles,Tâmega e Sousa,309,2025-08-11T15:04:00Z,25824172,Em Resolução/Conclusão,3103,Incêndio rural,0,1,0,5,2025-08-11T15:04:00Z,Marco De Canaveses,Porto,Norte,-8.209745,41.18909,Resolução/Conclusão
25825251,NA,NA,0,2025-08-11T18:18:00Z,25825251,Em Curso,3103,Incêndio rural,0,5,0,14,2025-08-11T18:18:00Z,NA,NA,NA,-6.11194,41.74139,Curso
25826178,"Requeixo, Nossa Senhora de Fátima e Nariz",Região de Aveiro,310,2025-08-11T21:41:00Z,25826178,Em Resolução/Conclusão,3101,Incêndio rural,0,1,0,1,2025-08-11T21:41:00Z,Aveiro,Aveiro,Centro,-8.603868,40.578083,Resolução/Conclusão
25826305,Abrantes (São Vicente e São João) e Alferrarede,Médio Tejo,311,2025-08-11T22:10:00Z,25826305,Em Resolução/Conclusão,3103,Incêndio rural,0,11,0,40,2025-08-11T22:10:00Z,Abrantes,Santarém,Centro,-8.18763,39.476415,Resolução/Conclusão
25785983,Caçarilhe e Infesta,Tâmega e Sousa,309,2025-08-04T18:22:00Z,25785983,Em Resolução/Conclusão,3103,Incêndio rural,0,5,0,15,2025-08-04T18:22:00Z,Celorico De Basto,Braga,Norte,-8.04611,41.419858,Resolução/Conclusão
25792058,Cibões e Brufe,Cávado,309,2025-08-05T19:10:00Z,25792058,Em Resolução/Conclusão,3103,Incêndio rural,0,1,0,5,2025-08-05T19:10:00Z,Terras De Bouro,Braga,Norte,-8.293932,41.764918,Resolução/Conclusão
25819818,Sobrado e Bairros,Tâmega e Sousa,309,2025-08-10T20:13:00Z,25819818,Em Resolução/Conclusão,3103,Incêndio rural,0,1,0,5,2025-08-10T20:13:00Z,Castelo De Paiva,Aveiro,Norte,-8.252268,41.018942,Resolução/Conclusão
25820422,Távora e Pereiro,Douro,309,2025-08-10T22:27:00Z,25820422,Em Curso,3103,Incêndio rural,0,86,0,265,2025-08-10T22:27:00Z,Tabuaço,Viseu,Norte,-7.55556,41.097602,Curso
25822776,Santos Evos,Viseu Dão Lafões,310,2025-08-11T11:05:00Z,25822776,Em Resolução/Conclusão,3103,Incêndio rural,0,0,0,0,2025-08-11T11:05:00Z,Viseu,Viseu,Centro,-7.810218,40.667813,Resolução/Conclusão
25822851,Salto,Alto Tâmega e Barroso,309,2025-08-11T11:14:00Z,25822851,Em Resolução/Conclusão,3101,Incêndio rural,0,2,0,6,2025-08-11T11:14:00Z,Montalegre,Vila Real,Norte,-7.976273,41.659475,Resolução/Conclusão
25824032,Ferreira do Alentejo e Canhestros,Baixo Alentejo,312,2025-08-11T14:34:00Z,25824032,Em Resolução/Conclusão,3101,Incêndio rural,0,1,0,5,2025-08-11T14:34:00Z,Ferreira Do Alentejo,Beja,Alentejo,-8.344453,38.025437,Resolução/Conclusão
25824216,Portela e Extremo,Alto Minho,309,2025-08-11T15:08:00Z,25824216,Em Resolução/Conclusão,3101,Incêndio rural,0,12,0,36,2025-08-11T15:08:00Z,Arcos De Valdevez,Viana Do Castelo,Norte,-8.448272,41.954047,Resolução/Conclusão
25825218,Panoias e Conceição,Baixo Alentejo,312,2025-08-11T18:07:00Z,25825218,Em Resolução/Conclusão,3103,Incêndio rural,0,1,0,2,2025-08-11T18:07:00Z,Ourique,Beja,Alentejo,-8.20824,37.767762,Resolução/Conclusão
25825359,Sousela,Tâmega e Sousa,309,2025-08-11T18:48:00Z,25825359,Em Resolução/Conclusão,3103,Incêndio rural,0,2,0,10,2025-08-11T18:48:00Z,Paços De Ferreira,Porto,Norte,-8.332593,41.297322,Resolução/Conclusão
25826389,Caparica e Trafaria,Península de Setúbal,311,2025-08-11T22:34:00Z,25826389,Em Resolução/Conclusão,3105,Incêndio rural,0,1,0,5,2025-08-11T22:34:00Z,Almada,Setúbal,Área Metropolitana De Lisboa,-9.225332,38.65187,Resolução/Conclusão
25825868,Vale de Anta,Alto Tâmega e Barroso,309,2025-08-11T20:31:00Z,25825868,Em Resolução/Conclusão,3101,Incêndio rural,0,1,0,4,2025-08-11T20:31:00Z,Chaves,Vila Real,Norte,-7.495368,41.745522,Resolução/Conclusão
25825927,Recezinhos (São Mamede),Tâmega e Sousa,309,2025-08-11T20:44:00Z,25825927,Em Resolução/Conclusão,3103,Incêndio rural,0,0,0,0,2025-08-11T20:44:00Z,Penafiel,Porto,Norte,-8.22499,41.241132,Resolução/Conclusão
25826227,Ribeira do Neiva,Cávado,309,2025-08-11T21:51:00Z,25826227,Em Resolução/Conclusão,3103,Incêndio rural,0,2,0,10,2025-08-11T21:51:00Z,Vila Verde,Braga,Norte,-8.510033,41.697842,Resolução/Conclusão
25826247,São Pedro de Veiga de Lila,Alto Tâmega e Barroso,309,2025-08-11T21:55:00Z,25826247,Em Curso,3103,Incêndio rural,0,7,0,28,2025-08-11T21:55:00Z,Valpaços,Vila Real,Norte,-7.353519,41.496382,Curso
25826279,Vila Fria e Vizela (São Jorge),Tâmega e Sousa,309,2025-08-11T22:12:00Z,25826279,Em Resolução/Conclusão,3105,Incêndio rural,0,4,0,14,2025-08-11T22:12:00Z,Felgueiras,Porto,Norte,-8.255043,41.379403,Resolução/Conclusão
25826311,Friande,Tâmega e Sousa,309,2025-08-11T21:53:00Z,25826311,Em Resolução/Conclusão,3103,Incêndio rural,0,2,0,7,2025-08-11T21:53:00Z,Felgueiras,Porto,Norte,-8.16574,41.365683,Resolução/Conclusão
25826329,Luzim e Vila Cova,Tâmega e Sousa,309,2025-08-11T21:45:00Z,25826329,Em Resolução/Conclusão,3103,Incêndio rural,0,2,0,7,2025-08-11T21:45:00Z,Penafiel,Porto,Norte,-8.249092,41.14095,Resolução/Conclusão
25826420,Gandra e Taião,Alto Minho,309,2025-08-11T22:42:00Z,25826420,Em Resolução/Conclusão,3103,Incêndio rural,0,3,0,9,2025-08-11T22:42:00Z,Valença,Viana Do Castelo,Norte,-8.627433,41.993402,Resolução/Conclusão
25773830,Andrães,Douro,309,2025-08-02T14:23:00Z,25773830,Em Resolução/Conclusão,3103,Incêndio rural,0,0,0,0,2025-08-02T14:23:00Z,Vila Real,Vila Real,Norte,-7.671293,41.267593,Resolução/Conclusão
25774883,Arnóia,Tâmega e Sousa,309,2025-08-02T18:20:00Z,25774883,Em Resolução/Conclusão,3103,Incêndio rural,0,1,0,1,2025-08-02T18:20:00Z,Celorico De Basto,Braga,Norte,-7.998983,41.348727,Resolução/Conclusão
25804968,Alvadia,Alto Tâmega e Barroso,309,2025-08-08T07:21:00Z,25804968,Em Resolução/Conclusão,3103,Incêndio rural,0,6,0,25,2025-08-08T07:21:00Z,Ribeira De Pena,Vila Real,Norte,-7.782872,41.457452,Resolução/Conclusão
25818455,Sobral de São Miguel,Beiras e Serra da Estrela,310,2025-08-10T15:02:00Z,25818455,Em Curso,3103,Incêndio rural,0,160,0,506,2025-08-10T15:02:00Z,Covilhã,Castelo Branco,Centro,-7.77307,40.200173,Curso
25826358,"Ardegão, Freixo e Mato",Alto Minho,309,2025-08-11T22:24:00Z,25826358,Em Resolução/Conclusão,3101,Incêndio rural,0,3,0,14,2025-08-11T22:24:00Z,Ponte De Lima,Viana Do Castelo,Norte,-8.60463,41.652503,Resolução/Conclusão
25826392,Laranjeiro e Feijó,Península de Setúbal,311,2025-08-11T22:35:00Z,25826392,Em Resolução/Conclusão,3103,Incêndio rural,0,3,0,15,2025-08-11T22:35:00Z,Almada,Setúbal,Área Metropolitana De Lisboa,-9.166943,38.658873,Resolução/Conclusão
25826473,Quarteira,Algarve,313,2025-08-11T23:01:00Z,25826473,Em Resolução/Conclusão,3103,Incêndio rural,0,4,0,16,2025-08-11T23:01:00Z,Loulé,Faro,Algarve,-8.11028,37.10002,Resolução/Conclusão
25826477,Vidigueira,Baixo Alentejo,312,2025-08-11T23:00:00Z,25826477,Em Resolução/Conclusão,3105,Incêndio rural,0,5,0,17,2025-08-11T23:00:00Z,Vidigueira,Beja,Alentejo,-7.78851,38.210022,Resolução/Conclusão
25826593,Vilar de Andorinho,Area M. Porto,309,2025-08-11T23:41:00Z,25826593,Em Despacho,3103,Incêndio rural,0,2,0,11,2025-08-11T23:41:00Z,Vila Nova De Gaia,Porto,Norte,-8.57928,41.10279,Despacho
25776263,"Pena, Quintã e Vila Cova",Douro,309,2025-08-02T23:45:00Z,25776263,Em Curso,3103,Incêndio rural,0,106,0,311,2025-08-02T23:45:00Z,Vila Real,Vila Real,Norte,-7.811902,41.317355,Curso
25813482,Freches e Torres,Beiras e Serra da Estrela,310,2025-08-09T16:21:00Z,25813482,Em Curso,3103,Incêndio rural,0,231,0,712,2025-08-09T16:21:00Z,Trancoso,Guarda,Centro,-7.363745,40.709022,Curso
25823074,Vila Boa de Quires e Maureles,Tâmega e Sousa,309,2025-08-11T11:45:00Z,25823074,Em Resolução/Conclusão,3103,Incêndio rural,0,1,0,4,2025-08-11T11:45:00Z,Marco De Canaveses,Porto,Norte,-8.201422,41.213995,Resolução/Conclusão
25824945,Povolide,Viseu Dão Lafões,310,2025-08-11T17:17:00Z,25824945,Em Resolução/Conclusão,3103,Incêndio rural,0,1,0,4,2025-08-11T17:17:00Z,Viseu,Viseu,Centro,-7.79583,40.660003,Resolução/Conclusão
25825764,Sobral da Serra,Beiras e Serra da Estrela,310,2025-08-11T20:09:00Z,25825764,Em Resolução/Conclusão,3103,Incêndio rural,0,3,0,10,2025-08-11T20:09:00Z,Guarda,Guarda,Centro,-7.30282,40.617658,Resolução/Conclusão
25826233,Marinha Das Ondas,Região de Coimbra,310,2025-08-11T21:50:00Z,25826233,Em Resolução/Conclusão,3105,Incêndio rural,0,2,0,8,2025-08-11T21:50:00Z,Figueira Da Foz,Coimbra,Centro,-8.826709,40.034534,Resolução/Conclusão
25826498,Baixa da Banheira e Vale da Amoreira,Península de Setúbal,311,2025-08-11T23:03:00Z,25826498,Em Resolução/Conclusão,3103,Incêndio rural,0,4,0,17,2025-08-11T23:03:00Z,Moita,Setúbal,Área Metropolitana De Lisboa,-9.043028,38.662183,Resolução/Conclusão
