id,address,subregion,neighborhood,date,id.1,state,nature,nature_description,aerial_means,terrestrial_means,aquatic_means,operational,date.1,Concelho,Distrito,NUTII_DSG,longitude,latitude,state_2
26050704,Tortosendo,Beiras e Serra da Estrela,310,2025-09-26T23:04:00Z,26050704,Em Resolução/Conclusão,3103,Incêndio rural,0,1,0,4,2025-09-26T23:04:00Z,Covilhã,Castelo Branco,Centro,-7.521592,40.251592,Resolução/Conclusão
26073187,Bouro (Santa Marta),Cávado,309,2025-10-01T15:21:00Z,26073187,Em Resolução/Conclusão,3103,Incêndio rural,0,2,0,6,2025-10-01T15:21:00Z,Amares,Braga,Norte,-8.298015,41.668547,Resolução/Conclusão
26073480,Alcanede,Lezíria do Tejo,311,2025-10-01T16:15:00Z,26073480,Em Resolução/Conclusão,3103,Incêndio rural,0,17,0,49,2025-10-01T16:15:00Z,Santarém,Santarém,Alentejo,-8.787427,39.400588,Resolução/Conclusão
26074859,Baixa da Banheira e Vale da Amoreira,Península de Setúbal,311,2025-10-01T21:46:00Z,26074859,Em Resolução/Conclusão,3103,Incêndio rural,0,1,0,5,2025-10-01T21:46:00Z,Moita,Setúbal,Área Metropolitana De Lisboa,-9.035193,38.64083,Resolução/Conclusão
26022995,Bordeira,Algarve,313,2025-09-21T12:21:00Z,26022995,Em Resolução/Conclusão,3103,Incêndio rural,0,5,0,15,2025-09-21T12:21:00Z,Aljezur,Faro,Algarve,-8.825374,37.23495,Resolução/Conclusão
25951176,Sandomil,Beiras e Serra da Estrela,310,2025-09-06T10:29:00Z,25951176,Em Resolução/Conclusão,3103,Incêndio rural,0,1,0,5,2025-09-06T10:29:00Z,Seia,Guarda,Centro,-7.76001,40.351547,Resolução/Conclusão
26074996,Seixo,Região de Coimbra,310,2025-10-01T22:39:00Z,26074996,Em Despacho,3101,Incêndio rural,0,1,0,5,2025-10-01T22:39:00Z,Mira,Coimbra,Centro,-8.732058,40.461931,Despacho
