id,address,subregion,neighborhood,date,id.1,state,nature,nature_description,aerial_means,terrestrial_means,aquatic_means,operational,date.1,Concelho,Distrito,NUTII_DSG,longitude,latitude,state_2
25775263,Torgueda,Douro,309,2025-08-02T19:49:00Z,25775263,Em Resolução/Conclusão,3101,Incêndio rural,0,4,0,15,2025-08-02T19:49:00Z,Vila Real,Vila Real,Norte,-7.785983,41.274952,Resolução/Conclusão
25807426,Alvite,Douro,309,2025-08-08T14:31:00Z,25807426,Em Resolução/Conclusão,3103,Incêndio rural,0,9,0,41,2025-08-08T14:31:00Z,Moimenta Da Beira,Viseu,Norte,-7.688727,40.96613,Resolução/Conclusão
25833839,"Aldeia do Bispo, Águas e Aldeia de João Pires",Beira Baixa,310,2025-08-13T10:37:00Z,25833839,Em Resolução/Conclusão,3103,Incêndio rural,0,5,0,15,2025-08-13T10:37:00Z,Penamacor,Castelo Branco,Centro,-7.165218,40.112668,Resolução/Conclusão
25840502,Lousã e Vilarinho,Região de Coimbra,310,2025-08-14T14:00:00Z,25840502,Em Resolução/Conclusão,3105,Incêndio rural,0,0,0,0,2025-08-14T14:00:00Z,Lousã,Coimbra,Centro,-8.239893,40.137434,Resolução/Conclusão
25840634,Vilela,Area M. Porto,309,2025-08-14T14:15:00Z,25840634,Em Resolução/Conclusão,3103,Incêndio rural,0,4,0,14,2025-08-14T14:15:00Z,Paredes,Porto,Norte,-8.384258,41.234893,Resolução/Conclusão
25840909,Portela e Extremo,Alto Minho,309,2025-08-14T15:01:00Z,25840909,Em Resolução/Conclusão,3103,Incêndio rural,0,2,0,7,2025-08-14T15:01:00Z,Arcos De Valdevez,Viana Do Castelo,Norte,-8.44359,41.9515,Resolução/Conclusão
25841252,"S.maria, S.miguel, S.martinho, S.pedro Penaferrim",Grande Lisboa,311,2025-08-14T16:06:00Z,25841252,Em Resolução/Conclusão,3103,Incêndio rural,0,7,0,23,2025-08-14T16:06:00Z,Sintra,Lisboa,Área Metropolitana De Lisboa,-9.400927,38.765103,Resolução/Conclusão
25841363,Santar e Moreira,Viseu Dão Lafões,310,2025-08-14T16:28:00Z,25841363,Em Resolução/Conclusão,3103,Incêndio rural,0,9,0,34,2025-08-14T16:28:00Z,Nelas,Viseu,Centro,-7.883308,40.563075,Resolução/Conclusão
25841470,Santa Maria do Castelo e Santiago e Santa Susana,Alentejo Litoral,312,2025-08-14T16:39:00Z,25841470,Em Resolução/Conclusão,3103,Incêndio rural,0,1,0,5,2025-08-14T16:39:00Z,Alcácer Do Sal,Setúbal,Alentejo,-8.512537,38.381205,Resolução/Conclusão
25841504,Caparica e Trafaria,Península de Setúbal,311,2025-08-14T16:54:00Z,25841504,Em Resolução/Conclusão,3103,Incêndio rural,0,7,0,28,2025-08-14T16:54:00Z,Almada,Setúbal,Área Metropolitana De Lisboa,-9.205318,38.66698,Resolução/Conclusão
25841602,São Jorge e Ermelo,Alto Minho,309,2025-08-14T17:11:00Z,25841602,Em Despacho,3101,Incêndio rural,1,1,0,11,2025-08-14T17:11:00Z,Arcos De Valdevez,Viana Do Castelo,Norte,-8.37641,41.82262,Despacho
25785983,Caçarilhe e Infesta,Tâmega e Sousa,309,2025-08-04T18:22:00Z,25785983,Em Resolução/Conclusão,3103,Incêndio rural,0,0,0,0,2025-08-04T18:22:00Z,Celorico De Basto,Braga,Norte,-8.04611,41.419858,Resolução/Conclusão
25792058,Cibões e Brufe,Cávado,309,2025-08-05T19:10:00Z,25792058,Em Resolução/Conclusão,3103,Incêndio rural,0,1,0,5,2025-08-05T19:10:00Z,Terras De Bouro,Braga,Norte,-8.293932,41.764918,Resolução/Conclusão
25820422,Távora e Pereiro,Douro,309,2025-08-10T22:27:00Z,25820422,Em Resolução/Conclusão,3103,Incêndio rural,0,72,0,212,2025-08-10T22:27:00Z,Tabuaço,Viseu,Norte,-7.55556,41.097602,Resolução/Conclusão
25832404,Ala e Vilarinho do Monte,Terras de Trás-os-Montes,309,2025-08-13T01:25:00Z,25832404,Em Resolução/Conclusão,3103,Incêndio rural,0,3,0,12,2025-08-13T01:25:00Z,Macedo De Cavaleiros,Bragança,Norte,-7.101645,41.632283,Resolução/Conclusão
25832672,Piódão,Região de Coimbra,310,2025-08-13T05:08:00Z,25832672,Em Curso,3103,Incêndio rural,3,281,0,835,2025-08-13T05:08:00Z,Arganil,Coimbra,Centro,-7.81972,40.23083,Curso
25833258,Vale de Espinho,Beiras e Serra da Estrela,310,2025-08-13T09:00:00Z,25833258,Em Resolução/Conclusão,3103,Incêndio rural,0,1,0,5,2025-08-13T09:00:00Z,Sabugal,Guarda,Centro,-6.92203,40.272065,Resolução/Conclusão
25835176,Faíl e Vila Chã de Sá,Viseu Dão Lafões,310,2025-08-13T14:35:00Z,25835176,Em Resolução/Conclusão,3103,Incêndio rural,0,9,0,25,2025-08-13T14:35:00Z,Viseu,Viseu,Centro,-7.951177,40.594167,Resolução/Conclusão
25836864,Vilarelho da Raia,Alto Tâmega e Barroso,309,2025-08-13T20:15:00Z,25836864,Em Curso,3103,Incêndio rural,0,13,0,41,2025-08-13T20:15:00Z,Chaves,Vila Real,Norte,-7.499832,41.868443,Curso
25774883,Arnóia,Tâmega e Sousa,309,2025-08-02T18:20:00Z,25774883,Em Resolução/Conclusão,3103,Incêndio rural,0,1,0,1,2025-08-02T18:20:00Z,Celorico De Basto,Braga,Norte,-7.998983,41.348727,Resolução/Conclusão
25818455,Sobral de São Miguel,Beiras e Serra da Estrela,310,2025-08-10T15:02:00Z,25818455,Em Resolução/Conclusão,3103,Incêndio rural,0,13,0,36,2025-08-10T15:02:00Z,Covilhã,Castelo Branco,Centro,-7.77307,40.200173,Resolução/Conclusão
25834631,Paços,Douro,309,2025-08-13T12:57:00Z,25834631,Em Resolução/Conclusão,3103,Incêndio rural,0,5,0,12,2025-08-13T12:57:00Z,Sabrosa,Vila Real,Norte,-7.620647,41.233283,Resolução/Conclusão
25834662,Safara e Santo Aleixo da Restauração,Baixo Alentejo,312,2025-08-13T12:57:00Z,25834662,Em Resolução/Conclusão,3101,Incêndio rural,0,8,0,16,2025-08-13T12:57:00Z,Moura,Beja,Alentejo,-7.02855,38.088503,Resolução/Conclusão
25837154,"Tavares (Chãs, Várzea e Travanca)",Viseu Dão Lafões,310,2025-08-13T21:27:00Z,25837154,Em Resolução/Conclusão,3103,Incêndio rural,0,0,0,0,2025-08-13T21:27:00Z,Mangualde,Viseu,Centro,-7.647492,40.608359,Resolução/Conclusão
25840699,Cimo de Vila da Castanheira,Alto Tâmega e Barroso,309,2025-08-14T14:26:00Z,25840699,Em Resolução/Conclusão,3103,Incêndio rural,0,4,0,16,2025-08-14T14:26:00Z,Chaves,Vila Real,Norte,-7.2621270000000004,41.792692,Resolução/Conclusão
25840833,Ala e Vilarinho do Monte,Terras de Trás-os-Montes,309,2025-08-14T14:49:00Z,25840833,Em Resolução/Conclusão,3103,Incêndio rural,0,6,0,20,2025-08-14T14:49:00Z,Macedo De Cavaleiros,Bragança,Norte,-7.015958,41.59749,Resolução/Conclusão
25840896,Lustosa e Barrosas (Santo Estêvão),Tâmega e Sousa,309,2025-08-14T15:00:00Z,25840896,Em Resolução/Conclusão,3103,Incêndio rural,0,2,0,10,2025-08-14T15:00:00Z,Lousada,Porto,Norte,-8.324115,41.337487,Resolução/Conclusão
25840140,Espadanedo,Tâmega e Sousa,309,2025-08-14T13:02:00Z,25840140,Em Resolução/Conclusão,3103,Incêndio rural,0,3,0,12,2025-08-14T13:02:00Z,Cinfães,Viseu,Norte,-8.184153,41.088537,Resolução/Conclusão
25840417,Lousã e Vilarinho,Região de Coimbra,310,2025-08-14T13:46:00Z,25840417,Em Curso,3101,Incêndio rural,8,72,0,281,2025-08-14T13:46:00Z,Lousã,Coimbra,Centro,-8.19889,40.08389,Curso
25840887,Portela,Alto Minho,309,2025-08-14T15:00:00Z,25840887,Em Resolução/Conclusão,3105,Incêndio rural,0,1,0,4,2025-08-14T15:00:00Z,Monção,Viana Do Castelo,Norte,-8.48173,41.98704,Resolução/Conclusão
25841087,Recezinhos (São Martinho),Tâmega e Sousa,309,2025-08-14T15:36:00Z,25841087,Em Resolução/Conclusão,3103,Incêndio rural,0,2,0,10,2025-08-14T15:36:00Z,Penafiel,Porto,Norte,-8.20614,41.225818,Resolução/Conclusão
25841210,São Jorge e Ermelo,Alto Minho,309,2025-08-14T15:57:00Z,25841210,Em Resolução/Conclusão,3103,Incêndio rural,0,1,0,4,2025-08-14T15:57:00Z,Arcos De Valdevez,Viana Do Castelo,Norte,-8.356787,41.815315,Resolução/Conclusão
25841430,Colares,Grande Lisboa,311,2025-08-14T16:40:00Z,25841430,Em Resolução/Conclusão,3101,Incêndio rural,0,3,0,6,2025-08-14T16:40:00Z,Sintra,Lisboa,Área Metropolitana De Lisboa,-9.445808,38.824992,Resolução/Conclusão
25841100,Canha,Península de Setúbal,311,2025-08-14T15:33:00Z,25841100,Em Resolução/Conclusão,3103,Incêndio rural,0,4,0,14,2025-08-14T15:33:00Z,Montijo,Setúbal,Área Metropolitana De Lisboa,-8.631311,38.768258,Resolução/Conclusão
25841415,Aboim da Nóbrega e Gondomar,Cávado,309,2025-08-14T16:42:00Z,25841415,Em Resolução/Conclusão,3103,Incêndio rural,1,10,0,47,2025-08-14T16:42:00Z,Vila Verde,Braga,Norte,-8.379037,41.741526,Resolução/Conclusão
25841466,São Miguel do Mato,Viseu Dão Lafões,310,2025-08-14T16:48:00Z,25841466,Em Resolução/Conclusão,3103,Incêndio rural,1,13,0,55,2025-08-14T16:48:00Z,Vouzela,Viseu,Centro,-8.0267,40.71845,Resolução/Conclusão
25841546,São João de Lourosa,Viseu Dão Lafões,310,2025-08-14T17:01:00Z,25841546,Em Resolução/Conclusão,3103,Incêndio rural,2,2,0,17,2025-08-14T17:01:00Z,Viseu,Viseu,Centro,-7.9337,40.6126,Resolução/Conclusão
25776263,"Pena, Quintã e Vila Cova",Douro,309,2025-08-02T23:45:00Z,25776263,Em Resolução/Conclusão,3103,Incêndio rural,0,82,0,245,2025-08-02T23:45:00Z,Vila Real,Vila Real,Norte,-7.811902,41.317355,Resolução/Conclusão
25813482,Freches e Torres,Beiras e Serra da Estrela,310,2025-08-09T16:21:00Z,25813482,Em Curso,3103,Incêndio rural,3,145,0,450,2025-08-09T16:21:00Z,Trancoso,Guarda,Centro,-7.363745,40.709022,Curso
25830378,Ermidas-Sado,Alentejo Litoral,312,2025-08-12T16:42:00Z,25830378,Em Resolução/Conclusão,3101,Incêndio rural,0,0,0,0,2025-08-12T16:42:00Z,Santiago Do Cacém,Setúbal,Alentejo,-8.407646,38.059897,Resolução/Conclusão
25832250,Ferreira de Aves,Viseu Dão Lafões,310,2025-08-13T00:03:00Z,25832250,Em Curso,3103,Incêndio rural,16,190,0,607,2025-08-13T00:03:00Z,Sátão,Viseu,Centro,-7.647793,40.79568,Curso
25835457,Quirás e Pinheiro Novo,Terras de Trás-os-Montes,309,2025-08-13T15:25:00Z,25835457,Em Resolução/Conclusão,3103,Incêndio rural,0,25,0,78,2025-08-13T15:25:00Z,Vinhais,Bragança,Norte,-7.170375,41.939618,Resolução/Conclusão
25835977,Miranda,Alto Minho,309,2025-08-13T17:03:00Z,25835977,Em Resolução/Conclusão,3103,Incêndio rural,0,0,0,0,2025-08-13T17:03:00Z,Arcos De Valdevez,Viana Do Castelo,Norte,-8.501393,41.825312,Resolução/Conclusão
25836309,Cinfães,Tâmega e Sousa,309,2025-08-13T18:17:00Z,25836309,Em Curso,3103,Incêndio rural,2,47,0,162,2025-08-13T18:17:00Z,Cinfães,Viseu,Norte,-8.071502,41.049757,Curso
25840505,Ribeira de Nisa e Carreiras,Alto Alentejo,312,2025-08-14T14:01:00Z,25840505,Em Curso,3103,Incêndio rural,4,76,0,264,2025-08-14T14:01:00Z,Portalegre,Portalegre,Alentejo,-7.47009,39.374707,Curso
25840638,Aguiar de Sousa,Area M. Porto,309,2025-08-14T14:19:00Z,25840638,Em Resolução/Conclusão,3103,Incêndio rural,0,8,0,31,2025-08-14T14:19:00Z,Paredes,Porto,Norte,-8.427658,41.128108,Resolução/Conclusão
25840724,Valongo,Area M. Porto,309,2025-08-14T14:31:00Z,25840724,Em Resolução/Conclusão,3103,Incêndio rural,0,11,0,29,2025-08-14T14:31:00Z,Valongo,Porto,Norte,-8.51621,41.21051,Resolução/Conclusão
25840754,Paredes,Area M. Porto,309,2025-08-14T14:30:00Z,25840754,Em Resolução/Conclusão,3103,Incêndio rural,0,1,0,5,2025-08-14T14:30:00Z,Paredes,Porto,Norte,-8.336307,41.225393,Resolução/Conclusão
25840858,Moreira de Rei,Beiras e Serra da Estrela,310,2025-08-14T14:53:00Z,25840858,Em Curso,3103,Incêndio rural,2,10,0,49,2025-08-14T14:53:00Z,Trancoso,Guarda,Centro,-7.311099,40.868498,Curso
25840872,Cerva e Limões,Alto Tâmega e Barroso,309,2025-08-14T14:56:00Z,25840872,Em Resolução/Conclusão,3103,Incêndio rural,0,4,0,14,2025-08-14T14:56:00Z,Ribeira De Pena,Vila Real,Norte,-7.80603,41.464052,Resolução/Conclusão
25840972,Lorvão,Região de Coimbra,310,2025-08-14T15:12:00Z,25840972,Em Resolução/Conclusão,3105,Incêndio rural,0,8,0,29,2025-08-14T15:12:00Z,Penacova,Coimbra,Centro,-8.3475,40.24583,Resolução/Conclusão
25841476,Setúbal (São Sebastião),Península de Setúbal,311,2025-08-14T16:50:00Z,25841476,Em Resolução/Conclusão,3103,Incêndio rural,0,3,0,9,2025-08-14T16:50:00Z,Setúbal,Setúbal,Área Metropolitana De Lisboa,-8.864489,38.52164,Resolução/Conclusão
25841626,Moita,Região de Aveiro,310,2025-08-14T17:17:00Z,25841626,Em Despacho,3101,Incêndio rural,1,4,0,23,2025-08-14T17:17:00Z,Anadia,Aveiro,Centro,-8.334755,40.469615,Despacho
