id,address,subregion,neighborhood,date,id.1,state,nature,nature_description,aerial_means,terrestrial_means,aquatic_means,operational,date.1,Concelho,Distrito,NUTII_DSG,longitude,latitude
25488060,Nogueira e Silva Escura,Area M. Porto,309,2025-06-06T20:37:00Z,25488060,Em conclusão,3103,Incêndio rural,0,2,0,9,2025-06-06T20:37:00Z,Maia,Porto,Norte,-8.583952,41.25995
25488251,Mouçós e Lamares,Douro,309,2025-06-06T21:19:00Z,25488251,Em despacho,2301,Incêndio em transporte rodoviário,0,3,0,12,2025-06-06T21:19:00Z,Vila Real,Vila Real,Norte,-7.63496,41.337674
25487371,São João Dos Caldeireiros,Baixo Alentejo,312,2025-06-06T18:02:00Z,25487371,Em conclusão,3105,Incêndio rural,0,19,0,51,2025-06-06T18:02:00Z,Mértola,Beja,Alentejo,-7.804608,37.600808
25487891,Valdreu,Cávado,309,2025-06-06T19:21:00Z,25487891,Em conclusão,2301,Incêndio em transporte rodoviário,0,1,0,5,2025-06-06T19:21:00Z,Vila Verde,Braga,Norte,-8.333127,41.740422
25488227,Vidigueira,Baixo Alentejo,312,2025-06-06T21:10:00Z,25488227,Em curso,3105,Incêndio rural,0,5,0,18,2025-06-06T21:10:00Z,Vidigueira,Beja,Alentejo,-7.775978,38.197335
25486979,Caparica e Trafaria,Península de Setúbal,311,2025-06-06T16:34:00Z,25486979,Em conclusão,2127,"Incêndio em edifícios e recintos industriais, oficinas e armazéns",0,4,0,12,2025-06-06T16:34:00Z,Almada,Setúbal,Área Metropolitana De Lisboa,-9.198172,38.665376
25487879,Alcabideche,Grande Lisboa,311,2025-06-06T19:55:00Z,25487879,Em conclusão,3103,Incêndio rural,0,7,0,26,2025-06-06T19:55:00Z,Sintra,Lisboa,Área Metropolitana De Lisboa,-9.375643,38.750903
25488182,Angeja,Região de Aveiro,310,2025-06-06T21:02:00Z,25488182,Em conclusão,3105,Incêndio rural,0,1,0,5,2025-06-06T21:02:00Z,Albergaria-a-Velha,Aveiro,Centro,-8.56369,40.681509
