id,address,subregion,neighborhood,date,id.1,state,nature,nature_description,aerial_means,terrestrial_means,aquatic_means,operational,date.1,Concelho,Distrito,NUTII_DSG,longitude,latitude
25522282,Salvaterra de Magos e Foros de Salvaterra,Lezíria do Tejo,311,2025-06-13T22:38:00Z,25522282,Em resolução,2111,Incêndio em edifícios hospitalares e lares de idosos,0,19,0,42,2025-06-13T22:38:00Z,Salvaterra De Magos,Santarém,Alentejo,-8.746905,39.024535
25520907,Serpa (Salvador e Santa Maria),Baixo Alentejo,312,2025-06-13T16:44:00Z,25520907,Em conclusão,3105,Incêndio rural,0,0,0,0,2025-06-13T16:44:00Z,Serpa,Beja,Alentejo,-7.59766,37.935948
25522143,Beja (Salvador e Santa Maria da Feira),Baixo Alentejo,312,2025-06-13T21:59:00Z,25522143,Em conclusão,3105,Incêndio rural,0,2,0,7,2025-06-13T21:59:00Z,Beja,Beja,Alentejo,-7.860233,38.027548
25522411,Nossa Senhora da Expectação,Alto Alentejo,312,2025-06-13T23:25:00Z,25522411,Em conclusão,3105,Incêndio rural,0,3,0,9,2025-06-13T23:25:00Z,Campo Maior,Portalegre,Alentejo,-7.068392,39.008548
25522454,Modivas,Area M. Porto,309,2025-06-13T23:43:00Z,25522454,Em despacho,3103,Incêndio rural,0,0,0,0,2025-06-13T23:43:00Z,Vila Do Conde,Porto,Norte,-8.69903,41.30453
