id,address,subregion,neighborhood,date,id.1,state,nature,nature_description,aerial_means,terrestrial_means,aquatic_means,operational,date.1,Concelho,Distrito,NUTII_DSG,longitude,latitude
25513421,Canedo,Alto Tâmega e Barroso,309,2025-06-12T08:20:00Z,25513421,Em despacho,3107,Consolidação de rescaldo de incêndio rural,0,1,0,5,2025-06-12T08:20:00Z,Ribeira De Pena,Vila Real,Norte,-7.739478,41.637903
25513746,"S.pedro e Santiago, S.maria e S.miguel e Matacães",Oeste,311,2025-06-12T09:23:00Z,25513746,Em conclusão,3111,Queima,0,6,0,16,2025-06-12T09:23:00Z,Torres Vedras,Lisboa,Centro,-9.231842,39.10183
25513641,Azambuja,Lezíria do Tejo,311,2025-06-12T09:03:00Z,25513641,Em despacho,3109,Gestão de combustível,0,1,0,2,2025-06-12T09:03:00Z,Azambuja,Lisboa,Alentejo,-8.864506,39.067885
25513847,Ermelo e Pardelhas,Ave,309,2025-06-12T09:41:00Z,25513847,Em despacho,3107,Consolidação de rescaldo de incêndio rural,0,2,0,9,2025-06-12T09:41:00Z,Mondim De Basto,Vila Real,Norte,-7.870974,41.353823
25513566,Chão de Couce,Região de Leiria,310,2025-06-12T08:44:00Z,25513566,Em curso,2127,"Incêndio em edifícios e recintos industriais, oficinas e armazéns",0,3,0,8,2025-06-12T08:44:00Z,Ansião,Leiria,Centro,-8.380977,39.89135
25513825,Favaios,Douro,309,2025-06-12T09:30:00Z,25513825,Em despacho,3107,Consolidação de rescaldo de incêndio rural,0,2,0,7,2025-06-12T09:30:00Z,Alijó,Vila Real,Norte,-7.495697,41.276963
