id,address,subregion,neighborhood,date,id.1,state,nature,nature_description,aerial_means,terrestrial_means,aquatic_means,operational,date.1,Concelho,Distrito,NUTII_DSG,longitude,latitude,state_2
25620336,Baguim do Monte (Rio Tinto),Area M. Porto,309,2025-07-03T13:10:00Z,25620336,Em Resolução/Conclusão,3103,Incêndio rural,0,2,0,5,2025-07-03T13:10:00Z,Gondomar,Porto,Norte,-8.525955,41.197223,Resolução/Conclusão
25620835,Recarei,Area M. Porto,309,2025-07-03T14:40:00Z,25620835,Em Curso,3103,Incêndio rural,3,14,0,61,2025-07-03T14:40:00Z,Paredes,Porto,Norte,-8.427998,41.160472,Curso
25620972,Paredes,Area M. Porto,309,2025-07-03T15:12:00Z,25620972,Em Despacho,3103,Incêndio rural,0,0,0,0,2025-07-03T15:12:00Z,Paredes,Porto,Norte,-8.3777,41.20724,Despacho
25621003,Carvalhal,Oeste,311,2025-07-03T15:18:00Z,25621003,Em Resolução/Conclusão,3103,Incêndio rural,0,3,0,15,2025-07-03T15:18:00Z,Bombarral,Leiria,Centro,-9.157123,39.28168,Resolução/Conclusão
25611301,"Algodres, Vale de Afonsinho e Vilar de Amargo",Beiras e Serra da Estrela,310,2025-07-01T19:25:00Z,25611301,Em Resolução/Conclusão,3103,Incêndio rural,0,1,0,5,2025-07-01T19:25:00Z,Figueira De Castelo Rodrigo,Guarda,Centro,-7.002512,40.960853,Resolução/Conclusão
25618855,Oldrões,Tâmega e Sousa,309,2025-07-03T09:10:00Z,25618855,Em Resolução/Conclusão,3103,Incêndio rural,0,2,0,10,2025-07-03T09:10:00Z,Penafiel,Porto,Norte,-8.29243,41.15247,Resolução/Conclusão
25620459,São Salvador da Aramenha,Alto Alentejo,312,2025-07-03T13:44:00Z,25620459,Em Resolução/Conclusão,3101,Incêndio rural,0,1,0,2,2025-07-03T13:44:00Z,Marvão,Portalegre,Alentejo,-7.410033,39.365023,Resolução/Conclusão
25620611,Azeitão (São Lourenço e São Simão),Península de Setúbal,311,2025-07-03T14:12:00Z,25620611,Em Resolução/Conclusão,3105,Incêndio rural,0,6,0,21,2025-07-03T14:12:00Z,Setúbal,Setúbal,Área Metropolitana De Lisboa,-9.000776,38.528822,Resolução/Conclusão
25620662,Alfena,Area M. Porto,309,2025-07-03T14:08:00Z,25620662,Em Despacho,3103,Incêndio rural,0,1,0,5,2025-07-03T14:08:00Z,Valongo,Porto,Norte,-8.523192,41.237236,Despacho
25620726,"Areias, Sequeiró, Lama e Palmeira",Area M. Porto,309,2025-07-03T14:24:00Z,25620726,Em Resolução/Conclusão,3103,Incêndio rural,0,2,0,12,2025-07-03T14:24:00Z,Santo Tirso,Porto,Norte,-8.476147,41.364343,Resolução/Conclusão
25599382,Almaceda,Beira Baixa,310,2025-06-29T17:03:00Z,25599382,Em Resolução/Conclusão,3101,Incêndio rural,0,7,0,25,2025-06-29T17:03:00Z,Castelo Branco,Castelo Branco,Centro,-7.645695,39.962858,Resolução/Conclusão
25620674,Nossa Senhora Das Misericórdias,Médio Tejo,311,2025-07-03T14:23:00Z,25620674,Em Resolução/Conclusão,3101,Incêndio rural,0,10,0,38,2025-07-03T14:23:00Z,Ourém,Santarém,Centro,-8.570353,39.64772,Resolução/Conclusão
25620790,Beja (Salvador e Santa Maria da Feira),Baixo Alentejo,312,2025-07-03T14:43:00Z,25620790,Em Resolução/Conclusão,3103,Incêndio rural,0,0,0,0,2025-07-03T14:43:00Z,Beja,Beja,Alentejo,-7.864542,38.027683,Resolução/Conclusão
25620822,Travanca,Tâmega e Sousa,309,2025-07-03T14:48:00Z,25620822,Em Resolução/Conclusão,3103,Incêndio rural,0,3,0,12,2025-07-03T14:48:00Z,Amarante,Porto,Norte,-8.20025,41.269397,Resolução/Conclusão
25621001,Beja (Santiago Maior e São João Baptista),Baixo Alentejo,312,2025-07-03T15:18:00Z,25621001,Em Resolução/Conclusão,3103,Incêndio rural,0,5,0,18,2025-07-03T15:18:00Z,Beja,Beja,Alentejo,-7.891901,38.03149,Resolução/Conclusão
25620945,Colares,Grande Lisboa,311,2025-07-03T15:06:00Z,25620945,Em Resolução/Conclusão,3101,Incêndio rural,0,5,0,18,2025-07-03T15:06:00Z,Sintra,Lisboa,Área Metropolitana De Lisboa,-9.445808,38.824992,Resolução/Conclusão
25621012,"Canedo, Vale e Vila Maior",Area M. Porto,309,2025-07-03T15:14:00Z,25621012,Em Curso,3103,Incêndio rural,0,1,0,5,2025-07-03T15:14:00Z,Santa Maria Da Feira,Aveiro,Norte,-8.448673,41.011004,Curso
25610143,Nossa Senhora Das Misericórdias,Médio Tejo,311,2025-07-01T15:32:00Z,25610143,Em Resolução/Conclusão,3103,Incêndio rural,0,0,0,0,2025-07-01T15:32:00Z,Ourém,Santarém,Centro,-8.600277,39.655883,Resolução/Conclusão
25620107,Oliveira (Santa Maria),Ave,309,2025-07-03T12:37:00Z,25620107,Em Resolução/Conclusão,3103,Incêndio rural,0,2,0,5,2025-07-03T12:37:00Z,Vila Nova De Famalicão,Braga,Norte,-8.41546,41.409218,Resolução/Conclusão
25620464,Cativelos,Beiras e Serra da Estrela,310,2025-07-03T13:45:00Z,25620464,Em Resolução/Conclusão,3103,Incêndio rural,0,5,0,15,2025-07-03T13:45:00Z,Gouveia,Guarda,Centro,-7.704635,40.546025,Resolução/Conclusão
25620664,Côja e Barril de Alva,Região de Coimbra,310,2025-07-03T14:22:00Z,25620664,Em Curso,3101,Incêndio rural,8,62,0,231,2025-07-03T14:22:00Z,Arganil,Coimbra,Centro,-7.95667,40.2725,Curso
25620914,Arões (São Romão),Ave,309,2025-07-03T15:01:00Z,25620914,Em Resolução/Conclusão,3105,Incêndio rural,0,2,0,9,2025-07-03T15:01:00Z,Fafe,Braga,Norte,-8.211503,41.460555,Resolução/Conclusão
25620993,Pedrógão Grande,Região de Leiria,310,2025-07-03T15:16:00Z,25620993,Em Resolução/Conclusão,3103,Incêndio rural,1,7,0,32,2025-07-03T15:16:00Z,Pedrógão Grande,Leiria,Centro,-8.188102,39.941139,Resolução/Conclusão
25621056,Constance,Tâmega e Sousa,309,2025-07-03T15:29:00Z,25621056,Em Despacho,3103,Incêndio rural,1,2,0,16,2025-07-03T15:29:00Z,Marco De Canaveses,Porto,Norte,-8.15515,41.21628,Despacho
