id,address,subregion,neighborhood,date,id.1,state,nature,nature_description,aerial_means,terrestrial_means,aquatic_means,operational,date.1,Concelho,Distrito,NUTII_DSG,longitude,latitude
24851780,"São Miguel, Santa Eufémia e Rabaçal",Região de Coimbra,310,2025-01-21T23:25:00Z,24851780,Em curso,3315,Inundação de estruturas por precipitação intensa,0,0,0,0,2025-01-21T23:25:00Z,Penela,Coimbra,Centro,-8.399036,40.025502
24874809,Mouçós e Lamares,Douro,309,2025-01-26T23:40:00Z,24874809,Em curso,3315,Inundação de estruturas por precipitação intensa,0,2,0,7,2025-01-26T23:40:00Z,Vila Real,Vila Real,Norte,-7.700831,41.312728
24874843,Arganil,Região de Coimbra,310,2025-01-26T23:42:00Z,24874843,Em despacho,3301,Queda de árvore,0,1,0,2,2025-01-26T23:42:00Z,Arganil,Coimbra,Centro,-8.049704,40.220309
24874909,Vilarinho Dos Freires,Douro,309,2025-01-27T00:30:00Z,24874909,Em despacho,3311,Queda de elementos de estruturas edificados,0,1,0,3,2025-01-27T00:30:00Z,Peso Da Régua,Vila Real,Norte,-7.748211,41.175132
24875111,Brasfemes,Região de Coimbra,310,2025-01-27T02:51:00Z,24875111,Em despacho,3315,Inundação de estruturas por precipitação intensa,0,1,0,4,2025-01-27T02:51:00Z,Coimbra,Coimbra,Centro,-8.40845,40.25909
24875144,Freixo de Cima e de Baixo,Tâmega e Sousa,309,2025-01-27T03:25:00Z,24875144,Em despacho,3301,Queda de árvore,0,1,0,2,2025-01-27T03:25:00Z,Amarante,Porto,Norte,-8.122389,41.298864
24875159,Viseu,Viseu Dão Lafões,310,2025-01-27T03:41:00Z,24875159,Em despacho,3301,Queda de árvore,0,0,0,0,2025-01-27T03:41:00Z,Viseu,Viseu,Centro,-7.908451,40.659587
24874428,Donai,Terras de Trás-os-Montes,309,2025-01-26T21:18:00Z,24874428,Em despacho,3315,Inundação de estruturas por precipitação intensa,0,1,0,2,2025-01-26T21:18:00Z,Bragança,Bragança,Norte,-6.805385,41.830788
24874519,"Areias, Sequeiró, Lama e Palmeira",Area M. Porto,309,2025-01-26T21:45:00Z,24874519,Em curso,3329,Queda de estruturas temporárias ou móveis,0,1,0,2,2025-01-26T21:45:00Z,Santo Tirso,Porto,Norte,-8.475731,41.362274
24874564,"Sé, Santa Maria e Meixedo",Terras de Trás-os-Montes,309,2025-01-26T21:55:00Z,24874564,Em despacho,3315,Inundação de estruturas por precipitação intensa,0,1,0,2,2025-01-26T21:55:00Z,Bragança,Bragança,Norte,-6.761223,41.813164
24875139,Santiago e S. Simão de Litém e Albergaria Dos Doze,Região de Leiria,310,2025-01-27T03:14:00Z,24875139,Em despacho,3311,Queda de elementos de estruturas edificados,0,1,0,2,2025-01-27T03:14:00Z,Pombal,Leiria,Centro,-8.627162,39.820311
24875157,Ramada e Caneças,Grande Lisboa,311,2025-01-27T03:32:00Z,24875157,Em despacho,3313,Deslizamento de terras,0,1,0,5,2025-01-27T03:32:00Z,Odivelas,Lisboa,Área Metropolitana De Lisboa,-9.194441,38.801427
24875051,"Torre do Terrenho, Sebadelhe da Serra e Terrenho",Beiras e Serra da Estrela,310,2025-01-27T02:02:00Z,24875051,Em curso,3313,Deslizamento de terras,0,3,0,5,2025-01-27T02:02:00Z,Trancoso,Guarda,Centro,-7.352417,40.87163
24875150,Maiorca,Região de Coimbra,310,2025-01-27T03:20:00Z,24875150,Em despacho,3315,Inundação de estruturas por precipitação intensa,0,1,0,2,2025-01-27T03:20:00Z,Figueira Da Foz,Coimbra,Centro,-8.752917,40.165538
24874313,Parreira e Chouto,Lezíria do Tejo,311,2025-01-26T20:59:00Z,24874313,Em despacho,3301,Queda de árvore,0,2,0,4,2025-01-26T20:59:00Z,Chamusca,Santarém,Alentejo,-8.356501,39.193372
24875088,Trancoso (São Pedro e Santa Maria) e Souto Maior,Beiras e Serra da Estrela,310,2025-01-27T02:31:00Z,24875088,Em despacho,3301,Queda de árvore,0,1,0,4,2025-01-27T02:31:00Z,Trancoso,Guarda,Centro,-7.366497,40.811384
24875090,Tavarede,Região de Coimbra,310,2025-01-27T02:32:00Z,24875090,Em despacho,3315,Inundação de estruturas por precipitação intensa,0,1,0,3,2025-01-27T02:32:00Z,Figueira Da Foz,Coimbra,Centro,-8.853871,40.165854
24875138,"Marvila, Ribeira Santarém, S.salvador, S.nicolau",Lezíria do Tejo,311,2025-01-27T03:19:00Z,24875138,Em conclusão,3317,Inundação de estruturas por água canalizada,0,2,0,7,2025-01-27T03:19:00Z,Santarém,Santarém,Alentejo,-8.678591,39.231938
