id,address,subregion,neighborhood,date,id.1,state,nature,nature_description,aerial_means,terrestrial_means,aquatic_means,operational,date.1,Concelho,Distrito,NUTII_DSG,longitude,latitude,state_2
25718082,Monsanto e Idanha-a-Velha,Beira Baixa,310,2025-07-22T20:17:00Z,25718082,Em Resolução/Conclusão,3105,Incêndio rural,0,1,0,2,2025-07-22T20:17:00Z,Idanha-a-Nova,Castelo Branco,Centro,-7.048977,40.051923,Resolução/Conclusão
25720797,"Lavandeira, Beira Grande e Selores",Douro,309,2025-07-23T12:23:00Z,25720797,Em Resolução/Conclusão,3103,Incêndio rural,0,29,0,87,2025-07-23T12:23:00Z,Carrazeda De Ansiães,Bragança,Norte,-7.304242,41.205575,Resolução/Conclusão
25722351,Reguengo do Fetal,Região de Leiria,310,2025-07-23T17:52:00Z,25722351,Em Resolução/Conclusão,3103,Incêndio rural,0,7,0,26,2025-07-23T17:52:00Z,Batalha,Leiria,Centro,-8.768133,39.63089,Resolução/Conclusão
25711397,Vale da Pedra,Lezíria do Tejo,311,2025-07-21T14:16:00Z,25711397,Em Resolução/Conclusão,3103,Incêndio rural,0,0,0,0,2025-07-21T14:16:00Z,Cartaxo,Santarém,Alentejo,-8.783137,39.110872,Resolução/Conclusão
25719571,Belmonte e Colmeal da Torre,Beiras e Serra da Estrela,310,2025-07-23T08:37:00Z,25719571,Em Resolução/Conclusão,3103,Incêndio rural,0,2,0,4,2025-07-23T08:37:00Z,Belmonte,Castelo Branco,Centro,-7.3317,40.38457,Resolução/Conclusão
25720387,Castro Verde e Casével,Baixo Alentejo,312,2025-07-23T10:58:00Z,25720387,Em Resolução/Conclusão,3103,Incêndio rural,0,14,0,35,2025-07-23T10:58:00Z,Castro Verde,Beja,Alentejo,-8.032932,37.655215,Resolução/Conclusão
25720932,Bouro (Santa Marta),Cávado,309,2025-07-23T12:54:00Z,25720932,Em Resolução/Conclusão,3101,Incêndio rural,0,8,0,27,2025-07-23T12:54:00Z,Amares,Braga,Norte,-8.283857,41.671897,Resolução/Conclusão
25721382,Unhais da Serra,Beiras e Serra da Estrela,310,2025-07-23T14:29:00Z,25721382,Em Resolução/Conclusão,3105,Incêndio rural,0,4,0,10,2025-07-23T14:29:00Z,Covilhã,Castelo Branco,Centro,-7.61948,40.25114,Resolução/Conclusão
25721734,Barqueiros,Cávado,309,2025-07-23T15:31:00Z,25721734,Em Resolução/Conclusão,3103,Incêndio rural,0,4,0,13,2025-07-23T15:31:00Z,Barcelos,Braga,Norte,-8.739395,41.480643,Resolução/Conclusão
25722018,"Pinheiro da Bemposta, Travanca e Palmaz",Area M. Porto,309,2025-07-23T16:40:00Z,25722018,Em Resolução/Conclusão,3103,Incêndio rural,0,6,0,24,2025-07-23T16:40:00Z,Oliveira De Azeméis,Aveiro,Norte,-8.485833,40.79389,Resolução/Conclusão
25712338,Cercal,Alentejo Litoral,312,2025-07-21T17:38:00Z,25712338,Em Resolução/Conclusão,3103,Incêndio rural,0,11,0,38,2025-07-21T17:38:00Z,Santiago Do Cacém,Setúbal,Alentejo,-8.682272,37.791582,Resolução/Conclusão
25717167,Pinhel,Beiras e Serra da Estrela,310,2025-07-22T16:40:00Z,25717167,Em Resolução/Conclusão,3103,Incêndio rural,0,2,0,7,2025-07-22T16:40:00Z,Pinhel,Guarda,Centro,-7.060442,40.781598,Resolução/Conclusão
25717520,Castelo Branco,Beira Baixa,310,2025-07-22T17:59:00Z,25717520,Em Resolução/Conclusão,3103,Incêndio rural,0,2,0,10,2025-07-22T17:59:00Z,Castelo Branco,Castelo Branco,Centro,-7.464898,39.851129,Resolução/Conclusão
25721930,Vilar de Perdizes e Meixide,Alto Tâmega e Barroso,309,2025-07-23T16:21:00Z,25721930,Em Curso,3103,Incêndio rural,11,11,0,64,2025-07-23T16:21:00Z,NA,NA,NA,-7.618655,41.886193,Curso
25722112,"Romãs, Decermilo e Vila Longa",Viseu Dão Lafões,310,2025-07-23T17:02:00Z,25722112,Em Resolução/Conclusão,3103,Incêndio rural,0,7,0,24,2025-07-23T17:02:00Z,Sátão,Viseu,Centro,-7.644197,40.746162,Resolução/Conclusão
25721619,Costa da Caparica,Península de Setúbal,311,2025-07-23T15:11:00Z,25721619,Em Resolução/Conclusão,3103,Incêndio rural,0,15,0,50,2025-07-23T15:11:00Z,Almada,Setúbal,Área Metropolitana De Lisboa,-9.21697,38.61683,Resolução/Conclusão
25721653,Belmonte e Colmeal da Torre,Beiras e Serra da Estrela,310,2025-07-23T15:18:00Z,25721653,Em Resolução/Conclusão,3103,Incêndio rural,0,10,0,35,2025-07-23T15:18:00Z,Belmonte,Castelo Branco,Centro,-7.335192,40.353123,Resolução/Conclusão
25721670,Barreiro de Besteiros e Tourigo,Viseu Dão Lafões,310,2025-07-23T15:20:00Z,25721670,Em Resolução/Conclusão,3103,Incêndio rural,0,7,0,19,2025-07-23T15:20:00Z,Tondela,Viseu,Centro,-8.214625,40.525652,Resolução/Conclusão
25721704,Bugalhos,Médio Tejo,311,2025-07-23T15:28:00Z,25721704,Em Resolução/Conclusão,3101,Incêndio rural,0,12,0,37,2025-07-23T15:28:00Z,Alcanena,Santarém,Centro,-8.626415,39.435343,Resolução/Conclusão
25722007,Santo Isidoro,Grande Lisboa,311,2025-07-23T16:33:00Z,25722007,Em Resolução/Conclusão,3103,Incêndio rural,0,6,0,23,2025-07-23T16:33:00Z,Mafra,Lisboa,Área Metropolitana De Lisboa,-9.360955,38.987937,Resolução/Conclusão
25722039,Ronfe,Ave,309,2025-07-23T16:45:00Z,25722039,Em Resolução/Conclusão,3103,Incêndio rural,0,4,0,17,2025-07-23T16:45:00Z,Guimarães,Braga,Norte,-8.386088,41.435752,Resolução/Conclusão
25722056,São João Baptista,Médio Tejo,311,2025-07-23T16:48:00Z,25722056,Em Resolução/Conclusão,3103,Incêndio rural,0,0,0,0,2025-07-23T16:48:00Z,Entroncamento,Santarém,Centro,-8.47006,39.48502,Resolução/Conclusão
25722239,São João Baptista,Alto Alentejo,312,2025-07-23T17:26:00Z,25722239,Em Resolução/Conclusão,3105,Incêndio rural,0,4,0,16,2025-07-23T17:26:00Z,Campo Maior,Portalegre,Alentejo,-7.044603,39.041672,Resolução/Conclusão
25722218,Barreiro de Besteiros e Tourigo,Viseu Dão Lafões,310,2025-07-23T17:22:00Z,25722218,Em Resolução/Conclusão,3103,Incêndio rural,0,8,0,26,2025-07-23T17:22:00Z,Tondela,Viseu,Centro,-8.214333,40.525567,Resolução/Conclusão
25722293,Fornos,Tâmega e Sousa,309,2025-07-23T17:27:00Z,25722293,Em Resolução/Conclusão,3103,Incêndio rural,0,5,0,19,2025-07-23T17:27:00Z,Castelo De Paiva,Aveiro,Norte,-8.241837,41.0566,Resolução/Conclusão
25722429,Rapoula do Côa,Beiras e Serra da Estrela,310,2025-07-23T18:10:00Z,25722429,Em Despacho,3103,Incêndio rural,1,9,0,40,2025-07-23T18:10:00Z,Sabugal,Guarda,Centro,-7.04663,40.42111,Despacho
