id,address,subregion,neighborhood,date,id.1,state,nature,nature_description,aerial_means,terrestrial_means,aquatic_means,operational,date.1,Concelho,Distrito,NUTII_DSG,longitude,latitude
24852551,Alvorge,Região de Leiria,310,2025-01-22T07:38:00Z,24852551,Em despacho,3315,Inundação de estruturas por precipitação intensa,0,2,0,8,2025-01-22T07:38:00Z,Ansião,Leiria,Centro,-8.437457,39.972271
24853339,Minde,Médio Tejo,311,2025-01-22T10:23:00Z,24853339,Em curso,3315,Inundação de estruturas por precipitação intensa,0,1,0,5,2025-01-22T10:23:00Z,Alcanena,Santarém,Centro,-8.691237,39.511095
24854146,Alvaiázere,Região de Leiria,310,2025-01-22T12:25:00Z,24854146,Em despacho,3315,Inundação de estruturas por precipitação intensa,0,1,0,2,2025-01-22T12:25:00Z,Alvaiázere,Leiria,Centro,-8.41696,39.828223
24854223,Figueiró Dos Vinhos e Bairradas,Região de Leiria,310,2025-01-22T12:00:00Z,24854223,Em despacho,3313,Deslizamento de terras,0,2,0,6,2025-01-22T12:00:00Z,Figueiró Dos Vinhos,Leiria,Centro,-8.292159,39.908619
24854225,Benespera,Beiras e Serra da Estrela,310,2025-01-22T12:51:00Z,24854225,Em curso,3315,Inundação de estruturas por precipitação intensa,0,2,0,3,2025-01-22T12:51:00Z,Guarda,Guarda,Centro,-7.27193,40.43707
24854307,Vila Nova da Telha,Area M. Porto,309,2025-01-22T13:06:00Z,24854307,Em curso,3311,Queda de elementos de estruturas edificados,0,1,0,4,2025-01-22T13:06:00Z,Maia,Porto,Norte,-8.668713,41.245907
24854332,Penhalonga e Paços de Gaiolo,Tâmega e Sousa,309,2025-01-22T13:14:00Z,24854332,Em despacho,3313,Deslizamento de terras,0,0,0,0,2025-01-22T13:14:00Z,Marco De Canaveses,Porto,Norte,-8.12556,41.09254
24854823,Avintes,Area M. Porto,309,2025-01-22T14:38:00Z,24854823,Em despacho,3301,Queda de árvore,0,3,0,8,2025-01-22T14:38:00Z,Vila Nova De Gaia,Porto,Norte,-8.551032,41.11378
24854843,Póvoa de Atalaia e Atalaia do Campo,Beiras e Serra da Estrela,310,2025-01-22T14:47:00Z,24854843,Em despacho,3321,Dano na rede de fornecimento de eletricidade ,0,2,0,4,2025-01-22T14:47:00Z,Fundão,Castelo Branco,Centro,-7.43859,40.05072
24854857,Aldeia do Mato e Souto,Médio Tejo,311,2025-01-22T14:49:00Z,24854857,Em despacho,3315,Inundação de estruturas por precipitação intensa,0,1,0,2,2025-01-22T14:49:00Z,Abrantes,Santarém,Centro,-8.239017,39.57634
24854866,Figueiró Dos Vinhos e Bairradas,Região de Leiria,310,2025-01-22T13:10:00Z,24854866,Em despacho,3313,Deslizamento de terras,0,1,0,1,2025-01-22T13:10:00Z,Figueiró Dos Vinhos,Leiria,Centro,-8.288657,39.911326
24855009,Covilhã e Canhoso,Beiras e Serra da Estrela,310,2025-01-22T15:20:00Z,24855009,Em despacho,3321,Dano na rede de fornecimento de eletricidade ,0,1,0,4,2025-01-22T15:20:00Z,Covilhã,Castelo Branco,Centro,-7.512329,40.273614
24855025,Nossa Senhora Das Misericórdias,Médio Tejo,311,2025-01-22T15:24:00Z,24855025,Em despacho,3313,Deslizamento de terras,0,3,0,5,2025-01-22T15:24:00Z,Ourém,Santarém,Centro,-8.602583,39.641185
24853129,Soutelo de Aguiar,Alto Tâmega e Barroso,309,2025-01-22T09:41:00Z,24853129,Em despacho,3315,Inundação de estruturas por precipitação intensa,0,1,0,5,2025-01-22T09:41:00Z,Vila Pouca De Aguiar,Vila Real,Norte,-7.665087,41.468356
24854249,Nossa Senhora da Piedade,Médio Tejo,311,2025-01-22T12:55:00Z,24854249,Em despacho,3315,Inundação de estruturas por precipitação intensa,0,1,0,1,2025-01-22T12:55:00Z,Ourém,Santarém,Centro,-8.577082,39.6611
24854272,Riachos,Médio Tejo,311,2025-01-22T13:00:00Z,24854272,Em curso,3315,Inundação de estruturas por precipitação intensa,0,1,0,2,2025-01-22T13:00:00Z,Torres Novas,Santarém,Centro,-8.515126,39.421796
24854367,Figueiró Dos Vinhos e Bairradas,Região de Leiria,310,2025-01-22T13:10:00Z,24854367,Em despacho,3313,Deslizamento de terras,0,2,0,5,2025-01-22T13:10:00Z,Figueiró Dos Vinhos,Leiria,Centro,-8.273435,39.902339
24854624,São Teotónio,Alentejo Litoral,312,2025-01-22T14:02:00Z,24854624,Em despacho,3301,Queda de árvore,0,1,0,2,2025-01-22T14:02:00Z,Odemira,Beja,Alentejo,-8.756746,37.431629
24854856,Sobrosa,Area M. Porto,309,2025-01-22T14:47:00Z,24854856,Em despacho,3315,Inundação de estruturas por precipitação intensa,0,1,0,2,2025-01-22T14:47:00Z,Paredes,Porto,Norte,-8.359816,41.249381
24854899,Ermidas-Sado,Alentejo Litoral,312,2025-01-22T15:00:00Z,24854899,Em curso,3315,Inundação de estruturas por precipitação intensa,0,1,0,4,2025-01-22T15:00:00Z,Santiago Do Cacém,Setúbal,Alentejo,-8.409632,38.006212
24851821,Santa Maria do Castelo e Santiago e Santa Susana,Alentejo Litoral,312,2025-01-21T23:41:00Z,24851821,Em resolução,1103,Vento forte,0,11,0,21,2025-01-21T23:41:00Z,Alcácer Do Sal,Setúbal,Alentejo,-8.598678,38.397168
24854279,Abrigada e Cabanas de Torres,Oeste,311,2025-01-22T13:00:00Z,24854279,Em curso,3315,Inundação de estruturas por precipitação intensa,0,1,0,5,2025-01-22T13:00:00Z,Alenquer,Lisboa,Centro,-9.029641,39.148386
24854560,Fontelas,Douro,309,2025-01-22T13:55:00Z,24854560,Em despacho,3309,Desabamento de estruturas edificadas,0,3,0,6,2025-01-22T13:55:00Z,Peso Da Régua,Vila Real,Norte,-7.830143,41.154017
24854679,Lousã e Vilarinho,Região de Coimbra,310,2025-01-22T14:14:00Z,24854679,Em despacho,3301,Queda de árvore,0,1,0,2,2025-01-22T14:14:00Z,Lousã,Coimbra,Centro,-8.243385,40.12032
24854779,"Marvila, Ribeira Santarém, S.salvador, S.nicolau",Lezíria do Tejo,311,2025-01-22T14:34:00Z,24854779,Em conclusão,3313,Deslizamento de terras,0,2,0,5,2025-01-22T14:34:00Z,Santarém,Santarém,Alentejo,-8.693917,39.244163
24851780,"São Miguel, Santa Eufémia e Rabaçal",Região de Coimbra,310,2025-01-21T23:25:00Z,24851780,Em curso,3315,Inundação de estruturas por precipitação intensa,0,0,0,0,2025-01-21T23:25:00Z,Penela,Coimbra,Centro,-8.399036,40.025502
24853902,"Freixianda, Ribeira do Fárrio e Formigais",Médio Tejo,311,2025-01-22T11:54:00Z,24853902,Em curso,3315,Inundação de estruturas por precipitação intensa,0,1,0,4,2025-01-22T11:54:00Z,Ourém,Santarém,Centro,-8.462392,39.76364
24854388,Avelar,Região de Leiria,310,2025-01-22T13:18:00Z,24854388,Em curso,3315,Inundação de estruturas por precipitação intensa,0,2,0,5,2025-01-22T13:18:00Z,Ansião,Leiria,Centro,-8.365894,39.925606
24854703,Tavira (Santa Maria e Santiago),Algarve,313,2025-01-22T10:30:00Z,24854703,Em despacho,3315,Inundação de estruturas por precipitação intensa,0,1,0,1,2025-01-22T10:30:00Z,Tavira,Faro,Algarve,-7.650217,37.141268
24855035,São Brás de Alportel,Algarve,313,2025-01-22T15:11:00Z,24855035,Em despacho,3315,Inundação de estruturas por precipitação intensa,0,1,0,4,2025-01-22T15:11:00Z,São Brás De Alportel,Faro,Algarve,-7.897745,37.169047
24854878,Esperança,Alto Alentejo,312,2025-01-22T14:50:00Z,24854878,Em curso,3315,Inundação de estruturas por precipitação intensa,0,4,0,9,2025-01-22T14:50:00Z,Arronches,Portalegre,Alentejo,-7.18734,39.161563
