id,address,subregion,neighborhood,date,id.1,state,nature,nature_description,aerial_means,terrestrial_means,aquatic_means,operational,date.1,Concelho,Distrito,NUTII_DSG,longitude,latitude,state_2
25665133,Lindoso,Alto Minho,309,2025-07-12T02:50:00Z,25665133,Em Resolução/Conclusão,3103,Incêndio rural,0,2,0,9,2025-07-12T02:50:00Z,Ponte Da Barca,Viana Do Castelo,Norte,-8.224007,41.852543,Resolução/Conclusão
25677014,Alcórrego e Maranhão,Alto Alentejo,312,2025-07-14T15:07:00Z,25677014,Em Resolução/Conclusão,3101,Incêndio rural,0,11,0,37,2025-07-14T15:07:00Z,Avis,Portalegre,Alentejo,-7.895798,38.982193,Resolução/Conclusão
25681110,Beja (Salvador e Santa Maria da Feira),Baixo Alentejo,312,2025-07-15T11:51:00Z,25681110,Em Resolução/Conclusão,3105,Incêndio rural,0,0,0,0,2025-07-15T11:51:00Z,Beja,Beja,Alentejo,-7.866732,38.028367,Resolução/Conclusão
25681644,Lustosa e Barrosas (Santo Estêvão),Tâmega e Sousa,309,2025-07-15T13:44:00Z,25681644,Em Resolução/Conclusão,3103,Incêndio rural,0,4,0,20,2025-07-15T13:44:00Z,Lousada,Porto,Norte,-8.318738,41.342972,Resolução/Conclusão
25681665,Dois Portos e Runa,Oeste,311,2025-07-15T13:47:00Z,25681665,Em Resolução/Conclusão,3103,Incêndio rural,0,3,0,12,2025-07-15T13:47:00Z,Torres Vedras,Lisboa,Centro,-9.211736,39.079266,Resolução/Conclusão
25682028,São Félix da Marinha,Area M. Porto,309,2025-07-15T14:39:00Z,25682028,Em Curso,3105,Incêndio rural,0,1,0,5,2025-07-15T14:39:00Z,Vila Nova De Gaia,Porto,Norte,-8.629189,41.030125,Curso
25603618,Messejana,Baixo Alentejo,312,2025-06-30T13:09:00Z,25603618,Em Resolução/Conclusão,3101,Incêndio rural,0,0,0,0,2025-06-30T13:09:00Z,Aljustrel,Beja,Alentejo,-8.169013,37.814978,Resolução/Conclusão
25681114,"S. Mig. Pinheiro, S. Pedro Solis e S. Sebastião Carros",Baixo Alentejo,312,2025-07-15T11:44:00Z,25681114,Em Resolução/Conclusão,3105,Incêndio rural,0,1,0,5,2025-07-15T11:44:00Z,Mértola,Beja,Alentejo,-7.901305,37.480835,Resolução/Conclusão
25681100,Sendim e Atenor,Terras de Trás-os-Montes,309,2025-07-15T11:45:00Z,25681100,Em Resolução/Conclusão,3103,Incêndio rural,0,9,0,32,2025-07-15T11:45:00Z,Miranda Do Douro,Bragança,Norte,-6.433873,41.404508,Resolução/Conclusão
25681570,Nespereira,Tâmega e Sousa,309,2025-07-15T13:27:00Z,25681570,Em Resolução/Conclusão,3101,Incêndio rural,1,11,0,44,2025-07-15T13:27:00Z,Cinfães,Viseu,Norte,-8.17601,41.008988,Resolução/Conclusão
25681786,Sobrosa,Area M. Porto,309,2025-07-15T14:07:00Z,25681786,Em Curso,3103,Incêndio rural,1,2,0,16,2025-07-15T14:07:00Z,Paredes,Porto,Norte,-8.340574,41.25571,Curso
25681820,Orada,Alentejo Central,312,2025-07-15T14:13:00Z,25681820,Em Resolução/Conclusão,3105,Incêndio rural,0,5,0,19,2025-07-15T14:13:00Z,Borba,Évora,Alentejo,-7.453363,38.889517,Resolução/Conclusão
25681939,Paços de Ferreira,Tâmega e Sousa,309,2025-07-15T14:27:00Z,25681939,Em Resolução/Conclusão,3103,Incêndio rural,0,1,0,5,2025-07-15T14:27:00Z,Paços De Ferreira,Porto,Norte,-8.370658,41.278172,Resolução/Conclusão
25682037,"Aver-o-Mar, Amorim e Terroso",Area M. Porto,309,2025-07-15T14:47:00Z,25682037,Em Despacho,3103,Incêndio rural,0,4,0,13,2025-07-15T14:47:00Z,Póvoa De Varzim,Porto,Norte,-8.72899,41.41551,Despacho
25682055,Milheirós,Area M. Porto,309,2025-07-15T14:51:00Z,25682055,Em Despacho,3103,Incêndio rural,0,0,0,0,2025-07-15T14:51:00Z,Maia,Porto,Norte,-8.57336,41.22321,Despacho
