id,address,subregion,neighborhood,date,id.1,state,nature,nature_description,aerial_means,terrestrial_means,aquatic_means,operational,date.1,Concelho,Distrito,NUTII_DSG,longitude,latitude,state_2
25773830,Andrães,Douro,309,2025-08-02T14:23:00Z,25773830,Em Resolução/Conclusão,3103,Incêndio rural,0,17,0,62,2025-08-02T14:23:00Z,Vila Real,Vila Real,Norte,-7.671293,41.267593,Resolução/Conclusão
25774883,Arnóia,Tâmega e Sousa,309,2025-08-02T18:20:00Z,25774883,Em Resolução/Conclusão,3103,Incêndio rural,0,11,0,39,2025-08-02T18:20:00Z,Celorico De Basto,Braga,Norte,-7.998983,41.348727,Resolução/Conclusão
25793436,Vila Velha de Ródão,Beira Baixa,310,2025-08-06T02:41:00Z,25793436,Em Resolução/Conclusão,3103,Incêndio rural,0,3,0,8,2025-08-06T02:41:00Z,Vila Velha De Ródão,Castelo Branco,Centro,-7.683468,39.646462,Resolução/Conclusão
25794472,Boelhe,Tâmega e Sousa,309,2025-08-06T09:45:00Z,25794472,Em Resolução/Conclusão,3103,Incêndio rural,0,20,0,66,2025-08-06T09:45:00Z,Penafiel,Porto,Norte,-8.251117,41.129577,Resolução/Conclusão
25797395,Bustelo,Tâmega e Sousa,309,2025-08-06T17:30:00Z,25797395,Em Resolução/Conclusão,3103,Incêndio rural,0,0,0,0,2025-08-06T17:30:00Z,Penafiel,Porto,Norte,-8.273497,41.229798,Resolução/Conclusão
25797681,Rio Frio,Alto Minho,309,2025-08-06T18:44:00Z,25797681,Em Resolução/Conclusão,3103,Incêndio rural,0,2,0,7,2025-08-06T18:44:00Z,Arcos De Valdevez,Viana Do Castelo,Norte,-8.48039,41.871863,Resolução/Conclusão
25798214,Malveira e São Miguel de Alcainça,Grande Lisboa,311,2025-08-06T20:38:00Z,25798214,Em Resolução/Conclusão,3111,Queima,0,2,0,10,2025-08-06T20:38:00Z,Mafra,Lisboa,Área Metropolitana De Lisboa,-9.255135,38.927865,Resolução/Conclusão
25738747,Lindoso,Alto Minho,309,2025-07-26T21:47:00Z,25738747,Em Resolução/Conclusão,3103,Incêndio rural,0,20,0,72,2025-07-26T21:47:00Z,Ponte Da Barca,Viana Do Castelo,Norte,-8.220528,41.865272,Resolução/Conclusão
25747773,Aranhas,Beira Baixa,310,2025-07-28T16:36:00Z,25747773,Em Resolução/Conclusão,3103,Incêndio rural,0,2,0,6,2025-07-28T16:36:00Z,Penamacor,Castelo Branco,Centro,-7.14438,40.117542,Resolução/Conclusão
25775263,Torgueda,Douro,309,2025-08-02T19:49:00Z,25775263,Em Resolução/Conclusão,3101,Incêndio rural,0,7,0,19,2025-08-02T19:49:00Z,Vila Real,Vila Real,Norte,-7.785983,41.274952,Resolução/Conclusão
25785466,Caçarilhe e Infesta,Tâmega e Sousa,309,2025-08-04T16:48:00Z,25785466,Em Resolução/Conclusão,3103,Incêndio rural,0,1,0,19,2025-08-04T16:48:00Z,Celorico De Basto,Braga,Norte,-8.035342,41.42903,Resolução/Conclusão
25790096,"Leomil, Mido, Senouras e Aldeia Nova",Beiras e Serra da Estrela,310,2025-08-05T13:37:00Z,25790096,Em Resolução/Conclusão,3103,Incêndio rural,0,4,0,14,2025-08-05T13:37:00Z,Almeida,Guarda,Centro,-6.951735,40.680123,Resolução/Conclusão
25791761,Santa Cruz do Douro e São Tomé de Covelas,Tâmega e Sousa,309,2025-08-05T18:32:00Z,25791761,Em Resolução/Conclusão,3103,Incêndio rural,1,0,0,1,2025-08-05T18:32:00Z,Baião,Porto,Norte,-7.998456,41.123167,Resolução/Conclusão
25793572,Real,Tâmega e Sousa,309,2025-08-06T04:31:00Z,25793572,Em Resolução/Conclusão,3103,Incêndio rural,0,2,0,10,2025-08-06T04:31:00Z,Castelo De Paiva,Aveiro,Norte,-8.293568,40.988583,Resolução/Conclusão
25794617,Lustosa e Barrosas (Santo Estêvão),Tâmega e Sousa,309,2025-08-06T10:07:00Z,25794617,Em Resolução/Conclusão,3103,Incêndio rural,0,4,0,14,2025-08-06T10:07:00Z,Lousada,Porto,Norte,-8.302258,41.341468,Resolução/Conclusão
25796239,Eiras e Mei,Alto Minho,309,2025-08-06T14:18:00Z,25796239,Em Resolução/Conclusão,3103,Incêndio rural,0,12,0,37,2025-08-06T14:18:00Z,Arcos De Valdevez,Viana Do Castelo,Norte,-8.480352,41.924652,Resolução/Conclusão
25796580,Vila Boa de Quires e Maureles,Tâmega e Sousa,309,2025-08-06T15:05:00Z,25796580,Em Resolução/Conclusão,3103,Incêndio rural,0,10,0,32,2025-08-06T15:05:00Z,Marco De Canaveses,Porto,Norte,-8.2103,41.191717,Resolução/Conclusão
25763650,Milagres,Região de Leiria,310,2025-07-31T15:58:00Z,25763650,Em Resolução/Conclusão,3101,Incêndio rural,0,1,0,2,2025-07-31T15:58:00Z,Leiria,Leiria,Centro,-8.792217,39.793427,Resolução/Conclusão
25785983,Caçarilhe e Infesta,Tâmega e Sousa,309,2025-08-04T18:22:00Z,25785983,Em Resolução/Conclusão,3103,Incêndio rural,0,99,0,314,2025-08-04T18:22:00Z,Celorico De Basto,Braga,Norte,-8.04611,41.419858,Resolução/Conclusão
25790229,Galegos,Tâmega e Sousa,309,2025-08-05T13:59:00Z,25790229,Em Resolução/Conclusão,3103,Incêndio rural,0,18,0,55,2025-08-05T13:59:00Z,Penafiel,Porto,Norte,-8.31029,41.153427,Resolução/Conclusão
25792058,Cibões e Brufe,Cávado,309,2025-08-05T19:10:00Z,25792058,Em Resolução/Conclusão,3103,Incêndio rural,0,2,0,6,2025-08-05T19:10:00Z,Terras De Bouro,Braga,Norte,-8.293932,41.764918,Resolução/Conclusão
25794457,"Provesende, Gouvães Douro, S.cristóvão Douro",Douro,309,2025-08-06T09:43:00Z,25794457,Em Resolução/Conclusão,3103,Incêndio rural,0,2,0,8,2025-08-06T09:43:00Z,Sabrosa,Vila Real,Norte,-7.569235,41.20573,Resolução/Conclusão
25796063,Póvoa de Midões,Região de Coimbra,310,2025-08-06T13:53:00Z,25796063,Em Resolução/Conclusão,3103,Incêndio rural,0,4,0,17,2025-08-06T13:53:00Z,Tábua,Coimbra,Centro,-7.98111,40.38889,Resolução/Conclusão
25797440,Constantim e Vale de Nogueiras,Douro,309,2025-08-06T17:53:00Z,25797440,Em Resolução/Conclusão,3103,Incêndio rural,0,3,0,14,2025-08-06T17:53:00Z,Vila Real,Vila Real,Norte,-7.67913,41.29136,Resolução/Conclusão
25797574,Cervos,Alto Tâmega e Barroso,309,2025-08-06T18:18:00Z,25797574,Em Resolução/Conclusão,3103,Incêndio rural,0,1,0,5,2025-08-06T18:18:00Z,Montalegre,Vila Real,Norte,-7.67086,41.756973,Resolução/Conclusão
25797191,Alfândega da Fé,Terras de Trás-os-Montes,309,2025-08-06T17:05:00Z,25797191,Em Resolução/Conclusão,3105,Incêndio rural,0,2,0,7,2025-08-06T17:05:00Z,Alfândega Da Fé,Bragança,Norte,-6.95611,41.35972,Resolução/Conclusão
25797573,Recezinhos (São Martinho),Tâmega e Sousa,309,2025-08-06T18:20:00Z,25797573,Em Curso,3103,Incêndio rural,0,2,0,10,2025-08-06T18:20:00Z,Penafiel,Porto,Norte,-8.224195,41.22119,Curso
25797927,Painho e Figueiros,Oeste,311,2025-08-06T19:35:00Z,25797927,Em Resolução/Conclusão,3103,Incêndio rural,0,3,0,9,2025-08-06T19:35:00Z,Caldas Da Rainha,Leiria,Centro,-9.026573,39.29599,Resolução/Conclusão
25797959,Avelãs de Ambom e Rocamondo,Beiras e Serra da Estrela,310,2025-08-06T19:42:00Z,25797959,Em Resolução/Conclusão,3103,Incêndio rural,0,2,0,6,2025-08-06T19:42:00Z,Guarda,Guarda,Centro,-7.24987,40.610843,Resolução/Conclusão
25798152,Rio Frio,Alto Minho,309,2025-08-06T20:29:00Z,25798152,Em Despacho,3103,Incêndio rural,0,1,0,5,2025-08-06T20:29:00Z,Arcos De Valdevez,Viana Do Castelo,Norte,-8.480992,41.858015,Despacho
25798161,Bárrio e Cepões,Alto Minho,309,2025-08-06T20:32:00Z,25798161,Em Despacho,3103,Incêndio rural,0,0,0,0,2025-08-06T20:32:00Z,Ponte De Lima,Viana Do Castelo,Norte,-8.574836,41.832336,Despacho
25798227,Nogueira do Cravo e Pindelo,Area M. Porto,309,2025-08-06T20:39:00Z,25798227,Em Despacho,3103,Incêndio rural,0,2,0,7,2025-08-06T20:39:00Z,Oliveira De Azeméis,Aveiro,Norte,-8.4523,40.886282,Despacho
25797640,Sande e São Lourenço,Tâmega e Sousa,309,2025-08-06T18:35:00Z,25797640,Em Resolução/Conclusão,3103,Incêndio rural,0,4,0,17,2025-08-06T18:35:00Z,Marco De Canaveses,Porto,Norte,-8.166042,41.099085,Resolução/Conclusão
25797885,Lavos,Região de Coimbra,310,2025-08-06T19:25:00Z,25797885,Em Resolução/Conclusão,3105,Incêndio rural,0,2,0,6,2025-08-06T19:25:00Z,Figueira Da Foz,Coimbra,Centro,-8.82,40.06944,Resolução/Conclusão
25797892,Lavradas,Alto Minho,309,2025-08-06T19:26:00Z,25797892,Em Resolução/Conclusão,3103,Incêndio rural,0,3,0,8,2025-08-06T19:26:00Z,Ponte Da Barca,Viana Do Castelo,Norte,-8.468345,41.796588,Resolução/Conclusão
25748118,Canelas e Espiunca,Area M. Porto,309,2025-07-28T17:16:00Z,25748118,Em Resolução/Conclusão,3101,Incêndio rural,0,4,0,12,2025-07-28T17:16:00Z,Arouca,Aveiro,Norte,-8.212231,40.969918,Resolução/Conclusão
25749320,Rebordões (Santa Maria),Alto Minho,309,2025-07-28T22:47:00Z,25749320,Em Resolução/Conclusão,3103,Incêndio rural,0,1,0,5,2025-07-28T22:47:00Z,Ponte De Lima,Viana Do Castelo,Norte,-8.588365,41.729993,Resolução/Conclusão
25776263,"Pena, Quintã e Vila Cova",Douro,309,2025-08-02T23:45:00Z,25776263,Em Resolução/Conclusão,3103,Incêndio rural,0,166,0,489,2025-08-02T23:45:00Z,Vila Real,Vila Real,Norte,-7.811902,41.317355,Resolução/Conclusão
25783717,Cunha Baixa,Viseu Dão Lafões,310,2025-08-04T11:48:00Z,25783717,Em Resolução/Conclusão,3101,Incêndio rural,0,1,0,2,2025-08-04T11:48:00Z,Mangualde,Viseu,Centro,-7.764411,40.559738,Resolução/Conclusão
25785204,Ribas,Tâmega e Sousa,309,2025-08-04T16:03:00Z,25785204,Em Resolução/Conclusão,3103,Incêndio rural,0,4,0,9,2025-08-04T16:03:00Z,Celorico De Basto,Braga,Norte,-8.022547,41.449583,Resolução/Conclusão
25787860,Faíl e Vila Chã de Sá,Viseu Dão Lafões,310,2025-08-05T05:55:00Z,25787860,Em Resolução/Conclusão,3103,Incêndio rural,0,0,0,0,2025-08-05T05:55:00Z,Viseu,Viseu,Centro,-7.987877,40.601342,Resolução/Conclusão
25793141,Beiral do Lima,Alto Minho,309,2025-08-05T23:55:00Z,25793141,Em Resolução/Conclusão,3103,Incêndio rural,0,2,0,7,2025-08-05T23:55:00Z,Ponte De Lima,Viana Do Castelo,Norte,-8.482547,41.757582,Resolução/Conclusão
25795348,Rio Frio,Alto Minho,309,2025-08-06T11:50:00Z,25795348,Em Resolução/Conclusão,3103,Incêndio rural,0,0,0,0,2025-08-06T11:50:00Z,Arcos De Valdevez,Viana Do Castelo,Norte,-8.507973,41.860385,Resolução/Conclusão
25795667,Pias,Alto Minho,309,2025-08-06T12:51:00Z,25795667,Em Resolução/Conclusão,3103,Incêndio rural,0,5,0,15,2025-08-06T12:51:00Z,Monção,Viana Do Castelo,Norte,-8.526247,42.018312,Resolução/Conclusão
25796634,Várzea Dos Cavaleiros,Beira Baixa,310,2025-08-06T15:20:00Z,25796634,Em Resolução/Conclusão,3103,Incêndio rural,0,59,0,211,2025-08-06T15:20:00Z,Sertã,Castelo Branco,Centro,-8.002335,39.78494,Resolução/Conclusão
25796969,Vila Chã do Marão,Tâmega e Sousa,309,2025-08-06T16:27:00Z,25796969,Em Resolução/Conclusão,3105,Incêndio rural,0,1,0,5,2025-08-06T16:27:00Z,Amarante,Porto,Norte,-8.036463,41.287092,Resolução/Conclusão
25797318,Samora Correia,Lezíria do Tejo,311,2025-08-06T17:31:00Z,25797318,Em Resolução/Conclusão,3103,Incêndio rural,0,1,0,2,2025-08-06T17:31:00Z,Benavente,Santarém,Alentejo,-8.75456,38.84542,Resolução/Conclusão
25797787,Rio Douro,Ave,309,2025-08-06T19:04:00Z,25797787,Em Resolução/Conclusão,3105,Incêndio rural,0,3,0,11,2025-08-06T19:04:00Z,Cabeceiras De Basto,Braga,Norte,-7.940727,41.557427,Resolução/Conclusão
25797804,Vilela,Area M. Porto,309,2025-08-06T19:00:00Z,25797804,Em Resolução/Conclusão,3103,Incêndio rural,0,0,0,0,2025-08-06T19:00:00Z,Paredes,Porto,Norte,-8.394535,41.233372,Resolução/Conclusão
25798072,Loures,Grande Lisboa,311,2025-08-06T20:11:00Z,25798072,Em Resolução/Conclusão,3103,Incêndio rural,0,4,0,13,2025-08-06T20:11:00Z,Loures,Lisboa,Área Metropolitana De Lisboa,-9.163639,38.820619,Resolução/Conclusão
25798204,Caíde de Rei,Tâmega e Sousa,309,2025-08-06T20:44:00Z,25798204,Em Despacho,3103,Incêndio rural,0,0,0,0,2025-08-06T20:44:00Z,Lousada,Porto,Norte,-8.237111,41.26623,Despacho
