id,address,subregion,neighborhood,date,id.1,state,nature,nature_description,aerial_means,terrestrial_means,aquatic_means,operational,date.1,Concelho,Distrito,NUTII_DSG,longitude,latitude
25503556,Portela e Extremo,Alto Minho,309,2025-06-10T00:57:00Z,25503556,Em conclusão,3103,Incêndio rural,0,1,0,2,2025-06-10T00:57:00Z,Arcos De Valdevez,Viana Do Castelo,Norte,-8.464202,41.960325
25504408,Macieira de Cambra,Area M. Porto,309,2025-06-10T09:10:00Z,25504408,Em resolução,3107,Consolidação de rescaldo de incêndio rural,0,1,0,5,2025-06-10T09:10:00Z,Vale De Cambra,Aveiro,Norte,-8.369678,40.87889
25504593,Moita,Península de Setúbal,311,2025-06-10T10:03:00Z,25504593,Em despacho,2201,Incêndio em equipamentos ou produtos,0,1,0,5,2025-06-10T10:03:00Z,Moita,Setúbal,Área Metropolitana De Lisboa,-8.97845,38.63652
25504047,Monte Redondo,Alto Minho,309,2025-06-10T07:50:00Z,25504047,Em resolução,3103,Incêndio rural,0,4,0,12,2025-06-10T07:50:00Z,Arcos De Valdevez,Viana Do Castelo,Norte,-8.44661,41.833125
25504540,São Bento do Mato,Alentejo Central,312,2025-06-10T09:52:00Z,25504540,Em despacho,2301,Incêndio em transporte rodoviário,0,5,0,10,2025-06-10T09:52:00Z,Évora,Évora,Alentejo,-7.797058,38.705159
25504654,Alcantarilha e Pêra,Algarve,313,2025-06-10T10:17:00Z,25504654,Em despacho,3103,Incêndio rural,0,1,0,5,2025-06-10T10:17:00Z,Silves,Faro,Algarve,-8.325536,37.143891000000004
25504248,Corroios,Península de Setúbal,311,2025-06-10T08:36:00Z,25504248,Em conclusão,3201,Detritos não confinados,0,2,0,5,2025-06-10T08:36:00Z,Seixal,Setúbal,Área Metropolitana De Lisboa,-9.156509,38.644129
25504437,Alcantarilha e Pêra,Algarve,313,2025-06-10T09:26:00Z,25504437,Em conclusão,3103,Incêndio rural,0,2,0,7,2025-06-10T09:26:00Z,Silves,Faro,Algarve,-8.330372,37.12936
25504564,Olhão,Algarve,313,2025-06-10T09:52:00Z,25504564,Em conclusão,3103,Incêndio rural,0,4,0,17,2025-06-10T09:52:00Z,Olhão,Faro,Algarve,-7.843133,37.022054
