id,address,subregion,neighborhood,date,id.1,state,nature,nature_description,aerial_means,terrestrial_means,aquatic_means,operational,date.1,Concelho,Distrito,NUTII_DSG,longitude,latitude,state_2
25712338,Cercal,Alentejo Litoral,312,2025-07-21T17:38:00Z,25712338,Em Resolução/Conclusão,3103,Incêndio rural,0,21,0,55,2025-07-21T17:38:00Z,Santiago Do Cacém,Setúbal,Alentejo,-8.682272,37.791582,Resolução/Conclusão
25715665,Rio de Moinhos,Médio Tejo,311,2025-07-22T11:54:00Z,25715665,Em Resolução/Conclusão,3103,Incêndio rural,0,0,0,0,2025-07-22T11:54:00Z,Abrantes,Santarém,Centro,-8.27888,39.495318,Resolução/Conclusão
25716617,Alquerubim,Região de Aveiro,310,2025-07-22T14:47:00Z,25716617,Em Resolução/Conclusão,3101,Incêndio rural,3,13,0,53,2025-07-22T14:47:00Z,Albergaria-a-Velha,Aveiro,Centro,-8.503263,40.635405,Resolução/Conclusão
25716716,Eixo e Eirol,Região de Aveiro,310,2025-07-22T15:06:00Z,25716716,Em Resolução/Conclusão,3101,Incêndio rural,0,2,0,7,2025-07-22T15:06:00Z,Aveiro,Aveiro,Centro,-8.539589,40.608655,Resolução/Conclusão
25716850,Atalaia e Alto-Estanqueiro-Jardia,Península de Setúbal,311,2025-07-22T15:31:00Z,25716850,Em Resolução/Conclusão,3103,Incêndio rural,0,1,0,5,2025-07-22T15:31:00Z,Montijo,Setúbal,Área Metropolitana De Lisboa,-8.924935,38.710495,Resolução/Conclusão
25717015,Ossela,Area M. Porto,309,2025-07-22T16:00:00Z,25717015,Em Despacho,3103,Incêndio rural,0,3,0,10,2025-07-22T16:00:00Z,Oliveira De Azeméis,Aveiro,Norte,-8.430684,40.828709,Despacho
25716135,Palaçoulo,Terras de Trás-os-Montes,309,2025-07-22T13:22:00Z,25716135,Em Resolução/Conclusão,3103,Incêndio rural,0,3,0,12,2025-07-22T13:22:00Z,Miranda Do Douro,Bragança,Norte,-6.430875,41.404038,Resolução/Conclusão
25716294,Canelas e Fermelã,Região de Aveiro,310,2025-07-22T13:52:00Z,25716294,Em Resolução/Conclusão,3103,Incêndio rural,0,7,0,25,2025-07-22T13:52:00Z,Estarreja,Aveiro,Centro,-8.543075,40.697923,Resolução/Conclusão
25716362,Carregueira,Lezíria do Tejo,311,2025-07-22T14:01:00Z,25716362,Em Resolução/Conclusão,3103,Incêndio rural,0,2,0,3,2025-07-22T14:01:00Z,Chamusca,Santarém,Alentejo,-8.347285,39.426922,Resolução/Conclusão
25716660,Alvarenga,Area M. Porto,309,2025-07-22T14:52:00Z,25716660,Em Resolução/Conclusão,3103,Incêndio rural,0,6,0,25,2025-07-22T14:52:00Z,Arouca,Aveiro,Norte,-8.16521,40.97857,Resolução/Conclusão
25711397,Vale da Pedra,Lezíria do Tejo,311,2025-07-21T14:16:00Z,25711397,Em Resolução/Conclusão,3103,Incêndio rural,0,0,0,0,2025-07-21T14:16:00Z,Cartaxo,Santarém,Alentejo,-8.783137,39.110872,Resolução/Conclusão
25715802,Abrantes (São Vicente e São João) e Alferrarede,Médio Tejo,311,2025-07-22T12:16:00Z,25715802,Em Resolução/Conclusão,3103,Incêndio rural,0,0,0,0,2025-07-22T12:16:00Z,Abrantes,Santarém,Centro,-8.211658,39.486935,Resolução/Conclusão
25715993,Azueira e Sobral da Abelheira,Grande Lisboa,311,2025-07-22T12:53:00Z,25715993,Em Resolução/Conclusão,3103,Incêndio rural,0,15,0,53,2025-07-22T12:53:00Z,Mafra,Lisboa,Área Metropolitana De Lisboa,-9.323877,38.988737,Resolução/Conclusão
25716118,Alvite,Douro,309,2025-07-22T13:18:00Z,25716118,Em Resolução/Conclusão,3101,Incêndio rural,0,4,0,14,2025-07-22T13:18:00Z,Moimenta Da Beira,Viseu,Norte,-7.71388,40.952273,Resolução/Conclusão
25716468,São Domingos de Rana,Grande Lisboa,311,2025-07-22T14:22:00Z,25716468,Em Resolução/Conclusão,3103,Incêndio rural,0,7,0,26,2025-07-22T14:22:00Z,Cascais,Lisboa,Área Metropolitana De Lisboa,-9.337557,38.743192,Resolução/Conclusão
25716736,Ligares,Douro,309,2025-07-22T15:13:00Z,25716736,Em Resolução/Conclusão,3103,Incêndio rural,0,7,0,30,2025-07-22T15:13:00Z,Freixo De Espada à Cinta,Bragança,Norte,-6.968937,41.070995,Resolução/Conclusão
25716223,Rio de Moinhos,Médio Tejo,311,2025-07-22T13:38:00Z,25716223,Em Resolução/Conclusão,3103,Incêndio rural,0,1,0,2,2025-07-22T13:38:00Z,Abrantes,Santarém,Centro,-8.278835,39.49534,Resolução/Conclusão
25716558,Alquerubim,Região de Aveiro,310,2025-07-22T14:38:00Z,25716558,Em Resolução/Conclusão,3101,Incêndio rural,0,14,0,50,2025-07-22T14:38:00Z,Albergaria-a-Velha,Aveiro,Centro,-8.51459,40.626095,Resolução/Conclusão
25716857,Martinchel,Médio Tejo,311,2025-07-22T15:32:00Z,25716857,Em Resolução/Conclusão,3103,Incêndio rural,0,8,0,26,2025-07-22T15:32:00Z,Abrantes,Santarém,Centro,-8.324118,39.531405,Resolução/Conclusão
25716928,Panque,Cávado,309,2025-07-22T15:40:00Z,25716928,Em Curso,3103,Incêndio rural,0,1,0,5,2025-07-22T15:40:00Z,Barcelos,Braga,Norte,-8.57951,41.642005,Curso
25716964,Faro (Sé e São Pedro),Algarve,313,2025-07-22T15:57:00Z,25716964,Em Resolução/Conclusão,3103,Incêndio rural,0,5,0,18,2025-07-22T15:57:00Z,Faro,Faro,Algarve,-7.961044,37.059227,Resolução/Conclusão
25716969,"Malhou, Louriceira e Espinheiro",Médio Tejo,311,2025-07-22T15:53:00Z,25716969,Em Resolução/Conclusão,3103,Incêndio rural,0,3,0,8,2025-07-22T15:53:00Z,Alcanena,Santarém,Centro,-8.73465,39.47079,Resolução/Conclusão
25716980,Sesimbra (Santiago),Península de Setúbal,311,2025-07-22T16:01:00Z,25716980,Em Despacho,3103,Incêndio rural,0,2,0,10,2025-07-22T16:01:00Z,Sesimbra,Setúbal,Área Metropolitana De Lisboa,-9.0973,38.44453,Despacho
25717037,Lagares,Região de Coimbra,310,2025-07-22T16:12:00Z,25717037,Em Despacho,3103,Incêndio rural,1,8,0,42,2025-07-22T16:12:00Z,Oliveira Do Hospital,Coimbra,Centro,-7.857471,40.402827,Despacho
