id,address,subregion,neighborhood,date,id.1,state,nature,nature_description,aerial_means,terrestrial_means,aquatic_means,operational,date.1,Concelho,Distrito,NUTII_DSG,longitude,latitude
25567047,Agilde,Tâmega e Sousa,309,2025-06-23T10:30:00Z,25567047,Em conclusão,3103,Incêndio rural,0,2,0,7,2025-06-23T10:30:00Z,Celorico De Basto,Braga,Norte,-8.129673,41.373433
25567563,"Camarate, Unhos e Apelação",Grande Lisboa,311,2025-06-23T12:10:00Z,25567563,Em curso,3105,Incêndio rural,0,5,0,18,2025-06-23T12:10:00Z,Loures,Lisboa,Área Metropolitana De Lisboa,-9.10924,38.80642
25553154,Pedrógão,Baixo Alentejo,312,2025-06-20T12:23:00Z,25553154,Em conclusão,3103,Incêndio rural,0,0,0,0,2025-06-20T12:23:00Z,Vidigueira,Beja,Alentejo,-7.549947,38.179912
25566638,Cabeça Boa,Douro,309,2025-06-23T09:27:00Z,25566638,Em despacho,3107,Consolidação de rescaldo de incêndio rural,0,1,0,5,2025-06-23T09:27:00Z,Torre De Moncorvo,Bragança,Norte,-7.152123,41.191413
25567558,Lindoso,Alto Minho,309,2025-06-23T12:09:00Z,25567558,Em curso,3107,Consolidação de rescaldo de incêndio rural,0,1,0,5,2025-06-23T12:09:00Z,Ponte Da Barca,Viana Do Castelo,Norte,-8.242327,41.861655
25567641,Ermelo e Pardelhas,Ave,309,2025-06-23T12:29:00Z,25567641,Em despacho,3107,Consolidação de rescaldo de incêndio rural,0,1,0,5,2025-06-23T12:29:00Z,Mondim De Basto,Vila Real,Norte,-7.835997,41.35894
