id,address,subregion,neighborhood,date,id.1,state,nature,nature_description,aerial_means,terrestrial_means,aquatic_means,operational,date.1,Concelho,Distrito,NUTII_DSG,longitude,latitude,state_2
26155924,Baguim do Monte (Rio Tinto),Area M. Porto,309,2025-10-18T14:34:00Z,26155924,Em Resolução/Conclusão,3103,Incêndio rural,0,1,0,3,2025-10-18T14:34:00Z,Gondomar,Porto,Norte,-8.53429,41.19883,Resolução/Conclusão
26156265,Viade de Baixo e Fervidelas,Alto Tâmega e Barroso,309,2025-10-18T15:45:00Z,26156265,Em Curso,3103,Incêndio rural,0,9,0,35,2025-10-18T15:45:00Z,Montalegre,Vila Real,Norte,-7.834732,41.773632,Curso
26156349,Castedo e Cotas,Douro,309,2025-10-18T16:05:00Z,26156349,Em Resolução/Conclusão,3103,Incêndio rural,0,4,0,17,2025-10-18T16:05:00Z,Alijó,Vila Real,Norte,-7.452003,41.228702,Resolução/Conclusão
26156683,Tourém,Alto Tâmega e Barroso,309,2025-10-18T17:20:00Z,26156683,Em Resolução/Conclusão,3103,Incêndio rural,0,3,0,11,2025-10-18T17:20:00Z,Montalegre,Vila Real,Norte,-7.888255,41.910598,Resolução/Conclusão
26156792,Recarei,Area M. Porto,309,2025-10-18T17:44:00Z,26156792,Em Resolução/Conclusão,3103,Incêndio rural,0,1,0,2,2025-10-18T17:44:00Z,Paredes,Porto,Norte,-8.426957,41.161483,Resolução/Conclusão
26156833,São Gens,Ave,309,2025-10-18T17:54:00Z,26156833,Em Resolução/Conclusão,3103,Incêndio rural,0,1,0,3,2025-10-18T17:54:00Z,Fafe,Braga,Norte,-8.105738,41.438918,Resolução/Conclusão
26156926,Sousela,Tâmega e Sousa,309,2025-10-18T18:11:00Z,26156926,Em Resolução/Conclusão,3103,Incêndio rural,0,3,0,9,2025-10-18T18:11:00Z,Lousada,Porto,Norte,-8.315237,41.312162,Resolução/Conclusão
26157067,"Raiva, Pedorido e Paraíso",Tâmega e Sousa,309,2025-10-18T19:00:00Z,26157067,Em Resolução/Conclusão,3103,Incêndio rural,0,1,0,5,2025-10-18T19:00:00Z,Castelo De Paiva,Aveiro,Norte,-8.35368,41.02109,Resolução/Conclusão
26157078,Fornos do Pinhal,Alto Tâmega e Barroso,309,2025-10-18T19:02:00Z,26157078,Em Despacho,3103,Incêndio rural,0,1,0,5,2025-10-18T19:02:00Z,Valpaços,Vila Real,Norte,-7.258672,41.65121,Despacho
26157126,Santa Cruz do Douro e São Tomé de Covelas,Tâmega e Sousa,309,2025-10-18T19:05:00Z,26157126,Em Resolução/Conclusão,3103,Incêndio rural,0,1,0,5,2025-10-18T19:05:00Z,Baião,Porto,Norte,-7.998456,41.123167,Resolução/Conclusão
26157201,Várzea,Area M. Porto,309,2025-10-18T19:20:00Z,26157201,Em Resolução/Conclusão,3105,Incêndio rural,0,1,0,5,2025-10-18T19:20:00Z,Arouca,Aveiro,Norte,-8.305931,40.924445,Resolução/Conclusão
26156114,Tornada e Salir do Porto,Oeste,311,2025-10-18T15:12:00Z,26156114,Em Resolução/Conclusão,3101,Incêndio rural,0,1,0,5,2025-10-18T15:12:00Z,Caldas Da Rainha,Leiria,Centro,-9.15226,39.43258,Resolução/Conclusão
26157070,"Margaride (Santa Eulália), Várzea, Lagares, Varziela e Moure",Tâmega e Sousa,309,2025-10-18T18:48:00Z,26157070,Em Resolução/Conclusão,3103,Incêndio rural,0,2,0,5,2025-10-18T18:48:00Z,Felgueiras,Porto,Norte,-8.200935,41.361848,Resolução/Conclusão
26157127,Lustosa e Barrosas (Santo Estêvão),Tâmega e Sousa,309,2025-10-18T19:12:00Z,26157127,Em Despacho,3103,Incêndio rural,0,0,0,0,2025-10-18T19:12:00Z,Lousada,Porto,Norte,-8.31091,41.33343,Despacho
26156244,"Real, Ataíde e Oliveira",Tâmega e Sousa,309,2025-10-18T15:35:00Z,26156244,Em Resolução/Conclusão,3103,Incêndio rural,0,9,0,26,2025-10-18T15:35:00Z,Amarante,Porto,Norte,-8.171672,41.257368,Resolução/Conclusão
26156294,Calde,Viseu Dão Lafões,310,2025-10-18T15:50:00Z,26156294,Em Resolução/Conclusão,3101,Incêndio rural,0,8,0,24,2025-10-18T15:50:00Z,Viseu,Viseu,Centro,-7.940081,40.763201,Resolução/Conclusão
26156812,Mesão Frio (Santo André),Douro,309,2025-10-18T17:49:00Z,26156812,Em Resolução/Conclusão,3103,Incêndio rural,0,2,0,10,2025-10-18T17:49:00Z,Mesão Frio,Vila Real,Norte,-7.884862,41.178395,Resolução/Conclusão
26157099,Anjos e Vilar do Chão,Ave,309,2025-10-18T19:06:00Z,26157099,Em Resolução/Conclusão,3103,Incêndio rural,0,1,0,5,2025-10-18T19:06:00Z,Vieira Do Minho,Braga,Norte,-8.06865,41.616567,Resolução/Conclusão
26157148,Couto de Baixo e Couto de Cima,Viseu Dão Lafões,310,2025-10-18T19:15:00Z,26157148,Em Despacho,3111,Queima,0,3,0,10,2025-10-18T19:15:00Z,Viseu,Viseu,Centro,-8.02075,40.682262,Despacho
26157248,"Taveiro, Ameal e Arzila",Região de Coimbra,310,2025-10-18T19:39:00Z,26157248,Em Despacho,3105,Incêndio rural,0,3,0,12,2025-10-18T19:39:00Z,Coimbra,Coimbra,Centro,-8.548775,40.183564,Despacho
26156036,Vila Nova de São Bento e Vale de Vargo,Baixo Alentejo,312,2025-10-18T14:58:00Z,26156036,Em Resolução/Conclusão,3105,Incêndio rural,0,10,0,28,2025-10-18T14:58:00Z,Serpa,Beja,Alentejo,-7.379152,37.882523,Resolução/Conclusão
26156756,Monte Real e Carvide,Região de Leiria,310,2025-10-18T17:36:00Z,26156756,Em Resolução/Conclusão,3105,Incêndio rural,0,6,0,21,2025-10-18T17:36:00Z,Leiria,Leiria,Centro,-8.865167,39.827822,Resolução/Conclusão
26156907,Figueiró (Santiago e Santa Cristina),Tâmega e Sousa,309,2025-10-18T18:10:00Z,26156907,Em Resolução/Conclusão,3103,Incêndio rural,0,1,0,3,2025-10-18T18:10:00Z,Amarante,Porto,Norte,-8.160598,41.302727,Resolução/Conclusão
26157124,"Ponte da Barca, V. N. Muía e Paço Vedro Magalhães",Alto Minho,309,2025-10-18T19:10:00Z,26157124,Em Curso,3103,Incêndio rural,0,1,0,5,2025-10-18T19:10:00Z,Ponte Da Barca,Viana Do Castelo,Norte,-8.40236,41.80296,Curso
26157156,Rio de Mouro,Grande Lisboa,311,2025-10-18T19:19:00Z,26157156,Em Resolução/Conclusão,3103,Incêndio rural,0,3,0,9,2025-10-18T19:19:00Z,Sintra,Lisboa,Área Metropolitana De Lisboa,-9.338358,38.770977,Resolução/Conclusão
26157206,Pinheiro,Tâmega e Sousa,309,2025-10-18T19:29:00Z,26157206,Em Despacho,3103,Incêndio rural,0,1,0,5,2025-10-18T19:29:00Z,Felgueiras,Porto,Norte,-8.157257,41.37476,Despacho
26157240,Ponte do Rol,Oeste,311,2025-10-18T19:38:00Z,26157240,Em Resolução/Conclusão,3111,Queima,0,1,0,2,2025-10-18T19:38:00Z,Torres Vedras,Lisboa,Centro,-9.309331,39.09472,Resolução/Conclusão
26157177,Bougado (São Martinho e Santiago),Area M. Porto,309,2025-10-18T19:06:00Z,26157177,Em Resolução/Conclusão,3103,Incêndio rural,0,1,0,2,2025-10-18T19:06:00Z,Trofa,Porto,Norte,-8.547788,41.331918,Resolução/Conclusão
26157280,Nogueira e Silva Escura,Area M. Porto,309,2025-10-18T19:48:00Z,26157280,Em Despacho,3103,Incêndio rural,0,0,0,0,2025-10-18T19:48:00Z,Maia,Porto,Norte,-8.595359,41.23449,Despacho
26157298,Sobrosa,Area M. Porto,309,2025-10-18T19:52:00Z,26157298,Em Despacho,3103,Incêndio rural,0,0,0,0,2025-10-18T19:52:00Z,Paredes,Porto,Norte,-8.35613,41.25742,Despacho
26157299,Sapataria,Oeste,311,2025-10-18T19:48:00Z,26157299,Em Despacho,3111,Queima,0,1,0,5,2025-10-18T19:48:00Z,Sobral De Monte Agraço,Lisboa,Centro,-9.208422,38.965236,Despacho
