id,address,subregion,neighborhood,date,id.1,state,nature,nature_description,aerial_means,terrestrial_means,aquatic_means,operational,date.1,Concelho,Distrito,NUTII_DSG,longitude,latitude
25234516,Ericeira,Grande Lisboa,311,2025-04-13T08:00:00Z,25234516,Em despacho,3315,Inundação de estruturas por precipitação intensa,0,1,0,4,2025-04-13T08:00:00Z,Mafra,Lisboa,Área Metropolitana De Lisboa,-9.417289,38.967626
25234893,Ramada e Caneças,Grande Lisboa,311,2025-04-13T10:27:00Z,25234893,Em despacho,3301,Queda de árvore,0,1,0,4,2025-04-13T10:27:00Z,Odivelas,Lisboa,Área Metropolitana De Lisboa,-9.194441,38.801427
25234852,Vila Velha de Ródão,Beira Baixa,310,2025-04-13T10:17:00Z,25234852,Em despacho,3315,Inundação de estruturas por precipitação intensa,0,2,0,5,2025-04-13T10:17:00Z,Vila Velha De Ródão,Castelo Branco,Centro,-7.699634,39.658447
25070044,Praia do Ribatejo,Médio Tejo,311,2025-03-10T19:30:00Z,25070044,Em curso,1101,Cheia,0,0,0,0,2025-03-10T19:30:00Z,Vila Nova Da Barquinha,Santarém,Centro,-8.357309,39.485638
25071496,São Manços e São Vicente do Pigeiro,Alentejo Central,312,2025-03-11T13:18:00Z,25071496,Em conclusão,1101,Cheia,0,0,0,0,2025-03-11T13:18:00Z,Évora,Évora,Alentejo,-7.713313,38.513673
25202441,Serpa (Salvador e Santa Maria),Baixo Alentejo,312,2025-04-06T10:25:00Z,25202441,Em conclusão,1101,Cheia,0,0,0,0,2025-04-06T10:25:00Z,Serpa,Beja,Alentejo,-7.555783,37.88592
25068300,Almeirim,Lezíria do Tejo,311,2025-03-10T20:52:00Z,25068300,Em curso,1101,Cheia,0,0,0,0,2025-03-10T20:52:00Z,Almeirim,Santarém,Alentejo,-8.635002,39.187436
