id,address,subregion,neighborhood,date,id.1,state,nature,nature_description,aerial_means,terrestrial_means,aquatic_means,operational,date.1,Concelho,Distrito,NUTII_DSG,longitude,latitude,state_2
26013405,Barreiros e Cepões,Viseu Dão Lafões,310,2025-09-19T11:56:00Z,26013405,Em Resolução/Conclusão,3103,Incêndio rural,0,9,0,36,2025-09-19T11:56:00Z,Viseu,Viseu,Centro,-7.786007,40.76602,Resolução/Conclusão
26022429,"Coz, Alpedriz e Montes",Oeste,311,2025-09-21T10:13:00Z,26022429,Em Resolução/Conclusão,3101,Incêndio rural,0,2,0,7,2025-09-21T10:13:00Z,Alcobaça,Leiria,Centro,-8.922105,39.590488,Resolução/Conclusão
26022995,Bordeira,Algarve,313,2025-09-21T12:21:00Z,26022995,Em Curso,3103,Incêndio rural,9,53,0,190,2025-09-21T12:21:00Z,Aljezur,Faro,Algarve,-8.825374,37.23495,Curso
25951176,Sandomil,Beiras e Serra da Estrela,310,2025-09-06T10:29:00Z,25951176,Em Resolução/Conclusão,3103,Incêndio rural,0,2,0,10,2025-09-06T10:29:00Z,Seia,Guarda,Centro,-7.76001,40.351547,Resolução/Conclusão
26020631,"Tavares (Chãs, Várzea e Travanca)",Viseu Dão Lafões,310,2025-09-20T21:15:00Z,26020631,Em Resolução/Conclusão,3103,Incêndio rural,0,2,0,10,2025-09-20T21:15:00Z,Mangualde,Viseu,Centro,-7.639468,40.609133,Resolução/Conclusão
26023007,Viade de Baixo e Fervidelas,Alto Tâmega e Barroso,309,2025-09-21T12:25:00Z,26023007,Em Resolução/Conclusão,3103,Incêndio rural,0,3,0,13,2025-09-21T12:25:00Z,Montalegre,Vila Real,Norte,-7.825565,41.732382,Resolução/Conclusão
26023037,Rio Maior,Lezíria do Tejo,311,2025-09-21T12:34:00Z,26023037,Em Curso,3103,Incêndio rural,0,4,0,17,2025-09-21T12:34:00Z,Rio Maior,Santarém,Alentejo,-8.924637,39.35585,Curso
26003298,Barreiros e Cepões,Viseu Dão Lafões,310,2025-09-17T12:05:00Z,26003298,Em Resolução/Conclusão,3101,Incêndio rural,0,1,0,2,2025-09-17T12:05:00Z,Viseu,Viseu,Centro,-7.825281,40.745844,Resolução/Conclusão
26013065,Mezio e Moura Morta,Viseu Dão Lafões,310,2025-09-19T11:05:00Z,26013065,Em Resolução/Conclusão,3103,Incêndio rural,0,32,0,156,2025-09-19T11:05:00Z,Castro Daire,Viseu,Centro,-7.878187,40.98632,Resolução/Conclusão
26013919,Ervedal e Vila Franca da Beira,Região de Coimbra,310,2025-09-19T13:25:00Z,26013919,Em Resolução/Conclusão,3103,Incêndio rural,1,21,0,75,2025-09-19T13:25:00Z,Oliveira Do Hospital,Coimbra,Centro,-7.90472,40.43917,Resolução/Conclusão
26021680,Cimo de Vila da Castanheira,Alto Tâmega e Barroso,309,2025-09-21T07:00:00Z,26021680,Em Resolução/Conclusão,3103,Incêndio rural,0,1,0,5,2025-09-21T07:00:00Z,Chaves,Vila Real,Norte,-7.303293,41.804648,Resolução/Conclusão
26022857,NA,NA,0,2025-09-21T08:20:00Z,26022857,Em Curso,3103,Incêndio rural,1,5,0,19,2025-09-21T08:20:00Z,NA,NA,NA,-8.10654,41.86587,Curso
25832672,Piódão,Região de Coimbra,310,2025-08-13T05:08:00Z,25832672,Em Resolução/Conclusão,3103,Incêndio rural,0,0,0,0,2025-08-13T05:08:00Z,Arganil,Coimbra,Centro,-7.81972,40.23083,Resolução/Conclusão
26013902,Penacova,Região de Coimbra,310,2025-09-19T13:28:00Z,26013902,Em Resolução/Conclusão,3103,Incêndio rural,0,1,0,4,2025-09-19T13:28:00Z,Penacova,Coimbra,Centro,-8.32583,40.32722,Resolução/Conclusão
26016785,Gralhas,Alto Tâmega e Barroso,309,2025-09-20T01:20:00Z,26016785,Em Resolução/Conclusão,3103,Incêndio rural,2,56,0,203,2025-09-20T01:20:00Z,Montalegre,Vila Real,Norte,-7.720897,41.880163,Resolução/Conclusão
26019877,Guardão,Viseu Dão Lafões,310,2025-09-20T17:50:00Z,26019877,Em Resolução/Conclusão,3103,Incêndio rural,0,6,0,22,2025-09-20T17:50:00Z,Tondela,Viseu,Centro,-8.148484,40.610274,Resolução/Conclusão
26023167,Perozelo,Tâmega e Sousa,309,2025-09-21T13:11:00Z,26023167,Em Despacho,3103,Incêndio rural,1,2,0,16,2025-09-21T13:11:00Z,Penafiel,Porto,Norte,-8.26514,41.14569,Despacho
26023186,Águeda e Borralha,Região de Aveiro,310,2025-09-21T13:13:00Z,26023186,Em Despacho,3103,Incêndio rural,0,2,0,10,2025-09-21T13:13:00Z,Águeda,Aveiro,Centro,-8.437223,40.55552,Despacho
