id,address,subregion,neighborhood,date,id.1,state,nature,nature_description,aerial_means,terrestrial_means,aquatic_means,operational,date.1,Concelho,Distrito,NUTII_DSG,longitude,latitude,state_2
26135691,Cabanelas,Cávado,309,2025-10-14T13:30:00Z,26135691,Em Resolução/Conclusão,3111,Queima,0,2,0,7,2025-10-14T13:30:00Z,Vila Verde,Braga,Norte,-8.500427,41.595315,Resolução/Conclusão
26136173,Veiros,Alentejo Central,312,2025-10-14T14:52:00Z,26136173,Em Resolução/Conclusão,3103,Incêndio rural,0,6,0,20,2025-10-14T14:52:00Z,Estremoz,Évora,Alentejo,-7.467087,38.955028,Resolução/Conclusão
26136358,São Torcato,Ave,309,2025-10-14T15:27:00Z,26136358,Em Despacho,3103,Incêndio rural,1,0,0,6,2025-10-14T15:27:00Z,Guimarães,Braga,Norte,-8.27116,41.47371,Despacho
26134710,Dornelas,Alto Tâmega e Barroso,309,2025-10-14T10:34:00Z,26134710,Em Resolução/Conclusão,3103,Incêndio rural,0,2,0,10,2025-10-14T10:34:00Z,Boticas,Vila Real,Norte,-7.850045,41.67118,Resolução/Conclusão
26135730,Carvalhal,Oeste,311,2025-10-14T13:38:00Z,26135730,Em Resolução/Conclusão,3103,Incêndio rural,0,3,0,9,2025-10-14T13:38:00Z,Bombarral,Leiria,Centro,-9.1338,39.28001,Resolução/Conclusão
26135898,São Martinho Das Moitas e Covas do Rio,Viseu Dão Lafões,310,2025-10-14T14:08:00Z,26135898,Em Resolução/Conclusão,3103,Incêndio rural,0,2,0,10,2025-10-14T14:08:00Z,São Pedro Do Sul,Viseu,Centro,-8.077023,40.924037,Resolução/Conclusão
26136164,Alvora e Loureda,Alto Minho,309,2025-10-14T14:50:00Z,26136164,Em Resolução/Conclusão,3103,Incêndio rural,1,1,0,11,2025-10-14T14:50:00Z,Arcos De Valdevez,Viana Do Castelo,Norte,-8.441895,41.950902,Resolução/Conclusão
26136234,Alpiarça,Lezíria do Tejo,311,2025-10-14T15:03:00Z,26136234,Em Resolução/Conclusão,3103,Incêndio rural,0,10,0,40,2025-10-14T15:03:00Z,Alpiarça,Santarém,Alentejo,-8.567572,39.180697,Resolução/Conclusão
26136102,São Pedro e Santa Maria e Vila Boa do Mondego,Beiras e Serra da Estrela,310,2025-10-14T14:41:00Z,26136102,Em Resolução/Conclusão,3103,Incêndio rural,0,3,0,9,2025-10-14T14:41:00Z,Celorico Da Beira,Guarda,Centro,-7.393468,40.633015,Resolução/Conclusão
26136295,Lordelo,Area M. Porto,309,2025-10-14T15:12:00Z,26136295,Em Resolução/Conclusão,3103,Incêndio rural,0,1,0,5,2025-10-14T15:12:00Z,Paredes,Porto,Norte,-8.42443,41.241457,Resolução/Conclusão
26130196,Sardoal,Médio Tejo,311,2025-10-13T11:45:00Z,26130196,Em Resolução/Conclusão,3101,Incêndio rural,0,2,0,8,2025-10-13T11:45:00Z,Sardoal,Santarém,Centro,-8.118693,39.516055,Resolução/Conclusão
26136185,Pias,Baixo Alentejo,312,2025-10-14T14:52:00Z,26136185,Em Resolução/Conclusão,3103,Incêndio rural,0,11,0,35,2025-10-14T14:52:00Z,Serpa,Beja,Alentejo,-7.47691,38.0148,Resolução/Conclusão
