id,address,subregion,neighborhood,date,id.1,state,nature,nature_description,aerial_means,terrestrial_means,aquatic_means,operational,date.1,Concelho,Distrito,NUTII_DSG,longitude,latitude
24888293,Pernes,Lezíria do Tejo,311,2025-01-29T16:41:00Z,24888293,Em curso,3301,Queda de árvore,0,0,0,0,2025-01-29T16:41:00Z,Santarém,Santarém,Alentejo,-8.658865,39.381547
24991398,Carcavelos e Parede,Grande Lisboa,311,2025-02-21T15:17:00Z,24991398,Em despacho,3315,Inundação de estruturas por precipitação intensa,0,1,0,6,2025-02-21T15:17:00Z,Cascais,Lisboa,Área Metropolitana De Lisboa,-9.332918,38.6957
24991441,Massamá e Monte Abraão,Grande Lisboa,311,2025-02-21T15:15:00Z,24991441,Em conclusão,3301,Queda de árvore,0,3,0,13,2025-02-21T15:15:00Z,Sintra,Lisboa,Área Metropolitana De Lisboa,-9.288089,38.750267
24991784,Carnaxide e Queijas,Grande Lisboa,311,2025-02-21T16:30:00Z,24991784,Em despacho,3315,Inundação de estruturas por precipitação intensa,0,1,0,2,2025-02-21T16:30:00Z,Oeiras,Lisboa,Área Metropolitana De Lisboa,-9.256277,38.716014
24990493,Zibreira,Médio Tejo,311,2025-02-21T12:06:00Z,24990493,Em despacho,3329,Queda de estruturas temporárias ou móveis,0,2,0,4,2025-02-21T12:06:00Z,Torres Novas,Santarém,Centro,-8.625817,39.479641
24991161,Santo António Dos Olivais,Região de Coimbra,310,2025-02-21T14:20:00Z,24991161,Em despacho,3311,Queda de elementos de estruturas edificados,0,1,0,3,2025-02-21T14:20:00Z,Coimbra,Coimbra,Centro,-8.426807,40.217261
24991646,"Cedofeita, Ildefonso, Sé, Miragaia, Nicolau e Vitória",Area M. Porto,309,2025-02-21T16:00:00Z,24991646,Em despacho,3315,Inundação de estruturas por precipitação intensa,0,1,0,4,2025-02-21T16:00:00Z,Porto,Porto,Norte,-8.615939,41.15359
24991454,Ramada e Caneças,Grande Lisboa,311,2025-02-21T15:12:00Z,24991454,Em conclusão,3301,Queda de árvore,0,3,0,5,2025-02-21T15:12:00Z,Odivelas,Lisboa,Área Metropolitana De Lisboa,-9.225171,38.812571
24991603,"Camarate, Unhos e Apelação",Grande Lisboa,311,2025-02-21T15:37:00Z,24991603,Em despacho,3311,Queda de elementos de estruturas edificados,0,3,0,9,2025-02-21T15:37:00Z,Loures,Lisboa,Área Metropolitana De Lisboa,-9.139208,38.802817
24877003,Malagueira e Horta Das Figueiras,Alentejo Central,312,2025-01-27T11:41:00Z,24877003,Em conclusão,3315,Inundação de estruturas por precipitação intensa,0,0,0,0,2025-01-27T11:41:00Z,Évora,Évora,Alentejo,-7.924277,38.57285
24991656,Arganil,Região de Coimbra,310,2025-02-21T16:05:00Z,24991656,Em despacho,3301,Queda de árvore,0,1,0,3,2025-02-21T16:05:00Z,Arganil,Coimbra,Centro,-8.049704,40.220309
24991801,Abrantes (São Vicente e São João) e Alferrarede,Médio Tejo,311,2025-02-21T16:43:00Z,24991801,Em despacho,3315,Inundação de estruturas por precipitação intensa,0,1,0,2,2025-02-21T16:43:00Z,Abrantes,Santarém,Centro,-8.184237,39.472798
