id,address,subregion,neighborhood,date,id.1,state,nature,nature_description,aerial_means,terrestrial_means,aquatic_means,operational,date.1,Concelho,Distrito,NUTII_DSG,longitude,latitude
25590437,São Gens,Ave,309,2025-06-27T21:57:00Z,25590437,Em conclusão,3103,Incêndio rural,0,1,0,5,2025-06-27T21:57:00Z,Fafe,Braga,Norte,-8.112768,41.44477
25591139,Vilar de Nantes,Alto Tâmega e Barroso,309,2025-06-28T02:37:00Z,25591139,Em curso,2201,Incêndio em equipamentos ou produtos,0,2,0,7,2025-06-28T02:37:00Z,Chaves,Vila Real,Norte,-7.453402,41.715043
25591057,Eiras e São Paulo de Frades,Região de Coimbra,310,2025-06-28T01:37:00Z,25591057,Em conclusão,2301,Incêndio em transporte rodoviário,0,4,0,15,2025-06-28T01:37:00Z,Coimbra,Coimbra,Centro,-8.421737,40.225335
25591111,Póvoa de Santa Iria e Forte da Casa,Grande Lisboa,311,2025-06-28T02:15:00Z,25591111,Em conclusão,2301,Incêndio em transporte rodoviário,0,1,0,5,2025-06-28T02:15:00Z,Vila Franca De Xira,Lisboa,Área Metropolitana De Lisboa,-9.0547,38.87449
25591125,Lousado,Ave,309,2025-06-28T02:14:00Z,25591125,Em conclusão,2201,Incêndio em equipamentos ou produtos,0,2,0,5,2025-06-28T02:14:00Z,Vila Nova De Famalicão,Braga,Norte,-8.529767,41.356325
25588493,Ribeirão,Ave,309,2025-06-27T14:58:00Z,25588493,Em conclusão,3103,Incêndio rural,0,1,0,5,2025-06-27T14:58:00Z,Vila Nova De Famalicão,Braga,Norte,-8.558043,41.368877
25591149,Mafamude e Vilar do Paraíso,Area M. Porto,309,2025-06-28T02:32:00Z,25591149,Em despacho,3203,Detritos confinados,0,1,0,5,2025-06-28T02:32:00Z,Vila Nova De Gaia,Porto,Norte,-8.601126,41.126193
25590862,Cabreiro,Alto Minho,309,2025-06-28T00:01:00Z,25590862,Em conclusão,3103,Incêndio rural,0,2,0,10,2025-06-28T00:01:00Z,Arcos De Valdevez,Viana Do Castelo,Norte,-8.387602,41.943697
25591165,Braga (São José de São Lázaro e São João do Souto),Cávado,309,2025-06-28T02:52:00Z,25591165,Em conclusão,3203,Detritos confinados,0,2,0,8,2025-06-28T02:52:00Z,Braga,Braga,Norte,-8.419101,41.543217
