id,address,subregion,neighborhood,date,id.1,state,nature,nature_description,aerial_means,terrestrial_means,aquatic_means,operational,date.1,Concelho,Distrito,NUTII_DSG,longitude,latitude,state_2
25951176,Sandomil,Beiras e Serra da Estrela,310,2025-09-06T10:29:00Z,25951176,Em Resolução/Conclusão,3103,Incêndio rural,0,5,0,25,2025-09-06T10:29:00Z,Seia,Guarda,Centro,-7.76001,40.351547,Resolução/Conclusão
25989064,Vila de Rei,Beira Baixa,310,2025-09-14T13:32:00Z,25989064,Em Resolução/Conclusão,3101,Incêndio rural,0,2,0,7,2025-09-14T13:32:00Z,Vila De Rei,Castelo Branco,Centro,-8.152412,39.660802,Resolução/Conclusão
26000061,Abrantes (São Vicente e São João) e Alferrarede,Médio Tejo,311,2025-09-16T18:02:00Z,26000061,Em Resolução/Conclusão,3103,Incêndio rural,0,1,0,2,2025-09-16T18:02:00Z,Abrantes,Santarém,Centro,-8.196197,39.465475,Resolução/Conclusão
26000126,Freigil e Miomães,Tâmega e Sousa,309,2025-09-16T18:15:00Z,26000126,Em Resolução/Conclusão,3103,Incêndio rural,0,3,0,12,2025-09-16T18:15:00Z,Resende,Viseu,Norte,-8.021162,41.084482,Resolução/Conclusão
25980131,Carva e Vilares,Douro,309,2025-09-12T14:27:00Z,25980131,Em Resolução/Conclusão,3103,Incêndio rural,0,28,0,86,2025-09-12T14:27:00Z,Murça,Vila Real,Norte,-7.55901,41.401343,Resolução/Conclusão
25980930,Santo André Das Tojeiras,Beira Baixa,310,2025-09-12T17:08:00Z,25980930,Em Resolução/Conclusão,3101,Incêndio rural,0,1,0,5,2025-09-12T17:08:00Z,Castelo Branco,Castelo Branco,Centro,-7.72701,39.809058,Resolução/Conclusão
25994117,Fortios,Alto Alentejo,312,2025-09-15T14:38:00Z,25994117,Em Resolução/Conclusão,3101,Incêndio rural,0,1,0,5,2025-09-15T14:38:00Z,Portalegre,Portalegre,Alentejo,-7.470015,39.279328,Resolução/Conclusão
25996737,Bornes de Aguiar,Alto Tâmega e Barroso,309,2025-09-16T05:40:00Z,25996737,Em Resolução/Conclusão,3103,Incêndio rural,0,1,0,4,2025-09-16T05:40:00Z,Vila Pouca De Aguiar,Vila Real,Norte,-7.542018,41.552008,Resolução/Conclusão
26000063,Santa Cruz/Trindade e Sanjurge,Alto Tâmega e Barroso,309,2025-09-16T18:01:00Z,26000063,Em Resolução/Conclusão,3103,Incêndio rural,0,7,0,31,2025-09-16T18:01:00Z,Chaves,Vila Real,Norte,-7.544953,41.764568,Resolução/Conclusão
26000472,"Almargem do Bispo, Pêro Pinheiro e Montelavar",Grande Lisboa,311,2025-09-16T19:22:00Z,26000472,Em Resolução/Conclusão,3103,Incêndio rural,0,2,0,7,2025-09-16T19:22:00Z,Sintra,Lisboa,Área Metropolitana De Lisboa,-9.304885,38.867927,Resolução/Conclusão
26000487,Santa Maria do Castelo e Santiago e Santa Susana,Alentejo Litoral,312,2025-09-16T19:35:00Z,26000487,Em Despacho,3101,Incêndio rural,0,4,0,20,2025-09-16T19:35:00Z,Alcácer Do Sal,Setúbal,Alentejo,-8.489567,38.39215,Despacho
26000503,Alcabideche,Grande Lisboa,311,2025-09-16T19:38:00Z,26000503,Em Resolução/Conclusão,3103,Incêndio rural,0,7,0,27,2025-09-16T19:38:00Z,Cascais,Lisboa,Área Metropolitana De Lisboa,-9.43482,38.73086,Resolução/Conclusão
25832672,Piódão,Região de Coimbra,310,2025-08-13T05:08:00Z,25832672,Em Resolução/Conclusão,3103,Incêndio rural,0,0,0,0,2025-08-13T05:08:00Z,Arganil,Coimbra,Centro,-7.81972,40.23083,Resolução/Conclusão
25989850,Povolide,Viseu Dão Lafões,310,2025-09-14T16:49:00Z,25989850,Em Resolução/Conclusão,3103,Incêndio rural,0,1,0,1,2025-09-14T16:49:00Z,Viseu,Viseu,Centro,-7.785413,40.67811,Resolução/Conclusão
25994448,Alfarela de Jales,Alto Tâmega e Barroso,309,2025-09-15T15:40:00Z,25994448,Em Resolução/Conclusão,3103,Incêndio rural,0,1,0,4,2025-09-15T15:40:00Z,Vila Pouca De Aguiar,Vila Real,Norte,-7.560665,41.453565,Resolução/Conclusão
25998908,Meixedo e Padornelos,Alto Tâmega e Barroso,309,2025-09-16T13:58:00Z,25998908,Em Resolução/Conclusão,3103,Incêndio rural,0,9,0,37,2025-09-16T13:58:00Z,Montalegre,Vila Real,Norte,-7.728438,41.884193,Resolução/Conclusão
26000416,Alvega e Concavada,Médio Tejo,311,2025-09-16T19:20:00Z,26000416,Em Resolução/Conclusão,3103,Incêndio rural,1,10,0,47,2025-09-16T19:20:00Z,Abrantes,Santarém,Centro,-8.07729,39.440458,Resolução/Conclusão
26000455,Aguiar de Sousa,Area M. Porto,309,2025-09-16T19:25:00Z,26000455,Em Resolução/Conclusão,3103,Incêndio rural,0,4,0,17,2025-09-16T19:25:00Z,Paredes,Porto,Norte,-8.438765,41.120548,Resolução/Conclusão
