id,address,subregion,neighborhood,date,id.1,state,nature,nature_description,aerial_means,terrestrial_means,aquatic_means,operational,date.1,Concelho,Distrito,NUTII_DSG,longitude,latitude
24843338,Cascais e Estoril,Grande Lisboa,311,2025-01-20T09:51:00Z,24843338,Em conclusão,3321,Dano na rede de fornecimento de eletricidade ,0,3,0,12,2025-01-20T09:51:00Z,Cascais,Lisboa,Área Metropolitana De Lisboa,-9.408908,38.704814
24843835,Tavira (Santa Maria e Santiago),Algarve,313,2025-01-20T11:00:00Z,24843835,Em despacho,3315,Inundação de estruturas por precipitação intensa,0,1,0,2,2025-01-20T11:00:00Z,Tavira,Faro,Algarve,-7.64691,37.130442
24843871,Sines,Alentejo Litoral,312,2025-01-20T11:05:00Z,24843871,Em curso,3315,Inundação de estruturas por precipitação intensa,0,1,0,4,2025-01-20T11:05:00Z,Sines,Setúbal,Alentejo,-8.854536,37.963534
24843632,"São Miguel, Santa Eufémia e Rabaçal",Região de Coimbra,310,2025-01-20T10:45:00Z,24843632,Em despacho,3329,Queda de estruturas temporárias ou móveis,0,1,0,2,2025-01-20T10:45:00Z,Penela,Coimbra,Centro,-8.399036,40.025502
24843781,Tavira (Santa Maria e Santiago),Algarve,313,2025-01-20T10:55:00Z,24843781,Em despacho,3315,Inundação de estruturas por precipitação intensa,0,1,0,5,2025-01-20T10:55:00Z,Tavira,Faro,Algarve,-7.64691,37.130442
24843832,Castanheira do Ribatejo e Cachoeiras,Grande Lisboa,311,2025-01-20T11:17:00Z,24843832,Em resolução,3315,Inundação de estruturas por precipitação intensa,0,1,0,2,2025-01-20T11:17:00Z,Vila Franca De Xira,Lisboa,Área Metropolitana De Lisboa,-8.966389,38.987034
