id,address,subregion,neighborhood,date,id.1,state,nature,nature_description,aerial_means,terrestrial_means,aquatic_means,operational,date.1,Concelho,Distrito,NUTII_DSG,longitude,latitude,state_2
26093602,Castro Daire,Viseu Dão Lafões,310,2025-10-05T22:05:00Z,26093602,Em Resolução/Conclusão,3103,Incêndio rural,0,0,0,0,2025-10-05T22:05:00Z,Castro Daire,Viseu,Centro,-7.9408,40.925289,Resolução/Conclusão
26114344,"Sandim, Olival, Lever e Crestuma",Area M. Porto,309,2025-10-10T07:34:00Z,26114344,Em Resolução/Conclusão,3101,Incêndio rural,0,2,0,8,2025-10-10T07:34:00Z,Vila Nova De Gaia,Porto,Norte,-8.47647,41.06633,Resolução/Conclusão
26114610,Nossa Senhora da Conceição e São Bartolomeu,Alentejo Central,312,2025-10-10T08:40:00Z,26114610,Em Resolução/Conclusão,3105,Incêndio rural,0,3,0,12,2025-10-10T08:40:00Z,Vila Viçosa,Évora,Alentejo,-7.437712,38.774572,Resolução/Conclusão
26114441,Terrugem e Vila Boim,Alto Alentejo,312,2025-10-10T08:03:00Z,26114441,Em Resolução/Conclusão,3103,Incêndio rural,0,3,0,9,2025-10-10T08:03:00Z,Elvas,Portalegre,Alentejo,-7.26645,38.875873,Resolução/Conclusão
26114961,Rebordosa,Area M. Porto,309,2025-10-10T09:40:00Z,26114961,Em Resolução/Conclusão,3103,Incêndio rural,0,1,0,5,2025-10-10T09:40:00Z,Paredes,Porto,Norte,-8.413867,41.217556,Resolução/Conclusão
26114630,Seixo da Beira,Região de Coimbra,310,2025-10-10T08:46:00Z,26114630,Em Curso,3101,Incêndio rural,9,30,0,139,2025-10-10T08:46:00Z,Oliveira Do Hospital,Coimbra,Centro,-7.851872,40.421183,Curso
26114715,Sobral de Monte Agraço,Oeste,311,2025-10-10T09:07:00Z,26114715,Em Resolução/Conclusão,3111,Queima,0,4,0,17,2025-10-10T09:07:00Z,Torres Vedras,Lisboa,Centro,-9.16975,39.014084,Resolução/Conclusão
