id,address,subregion,neighborhood,date,id.1,state,nature,nature_description,aerial_means,terrestrial_means,aquatic_means,operational,date.1,Concelho,Distrito,NUTII_DSG,longitude,latitude
25476182,Vila Franca de Xira,Grande Lisboa,311,2025-06-04T13:45:00Z,25476182,Em conclusão,3111,Queima,0,2,0,7,2025-06-04T13:45:00Z,Vila Franca De Xira,Lisboa,Área Metropolitana De Lisboa,-8.989293,38.955728
25476231,Mina de Água,Grande Lisboa,311,2025-06-04T14:01:00Z,25476231,Em conclusão,3103,Incêndio rural,0,1,0,5,2025-06-04T14:01:00Z,Amadora,Lisboa,Área Metropolitana De Lisboa,-9.241265,38.7641
25476247,Quinta do Conde,Península de Setúbal,311,2025-06-04T14:04:00Z,25476247,Em conclusão,3201,Detritos não confinados,0,1,0,5,2025-06-04T14:04:00Z,Sesimbra,Setúbal,Área Metropolitana De Lisboa,-9.04122,38.5614
25476264,Fonte Arcada,Tâmega e Sousa,309,2025-06-04T14:12:00Z,25476264,Em curso,3103,Incêndio rural,0,2,0,7,2025-06-04T14:12:00Z,Penafiel,Porto,Norte,-8.348045,41.149795
25466369,Melides,Alentejo Litoral,312,2025-06-02T13:27:00Z,25466369,Em conclusão,3103,Incêndio rural,0,1,0,2,2025-06-02T13:27:00Z,Grândola,Setúbal,Alentejo,-8.754243,38.19534
25476336,Meia Via,Médio Tejo,311,2025-06-04T14:19:00Z,25476336,Em curso,3103,Incêndio rural,0,2,0,7,2025-06-04T14:19:00Z,Torres Novas,Santarém,Centro,-8.49687,39.47584
25476361,Algoz e Tunes,Algarve,313,2025-06-04T14:14:00Z,25476361,Em despacho,3111,Queima,0,2,0,6,2025-06-04T14:14:00Z,Silves,Faro,Algarve,-8.304204,37.167351
25476368,Constância,Médio Tejo,311,2025-06-04T14:24:00Z,25476368,Em despacho,3103,Incêndio rural,0,4,0,16,2025-06-04T14:24:00Z,Constância,Santarém,Centro,-8.325852,39.483358
25476388,Castêlo da Maia,Area M. Porto,309,2025-06-04T14:19:00Z,25476388,Em despacho,2127,"Incêndio em edifícios e recintos industriais, oficinas e armazéns",0,1,0,5,2025-06-04T14:19:00Z,Maia,Porto,Norte,-8.616749,41.267591
