id,address,subregion,neighborhood,date,id.1,state,nature,nature_description,aerial_means,terrestrial_means,aquatic_means,operational,date.1,Concelho,Distrito,NUTII_DSG,longitude,latitude,state_2
26264547,Ciladas,Alentejo Central,312,2025-11-10T15:50:00Z,26264547,Em Resolução/Conclusão,3111,Queima,0,2,0,7,2025-11-10T15:50:00Z,Vila Viçosa,Évora,Alentejo,-7.314901,38.777279,Resolução/Conclusão
26263622,São Barnabé,Baixo Alentejo,312,2025-11-10T13:05:00Z,26263622,Em Resolução/Conclusão,3103,Incêndio rural,0,1,0,4,2025-11-10T13:05:00Z,Almodôvar,Beja,Alentejo,-8.07864,37.338915,Resolução/Conclusão
26264619,Pedrógão,Baixo Alentejo,312,2025-11-10T16:12:00Z,26264619,Em Resolução/Conclusão,3103,Incêndio rural,0,2,0,6,2025-11-10T16:12:00Z,Vidigueira,Beja,Alentejo,-7.608982,38.177063,Resolução/Conclusão
26264782,Carregado e Cadafais,Oeste,311,2025-11-10T16:38:00Z,26264782,Em Resolução/Conclusão,3111,Queima,0,2,0,5,2025-11-10T16:38:00Z,Alenquer,Lisboa,Centro,-8.989872,39.020191,Resolução/Conclusão
26264796,Dois Portos e Runa,Oeste,311,2025-11-10T16:40:00Z,26264796,Em Resolução/Conclusão,3103,Incêndio rural,0,3,0,8,2025-11-10T16:40:00Z,Torres Vedras,Lisboa,Centro,-9.209418,39.03098,Resolução/Conclusão
