id,address,subregion,neighborhood,date,id.1,state,nature,nature_description,aerial_means,terrestrial_means,aquatic_means,operational,date.1,Concelho,Distrito,NUTII_DSG,longitude,latitude
25263361,Monchique,Algarve,313,2025-04-20T12:29:00Z,25263361,Em curso,3301,Queda de árvore,0,1,0,4,2025-04-20T12:29:00Z,Monchique,Faro,Algarve,-8.532382,37.308262
25263379,Águeda e Borralha,Região de Aveiro,310,2025-04-20T09:30:00Z,25263379,Em despacho,1101,Cheia,0,0,0,0,2025-04-20T09:30:00Z,Águeda,Aveiro,Centro,-8.416662,40.574294
25263480,Penalva de Alva e São Sebastião da Feira,Região de Coimbra,310,2025-04-20T13:15:00Z,25263480,Em despacho,3313,Deslizamento de terras,0,1,0,2,2025-04-20T13:15:00Z,Oliveira Do Hospital,Coimbra,Centro,-7.838908,40.337041
25071496,São Manços e São Vicente do Pigeiro,Alentejo Central,312,2025-03-11T13:18:00Z,25071496,Em conclusão,1101,Cheia,0,0,0,0,2025-03-11T13:18:00Z,Évora,Évora,Alentejo,-7.713313,38.513673
25202441,Serpa (Salvador e Santa Maria),Baixo Alentejo,312,2025-04-06T10:25:00Z,25202441,Em conclusão,1101,Cheia,0,0,0,0,2025-04-06T10:25:00Z,Serpa,Beja,Alentejo,-7.555783,37.88592
25263391,São Mamede de Infesta e Senhora da Hora,Area M. Porto,309,2025-04-20T12:46:00Z,25263391,Em despacho,3301,Queda de árvore,0,1,0,4,2025-04-20T12:46:00Z,Matosinhos,Porto,Norte,-8.630369,41.188957
