id,address,subregion,neighborhood,date,id.1,state,nature,nature_description,aerial_means,terrestrial_means,aquatic_means,operational,date.1,Concelho,Distrito,NUTII_DSG,longitude,latitude
24852551,Alvorge,Região de Leiria,310,2025-01-22T07:38:00Z,24852551,Em despacho,3315,Inundação de estruturas por precipitação intensa,0,1,0,4,2025-01-22T07:38:00Z,Ansião,Leiria,Centro,-8.437457,39.972271
24853339,Minde,Médio Tejo,311,2025-01-22T10:23:00Z,24853339,Em curso,3315,Inundação de estruturas por precipitação intensa,0,1,0,5,2025-01-22T10:23:00Z,Alcanena,Santarém,Centro,-8.691237,39.511095
24854146,Alvaiázere,Região de Leiria,310,2025-01-22T12:25:00Z,24854146,Em despacho,3315,Inundação de estruturas por precipitação intensa,0,1,0,2,2025-01-22T12:25:00Z,Alvaiázere,Leiria,Centro,-8.41696,39.828223
24854223,Figueiró Dos Vinhos e Bairradas,Região de Leiria,310,2025-01-22T12:00:00Z,24854223,Em despacho,3313,Deslizamento de terras,0,2,0,6,2025-01-22T12:00:00Z,Figueiró Dos Vinhos,Leiria,Centro,-8.292159,39.908619
24854225,Benespera,Beiras e Serra da Estrela,310,2025-01-22T12:51:00Z,24854225,Em curso,3315,Inundação de estruturas por precipitação intensa,0,2,0,3,2025-01-22T12:51:00Z,Guarda,Guarda,Centro,-7.27193,40.43707
24854307,Vila Nova da Telha,Area M. Porto,309,2025-01-22T13:06:00Z,24854307,Em curso,3311,Queda de elementos de estruturas edificados,0,1,0,4,2025-01-22T13:06:00Z,Maia,Porto,Norte,-8.668713,41.245907
24854332,Penhalonga e Paços de Gaiolo,Tâmega e Sousa,309,2025-01-22T13:14:00Z,24854332,Em despacho,3313,Deslizamento de terras,0,0,0,0,2025-01-22T13:14:00Z,Marco De Canaveses,Porto,Norte,-8.12556,41.09254
24854430,São Miguel do Rio Torto e Rossio Ao Sul do Tejo,Médio Tejo,311,2025-01-22T13:32:00Z,24854430,Em conclusão,3301,Queda de árvore,0,0,0,0,2025-01-22T13:32:00Z,Abrantes,Santarém,Centro,-8.183039,39.423261
24854498,Ferro,Beiras e Serra da Estrela,310,2025-01-22T13:40:00Z,24854498,Em despacho,3315,Inundação de estruturas por precipitação intensa,0,1,0,4,2025-01-22T13:40:00Z,Covilhã,Castelo Branco,Centro,-7.443359,40.2345
24853129,Soutelo de Aguiar,Alto Tâmega e Barroso,309,2025-01-22T09:41:00Z,24853129,Em despacho,3315,Inundação de estruturas por precipitação intensa,0,1,0,5,2025-01-22T09:41:00Z,Vila Pouca De Aguiar,Vila Real,Norte,-7.665087,41.468356
24854249,Nossa Senhora da Piedade,Médio Tejo,311,2025-01-22T12:55:00Z,24854249,Em despacho,3315,Inundação de estruturas por precipitação intensa,0,1,0,1,2025-01-22T12:55:00Z,Ourém,Santarém,Centro,-8.577082,39.6611
24854272,Riachos,Médio Tejo,311,2025-01-22T13:00:00Z,24854272,Em curso,3315,Inundação de estruturas por precipitação intensa,0,1,0,2,2025-01-22T13:00:00Z,Torres Novas,Santarém,Centro,-8.515126,39.421796
24854367,Figueiró Dos Vinhos e Bairradas,Região de Leiria,310,2025-01-22T13:10:00Z,24854367,Em despacho,3313,Deslizamento de terras,0,2,0,5,2025-01-22T13:10:00Z,Figueiró Dos Vinhos,Leiria,Centro,-8.273435,39.902339
24854472,Avis,Alto Alentejo,312,2025-01-22T13:35:00Z,24854472,Em curso,3301,Queda de árvore,0,5,0,14,2025-01-22T13:35:00Z,Avis,Portalegre,Alentejo,-7.888098,39.033538
24854547,Chãos,Médio Tejo,311,2025-01-22T13:53:00Z,24854547,Em despacho,3315,Inundação de estruturas por precipitação intensa,0,1,0,2,2025-01-22T13:53:00Z,Ferreira Do Zêzere,Santarém,Centro,-8.402466,39.706671
24851821,Santa Maria do Castelo e Santiago e Santa Susana,Alentejo Litoral,312,2025-01-21T23:41:00Z,24851821,Em resolução,1103,Vento forte,0,11,0,21,2025-01-21T23:41:00Z,Alcácer Do Sal,Setúbal,Alentejo,-8.598678,38.397168
24854209,Alvega e Concavada,Médio Tejo,311,2025-01-22T12:47:00Z,24854209,Em despacho,3315,Inundação de estruturas por precipitação intensa,0,1,0,2,2025-01-22T12:47:00Z,Abrantes,Santarém,Centro,-8.05361,39.46445
24854279,Abrigada e Cabanas de Torres,Oeste,311,2025-01-22T13:00:00Z,24854279,Em curso,3315,Inundação de estruturas por precipitação intensa,0,1,0,5,2025-01-22T13:00:00Z,Alenquer,Lisboa,Centro,-9.029641,39.148386
24854560,Fontelas,Douro,309,2025-01-22T13:55:00Z,24854560,Em despacho,3309,Desabamento de estruturas edificadas,0,3,0,6,2025-01-22T13:55:00Z,Peso Da Régua,Vila Real,Norte,-7.830143,41.154017
24851780,"São Miguel, Santa Eufémia e Rabaçal",Região de Coimbra,310,2025-01-21T23:25:00Z,24851780,Em curso,3315,Inundação de estruturas por precipitação intensa,0,0,0,0,2025-01-21T23:25:00Z,Penela,Coimbra,Centro,-8.399036,40.025502
24853902,"Freixianda, Ribeira do Fárrio e Formigais",Médio Tejo,311,2025-01-22T11:54:00Z,24853902,Em curso,3315,Inundação de estruturas por precipitação intensa,0,1,0,4,2025-01-22T11:54:00Z,Ourém,Santarém,Centro,-8.462392,39.76364
24854337,Belmonte e Colmeal da Torre,Beiras e Serra da Estrela,310,2025-01-22T13:13:00Z,24854337,Em curso,3315,Inundação de estruturas por precipitação intensa,0,1,0,4,2025-01-22T13:13:00Z,Belmonte,Castelo Branco,Centro,-7.345417,40.371661
24854388,Avelar,Região de Leiria,310,2025-01-22T13:18:00Z,24854388,Em despacho,3315,Inundação de estruturas por precipitação intensa,0,3,0,9,2025-01-22T13:18:00Z,Ansião,Leiria,Centro,-8.365894,39.925606
24854402,Tortosendo,Beiras e Serra da Estrela,310,2025-01-22T13:12:00Z,24854402,Em curso,3315,Inundação de estruturas por precipitação intensa,0,1,0,3,2025-01-22T13:12:00Z,Covilhã,Castelo Branco,Centro,-7.516167,40.239413
24854453,Ferragudo,Algarve,313,2025-01-22T13:00:00Z,24854453,Em conclusão,3329,Queda de estruturas temporárias ou móveis,0,2,0,3,2025-01-22T13:00:00Z,Lagoa,Faro,Algarve,-8.514204,37.11762
24854624,São Teotónio,Alentejo Litoral,312,2025-01-22T14:02:00Z,24854624,Em despacho,3301,Queda de árvore,0,1,0,2,2025-01-22T14:02:00Z,Odemira,Beja,Alentejo,-8.756746,37.431629
24854708,Rogil,Algarve,313,2025-01-22T14:16:00Z,24854708,Em despacho,3301,Queda de árvore,0,1,0,4,2025-01-22T14:16:00Z,Aljezur,Faro,Algarve,-8.758563,37.37846
24854677,Seiça,Médio Tejo,311,2025-01-22T14:14:00Z,24854677,Em despacho,3309,Desabamento de estruturas edificadas,0,3,0,5,2025-01-22T14:14:00Z,Ourém,Santarém,Centro,-8.528218,39.674787
24854679,Lousã e Vilarinho,Região de Coimbra,310,2025-01-22T14:14:00Z,24854679,Em despacho,3301,Queda de árvore,0,1,0,2,2025-01-22T14:14:00Z,Lousã,Coimbra,Centro,-8.243385,40.12032
24854779,"Marvila, Ribeira Santarém, S.salvador, S.nicolau",Lezíria do Tejo,311,2025-01-22T14:34:00Z,24854779,Em despacho,3313,Deslizamento de terras,0,2,0,5,2025-01-22T14:34:00Z,Santarém,Santarém,Alentejo,-8.678591,39.231938
24854688,Nossa Senhora Das Misericórdias,Médio Tejo,311,2025-01-22T14:17:00Z,24854688,Em despacho,3309,Desabamento de estruturas edificadas,0,1,0,1,2025-01-22T14:17:00Z,Ourém,Santarém,Centro,-8.582697,39.628654
24854703,Tavira (Santa Maria e Santiago),Algarve,313,2025-01-22T10:30:00Z,24854703,Em despacho,3315,Inundação de estruturas por precipitação intensa,0,1,0,1,2025-01-22T10:30:00Z,Tavira,Faro,Algarve,-7.650217,37.141268
24854789,"Seixal, Arrentela e Aldeia de Paio Pires",Península de Setúbal,311,2025-01-22T14:26:00Z,24854789,Em despacho,3317,Inundação de estruturas por água canalizada,0,1,0,4,2025-01-22T14:26:00Z,Seixal,Setúbal,Área Metropolitana De Lisboa,-9.104804,38.642769
