id,address,subregion,neighborhood,date,id.1,state,nature,nature_description,aerial_means,terrestrial_means,aquatic_means,operational,date.1,Concelho,Distrito,NUTII_DSG,longitude,latitude,state_2
25692562,Atouguia,Médio Tejo,311,2025-07-17T15:31:00Z,25692562,Em Resolução/Conclusão,3101,Incêndio rural,0,3,0,12,2025-07-17T15:31:00Z,Ourém,Santarém,Centro,-8.62029,39.654072,Resolução/Conclusão
25692814,"Espírito Santo, Nossa Senhora da Graça e São Simão",Alto Alentejo,312,2025-07-17T16:23:00Z,25692814,Em Resolução/Conclusão,3103,Incêndio rural,0,5,0,19,2025-07-17T16:23:00Z,Nisa,Portalegre,Alentejo,-7.635642,39.486993,Resolução/Conclusão
25693046,Santo Aleixo,Alto Alentejo,312,2025-07-17T17:04:00Z,25693046,Em Resolução/Conclusão,3105,Incêndio rural,0,3,0,7,2025-07-17T17:04:00Z,Monforte,Portalegre,Alentejo,-7.397183,38.919233,Resolução/Conclusão
25697735,"N. S. da Vila, N. S. do Bispo e Silveiras",Alentejo Central,312,2025-07-18T16:10:00Z,25697735,Em Resolução/Conclusão,3103,Incêndio rural,0,0,0,0,2025-07-18T16:10:00Z,Montemor-o-Novo,Évora,Alentejo,-8.151737,38.670038,Resolução/Conclusão
25697769,Bencatel,Alentejo Central,312,2025-07-18T16:17:00Z,25697769,Em Resolução/Conclusão,3103,Incêndio rural,0,1,0,2,2025-07-18T16:17:00Z,Vila Viçosa,Évora,Alentejo,-7.427132,38.731238,Resolução/Conclusão
25697833,Vilar de Pinheiro,Area M. Porto,309,2025-07-18T16:35:00Z,25697833,Em Resolução/Conclusão,3103,Incêndio rural,0,1,0,5,2025-07-18T16:35:00Z,Vila Do Conde,Porto,Norte,-8.67597,41.27039,Resolução/Conclusão
25697885,Paranhos,Area M. Porto,309,2025-07-18T16:48:00Z,25697885,Em Despacho,3103,Incêndio rural,0,2,0,9,2025-07-18T16:48:00Z,Porto,Porto,Norte,-8.597596,41.169876,Despacho
25697992,Moreira do Rei e Várzea Cova,Ave,309,2025-07-18T17:09:00Z,25697992,Em Despacho,3103,Incêndio rural,2,2,0,22,2025-07-18T17:09:00Z,Fafe,Braga,Norte,-8.085443,41.49398,Despacho
25696034,Rio de Mel,Beiras e Serra da Estrela,310,2025-07-18T10:31:00Z,25696034,Em Resolução/Conclusão,3103,Incêndio rural,0,5,0,15,2025-07-18T10:31:00Z,Trancoso,Guarda,Centro,-7.4166,40.801295,Resolução/Conclusão
25696336,Alcaria Ruiva,Baixo Alentejo,312,2025-07-18T11:24:00Z,25696336,Em Resolução/Conclusão,3105,Incêndio rural,1,9,0,27,2025-07-18T11:24:00Z,Mértola,Beja,Alentejo,-7.78541,37.768223,Resolução/Conclusão
25696838,Possacos,Alto Tâmega e Barroso,309,2025-07-18T13:13:00Z,25696838,Em Resolução/Conclusão,3103,Incêndio rural,0,7,0,20,2025-07-18T13:13:00Z,Valpaços,Vila Real,Norte,-7.255073,41.635962,Resolução/Conclusão
25696955,"Vilela, Seramil e Paredes Secas",Cávado,309,2025-07-18T13:36:00Z,25696955,Em Curso,3101,Incêndio rural,2,19,0,69,2025-07-18T13:36:00Z,Amares,Braga,Norte,-8.309448,41.67517,Curso
25697386,Requião,Ave,309,2025-07-18T14:57:00Z,25697386,Em Resolução/Conclusão,3103,Incêndio rural,0,4,0,17,2025-07-18T14:57:00Z,Vila Nova De Famalicão,Braga,Norte,-8.486485,41.419627,Resolução/Conclusão
25697570,Ermesinde,Area M. Porto,309,2025-07-18T15:30:00Z,25697570,Em Resolução/Conclusão,3103,Incêndio rural,0,1,0,5,2025-07-18T15:30:00Z,Valongo,Porto,Norte,-8.547217,41.222048,Resolução/Conclusão
25697670,Montemor-o-Velho e Gatões,Região de Coimbra,310,2025-07-18T15:56:00Z,25697670,Em Resolução/Conclusão,3105,Incêndio rural,0,5,0,17,2025-07-18T15:56:00Z,Montemor-o-Velho,Coimbra,Centro,-8.684865,40.169486,Resolução/Conclusão
25686799,Souto Maior,Douro,309,2025-07-16T13:19:00Z,25686799,Em Curso,3101,Incêndio rural,5,37,0,141,2025-07-16T13:19:00Z,Sabrosa,Vila Real,Norte,-7.57839,41.287518,Curso
25697095,Alfarelos,Região de Coimbra,310,2025-07-18T14:01:00Z,25697095,Em Resolução/Conclusão,3101,Incêndio rural,0,13,0,40,2025-07-18T14:01:00Z,Soure,Coimbra,Centro,-8.640182,40.154127,Resolução/Conclusão
25697379,Azeitão (São Lourenço e São Simão),Península de Setúbal,311,2025-07-18T14:51:00Z,25697379,Em Resolução/Conclusão,3105,Incêndio rural,0,16,0,49,2025-07-18T14:51:00Z,Setúbal,Setúbal,Área Metropolitana De Lisboa,-8.983055,38.547222,Resolução/Conclusão
25697429,Almeirim,Lezíria do Tejo,311,2025-07-18T15:04:00Z,25697429,Em Resolução/Conclusão,3103,Incêndio rural,0,7,0,21,2025-07-18T15:04:00Z,Almeirim,Santarém,Alentejo,-8.667113,39.215015,Resolução/Conclusão
25697580,Póvoa de Lanhoso (Nossa Senhora do Amparo),Ave,309,2025-07-18T15:24:00Z,25697580,Em Resolução/Conclusão,3103,Incêndio rural,0,1,0,5,2025-07-18T15:24:00Z,Póvoa De Lanhoso,Braga,Norte,-8.260832,41.585208,Resolução/Conclusão
25697597,Abiul,Região de Leiria,310,2025-07-18T15:40:00Z,25697597,Em Resolução/Conclusão,3105,Incêndio rural,0,5,0,16,2025-07-18T15:40:00Z,Pombal,Leiria,Centro,-8.529898,39.896688,Resolução/Conclusão
25697781,Santiago de Piães,Tâmega e Sousa,309,2025-07-18T16:21:00Z,25697781,Em Resolução/Conclusão,3103,Incêndio rural,0,1,0,5,2025-07-18T16:21:00Z,Cinfães,Viseu,Norte,-8.158923,41.059093,Resolução/Conclusão
25695378,Refóios do Lima,Alto Minho,309,2025-07-18T08:35:00Z,25695378,Em Resolução/Conclusão,3103,Incêndio rural,0,6,0,14,2025-07-18T08:35:00Z,Ponte De Lima,Viana Do Castelo,Norte,-8.52127,41.804412,Resolução/Conclusão
25697084,Ribeira do Neiva,Cávado,309,2025-07-18T14:01:00Z,25697084,Em Resolução/Conclusão,3103,Incêndio rural,0,5,0,14,2025-07-18T14:01:00Z,Vila Verde,Braga,Norte,-8.50881,41.698721,Resolução/Conclusão
25697536,Vila Nova de São Bento e Vale de Vargo,Baixo Alentejo,312,2025-07-18T15:25:00Z,25697536,Em Resolução/Conclusão,3103,Incêndio rural,0,1,0,2,2025-07-18T15:25:00Z,Serpa,Beja,Alentejo,-7.377838,37.928397,Resolução/Conclusão
25697550,"Santiago do Cacém, S.cruz e São Bartolomeu da Serra",Alentejo Litoral,312,2025-07-18T15:28:00Z,25697550,Em Resolução/Conclusão,3103,Incêndio rural,0,0,0,0,2025-07-18T15:28:00Z,Santiago Do Cacém,Setúbal,Alentejo,-8.724654,38.07005,Resolução/Conclusão
25697625,Malagueira e Horta Das Figueiras,Alentejo Central,312,2025-07-18T15:45:00Z,25697625,Em Resolução/Conclusão,3103,Incêndio rural,0,2,0,5,2025-07-18T15:45:00Z,Évora,Évora,Alentejo,-7.913588,38.553268,Resolução/Conclusão
25697709,Urqueira,Médio Tejo,311,2025-07-18T16:03:00Z,25697709,Em Resolução/Conclusão,3103,Incêndio rural,0,1,0,5,2025-07-18T16:03:00Z,Ourém,Santarém,Centro,-8.580218,39.75951,Resolução/Conclusão
25697741,"S.maria, S.miguel, S.martinho, S.pedro Penaferrim",Grande Lisboa,311,2025-07-18T16:09:00Z,25697741,Em Resolução/Conclusão,3103,Incêndio rural,0,3,0,12,2025-07-18T16:09:00Z,Sintra,Lisboa,Área Metropolitana De Lisboa,-9.436215,38.832947,Resolução/Conclusão
25697811,Arega,Região de Leiria,310,2025-07-18T16:26:00Z,25697811,Em Resolução/Conclusão,3105,Incêndio rural,0,7,0,25,2025-07-18T16:26:00Z,Figueiró Dos Vinhos,Leiria,Centro,-8.328003,39.83361,Resolução/Conclusão
25697739,Figueiró do Campo,Região de Coimbra,310,2025-07-18T16:12:00Z,25697739,Em Resolução/Conclusão,3103,Incêndio rural,0,2,0,10,2025-07-18T16:12:00Z,Soure,Coimbra,Centro,-8.617722,40.137366,Resolução/Conclusão
25697771,Abela,Alentejo Litoral,312,2025-07-18T16:15:00Z,25697771,Em Resolução/Conclusão,3103,Incêndio rural,0,4,0,15,2025-07-18T16:15:00Z,Santiago Do Cacém,Setúbal,Alentejo,-8.468273,38.004532,Resolução/Conclusão
25697879,Darque,Alto Minho,309,2025-07-18T16:46:00Z,25697879,Em Resolução/Conclusão,3105,Incêndio rural,0,1,0,5,2025-07-18T16:46:00Z,Viana Do Castelo,Viana Do Castelo,Norte,-8.79835,41.683667,Resolução/Conclusão
25697898,Penha de França,Grande Lisboa,311,2025-07-18T16:51:00Z,25697898,Em Curso,3103,Incêndio rural,0,1,0,2,2025-07-18T16:51:00Z,Lisboa,Lisboa,Área Metropolitana De Lisboa,-9.122586,38.72577,Curso
25697899,Portela do Fojo-Machio,Região de Coimbra,310,2025-07-18T16:51:00Z,25697899,Em Curso,3101,Incêndio rural,1,8,0,42,2025-07-18T16:51:00Z,Pampilhosa Da Serra,Coimbra,Centro,-8.09662,39.95217,Curso
25697834,Conceição e Estoi,Algarve,313,2025-07-18T16:36:00Z,25697834,Em Resolução/Conclusão,3103,Incêndio rural,0,7,0,18,2025-07-18T16:36:00Z,Faro,Faro,Algarve,-7.904448,37.064822,Resolução/Conclusão
25697900,Pias,Baixo Alentejo,312,2025-07-18T16:52:00Z,25697900,Em Curso,3105,Incêndio rural,0,7,0,24,2025-07-18T16:52:00Z,Serpa,Beja,Alentejo,-7.48387,38.02289,Curso
25698025,Lourosa,Area M. Porto,309,2025-07-18T17:14:00Z,25698025,Em Despacho,3103,Incêndio rural,0,0,0,0,2025-07-18T17:14:00Z,Santa Maria Da Feira,Aveiro,Norte,-8.54384,40.98201,Despacho
