id,address,subregion,neighborhood,date,id.1,state,nature,nature_description,aerial_means,terrestrial_means,aquatic_means,operational,date.1,Concelho,Distrito,NUTII_DSG,longitude,latitude
24873097,Ruivães e Campos,Ave,309,2025-01-26T16:09:00Z,24873097,Em despacho,3301,Queda de árvore,0,1,0,2,2025-01-26T16:09:00Z,Vieira Do Minho,Braga,Norte,-8.032822,41.664634
24873595,Sequeiros e Gradiz,Viseu Dão Lafões,310,2025-01-26T17:58:00Z,24873595,Em despacho,3301,Queda de árvore,0,1,0,3,2025-01-26T17:58:00Z,Aguiar Da Beira,Guarda,Centro,-7.498667,40.852572
24873598,Rebordosa,Area M. Porto,309,2025-01-26T18:01:00Z,24873598,Em despacho,3313,Deslizamento de terras,0,0,0,0,2025-01-26T18:01:00Z,Paredes,Porto,Norte,-8.40324,41.22908
24873631,"Mangualde, Mesquitela e Cunha Alta",Viseu Dão Lafões,310,2025-01-26T18:01:00Z,24873631,Em curso,3311,Queda de elementos de estruturas edificados,0,2,0,4,2025-01-26T18:01:00Z,Mangualde,Viseu,Centro,-7.764584,40.587178
24873646,São Romão de Neiva,Alto Minho,309,2025-01-26T18:14:00Z,24873646,Em despacho,3301,Queda de árvore,0,0,0,0,2025-01-26T18:14:00Z,Viana Do Castelo,Viana Do Castelo,Norte,-8.774882,41.62943
24873647,São Bernardo,Região de Aveiro,310,2025-01-26T18:09:00Z,24873647,Em despacho,3329,Queda de estruturas temporárias ou móveis,0,1,0,3,2025-01-26T18:09:00Z,Aveiro,Aveiro,Centro,-8.625929,40.620025
24873648,Baguim do Monte (Rio Tinto),Area M. Porto,309,2025-01-26T18:09:00Z,24873648,Em conclusão,3301,Queda de árvore,0,1,0,2,2025-01-26T18:09:00Z,Gondomar,Porto,Norte,-8.527028,41.202528
24873665,Carrazedo de Montenegro e Curros,Alto Tâmega e Barroso,309,2025-01-26T18:13:00Z,24873665,Em resolução,3301,Queda de árvore,0,1,0,4,2025-01-26T18:13:00Z,Valpaços,Vila Real,Norte,-7.46139,41.50949
24873681,Luso,Região de Coimbra,310,2025-01-26T18:15:00Z,24873681,Em curso,3301,Queda de árvore,0,2,0,5,2025-01-26T18:15:00Z,Mealhada,Aveiro,Centro,-8.376887,40.38218
24873746,Morgade,Alto Tâmega e Barroso,309,2025-01-26T18:05:00Z,24873746,Em despacho,3301,Queda de árvore,0,1,0,2,2025-01-26T18:05:00Z,Montalegre,Vila Real,Norte,-7.747187,41.754073
24873763,Landim,Ave,309,2025-01-26T18:37:00Z,24873763,Em despacho,3321,Dano na rede de fornecimento de eletricidade ,0,0,0,0,2025-01-26T18:37:00Z,Vila Nova De Famalicão,Braga,Norte,-8.461502,41.385198
24873764,São João da Madeira,Area M. Porto,309,2025-01-26T18:30:00Z,24873764,Em despacho,3309,Desabamento de estruturas edificadas,0,1,0,2,2025-01-26T18:30:00Z,São João Da Madeira,Aveiro,Norte,-8.490365,40.895632
24873831,Samuel,Região de Coimbra,310,2025-01-26T18:47:00Z,24873831,Em despacho,3301,Queda de árvore,0,1,0,2,2025-01-26T18:47:00Z,Soure,Coimbra,Centro,-8.690993,40.057784
24873243,Frazão Arreigada,Tâmega e Sousa,309,2025-01-26T16:39:00Z,24873243,Em conclusão,3321,Dano na rede de fornecimento de eletricidade ,0,1,0,2,2025-01-26T16:39:00Z,Paços De Ferreira,Porto,Norte,-8.405185,41.257386
24873252,"Romãs, Decermilo e Vila Longa",Viseu Dão Lafões,310,2025-01-26T16:44:00Z,24873252,Em despacho,3315,Inundação de estruturas por precipitação intensa,0,1,0,2,2025-01-26T16:44:00Z,Sátão,Viseu,Centro,-7.65827,40.755185
24873291,Duas Igrejas,Area M. Porto,309,2025-01-26T16:44:00Z,24873291,Em conclusão,3301,Queda de árvore,0,2,0,7,2025-01-26T16:44:00Z,Paredes,Porto,Norte,-8.376281,41.228302
24873416,Santa Cruz do Douro e São Tomé de Covelas,Tâmega e Sousa,309,2025-01-26T17:24:00Z,24873416,Em conclusão,3313,Deslizamento de terras,0,1,0,4,2025-01-26T17:24:00Z,Baião,Porto,Norte,-8.026933,41.125072
24873484,Paredes,Area M. Porto,309,2025-01-26T18:23:00Z,24873484,Em despacho,3301,Queda de árvore,0,1,0,2,2025-01-26T18:23:00Z,Paredes,Porto,Norte,-8.325115,41.20775
24873493,Valongo,Area M. Porto,309,2025-01-26T17:35:00Z,24873493,Em curso,3309,Desabamento de estruturas edificadas,0,1,0,2,2025-01-26T17:35:00Z,Valongo,Porto,Norte,-8.498959,41.192118
24873518,Venda Nova e Pondras,Alto Tâmega e Barroso,309,2025-01-26T17:38:00Z,24873518,Em conclusão,3301,Queda de árvore,0,3,0,8,2025-01-26T17:38:00Z,Montalegre,Vila Real,Norte,-7.964197,41.670982
24873536,Santa Cruz da Trapa e São Cristóvão de Lafões,Viseu Dão Lafões,310,2025-01-26T17:45:00Z,24873536,Em curso,3301,Queda de árvore,0,2,0,4,2025-01-26T17:45:00Z,São Pedro Do Sul,Viseu,Centro,-8.179319,40.770555
24873333,"Celeirós, Aveleda e Vimieiro",Cávado,309,2025-01-26T17:04:00Z,24873333,Em despacho,3301,Queda de árvore,0,1,0,2,2025-01-26T17:04:00Z,Braga,Braga,Norte,-8.44978,41.51462
24873442,"Valença, Cristelo Covo e Arão",Alto Minho,309,2025-01-26T17:25:00Z,24873442,Em curso,3311,Queda de elementos de estruturas edificados,0,0,0,0,2025-01-26T17:25:00Z,Valença,Viana Do Castelo,Norte,-8.644383,42.018188
24873578,Guilhufe e Urrô,Tâmega e Sousa,309,2025-01-26T17:56:00Z,24873578,Em despacho,3301,Queda de árvore,0,1,0,2,2025-01-26T17:56:00Z,Penafiel,Porto,Norte,-8.311341,41.20261
24873601,Cinfães,Tâmega e Sousa,309,2025-01-26T18:02:00Z,24873601,Em curso,3301,Queda de árvore,0,2,0,5,2025-01-26T18:02:00Z,Cinfães,Viseu,Norte,-8.103983,41.07938
24873658,Tarouca e Dálvares,Douro,309,2025-01-26T18:10:00Z,24873658,Em despacho,3313,Deslizamento de terras,0,1,0,2,2025-01-26T18:10:00Z,Tarouca,Viseu,Norte,-7.772894,41.019436
24873744,"Abrunheira, Verride e Vila Nova da Barca",Região de Coimbra,310,2025-01-26T18:34:00Z,24873744,Em curso,3301,Queda de árvore,0,1,0,3,2025-01-26T18:34:00Z,Montemor-o-Velho,Coimbra,Centro,-8.678764,40.140696
24873769,Tangil,Alto Minho,309,2025-01-26T18:25:00Z,24873769,Em curso,3301,Queda de árvore,0,1,0,2,2025-01-26T18:25:00Z,Monção,Viana Do Castelo,Norte,-8.377452,42.012867
24873776,Corroios,Península de Setúbal,311,2025-01-26T18:33:00Z,24873776,Em despacho,3329,Queda de estruturas temporárias ou móveis,0,1,0,3,2025-01-26T18:33:00Z,Seixal,Setúbal,Área Metropolitana De Lisboa,-9.156509,38.644129
24851780,"São Miguel, Santa Eufémia e Rabaçal",Região de Coimbra,310,2025-01-21T23:25:00Z,24851780,Em curso,3315,Inundação de estruturas por precipitação intensa,0,0,0,0,2025-01-21T23:25:00Z,Penela,Coimbra,Centro,-8.399036,40.025502
24873471,Santa Marinha e São Pedro da Afurada,Area M. Porto,309,2025-01-26T17:34:00Z,24873471,Em conclusão,3311,Queda de elementos de estruturas edificados,0,2,0,8,2025-01-26T17:34:00Z,Vila Nova De Gaia,Porto,Norte,-8.60714,41.132437
24873521,Lanhelas,Alto Minho,309,2025-01-26T17:17:00Z,24873521,Em curso,3301,Queda de árvore,0,1,0,5,2025-01-26T17:17:00Z,Caminha,Viana Do Castelo,Norte,-8.784374,41.914049
24873523,"Sé, Santa Maria e Meixedo",Terras de Trás-os-Montes,309,2025-01-26T17:45:00Z,24873523,Em despacho,3301,Queda de árvore,0,2,0,4,2025-01-26T17:45:00Z,Bragança,Bragança,Norte,-6.751361,41.80672
24873554,Parada de Ester e Ester,Viseu Dão Lafões,310,2025-01-26T17:19:00Z,24873554,Em despacho,3301,Queda de árvore,0,1,0,2,2025-01-26T17:19:00Z,Castro Daire,Viseu,Centro,-8.071387,40.932635
24873550,"Sé, Santa Maria e Meixedo",Terras de Trás-os-Montes,309,2025-01-26T17:46:00Z,24873550,Em curso,3315,Inundação de estruturas por precipitação intensa,0,1,0,2,2025-01-26T17:46:00Z,Bragança,Bragança,Norte,-6.761223,41.813164
24873659,Mouraz e Vila Nova da Rainha,Viseu Dão Lafões,310,2025-01-26T18:16:00Z,24873659,Em curso,3301,Queda de árvore,0,1,0,3,2025-01-26T18:16:00Z,Tondela,Viseu,Centro,-8.09016,40.48334
24873695,Areosa,Alto Minho,309,2025-01-26T18:14:00Z,24873695,Em despacho,3301,Queda de árvore,0,1,0,2,2025-01-26T18:14:00Z,Viana Do Castelo,Viana Do Castelo,Norte,-8.841057,41.722906
24873725,Costa,Ave,309,2025-01-26T18:27:00Z,24873725,Em curso,3311,Queda de elementos de estruturas edificados,0,0,0,0,2025-01-26T18:27:00Z,Guimarães,Braga,Norte,-8.274082,41.437172
24873768,Pombeiro da Beira,Região de Coimbra,310,2025-01-26T18:30:00Z,24873768,Em despacho,3321,Dano na rede de fornecimento de eletricidade ,0,1,0,2,2025-01-26T18:30:00Z,Arganil,Coimbra,Centro,-8.104912,40.241048
24873800,Taíde,Ave,309,2025-01-26T18:40:00Z,24873800,Em despacho,3301,Queda de árvore,0,2,0,4,2025-01-26T18:40:00Z,Póvoa De Lanhoso,Braga,Norte,-8.230344,41.559405
24873802,Paranhos,Beiras e Serra da Estrela,310,2025-01-26T18:47:00Z,24873802,Em despacho,3301,Queda de árvore,0,3,0,9,2025-01-26T18:47:00Z,Seia,Guarda,Centro,-7.786411,40.477381
24873809,Santar e Moreira,Viseu Dão Lafões,310,2025-01-26T18:46:00Z,24873809,Em despacho,3301,Queda de árvore,0,1,0,4,2025-01-26T18:46:00Z,Nelas,Viseu,Centro,-7.889856,40.569498
24873573,"Nossa Senhora da Conceição, São Pedro e São Dinis",Douro,309,2025-01-26T17:56:00Z,24873573,Em despacho,3329,Queda de estruturas temporárias ou móveis,0,1,0,1,2025-01-26T17:56:00Z,Vila Real,Vila Real,Norte,-7.739745,41.30403
24873623,Selho (São Jorge),Ave,309,2025-01-26T18:08:00Z,24873623,Em despacho,3311,Queda de elementos de estruturas edificados,0,0,0,0,2025-01-26T18:08:00Z,Guimarães,Braga,Norte,-8.35995,41.43162
24873640,Ribeira,Cávado,309,2025-01-26T18:08:00Z,24873640,Em despacho,3301,Queda de árvore,0,1,0,2,2025-01-26T18:08:00Z,Terras De Bouro,Braga,Norte,-8.328544,41.694567
24873687,"Nossa Senhora da Conceição, São Pedro e São Dinis",Douro,309,2025-01-26T18:21:00Z,24873687,Em despacho,3309,Desabamento de estruturas edificadas,0,1,0,1,2025-01-26T18:21:00Z,Vila Real,Vila Real,Norte,-7.74444,41.29637
24873704,Codeçoso,Tâmega e Sousa,309,2025-01-26T18:25:00Z,24873704,Em despacho,3301,Queda de árvore,0,1,0,4,2025-01-26T18:25:00Z,Celorico De Basto,Braga,Norte,-8.02435,41.340993
24873723,Treixedo e Nagozela,Viseu Dão Lafões,310,2025-01-26T18:23:00Z,24873723,Em despacho,3301,Queda de árvore,0,3,0,6,2025-01-26T18:23:00Z,Santa Comba Dão,Viseu,Centro,-8.097762,40.437368
24873739,Rio Frio,Alto Minho,309,2025-01-26T18:13:00Z,24873739,Em despacho,3301,Queda de árvore,0,1,0,3,2025-01-26T18:13:00Z,Arcos De Valdevez,Viana Do Castelo,Norte,-8.473857,41.837939
24873740,Mondim da Beira,Douro,309,2025-01-26T18:29:00Z,24873740,Em despacho,3301,Queda de árvore,0,1,0,2,2025-01-26T18:29:00Z,Tarouca,Viseu,Norte,-7.741898,41.033743
24873785,Grijó e Sermonde,Area M. Porto,309,2025-01-26T18:43:00Z,24873785,Em despacho,3301,Queda de árvore,0,1,0,3,2025-01-26T18:43:00Z,Vila Nova De Gaia,Porto,Norte,-8.594323,41.02208
24873808,Guardão,Viseu Dão Lafões,310,2025-01-26T18:43:00Z,24873808,Em conclusão,3313,Deslizamento de terras,0,1,0,4,2025-01-26T18:43:00Z,Tondela,Viseu,Centro,-8.166187,40.569747
24873842,Esmeriz e Cabeçudos,Ave,309,2025-01-26T18:54:00Z,24873842,Em despacho,3315,Inundação de estruturas por precipitação intensa,0,1,0,3,2025-01-26T18:54:00Z,Vila Nova De Famalicão,Braga,Norte,-8.513403,41.375519
24873862,Cabreiros e Albergaria da Serra,Area M. Porto,309,2025-01-26T19:02:00Z,24873862,Em despacho,3301,Queda de árvore,0,0,0,0,2025-01-26T19:02:00Z,Arouca,Aveiro,Norte,-8.203891,40.86046
24873867,Freiria,Oeste,311,2025-01-26T18:51:00Z,24873867,Em despacho,3311,Queda de elementos de estruturas edificados,0,2,0,4,2025-01-26T18:51:00Z,Torres Vedras,Lisboa,Centro,-9.317816,39.021822
24873791,Trancoso (São Pedro e Santa Maria) e Souto Maior,Beiras e Serra da Estrela,310,2025-01-26T18:41:00Z,24873791,Em despacho,3301,Queda de árvore,0,1,0,4,2025-01-26T18:41:00Z,Trancoso,Guarda,Centro,-7.349001,40.772412
24873839,Vilar de Andorinho,Area M. Porto,309,2025-01-26T18:56:00Z,24873839,Em despacho,3301,Queda de árvore,0,1,0,3,2025-01-26T18:56:00Z,Vila Nova De Gaia,Porto,Norte,-8.566457,41.10469
24873811,Sever,Douro,309,2025-01-26T18:41:00Z,24873811,Em despacho,3321,Dano na rede de fornecimento de eletricidade ,0,1,0,2,2025-01-26T18:41:00Z,Santa Marta De Penaguião,Vila Real,Norte,-7.792019,41.230196
24873818,Monte Córdova,Area M. Porto,309,2025-01-26T18:50:00Z,24873818,Em despacho,3301,Queda de árvore,0,2,0,4,2025-01-26T18:50:00Z,Santo Tirso,Porto,Norte,-8.447552,41.32327
24873836,Trancozelos,Viseu Dão Lafões,310,2025-01-26T18:54:00Z,24873836,Em despacho,3301,Queda de árvore,0,0,0,0,2025-01-26T18:54:00Z,Penalva Do Castelo,Viseu,Centro,-7.716914,40.655455
24873843,Soutelo de Aguiar,Alto Tâmega e Barroso,309,2025-01-26T18:57:00Z,24873843,Em despacho,3301,Queda de árvore,0,2,0,7,2025-01-26T18:57:00Z,Vila Pouca De Aguiar,Vila Real,Norte,-7.671109,41.493753
24873845,Viseu,Viseu Dão Lafões,310,2025-01-26T18:39:00Z,24873845,Em despacho,3315,Inundação de estruturas por precipitação intensa,0,1,0,4,2025-01-26T18:39:00Z,Viseu,Viseu,Centro,-7.908451,40.659587
24873868,Almoster,Região de Leiria,310,2025-01-26T19:00:00Z,24873868,Em despacho,3301,Queda de árvore,0,1,0,2,2025-01-26T19:00:00Z,Alvaiázere,Leiria,Centro,-8.455545,39.836228
24873870,Viseu,Viseu Dão Lafões,310,2025-01-26T18:50:00Z,24873870,Em despacho,3315,Inundação de estruturas por precipitação intensa,0,1,0,2,2025-01-26T18:50:00Z,Viseu,Viseu,Centro,-7.908451,40.659587
