id,address,subregion,neighborhood,date,id.1,state,nature,nature_description,aerial_means,terrestrial_means,aquatic_means,operational,date.1,Concelho,Distrito,NUTII_DSG,longitude,latitude
25576432,Vale de Santiago,Alentejo Litoral,312,2025-06-25T08:27:00Z,25576432,Em conclusão,2301,Incêndio em transporte rodoviário,0,5,0,21,2025-06-25T08:27:00Z,Odemira,Beja,Alentejo,-8.520197,37.814975
25576648,Foz do Sousa e Covelo,Area M. Porto,309,2025-06-25T09:08:00Z,25576648,Em conclusão,3101,Incêndio rural,0,3,0,15,2025-06-25T09:08:00Z,Gondomar,Porto,Norte,-8.497903,41.114858
25576850,Ferreiras,Algarve,313,2025-06-25T09:37:00Z,25576850,Em conclusão,3201,Detritos não confinados,0,1,0,5,2025-06-25T09:37:00Z,Albufeira,Faro,Algarve,-8.24221,37.119669
25576965,Monte,Região de Aveiro,310,2025-06-25T10:00:00Z,25576965,Em despacho,2101,Incêndio em edifícios habitacionais,0,3,0,8,2025-06-25T10:00:00Z,Murtosa,Aveiro,Centro,-8.64187,40.75291
25576425,Este (São Pedro e São Mamede),Cávado,309,2025-06-25T08:23:00Z,25576425,Em despacho,3107,Consolidação de rescaldo de incêndio rural,0,1,0,5,2025-06-25T08:23:00Z,Braga,Braga,Norte,-8.356951,41.570113
25576894,Alcabideche,Grande Lisboa,311,2025-06-25T09:50:00Z,25576894,Em despacho,2101,Incêndio em edifícios habitacionais,0,2,0,7,2025-06-25T09:50:00Z,Cascais,Lisboa,Área Metropolitana De Lisboa,-9.38585,38.72247
25576293,Aveiras de Baixo,Lezíria do Tejo,311,2025-06-25T07:56:00Z,25576293,Em despacho,3109,Gestão de combustível,0,1,0,4,2025-06-25T07:56:00Z,Azambuja,Lisboa,Alentejo,-8.826556,39.086132
