id,address,subregion,neighborhood,date,id.1,state,nature,nature_description,aerial_means,terrestrial_means,aquatic_means,operational,date.1,Concelho,Distrito,NUTII_DSG,longitude,latitude,state_2
25952617,"Requeixo, Nossa Senhora de Fátima e Nariz",Região de Aveiro,310,2025-09-06T15:26:00Z,25952617,Em Resolução/Conclusão,3101,Incêndio rural,0,7,0,18,2025-09-06T15:26:00Z,Aveiro,Aveiro,Centro,-8.576895,40.591837,Resolução/Conclusão
25952810,Luzim e Vila Cova,Tâmega e Sousa,309,2025-09-06T16:13:00Z,25952810,Em Resolução/Conclusão,3101,Incêndio rural,0,8,0,25,2025-09-06T16:13:00Z,Penafiel,Porto,Norte,-8.23573,41.16431,Resolução/Conclusão
25952858,Figueira de Castelo Rodrigo,Beiras e Serra da Estrela,310,2025-09-06T16:22:00Z,25952858,Em Curso,3103,Incêndio rural,0,15,0,50,2025-09-06T16:22:00Z,Figueira De Castelo Rodrigo,Guarda,Centro,-6.934648,40.906778,Curso
25953169,"Algodres, Vale de Afonsinho e Vilar de Amargo",Beiras e Serra da Estrela,310,2025-09-06T17:30:00Z,25953169,Em Curso,3103,Incêndio rural,0,20,0,76,2025-09-06T17:30:00Z,Figueira De Castelo Rodrigo,Guarda,Centro,-6.99142,40.943735,Curso
25953805,Belmonte e Colmeal da Torre,Beiras e Serra da Estrela,310,2025-09-06T20:08:00Z,25953805,Em Resolução/Conclusão,3105,Incêndio rural,0,7,0,18,2025-09-06T20:08:00Z,Belmonte,Castelo Branco,Centro,-7.336464,40.331975,Resolução/Conclusão
25953869,Seiça,Médio Tejo,311,2025-09-06T20:27:00Z,25953869,Em Despacho,3103,Incêndio rural,0,1,0,5,2025-09-06T20:27:00Z,Ourém,Santarém,Centro,-8.508063,39.67957,Despacho
25953903,Macieira da Lixa e Caramos,Tâmega e Sousa,309,2025-09-06T20:27:00Z,25953903,Em Despacho,3103,Incêndio rural,0,1,0,5,2025-09-06T20:27:00Z,Felgueiras,Porto,Norte,-8.155165,41.346235,Despacho
25953040,Canedo,Alto Tâmega e Barroso,309,2025-09-06T17:00:00Z,25953040,Em Resolução/Conclusão,3103,Incêndio rural,0,5,0,22,2025-09-06T17:00:00Z,Ribeira De Pena,Vila Real,Norte,-7.721235,41.607728,Resolução/Conclusão
25953307,Águas Frias,Alto Tâmega e Barroso,309,2025-09-06T18:00:00Z,25953307,Em Resolução/Conclusão,3103,Incêndio rural,0,0,0,0,2025-09-06T18:00:00Z,Chaves,Vila Real,Norte,-7.37787,41.767457,Resolução/Conclusão
25953724,Foz do Sousa e Covelo,Area M. Porto,309,2025-09-06T19:50:00Z,25953724,Em Curso,3103,Incêndio rural,0,3,0,12,2025-09-06T19:50:00Z,Gondomar,Porto,Norte,-8.498383,41.119217,Curso
25953842,Seiça,Médio Tejo,311,2025-09-06T20:19:00Z,25953842,Em Resolução/Conclusão,3103,Incêndio rural,0,3,0,12,2025-09-06T20:19:00Z,Ourém,Santarém,Centro,-8.512072,39.675795,Resolução/Conclusão
25832672,Piódão,Região de Coimbra,310,2025-08-13T05:08:00Z,25832672,Em Resolução/Conclusão,3103,Incêndio rural,0,14,0,40,2025-08-13T05:08:00Z,Arganil,Coimbra,Centro,-7.81972,40.23083,Resolução/Conclusão
25840417,Lousã e Vilarinho,Região de Coimbra,310,2025-08-14T13:46:00Z,25840417,Em Resolução/Conclusão,3101,Incêndio rural,0,0,0,0,2025-08-14T13:46:00Z,Lousã,Coimbra,Centro,-8.201561,40.080016,Resolução/Conclusão
25951064,Moimenta e Montouto,Terras de Trás-os-Montes,309,2025-09-06T10:05:00Z,25951064,Em Resolução/Conclusão,3103,Incêndio rural,0,9,0,25,2025-09-06T10:05:00Z,Vinhais,Bragança,Norte,-6.971422,41.966033,Resolução/Conclusão
25951457,Vila Cã,Região de Leiria,310,2025-09-06T11:25:00Z,25951457,Em Resolução/Conclusão,3103,Incêndio rural,0,5,0,16,2025-09-06T11:25:00Z,Pombal,Leiria,Centro,-8.56078,39.851197,Resolução/Conclusão
25953786,Escudeiros e Penso (Santo Estêvão e São Vicente),Cávado,309,2025-09-06T20:05:00Z,25953786,Em Curso,3105,Incêndio rural,0,3,0,12,2025-09-06T20:05:00Z,Braga,Braga,Norte,-8.434217,41.47885,Curso
25953811,São Martinho de Mouros,Tâmega e Sousa,309,2025-09-06T20:10:00Z,25953811,Em Resolução/Conclusão,3105,Incêndio rural,0,1,0,5,2025-09-06T20:10:00Z,Resende,Viseu,Norte,-7.89949,41.10827,Resolução/Conclusão
25953845,Nossa Senhora do Pranto,Médio Tejo,311,2025-09-06T20:19:00Z,25953845,Em Resolução/Conclusão,3103,Incêndio rural,0,3,0,15,2025-09-06T20:19:00Z,Ferreira Do Zêzere,Santarém,Centro,-8.2552,39.76981,Resolução/Conclusão
25953861,Covide,Cávado,309,2025-09-06T20:18:00Z,25953861,Em Despacho,3103,Incêndio rural,0,5,0,24,2025-09-06T20:18:00Z,Terras De Bouro,Braga,Norte,-8.216171,41.73821,Despacho
25951176,Sandomil,Beiras e Serra da Estrela,310,2025-09-06T10:29:00Z,25951176,Em Curso,3103,Incêndio rural,0,190,0,625,2025-09-06T10:29:00Z,Seia,Guarda,Centro,-7.76001,40.351547,Curso
25951795,São Bento do Mato,Alentejo Central,312,2025-09-06T12:34:00Z,25951795,Em Resolução/Conclusão,3103,Incêndio rural,0,9,0,26,2025-09-06T12:34:00Z,Évora,Évora,Alentejo,-7.770928,38.689508,Resolução/Conclusão
25952915,Tavira (Santa Maria e Santiago),Algarve,313,2025-09-06T16:39:00Z,25952915,Em Resolução/Conclusão,3103,Incêndio rural,0,0,0,0,2025-09-06T16:39:00Z,Tavira,Faro,Algarve,-7.69144,37.17138,Resolução/Conclusão
25953633,Alvarenga,Area M. Porto,309,2025-09-06T19:24:00Z,25953633,Em Resolução/Conclusão,3101,Incêndio rural,0,3,0,12,2025-09-06T19:24:00Z,Arouca,Aveiro,Norte,-8.105797,40.989377,Resolução/Conclusão
25953767,Mesão Frio,Ave,309,2025-09-06T20:04:00Z,25953767,Em Resolução/Conclusão,3103,Incêndio rural,0,3,0,15,2025-09-06T20:04:00Z,Guimarães,Braga,Norte,-8.2491,41.44009,Resolução/Conclusão
25953949,Cimo de Vila da Castanheira,Alto Tâmega e Barroso,309,2025-09-06T20:40:00Z,25953949,Em Despacho,3103,Incêndio rural,0,6,0,27,2025-09-06T20:40:00Z,Chaves,Vila Real,Norte,-7.29329,41.801175,Despacho
