id,address,subregion,neighborhood,date,id.1,state,nature,nature_description,aerial_means,terrestrial_means,aquatic_means,operational,date.1,Concelho,Distrito,NUTII_DSG,longitude,latitude,state_2
25775263,Torgueda,Douro,309,2025-08-02T19:49:00Z,25775263,Em Resolução/Conclusão,3101,Incêndio rural,0,3,0,10,2025-08-02T19:49:00Z,Vila Real,Vila Real,Norte,-7.785983,41.274952,Resolução/Conclusão
25807426,Alvite,Douro,309,2025-08-08T14:31:00Z,25807426,Em Resolução/Conclusão,3103,Incêndio rural,0,9,0,41,2025-08-08T14:31:00Z,Moimenta Da Beira,Viseu,Norte,-7.688727,40.96613,Resolução/Conclusão
25840502,Lousã e Vilarinho,Região de Coimbra,310,2025-08-14T14:00:00Z,25840502,Em Resolução/Conclusão,3105,Incêndio rural,0,0,0,0,2025-08-14T14:00:00Z,Lousã,Coimbra,Centro,-8.239893,40.137434,Resolução/Conclusão
25840909,Portela e Extremo,Alto Minho,309,2025-08-14T15:01:00Z,25840909,Em Resolução/Conclusão,3103,Incêndio rural,0,1,0,4,2025-08-14T15:01:00Z,Arcos De Valdevez,Viana Do Castelo,Norte,-8.44359,41.9515,Resolução/Conclusão
25841363,Santar e Moreira,Viseu Dão Lafões,310,2025-08-14T16:28:00Z,25841363,Em Resolução/Conclusão,3103,Incêndio rural,0,2,0,6,2025-08-14T16:28:00Z,Nelas,Viseu,Centro,-7.883308,40.563075,Resolução/Conclusão
25841602,São Jorge e Ermelo,Alto Minho,309,2025-08-14T17:11:00Z,25841602,Em Resolução/Conclusão,3103,Incêndio rural,0,2,0,6,2025-08-14T17:11:00Z,Arcos De Valdevez,Viana Do Castelo,Norte,-8.3686,41.81973,Resolução/Conclusão
25842490,Miranda,Alto Minho,309,2025-08-14T19:55:00Z,25842490,Em Curso,3103,Incêndio rural,0,12,0,42,2025-08-14T19:55:00Z,Arcos De Valdevez,Viana Do Castelo,Norte,-8.511716,41.835944,Curso
25842958,Ancede e Ribadouro,Tâmega e Sousa,309,2025-08-14T21:30:00Z,25842958,Em Resolução/Conclusão,3105,Incêndio rural,0,1,0,5,2025-08-14T21:30:00Z,Baião,Porto,Norte,-8.059362,41.106105,Resolução/Conclusão
25842990,Poiares,Douro,309,2025-08-14T21:35:00Z,25842990,Em Despacho,3103,Incêndio rural,0,2,0,10,2025-08-14T21:35:00Z,Freixo De Espada à Cinta,Bragança,Norte,-6.847067,41.065058,Despacho
25843101,Recezinhos (São Mamede),Tâmega e Sousa,309,2025-08-14T22:04:00Z,25843101,Em Resolução/Conclusão,3103,Incêndio rural,0,1,0,5,2025-08-14T22:04:00Z,Penafiel,Porto,Norte,-8.21924,41.24435,Resolução/Conclusão
25843108,Cinfães,Tâmega e Sousa,309,2025-08-14T22:03:00Z,25843108,Em Despacho,3103,Incêndio rural,0,1,0,5,2025-08-14T22:03:00Z,Cinfães,Viseu,Norte,-8.089113,41.062309,Despacho
25843151,Sapardos,Alto Minho,309,2025-08-14T22:10:00Z,25843151,Em Curso,3103,Incêndio rural,0,5,0,18,2025-08-14T22:10:00Z,Vila Nova De Cerveira,Viana Do Castelo,Norte,-8.642262,41.924175,Curso
25774883,Arnóia,Tâmega e Sousa,309,2025-08-02T18:20:00Z,25774883,Em Resolução/Conclusão,3103,Incêndio rural,0,2,0,6,2025-08-02T18:20:00Z,Celorico De Basto,Braga,Norte,-7.998983,41.348727,Resolução/Conclusão
25818455,Sobral de São Miguel,Beiras e Serra da Estrela,310,2025-08-10T15:02:00Z,25818455,Em Resolução/Conclusão,3103,Incêndio rural,0,13,0,36,2025-08-10T15:02:00Z,Covilhã,Castelo Branco,Centro,-7.77307,40.200173,Resolução/Conclusão
25834631,Paços,Douro,309,2025-08-13T12:57:00Z,25834631,Em Resolução/Conclusão,3103,Incêndio rural,0,2,0,6,2025-08-13T12:57:00Z,Sabrosa,Vila Real,Norte,-7.620647,41.233283,Resolução/Conclusão
25837154,"Tavares (Chãs, Várzea e Travanca)",Viseu Dão Lafões,310,2025-08-13T21:27:00Z,25837154,Em Resolução/Conclusão,3103,Incêndio rural,0,0,0,0,2025-08-13T21:27:00Z,Mangualde,Viseu,Centro,-7.647492,40.608359,Resolução/Conclusão
25840833,Ala e Vilarinho do Monte,Terras de Trás-os-Montes,309,2025-08-14T14:49:00Z,25840833,Em Resolução/Conclusão,3103,Incêndio rural,0,6,0,20,2025-08-14T14:49:00Z,Macedo De Cavaleiros,Bragança,Norte,-7.015958,41.59749,Resolução/Conclusão
25841466,São Miguel do Mato,Viseu Dão Lafões,310,2025-08-14T16:48:00Z,25841466,Em Resolução/Conclusão,3103,Incêndio rural,0,3,0,10,2025-08-14T16:48:00Z,Vouzela,Viseu,Centro,-8.0267,40.71845,Resolução/Conclusão
25842186,Mourão,Alentejo Central,312,2025-08-14T18:56:00Z,25842186,Em Resolução/Conclusão,3103,Incêndio rural,0,0,0,0,2025-08-14T18:56:00Z,Mourão,Évora,Alentejo,-7.337273,38.38757,Resolução/Conclusão
25842553,Vilar de Perdizes e Meixide,Alto Tâmega e Barroso,309,2025-08-14T20:05:00Z,25842553,Em Curso,3103,Incêndio rural,0,7,0,24,2025-08-14T20:05:00Z,NA,NA,NA,-7.586628,41.88778,Curso
25843072,Asseiceira,Lezíria do Tejo,311,2025-08-14T21:57:00Z,25843072,Em Resolução/Conclusão,3103,Incêndio rural,0,9,0,33,2025-08-14T21:57:00Z,Rio Maior,Santarém,Alentejo,-8.926243,39.269065,Resolução/Conclusão
25843089,Arrifana,Região de Coimbra,310,2025-08-14T22:00:00Z,25843089,Em Resolução/Conclusão,3101,Incêndio rural,0,3,0,14,2025-08-14T22:00:00Z,Vila Nova De Poiares,Coimbra,Centro,-8.278181,40.231863,Resolução/Conclusão
25785983,Caçarilhe e Infesta,Tâmega e Sousa,309,2025-08-04T18:22:00Z,25785983,Em Resolução/Conclusão,3103,Incêndio rural,0,3,0,12,2025-08-04T18:22:00Z,Celorico De Basto,Braga,Norte,-8.04611,41.419858,Resolução/Conclusão
25792058,Cibões e Brufe,Cávado,309,2025-08-05T19:10:00Z,25792058,Em Resolução/Conclusão,3103,Incêndio rural,0,1,0,5,2025-08-05T19:10:00Z,Terras De Bouro,Braga,Norte,-8.293932,41.764918,Resolução/Conclusão
25820422,Távora e Pereiro,Douro,309,2025-08-10T22:27:00Z,25820422,Em Resolução/Conclusão,3103,Incêndio rural,0,75,0,213,2025-08-10T22:27:00Z,Tabuaço,Viseu,Norte,-7.55556,41.097602,Resolução/Conclusão
25832672,Piódão,Região de Coimbra,310,2025-08-13T05:08:00Z,25832672,Em Curso,3103,Incêndio rural,0,282,0,811,2025-08-13T05:08:00Z,Arganil,Coimbra,Centro,-7.81972,40.23083,Curso
25833258,Vale de Espinho,Beiras e Serra da Estrela,310,2025-08-13T09:00:00Z,25833258,Em Resolução/Conclusão,3103,Incêndio rural,0,1,0,5,2025-08-13T09:00:00Z,Sabugal,Guarda,Centro,-6.92203,40.272065,Resolução/Conclusão
25835176,Faíl e Vila Chã de Sá,Viseu Dão Lafões,310,2025-08-13T14:35:00Z,25835176,Em Resolução/Conclusão,3103,Incêndio rural,0,10,0,34,2025-08-13T14:35:00Z,Viseu,Viseu,Centro,-7.951177,40.594167,Resolução/Conclusão
25836864,Vilarelho da Raia,Alto Tâmega e Barroso,309,2025-08-13T20:15:00Z,25836864,Em Resolução/Conclusão,3103,Incêndio rural,0,8,0,23,2025-08-13T20:15:00Z,Chaves,Vila Real,Norte,-7.499832,41.868443,Resolução/Conclusão
25840417,Lousã e Vilarinho,Região de Coimbra,310,2025-08-14T13:46:00Z,25840417,Em Curso,3101,Incêndio rural,0,94,0,323,2025-08-14T13:46:00Z,Lousã,Coimbra,Centro,-8.201561,40.080016,Curso
25841210,São Jorge e Ermelo,Alto Minho,309,2025-08-14T15:57:00Z,25841210,Em Resolução/Conclusão,3103,Incêndio rural,0,0,0,0,2025-08-14T15:57:00Z,Arcos De Valdevez,Viana Do Castelo,Norte,-8.356787,41.815315,Resolução/Conclusão
25841546,São João de Lourosa,Viseu Dão Lafões,310,2025-08-14T16:55:00Z,25841546,Em Resolução/Conclusão,3103,Incêndio rural,0,0,0,0,2025-08-14T16:55:00Z,Viseu,Viseu,Centro,-7.9337,40.6126,Resolução/Conclusão
25841712,Miranda,Alto Minho,309,2025-08-14T17:31:00Z,25841712,Em Resolução/Conclusão,3103,Incêndio rural,0,1,0,1,2025-08-14T17:31:00Z,Arcos De Valdevez,Viana Do Castelo,Norte,-8.511716,41.835944,Resolução/Conclusão
25842982,Sapardos,Alto Minho,309,2025-08-14T21:34:00Z,25842982,Em Resolução/Conclusão,3103,Incêndio rural,0,0,0,0,2025-08-14T21:34:00Z,Vila Nova De Cerveira,Viana Do Castelo,Norte,-8.639773,41.918837,Resolução/Conclusão
25776263,"Pena, Quintã e Vila Cova",Douro,309,2025-08-02T23:45:00Z,25776263,Em Resolução/Conclusão,3103,Incêndio rural,0,63,0,188,2025-08-02T23:45:00Z,Vila Real,Vila Real,Norte,-7.811902,41.317355,Resolução/Conclusão
25813482,Freches e Torres,Beiras e Serra da Estrela,310,2025-08-09T16:21:00Z,25813482,Em Curso,3103,Incêndio rural,0,160,0,479,2025-08-09T16:21:00Z,Trancoso,Guarda,Centro,-7.363745,40.709022,Curso
25830378,Ermidas-Sado,Alentejo Litoral,312,2025-08-12T16:42:00Z,25830378,Em Resolução/Conclusão,3101,Incêndio rural,0,0,0,0,2025-08-12T16:42:00Z,Santiago Do Cacém,Setúbal,Alentejo,-8.407646,38.059897,Resolução/Conclusão
25832250,Ferreira de Aves,Viseu Dão Lafões,310,2025-08-13T00:03:00Z,25832250,Em Curso,3103,Incêndio rural,0,258,0,759,2025-08-13T00:03:00Z,Sátão,Viseu,Centro,-7.647793,40.79568,Curso
25835457,Quirás e Pinheiro Novo,Terras de Trás-os-Montes,309,2025-08-13T15:25:00Z,25835457,Em Resolução/Conclusão,3103,Incêndio rural,0,20,0,65,2025-08-13T15:25:00Z,Vinhais,Bragança,Norte,-7.170375,41.939618,Resolução/Conclusão
25835977,Miranda,Alto Minho,309,2025-08-13T17:03:00Z,25835977,Em Resolução/Conclusão,3103,Incêndio rural,0,0,0,0,2025-08-13T17:03:00Z,Arcos De Valdevez,Viana Do Castelo,Norte,-8.501393,41.825312,Resolução/Conclusão
25836309,Cinfães,Tâmega e Sousa,309,2025-08-13T18:17:00Z,25836309,Em Resolução/Conclusão,3103,Incêndio rural,0,42,0,142,2025-08-13T18:17:00Z,Cinfães,Viseu,Norte,-8.071502,41.049757,Resolução/Conclusão
25840505,Ribeira de Nisa e Carreiras,Alto Alentejo,312,2025-08-14T14:01:00Z,25840505,Em Curso,3101,Incêndio rural,0,92,0,290,2025-08-14T14:01:00Z,Portalegre,Portalegre,Alentejo,-7.47009,39.374707,Curso
25840858,Moreira de Rei,Beiras e Serra da Estrela,310,2025-08-14T14:53:00Z,25840858,Em Curso,3103,Incêndio rural,0,17,0,69,2025-08-14T14:53:00Z,Trancoso,Guarda,Centro,-7.31259,40.870748,Curso
25842258,Duas Igrejas,Area M. Porto,309,2025-08-14T19:09:00Z,25842258,Em Resolução/Conclusão,3103,Incêndio rural,0,0,0,0,2025-08-14T19:09:00Z,Paredes,Porto,Norte,-8.37107,41.222357,Resolução/Conclusão
25842544,Vila Marim,Douro,309,2025-08-14T20:07:00Z,25842544,Em Resolução/Conclusão,3103,Incêndio rural,0,2,0,7,2025-08-14T20:07:00Z,Vila Real,Vila Real,Norte,-7.773315,41.32849,Resolução/Conclusão
25842896,Folgosa,Area M. Porto,309,2025-08-14T21:17:00Z,25842896,Em Resolução/Conclusão,3103,Incêndio rural,0,2,0,7,2025-08-14T21:17:00Z,Maia,Porto,Norte,-8.54661,41.23275,Resolução/Conclusão
25842927,Aguiar de Sousa,Area M. Porto,309,2025-08-14T21:15:00Z,25842927,Em Resolução/Conclusão,3103,Incêndio rural,0,2,0,10,2025-08-14T21:15:00Z,Paredes,Porto,Norte,-8.424892,41.127948,Resolução/Conclusão
