id,address,subregion,neighborhood,date,id.1,state,nature,nature_description,aerial_means,terrestrial_means,aquatic_means,operational,date.1,Concelho,Distrito,NUTII_DSG,longitude,latitude
25059714,Torrão,Alentejo Litoral,312,2025-03-08T22:10:00Z,25059714,Em curso,1101,Cheia,0,2,0,3,2025-03-08T22:10:00Z,Alcácer Do Sal,Setúbal,Alentejo,-8.359133,38.252053
25070044,Praia do Ribatejo,Médio Tejo,311,2025-03-10T19:30:00Z,25070044,Em curso,1101,Cheia,0,0,0,0,2025-03-10T19:30:00Z,Vila Nova Da Barquinha,Santarém,Centro,-8.357309,39.485638
25071496,São Manços e São Vicente do Pigeiro,Alentejo Central,312,2025-03-11T13:18:00Z,25071496,Em curso,1101,Cheia,0,2,0,4,2025-03-11T13:18:00Z,Évora,Évora,Alentejo,-7.713313,38.513673
25096986,São Teotónio,Alentejo Litoral,312,2025-03-16T22:54:00Z,25096986,Em resolução,3309,Desabamento de estruturas edificadas,0,0,0,0,2025-03-16T22:54:00Z,Odemira,Beja,Alentejo,-8.803445,37.599856
25107663,São Teotónio,Alentejo Litoral,312,2025-03-19T08:56:00Z,25107663,Em conclusão,3301,Queda de árvore,0,3,0,7,2025-03-19T08:56:00Z,Odemira,Beja,Alentejo,-8.714387,37.581017
25107996,Arega,Região de Leiria,310,2025-03-19T09:30:00Z,25107996,Em despacho,3313,Deslizamento de terras,0,1,0,1,2025-03-19T09:30:00Z,Figueiró Dos Vinhos,Leiria,Centro,-8.329272,39.800486
25108030,"Nossa Senhora do Pópulo, Coto e São Gregório",Oeste,311,2025-03-19T10:04:00Z,25108030,Em conclusão,3301,Queda de árvore,0,1,0,2,2025-03-19T10:04:00Z,Caldas Da Rainha,Leiria,Centro,-9.138165,39.406685
25108083,Colares,Grande Lisboa,311,2025-03-19T10:08:00Z,25108083,Em despacho,3301,Queda de árvore,0,1,0,2,2025-03-19T10:08:00Z,Sintra,Lisboa,Área Metropolitana De Lisboa,-9.462038,38.768962
25087162,Pedrógão,Baixo Alentejo,312,2025-03-14T17:00:00Z,25087162,Em curso,1101,Cheia,0,1,0,2,2025-03-14T17:00:00Z,Vidigueira,Beja,Alentejo,-7.630327,38.110775
25107802,Barcarena,Grande Lisboa,311,2025-03-19T09:10:00Z,25107802,Em curso,3301,Queda de árvore,0,4,0,11,2025-03-19T09:10:00Z,Oeiras,Lisboa,Área Metropolitana De Lisboa,-9.275236,38.743015
25107902,Carnaxide e Queijas,Grande Lisboa,311,2025-03-19T09:35:00Z,25107902,Em conclusão,3311,Queda de elementos de estruturas edificados,0,2,0,5,2025-03-19T09:35:00Z,Oeiras,Lisboa,Área Metropolitana De Lisboa,-9.25881,38.722457
25107952,Mértola,Baixo Alentejo,312,2025-03-19T09:30:00Z,25107952,Em conclusão,3301,Queda de árvore,0,1,0,3,2025-03-19T09:30:00Z,Mértola,Beja,Alentejo,-7.656362,37.655978
25108079,São João Das Lampas e Terrugem,Grande Lisboa,311,2025-03-19T09:49:00Z,25108079,Em curso,3329,Queda de estruturas temporárias ou móveis,0,1,0,2,2025-03-19T09:49:00Z,Sintra,Lisboa,Área Metropolitana De Lisboa,-9.381686,38.911266
25108086,Carcavelos e Parede,Grande Lisboa,311,2025-03-19T09:57:00Z,25108086,Em curso,3301,Queda de árvore,0,3,0,6,2025-03-19T09:57:00Z,Cascais,Lisboa,Área Metropolitana De Lisboa,-9.355169,38.690219
25108100,Penacova,Região de Coimbra,310,2025-03-19T10:13:00Z,25108100,Em despacho,3301,Queda de árvore,0,2,0,3,2025-03-19T10:13:00Z,Penacova,Coimbra,Centro,-8.27651,40.251768
25108118,Charneca de Caparica e Sobreda,Península de Setúbal,311,2025-03-19T10:18:00Z,25108118,Em despacho,3329,Queda de estruturas temporárias ou móveis,0,2,0,7,2025-03-19T10:18:00Z,Almada,Setúbal,Área Metropolitana De Lisboa,-9.18525,38.65289
25108199,Couço,Lezíria do Tejo,311,2025-03-19T10:28:00Z,25108199,Em despacho,3301,Queda de árvore,0,1,0,1,2025-03-19T10:28:00Z,Coruche,Santarém,Alentejo,-8.284298,38.990819
25108232,São Domingos de Rana,Grande Lisboa,311,2025-03-19T10:24:00Z,25108232,Em despacho,3329,Queda de estruturas temporárias ou móveis,0,1,0,5,2025-03-19T10:24:00Z,Cascais,Lisboa,Área Metropolitana De Lisboa,-9.340115,38.702729
25108233,Caparica e Trafaria,Península de Setúbal,311,2025-03-19T10:27:00Z,25108233,Em despacho,3311,Queda de elementos de estruturas edificados,0,1,0,4,2025-03-19T10:27:00Z,Almada,Setúbal,Área Metropolitana De Lisboa,-9.198172,38.665376
25108247,Mafra,Grande Lisboa,311,2025-03-19T10:26:00Z,25108247,Em despacho,3301,Queda de árvore,0,1,0,2,2025-03-19T10:26:00Z,Mafra,Lisboa,Área Metropolitana De Lisboa,-9.350553,38.97825
25108264,"S.maria, S.miguel, S.martinho, S.pedro Penaferrim",Grande Lisboa,311,2025-03-19T10:40:00Z,25108264,Em despacho,3329,Queda de estruturas temporárias ou móveis,0,0,0,0,2025-03-19T10:40:00Z,Sintra,Lisboa,Área Metropolitana De Lisboa,-9.387899,38.805813
25108281,"S.julião, N.s. da Anunciada e S. Maria da Graça",Península de Setúbal,311,2025-03-19T10:36:00Z,25108281,Em despacho,3301,Queda de árvore,0,1,0,5,2025-03-19T10:36:00Z,Setúbal,Setúbal,Área Metropolitana De Lisboa,-8.889983,38.529955
25108159,Juncal,Região de Leiria,310,2025-03-19T10:15:00Z,25108159,Em despacho,3301,Queda de árvore,0,1,0,2,2025-03-19T10:15:00Z,Porto De Mós,Leiria,Centro,-8.896898,39.603593
25108184,Carnaxide e Queijas,Grande Lisboa,311,2025-03-19T10:18:00Z,25108184,Em despacho,3321,Dano na rede de fornecimento de eletricidade ,0,1,0,3,2025-03-19T10:18:00Z,Oeiras,Lisboa,Área Metropolitana De Lisboa,-9.259903,38.718843
25068300,Almeirim,Lezíria do Tejo,311,2025-03-10T20:52:00Z,25068300,Em curso,1101,Cheia,0,0,0,0,2025-03-10T20:52:00Z,Almeirim,Santarém,Alentejo,-8.635002,39.187436
25087870,Luzianes-Gare,Alentejo Litoral,312,2025-03-14T18:49:00Z,25087870,Em despacho,3313,Deslizamento de terras,0,1,0,1,2025-03-14T18:49:00Z,Odemira,Beja,Alentejo,-8.48633,37.589522
25107919,Peniche,Oeste,311,2025-03-19T09:35:00Z,25107919,Em curso,3321,Dano na rede de fornecimento de eletricidade ,0,3,0,12,2025-03-19T09:35:00Z,Peniche,Leiria,Centro,-9.376833,39.357166
25108026,São João Das Lampas e Terrugem,Grande Lisboa,311,2025-03-19T10:01:00Z,25108026,Em conclusão,3301,Queda de árvore,0,1,0,4,2025-03-19T10:01:00Z,Sintra,Lisboa,Área Metropolitana De Lisboa,-9.442718,38.844843
25108037,Santo Isidoro,Grande Lisboa,311,2025-03-19T09:59:00Z,25108037,Em despacho,3301,Queda de árvore,0,1,0,5,2025-03-19T09:59:00Z,Mafra,Lisboa,Área Metropolitana De Lisboa,-9.362699,39.013251
25108178,Glória do Ribatejo e Granho,Lezíria do Tejo,311,2025-03-19T10:24:00Z,25108178,Em despacho,3301,Queda de árvore,0,2,0,6,2025-03-19T10:24:00Z,Salvaterra De Magos,Santarém,Alentejo,-8.637872,39.044768
25063232,Santa Maria do Castelo e Santiago e Santa Susana,Alentejo Litoral,312,2025-03-09T19:02:00Z,25063232,Em curso,1101,Cheia,0,0,0,0,2025-03-09T19:02:00Z,Alcácer Do Sal,Setúbal,Alentejo,-8.48167,38.29806
25107704,Queluz e Belas,Grande Lisboa,311,2025-03-19T09:00:00Z,25107704,Em despacho,3301,Queda de árvore,0,4,0,8,2025-03-19T09:00:00Z,Sintra,Lisboa,Área Metropolitana De Lisboa,-9.256039,38.765721
25107823,"Coruche, Fajarda e Erra",Lezíria do Tejo,311,2025-03-19T09:28:00Z,25107823,Em resolução,3301,Queda de árvore,0,3,0,8,2025-03-19T09:28:00Z,Coruche,Santarém,Alentejo,-8.556127,38.99734
25107840,Santo António Dos Olivais,Região de Coimbra,310,2025-03-19T09:27:00Z,25107840,Em despacho,3301,Queda de árvore,0,1,0,2,2025-03-19T09:27:00Z,Coimbra,Coimbra,Centro,-8.408011,40.217307
25107904,Salir de Matos,Oeste,311,2025-03-19T09:36:00Z,25107904,Em conclusão,3301,Queda de árvore,0,1,0,5,2025-03-19T09:36:00Z,Caldas Da Rainha,Leiria,Centro,-9.104059,39.430919
25107990,"Almada, Cova da Piedade, Pragal e Cacilhas",Península de Setúbal,311,2025-03-19T09:50:00Z,25107990,Em despacho,3311,Queda de elementos de estruturas edificados,0,1,0,4,2025-03-19T09:50:00Z,Almada,Setúbal,Área Metropolitana De Lisboa,-9.164498,38.675268
25108175,Falagueira-Venda Nova,Grande Lisboa,311,2025-03-19T10:25:00Z,25108175,Em despacho,3301,Queda de árvore,0,1,0,6,2025-03-19T10:25:00Z,Amadora,Lisboa,Área Metropolitana De Lisboa,-9.222638,38.763335
25108224,Corroios,Península de Setúbal,311,2025-03-19T10:15:00Z,25108224,Em despacho,3301,Queda de árvore,0,1,0,3,2025-03-19T10:15:00Z,Seixal,Setúbal,Área Metropolitana De Lisboa,-9.155796,38.618466
25108210,Amora,Península de Setúbal,311,2025-03-19T10:23:00Z,25108210,Em despacho,3301,Queda de árvore,0,1,0,4,2025-03-19T10:23:00Z,Seixal,Setúbal,Área Metropolitana De Lisboa,-9.134274,38.614596
