id,address,subregion,neighborhood,date,id.1,state,nature,nature_description,aerial_means,terrestrial_means,aquatic_means,operational,date.1,Concelho,Distrito,NUTII_DSG,longitude,latitude,state_2
26321662,Gesteira e Brunhós,Região de Coimbra,310,2025-11-21T17:12:00Z,26321662,Em Despacho,3105,Incêndio rural,0,1,0,4,2025-11-21T17:12:00Z,Soure,Coimbra,Centro,-8.661173,40.078888,Despacho
26321323,Salselas,Terras de Trás-os-Montes,309,2025-11-21T15:59:00Z,26321323,Em Despacho,3111,Queima,0,1,0,3,2025-11-21T15:59:00Z,Macedo De Cavaleiros,Bragança,Norte,-6.87465,41.550667,Despacho
26321472,"Sé Nova, Santa Cruz, Almedina e São Bartolomeu",Região de Coimbra,310,2025-11-21T16:31:00Z,26321472,Em Resolução/Conclusão,3111,Queima,0,3,0,7,2025-11-21T16:31:00Z,Coimbra,Coimbra,Centro,-8.42806,40.21806,Resolução/Conclusão
26321507,Serpa (Salvador e Santa Maria),Baixo Alentejo,312,2025-11-21T16:34:00Z,26321507,Em Resolução/Conclusão,3105,Incêndio rural,0,4,0,11,2025-11-21T16:34:00Z,Serpa,Beja,Alentejo,-7.495407,37.832828,Resolução/Conclusão
26320329,Santa Clara de Louredo,Baixo Alentejo,312,2025-11-21T13:02:00Z,26320329,Em Resolução/Conclusão,3105,Incêndio rural,0,1,0,4,2025-11-21T13:02:00Z,Beja,Beja,Alentejo,-7.882298,37.958553,Resolução/Conclusão
26321559,Vila Franca Das Naves e Feital,Beiras e Serra da Estrela,310,2025-11-21T16:48:00Z,26321559,Em Despacho,3111,Queima,0,1,0,5,2025-11-21T16:48:00Z,Trancoso,Guarda,Centro,-7.243883,40.72623,Despacho
