id,address,subregion,neighborhood,date,id.1,state,nature,nature_description,aerial_means,terrestrial_means,aquatic_means,operational,date.1,Concelho,Distrito,NUTII_DSG,longitude,latitude,state_2
25610143,Nossa Senhora Das Misericórdias,Médio Tejo,311,2025-07-01T15:32:00Z,25610143,Em Resolução/Conclusão,3103,Incêndio rural,0,0,0,0,2025-07-01T15:32:00Z,Ourém,Santarém,Centro,-8.600277,39.655883,Resolução/Conclusão
25635597,Agilde,Tâmega e Sousa,309,2025-07-06T10:39:00Z,25635597,Em Resolução/Conclusão,3103,Incêndio rural,0,3,0,12,2025-07-06T10:39:00Z,Celorico De Basto,Braga,Norte,-8.110412,41.371243,Resolução/Conclusão
25635781,Tavira (Santa Maria e Santiago),Algarve,313,2025-07-06T11:21:00Z,25635781,Em Resolução/Conclusão,3103,Incêndio rural,1,2,0,16,2025-07-06T11:21:00Z,Tavira,Faro,Algarve,-7.685881,37.13508,Resolução/Conclusão
25635477,Orvalho,Beira Baixa,310,2025-07-06T10:16:00Z,25635477,Em Resolução/Conclusão,3105,Incêndio rural,0,0,0,0,2025-07-06T10:16:00Z,Oleiros,Castelo Branco,Centro,-7.789227,40.0244,Resolução/Conclusão
25635577,Penafiel,Tâmega e Sousa,309,2025-07-06T10:36:00Z,25635577,Em Resolução/Conclusão,3103,Incêndio rural,0,1,0,5,2025-07-06T10:36:00Z,Penafiel,Porto,Norte,-8.26939,41.215327,Resolução/Conclusão
25634260,Lomba,Area M. Porto,309,2025-07-06T02:37:00Z,25634260,Em Resolução/Conclusão,3103,Incêndio rural,0,2,0,7,2025-07-06T02:37:00Z,Gondomar,Porto,Norte,-8.406793,41.033087,Resolução/Conclusão
25635786,Lustosa e Barrosas (Santo Estêvão),Tâmega e Sousa,309,2025-07-06T11:24:00Z,25635786,Em Resolução/Conclusão,3103,Incêndio rural,0,1,0,5,2025-07-06T11:24:00Z,Lousada,Porto,Norte,-8.325011,41.34068,Resolução/Conclusão
25635921,Ferreira-a-Nova,Região de Coimbra,310,2025-07-06T11:53:00Z,25635921,Em Despacho,3103,Incêndio rural,1,4,0,24,2025-07-06T11:53:00Z,Figueira Da Foz,Coimbra,Centro,-8.74265,40.29131,Despacho
25635846,Braga (São Vicente),Cávado,309,2025-07-06T11:38:00Z,25635846,Em Resolução/Conclusão,3111,Queima,0,3,0,13,2025-07-06T11:38:00Z,Braga,Braga,Norte,-8.422317,41.56285,Resolução/Conclusão
