id,address,subregion,neighborhood,date,id.1,state,nature,nature_description,aerial_means,terrestrial_means,aquatic_means,operational,date.1,Concelho,Distrito,NUTII_DSG,longitude,latitude,state_2
25773830,Andrães,Douro,309,2025-08-02T14:23:00Z,25773830,Em Resolução/Conclusão,3103,Incêndio rural,0,0,0,0,2025-08-02T14:23:00Z,Vila Real,Vila Real,Norte,-7.671293,41.267593,Resolução/Conclusão
25774883,Arnóia,Tâmega e Sousa,309,2025-08-02T18:20:00Z,25774883,Em Resolução/Conclusão,3103,Incêndio rural,0,2,0,3,2025-08-02T18:20:00Z,Celorico De Basto,Braga,Norte,-7.998983,41.348727,Resolução/Conclusão
25804968,Alvadia,Alto Tâmega e Barroso,309,2025-08-08T07:21:00Z,25804968,Em Curso,3103,Incêndio rural,1,91,0,265,2025-08-08T07:21:00Z,Ribeira De Pena,Vila Real,Norte,-7.782872,41.457452,Curso
25814493,Cota,Viseu Dão Lafões,310,2025-08-09T20:08:00Z,25814493,Em Resolução/Conclusão,3101,Incêndio rural,0,1,0,5,2025-08-09T20:08:00Z,Viseu,Viseu,Centro,-7.80263,40.777299,Resolução/Conclusão
25816131,"Crasto, Ruivos e Grovelas",Alto Minho,309,2025-08-10T06:25:00Z,25816131,Em Resolução/Conclusão,3103,Incêndio rural,0,6,0,15,2025-08-10T06:25:00Z,Ponte Da Barca,Viana Do Castelo,Norte,-8.444038,41.763607,Resolução/Conclusão
25816415,Este (São Pedro e São Mamede),Cávado,309,2025-08-10T08:26:00Z,25816415,Em Resolução/Conclusão,3103,Incêndio rural,0,2,0,7,2025-08-10T08:26:00Z,Braga,Braga,Norte,-8.364355,41.553377,Resolução/Conclusão
25817967,Vila Boa de Quires e Maureles,Tâmega e Sousa,309,2025-08-10T13:27:00Z,25817967,Em Curso,3103,Incêndio rural,2,9,0,39,2025-08-10T13:27:00Z,Marco De Canaveses,Porto,Norte,-8.195109,41.182057,Curso
25818119,"Canedo, Vale e Vila Maior",Area M. Porto,309,2025-08-10T13:57:00Z,25818119,Em Resolução/Conclusão,3103,Incêndio rural,0,1,0,5,2025-08-10T13:57:00Z,Santa Maria Da Feira,Aveiro,Norte,-8.482837,41.036532,Resolução/Conclusão
25818287,Candosa,Região de Coimbra,310,2025-08-10T14:32:00Z,25818287,Em Resolução/Conclusão,3105,Incêndio rural,0,6,0,20,2025-08-10T14:32:00Z,Tábua,Coimbra,Centro,-7.97639,40.35583,Resolução/Conclusão
25818455,Sobral de São Miguel,Beiras e Serra da Estrela,310,2025-08-10T15:02:00Z,25818455,Em Curso,3103,Incêndio rural,8,50,0,181,2025-08-10T15:02:00Z,Covilhã,Castelo Branco,Centro,-7.77307,40.200173,Curso
25818518,"Canedo, Vale e Vila Maior",Area M. Porto,309,2025-08-10T15:11:00Z,25818518,Em Resolução/Conclusão,3103,Incêndio rural,1,12,0,53,2025-08-10T15:11:00Z,Santa Maria Da Feira,Aveiro,Norte,-8.491618,41.007257,Resolução/Conclusão
25776263,"Pena, Quintã e Vila Cova",Douro,309,2025-08-02T23:45:00Z,25776263,Em Curso,3103,Incêndio rural,5,67,0,226,2025-08-02T23:45:00Z,Vila Real,Vila Real,Norte,-7.811902,41.317355,Curso
25783717,Cunha Baixa,Viseu Dão Lafões,310,2025-08-04T11:48:00Z,25783717,Em Resolução/Conclusão,3101,Incêndio rural,0,1,0,2,2025-08-04T11:48:00Z,Mangualde,Viseu,Centro,-7.764411,40.559738,Resolução/Conclusão
25787860,Faíl e Vila Chã de Sá,Viseu Dão Lafões,310,2025-08-05T05:55:00Z,25787860,Em Resolução/Conclusão,3103,Incêndio rural,0,0,0,0,2025-08-05T05:55:00Z,Viseu,Viseu,Centro,-7.987877,40.601342,Resolução/Conclusão
25802450,Canas de Santa Maria,Viseu Dão Lafões,310,2025-08-07T16:14:00Z,25802450,Em Resolução/Conclusão,3103,Incêndio rural,0,1,0,2,2025-08-07T16:14:00Z,Tondela,Viseu,Centro,-8.032777,40.56017,Resolução/Conclusão
25808770,Pindo,Viseu Dão Lafões,310,2025-08-08T18:52:00Z,25808770,Em Resolução/Conclusão,3103,Incêndio rural,0,0,0,0,2025-08-08T18:52:00Z,Penalva Do Castelo,Viseu,Centro,-7.763725,40.674402,Resolução/Conclusão
25808937,Abrunhosa-a-Velha,Viseu Dão Lafões,310,2025-08-08T19:26:00Z,25808937,Em Resolução/Conclusão,3103,Incêndio rural,0,2,0,7,2025-08-08T19:26:00Z,Mangualde,Viseu,Centro,-7.647667,40.572515,Resolução/Conclusão
25813482,Freches e Torres,Beiras e Serra da Estrela,310,2025-08-09T16:21:00Z,25813482,Em Curso,3103,Incêndio rural,8,122,0,369,2025-08-09T16:21:00Z,Trancoso,Guarda,Centro,-7.363745,40.709022,Curso
25817877,Caíde de Rei,Tâmega e Sousa,309,2025-08-10T13:11:00Z,25817877,Em Resolução/Conclusão,3101,Incêndio rural,0,2,0,10,2025-08-10T13:11:00Z,Lousada,Porto,Norte,-8.228008,41.256092,Resolução/Conclusão
25817959,Duas Igrejas,Tâmega e Sousa,309,2025-08-10T13:26:00Z,25817959,Em Resolução/Conclusão,3103,Incêndio rural,0,3,0,8,2025-08-10T13:26:00Z,Penafiel,Porto,Norte,-8.269015,41.196167,Resolução/Conclusão
25775263,Torgueda,Douro,309,2025-08-02T19:49:00Z,25775263,Em Resolução/Conclusão,3101,Incêndio rural,2,9,0,37,2025-08-02T19:49:00Z,Vila Real,Vila Real,Norte,-7.785983,41.274952,Resolução/Conclusão
25800301,Alvão,Alto Tâmega e Barroso,309,2025-08-07T10:03:00Z,25800301,Em Curso,3103,Incêndio rural,0,5,0,16,2025-08-07T10:03:00Z,Vila Pouca De Aguiar,Vila Real,Norte,-7.74157,41.466742000000004,Curso
25803707,Almofala e Escarigo,Beiras e Serra da Estrela,310,2025-08-07T20:50:00Z,25803707,Em Resolução/Conclusão,3103,Incêndio rural,0,5,0,18,2025-08-07T20:50:00Z,Figueira De Castelo Rodrigo,Guarda,Centro,-6.847203,40.887165,Resolução/Conclusão
25807426,Alvite,Douro,309,2025-08-08T14:31:00Z,25807426,Em Resolução/Conclusão,3103,Incêndio rural,1,103,0,331,2025-08-08T14:31:00Z,Moimenta Da Beira,Viseu,Norte,-7.688727,40.96613,Resolução/Conclusão
25812717,Abrunhosa-a-Velha,Viseu Dão Lafões,310,2025-08-09T12:50:00Z,25812717,Em Resolução/Conclusão,3103,Incêndio rural,0,2,0,8,2025-08-09T12:50:00Z,Mangualde,Viseu,Centro,-7.778693,40.59536,Resolução/Conclusão
25813069,Alcaide,Beiras e Serra da Estrela,310,2025-08-09T15:04:00Z,25813069,Em Resolução/Conclusão,3103,Incêndio rural,0,1,0,5,2025-08-09T15:04:00Z,Fundão,Castelo Branco,Centro,-7.436153,40.133788,Resolução/Conclusão
25815725,Bouro (Santa Marta),Cávado,309,2025-08-10T01:54:00Z,25815725,Em Resolução/Conclusão,3103,Incêndio rural,0,10,0,31,2025-08-10T01:54:00Z,Amares,Braga,Norte,-8.279715,41.69202,Resolução/Conclusão
25817027,Boivães,Alto Minho,309,2025-08-10T10:15:00Z,25817027,Em Resolução/Conclusão,3103,Incêndio rural,0,1,0,4,2025-08-10T10:15:00Z,Ponte Da Barca,Viana Do Castelo,Norte,-8.464643,41.75679,Resolução/Conclusão
25817277,Lorvão,Região de Coimbra,310,2025-08-10T11:09:00Z,25817277,Em Resolução/Conclusão,3101,Incêndio rural,0,36,0,135,2025-08-10T11:09:00Z,Penacova,Coimbra,Centro,-8.31417,40.23889,Resolução/Conclusão
25817913,Valpedre,Tâmega e Sousa,309,2025-08-10T13:18:00Z,25817913,Em Curso,3103,Incêndio rural,0,13,0,47,2025-08-10T13:18:00Z,Penafiel,Porto,Norte,-8.30697,41.14208,Curso
25818072,Souselo,Tâmega e Sousa,309,2025-08-10T13:41:00Z,25818072,Em Resolução/Conclusão,3103,Incêndio rural,0,2,0,7,2025-08-10T13:41:00Z,Cinfães,Viseu,Norte,-8.229763,41.064373,Resolução/Conclusão
25818290,Ourique,Baixo Alentejo,312,2025-08-10T14:33:00Z,25818290,Em Resolução/Conclusão,3103,Incêndio rural,0,10,0,26,2025-08-10T14:33:00Z,Ourique,Beja,Alentejo,-8.157723,37.629212,Resolução/Conclusão
25818312,"Perafita, Lavra e Santa Cruz do Bispo",Area M. Porto,309,2025-08-10T14:37:00Z,25818312,Em Resolução/Conclusão,3103,Incêndio rural,0,0,0,0,2025-08-10T14:37:00Z,Matosinhos,Porto,Norte,-8.709462,41.239825,Resolução/Conclusão
25818445,Salvaterra de Magos e Foros de Salvaterra,Lezíria do Tejo,311,2025-08-10T15:01:00Z,25818445,Em Resolução/Conclusão,3103,Incêndio rural,0,7,0,23,2025-08-10T15:01:00Z,Salvaterra De Magos,Santarém,Alentejo,-8.69583,38.98778,Resolução/Conclusão
25818461,Vera Cruz,Alentejo Central,312,2025-08-10T15:03:00Z,25818461,Em Resolução/Conclusão,3103,Incêndio rural,0,1,0,2,2025-08-10T15:03:00Z,Portel,Évora,Alentejo,-7.7108,38.235203,Resolução/Conclusão
25818610,Negrelos (São Tomé),Area M. Porto,309,2025-08-10T15:28:00Z,25818610,Em Curso,3103,Incêndio rural,1,11,0,43,2025-08-10T15:28:00Z,Santo Tirso,Porto,Norte,-8.395752,41.353508,Curso
25818611,São Jorge e Ermelo,Alto Minho,309,2025-08-10T15:35:00Z,25818611,Em Resolução/Conclusão,3103,Incêndio rural,0,3,0,9,2025-08-10T15:35:00Z,Arcos De Valdevez,Viana Do Castelo,Norte,-8.3713,41.817803,Resolução/Conclusão
25818660,Aldeia Das Dez,Região de Coimbra,310,2025-08-10T15:37:00Z,25818660,Em Resolução/Conclusão,3101,Incêndio rural,0,1,0,5,2025-08-10T15:37:00Z,Oliveira Do Hospital,Coimbra,Centro,-7.87032,40.29768,Resolução/Conclusão
25818896,Madalena e Beselga,Médio Tejo,311,2025-08-10T16:29:00Z,25818896,Em Despacho,3101,Incêndio rural,1,8,0,40,2025-08-10T16:29:00Z,Tomar,Santarém,Centro,-8.47395,39.6159,Despacho
25818555,Bustelo,Tâmega e Sousa,309,2025-08-10T15:15:00Z,25818555,Em Curso,3103,Incêndio rural,0,4,0,13,2025-08-10T15:15:00Z,Penafiel,Porto,Norte,-8.273328,41.21275,Curso
25818620,Agualonga,Alto Minho,309,2025-08-10T15:29:00Z,25818620,Em Resolução/Conclusão,3111,Queima,0,2,0,8,2025-08-10T15:29:00Z,Paredes De Coura,Viana Do Castelo,Norte,-8.621375,41.877238,Resolução/Conclusão
25818636,Cabanelas,Cávado,309,2025-08-10T15:35:00Z,25818636,Em Resolução/Conclusão,3103,Incêndio rural,0,3,0,13,2025-08-10T15:35:00Z,Vila Verde,Braga,Norte,-8.50394,41.582207,Resolução/Conclusão
25818770,Lufrei,Tâmega e Sousa,309,2025-08-10T16:02:00Z,25818770,Em Despacho,3103,Incêndio rural,0,1,0,5,2025-08-10T16:02:00Z,Amarante,Porto,Norte,-8.04881,41.26571,Despacho
25818802,Eiras e Mei,Alto Minho,309,2025-08-10T16:06:00Z,25818802,Em Resolução/Conclusão,3101,Incêndio rural,0,3,0,15,2025-08-10T16:06:00Z,Arcos De Valdevez,Viana Do Castelo,Norte,-8.480948,41.921402,Resolução/Conclusão
25818906,Luzim e Vila Cova,Tâmega e Sousa,309,2025-08-10T16:31:00Z,25818906,Em Despacho,3103,Incêndio rural,0,1,0,5,2025-08-10T16:31:00Z,Penafiel,Porto,Norte,-8.249864,41.143296,Despacho
25818920,Antas e Ourozinho,Douro,309,2025-08-10T16:35:00Z,25818920,Em Despacho,3103,Incêndio rural,0,3,0,11,2025-08-10T16:35:00Z,Penedono,Viseu,Norte,-7.359857,40.95355,Despacho
25785983,Caçarilhe e Infesta,Tâmega e Sousa,309,2025-08-04T18:22:00Z,25785983,Em Resolução/Conclusão,3103,Incêndio rural,0,10,0,32,2025-08-04T18:22:00Z,Celorico De Basto,Braga,Norte,-8.04611,41.419858,Resolução/Conclusão
25792058,Cibões e Brufe,Cávado,309,2025-08-05T19:10:00Z,25792058,Em Resolução/Conclusão,3103,Incêndio rural,0,1,0,5,2025-08-05T19:10:00Z,Terras De Bouro,Braga,Norte,-8.293932,41.764918,Resolução/Conclusão
25816169,Abaças,Douro,309,2025-08-10T06:47:00Z,25816169,Em Resolução/Conclusão,3103,Incêndio rural,0,2,0,10,2025-08-10T06:47:00Z,Vila Real,Vila Real,Norte,-7.69322,41.20793,Resolução/Conclusão
25817912,Cabeça Santa,Tâmega e Sousa,309,2025-08-10T13:18:00Z,25817912,Em Resolução/Conclusão,3101,Incêndio rural,0,3,0,12,2025-08-10T13:18:00Z,Penafiel,Porto,Norte,-8.31056,41.144047,Resolução/Conclusão
25817921,Penacova,Região de Coimbra,310,2025-08-10T13:19:00Z,25817921,Em Resolução/Conclusão,3101,Incêndio rural,0,7,0,23,2025-08-10T13:19:00Z,Penacova,Coimbra,Centro,-8.27722,40.275,Resolução/Conclusão
25817998,Moimenta,Tâmega e Sousa,309,2025-08-10T13:33:00Z,25817998,Em Resolução/Conclusão,3103,Incêndio rural,0,2,0,6,2025-08-10T13:33:00Z,Cinfães,Viseu,Norte,-8.194642,41.050018,Resolução/Conclusão
25818180,Friande,Tâmega e Sousa,309,2025-08-10T14:07:00Z,25818180,Em Resolução/Conclusão,3103,Incêndio rural,0,10,0,33,2025-08-10T14:07:00Z,Felgueiras,Porto,Norte,-8.177359,41.36665,Resolução/Conclusão
25818289,Vale de Anta,Alto Tâmega e Barroso,309,2025-08-10T14:32:00Z,25818289,Em Resolução/Conclusão,3103,Incêndio rural,0,1,0,5,2025-08-10T14:32:00Z,Chaves,Vila Real,Norte,-7.509219,41.744027,Resolução/Conclusão
25818350,"Alto do Seixalinho, Santo André e Verderena",Península de Setúbal,311,2025-08-10T14:45:00Z,25818350,Em Resolução/Conclusão,3103,Incêndio rural,0,0,0,0,2025-08-10T14:45:00Z,Barreiro,Setúbal,Área Metropolitana De Lisboa,-9.05675,38.6531,Resolução/Conclusão
25818375,Vila Boa de Quires e Maureles,Tâmega e Sousa,309,2025-08-10T14:48:00Z,25818375,Em Curso,3103,Incêndio rural,0,2,0,9,2025-08-10T14:48:00Z,Marco De Canaveses,Porto,Norte,-8.201095,41.207266,Curso
25818783,São João Baptista e Santa Maria Dos Olivais,Médio Tejo,311,2025-08-10T16:01:00Z,25818783,Em Resolução/Conclusão,3103,Incêndio rural,0,1,0,2,2025-08-10T16:01:00Z,Tomar,Santarém,Centro,-8.41981,39.597335,Resolução/Conclusão
25818912,Duas Igrejas,Area M. Porto,309,2025-08-10T16:33:00Z,25818912,Em Despacho,3103,Incêndio rural,0,1,0,5,2025-08-10T16:33:00Z,Paredes,Porto,Norte,-8.383368,41.22513,Despacho
25818948,Vila Boa de Quires e Maureles,Tâmega e Sousa,309,2025-08-10T16:22:00Z,25818948,Em Despacho,3103,Incêndio rural,0,1,0,5,2025-08-10T16:22:00Z,Marco De Canaveses,Porto,Norte,-8.204612,41.211897,Despacho
25818523,Canelas e Espiunca,Area M. Porto,309,2025-08-10T15:11:00Z,25818523,Em Resolução/Conclusão,3103,Incêndio rural,0,2,0,6,2025-08-10T15:11:00Z,Arouca,Aveiro,Norte,-8.23814,40.98245,Resolução/Conclusão
25818659,"Amarante (São Gonçalo), Madalena, Cepelos e Gatão",Tâmega e Sousa,309,2025-08-10T15:37:00Z,25818659,Em Curso,3103,Incêndio rural,0,6,0,26,2025-08-10T15:37:00Z,Amarante,Porto,Norte,-8.091143,41.260022,Curso
25818734,Cumeeira,Região de Coimbra,310,2025-08-10T15:50:00Z,25818734,Em Resolução/Conclusão,3101,Incêndio rural,1,15,0,60,2025-08-10T15:50:00Z,Penela,Coimbra,Centro,-8.370704,39.963422,Resolução/Conclusão
25818750,Vizela (Santo Adrião),Ave,309,2025-08-10T15:54:00Z,25818750,Em Resolução/Conclusão,3105,Incêndio rural,0,5,0,16,2025-08-10T15:54:00Z,Vizela,Braga,Norte,-8.281167,41.365432,Resolução/Conclusão
25818873,Castelo Rodrigo,Beiras e Serra da Estrela,310,2025-08-10T16:23:00Z,25818873,Em Despacho,3103,Incêndio rural,1,10,0,44,2025-08-10T16:23:00Z,Figueira De Castelo Rodrigo,Guarda,Centro,-6.926766,40.869625,Despacho
