id,address,subregion,neighborhood,date,id.1,state,nature,nature_description,aerial_means,terrestrial_means,aquatic_means,operational,date.1,Concelho,Distrito,NUTII_DSG,longitude,latitude
25068300,Almeirim,Lezíria do Tejo,311,2025-03-10T20:52:00Z,25068300,Em curso,1101,Cheia,0,0,0,0,2025-03-10T20:52:00Z,Almeirim,Santarém,Alentejo,-8.635002,39.187436
25243162,Aguda,Região de Leiria,310,2025-04-15T09:43:00Z,25243162,Em curso,3301,Queda de árvore,0,3,0,7,2025-04-15T09:43:00Z,Figueiró Dos Vinhos,Leiria,Centro,-8.339285,39.89896
25243216,Santo António Dos Olivais,Região de Coimbra,310,2025-04-15T09:49:00Z,25243216,Em despacho,3301,Queda de árvore,0,1,0,3,2025-04-15T09:49:00Z,Coimbra,Coimbra,Centro,-8.408011,40.217307
25243480,"Cedofeita, Ildefonso, Sé, Miragaia, Nicolau e Vitória",Area M. Porto,309,2025-04-15T10:39:00Z,25243480,Em despacho,3311,Queda de elementos de estruturas edificados,0,1,0,5,2025-04-15T10:39:00Z,Porto,Porto,Norte,-8.615939,41.15359
25242956,Alcobaça e Vestiaria,Oeste,311,2025-04-15T08:49:00Z,25242956,Em despacho,3301,Queda de árvore,0,1,0,1,2025-04-15T08:49:00Z,Alcobaça,Leiria,Centro,-8.970766,39.549944000000004
25243478,Castanheira do Ribatejo e Cachoeiras,Grande Lisboa,311,2025-04-15T10:46:00Z,25243478,Em conclusão,3301,Queda de árvore,0,1,0,3,2025-04-15T10:46:00Z,Vila Franca De Xira,Lisboa,Área Metropolitana De Lisboa,-8.971028,39.00941
25070044,Praia do Ribatejo,Médio Tejo,311,2025-03-10T19:30:00Z,25070044,Em curso,1101,Cheia,0,0,0,0,2025-03-10T19:30:00Z,Vila Nova Da Barquinha,Santarém,Centro,-8.357309,39.485638
25071496,São Manços e São Vicente do Pigeiro,Alentejo Central,312,2025-03-11T13:18:00Z,25071496,Em conclusão,1101,Cheia,0,0,0,0,2025-03-11T13:18:00Z,Évora,Évora,Alentejo,-7.713313,38.513673
25202441,Serpa (Salvador e Santa Maria),Baixo Alentejo,312,2025-04-06T10:25:00Z,25202441,Em conclusão,1101,Cheia,0,0,0,0,2025-04-06T10:25:00Z,Serpa,Beja,Alentejo,-7.555783,37.88592
