id,address,subregion,neighborhood,date,id.1,state,nature,nature_description,aerial_means,terrestrial_means,aquatic_means,operational,date.1,Concelho,Distrito,NUTII_DSG,longitude,latitude,state_2
26160578,Glória do Ribatejo e Granho,Lezíria do Tejo,311,2025-10-19T15:17:00Z,26160578,Em Resolução/Conclusão,3105,Incêndio rural,0,8,0,20,2025-10-19T15:17:00Z,Salvaterra De Magos,Santarém,Alentejo,-8.662255,39.032802,Resolução/Conclusão
26160744,Rio de Moinhos,Médio Tejo,311,2025-10-19T16:00:00Z,26160744,Em Resolução/Conclusão,3103,Incêndio rural,0,2,0,6,2025-10-19T16:00:00Z,Abrantes,Santarém,Centro,-8.234815,39.474712,Resolução/Conclusão
26159689,Casegas e Ourondo,Beiras e Serra da Estrela,310,2025-10-19T11:45:00Z,26159689,Em Resolução/Conclusão,3105,Incêndio rural,0,3,0,7,2025-10-19T11:45:00Z,Covilhã,Castelo Branco,Centro,-7.68118,40.146567,Resolução/Conclusão
26160725,Anobra,Região de Coimbra,310,2025-10-19T15:50:00Z,26160725,Em Resolução/Conclusão,3111,Queima,0,2,0,6,2025-10-19T15:50:00Z,Condeixa-a-Nova,Coimbra,Centro,-8.521302,40.153632,Resolução/Conclusão
26160651,"Mação, Penhascoso e Aboboreira",Médio Tejo,311,2025-10-19T15:39:00Z,26160651,Em Resolução/Conclusão,3103,Incêndio rural,0,6,0,19,2025-10-19T15:39:00Z,Mação,Santarém,Centro,-8.051782,39.610225,Resolução/Conclusão
26157385,"Algodres, Vale de Afonsinho e Vilar de Amargo",Beiras e Serra da Estrela,310,2025-10-18T20:18:00Z,26157385,Em Resolução/Conclusão,3103,Incêndio rural,0,4,0,13,2025-10-18T20:18:00Z,Figueira De Castelo Rodrigo,Guarda,Centro,-7.026137,40.954202,Resolução/Conclusão
26159582,Esperança,Alto Alentejo,312,2025-10-19T11:16:00Z,26159582,Em Resolução/Conclusão,3103,Incêndio rural,0,3,0,12,2025-10-19T11:16:00Z,Arronches,Portalegre,Alentejo,-7.18206,39.160894,Resolução/Conclusão
26160916,"S.pedro e Santiago, S.maria e S.miguel e Matacães",Oeste,311,2025-10-19T16:40:00Z,26160916,Em Despacho,3103,Incêndio rural,0,3,0,6,2025-10-19T16:40:00Z,Torres Vedras,Lisboa,Centro,-9.221366,39.05699,Despacho
