id,address,subregion,neighborhood,date,id.1,state,nature,nature_description,aerial_means,terrestrial_means,aquatic_means,operational,date.1,Concelho,Distrito,NUTII_DSG,longitude,latitude,state_2
26092509,Meixedo e Padornelos,Alto Tâmega e Barroso,309,2025-10-05T17:02:00Z,26092509,Em Curso,3103,Incêndio rural,1,2,0,16,2025-10-05T17:02:00Z,Montalegre,Vila Real,Norte,-7.746053,41.861425,Curso
26092566,Folgosa,Area M. Porto,309,2025-10-05T17:14:00Z,26092566,Em Despacho,3103,Incêndio rural,1,3,0,21,2025-10-05T17:14:00Z,Maia,Porto,Norte,-8.52932,41.27361,Despacho
26092453,Telões,Alto Tâmega e Barroso,309,2025-10-05T16:46:00Z,26092453,Em Resolução/Conclusão,3103,Incêndio rural,0,3,0,12,2025-10-05T16:46:00Z,Vila Pouca De Aguiar,Vila Real,Norte,-7.67948,41.426785,Resolução/Conclusão
26092427,Alvites,Terras de Trás-os-Montes,309,2025-10-05T16:39:00Z,26092427,Em Resolução/Conclusão,3103,Incêndio rural,1,10,0,39,2025-10-05T16:39:00Z,Mirandela,Bragança,Norte,-7.044288,41.552485,Resolução/Conclusão
26092172,São João da Ribeira e Ribeira de São João,Lezíria do Tejo,311,2025-10-05T15:36:00Z,26092172,Em Resolução/Conclusão,3103,Incêndio rural,0,5,0,17,2025-10-05T15:36:00Z,Rio Maior,Santarém,Alentejo,-8.859135,39.288798,Resolução/Conclusão
26092349,São João Baptista,Alto Alentejo,312,2025-10-05T16:09:00Z,26092349,Em Resolução/Conclusão,3105,Incêndio rural,0,4,0,14,2025-10-05T16:09:00Z,Campo Maior,Portalegre,Alentejo,-7.094067,38.998867,Resolução/Conclusão
26092458,Mouriscas,Médio Tejo,311,2025-10-05T16:49:00Z,26092458,Em Resolução/Conclusão,3103,Incêndio rural,0,7,0,26,2025-10-05T16:49:00Z,Abrantes,Santarém,Centro,-8.093428,39.504367,Resolução/Conclusão
26092669,Seiça,Médio Tejo,311,2025-10-05T17:39:00Z,26092669,Em Despacho,3103,Incêndio rural,1,6,0,27,2025-10-05T17:39:00Z,Ourém,Santarém,Centro,-8.542209,39.675639,Despacho
