id,address,subregion,neighborhood,date,id.1,state,nature,nature_description,aerial_means,terrestrial_means,aquatic_means,operational,date.1,Concelho,Distrito,NUTII_DSG,longitude,latitude
25489883,Bombarral e Vale Covo,Oeste,311,2025-06-07T09:17:00Z,25489883,Em conclusão,3111,Queima,0,2,0,7,2025-06-07T09:17:00Z,Bombarral,Leiria,Centro,-9.16612,39.25006
25489766,Cano,Alto Alentejo,312,2025-06-07T08:55:00Z,25489766,Em conclusão,2201,Incêndio em equipamentos ou produtos,0,0,0,0,2025-06-07T08:55:00Z,Sousel,Portalegre,Alentejo,-7.74808,38.956855
25489816,Pelmá,Região de Leiria,310,2025-06-07T08:59:00Z,25489816,Em curso,2301,Incêndio em transporte rodoviário,0,2,0,7,2025-06-07T08:59:00Z,Alvaiázere,Leiria,Centro,-8.42965,39.791265
25490136,Vale do Paraíso,Lezíria do Tejo,311,2025-06-07T10:01:00Z,25490136,Em curso,3203,Detritos confinados,0,4,0,14,2025-06-07T10:01:00Z,Azambuja,Lisboa,Alentejo,-8.885852,39.114396
25490137,Monsanto e Idanha-a-Velha,Beira Baixa,310,2025-06-07T10:01:00Z,25490137,Em despacho,3107,Consolidação de rescaldo de incêndio rural,0,1,0,5,2025-06-07T10:01:00Z,Idanha-a-Nova,Castelo Branco,Centro,-7.11847,40.036689
25490154,"Oeiras e S. Julião da Barra, Paço de Arcos e Caxias",Grande Lisboa,311,2025-06-07T10:07:00Z,25490154,Em despacho,2301,Incêndio em transporte rodoviário,0,0,0,0,2025-06-07T10:07:00Z,Oeiras,Lisboa,Área Metropolitana De Lisboa,-9.285919,38.70529
