id,address,subregion,neighborhood,date,id.1,state,nature,nature_description,aerial_means,terrestrial_means,aquatic_means,operational,date.1,Concelho,Distrito,NUTII_DSG,longitude,latitude
25531512,Maçãs de Dona Maria,Região de Leiria,310,2025-06-16T02:50:00Z,25531512,Em resolução,2101,Incêndio em edifícios habitacionais,0,1,0,2,2025-06-16T02:50:00Z,Alvaiázere,Leiria,Centro,-8.32555,39.86688
25531259,Vila Nova da Baronia,Baixo Alentejo,312,2025-06-15T23:45:00Z,25531259,Em conclusão,3105,Incêndio rural,0,1,0,2,2025-06-15T23:45:00Z,Alvito,Beja,Alentejo,-8.051917,38.277222
25525290,Selmes,Baixo Alentejo,312,2025-06-14T16:14:00Z,25525290,Em conclusão,3105,Incêndio rural,0,0,0,0,2025-06-14T16:14:00Z,Vidigueira,Beja,Alentejo,-7.724372,38.135682
25531376,Moreira,Area M. Porto,309,2025-06-16T00:55:00Z,25531376,Em conclusão,2127,"Incêndio em edifícios e recintos industriais, oficinas e armazéns",0,21,0,58,2025-06-16T00:55:00Z,Maia,Porto,Norte,-8.64631,41.257387
25531509,Cacém e São Marcos,Grande Lisboa,311,2025-06-16T02:48:00Z,25531509,Em curso,2201,Incêndio em equipamentos ou produtos,0,1,0,4,2025-06-16T02:48:00Z,Sintra,Lisboa,Área Metropolitana De Lisboa,-9.3061140000000009,38.7728
