id,address,subregion,neighborhood,date,id.1,state,nature,nature_description,aerial_means,terrestrial_means,aquatic_means,operational,date.1,Concelho,Distrito,NUTII_DSG,longitude,latitude
24887871,"Nogueira, Fraião e Lamaçães",Cávado,309,2025-01-29T15:15:00Z,24887871,Em despacho,3315,Inundação de estruturas por precipitação intensa,0,1,0,4,2025-01-29T15:15:00Z,Braga,Braga,Norte,-8.41086,41.53137
24887920,"Mangualde, Mesquitela e Cunha Alta",Viseu Dão Lafões,310,2025-01-29T14:44:00Z,24887920,Em curso,3311,Queda de elementos de estruturas edificados,0,2,0,6,2025-01-29T14:44:00Z,Mangualde,Viseu,Centro,-7.73026,40.598771
24888069,"Santiago do Cacém, S.cruz e São Bartolomeu da Serra",Alentejo Litoral,312,2025-01-29T16:02:00Z,24888069,Em despacho,3301,Queda de árvore,0,1,0,3,2025-01-29T16:02:00Z,Santiago Do Cacém,Setúbal,Alentejo,-8.702819,37.94005
24888103,Albufeira e Olhos de Água,Algarve,313,2025-01-29T15:53:00Z,24888103,Em curso,3329,Queda de estruturas temporárias ou móveis,0,0,0,0,2025-01-29T15:53:00Z,Albufeira,Faro,Algarve,-8.229809,37.101659
24888255,Torre e Vila Mou,Alto Minho,309,2025-01-29T16:30:00Z,24888255,Em conclusão,3313,Deslizamento de terras,0,3,0,4,2025-01-29T16:30:00Z,Viana Do Castelo,Viana Do Castelo,Norte,-8.710268,41.718873
24888271,Santo Isidoro,Grande Lisboa,311,2025-01-29T16:23:00Z,24888271,Em resolução,3301,Queda de árvore,0,2,0,5,2025-01-29T16:23:00Z,Mafra,Lisboa,Área Metropolitana De Lisboa,-9.415681,39.006374
24888353,Charneca de Caparica e Sobreda,Península de Setúbal,311,2025-01-29T16:51:00Z,24888353,Em despacho,3329,Queda de estruturas temporárias ou móveis,0,1,0,4,2025-01-29T16:51:00Z,Almada,Setúbal,Área Metropolitana De Lisboa,-9.192997,38.64232
24888436,Barreiro e Lavradio,Península de Setúbal,311,2025-01-29T17:03:00Z,24888436,Em curso,3301,Queda de árvore,0,0,0,0,2025-01-29T17:03:00Z,Barreiro,Setúbal,Área Metropolitana De Lisboa,-9.04986,38.65185
24888453,Constância,Médio Tejo,311,2025-01-29T17:04:00Z,24888453,Em curso,3301,Queda de árvore,0,3,0,7,2025-01-29T17:04:00Z,Constância,Santarém,Centro,-8.334164,39.476237
24888456,Amora,Península de Setúbal,311,2025-01-29T17:05:00Z,24888456,Em curso,3301,Queda de árvore,0,1,0,3,2025-01-29T17:05:00Z,Seixal,Setúbal,Área Metropolitana De Lisboa,-9.14829,38.58532
24888471,Baixa da Banheira e Vale da Amoreira,Península de Setúbal,311,2025-01-29T17:07:00Z,24888471,Em curso,3321,Dano na rede de fornecimento de eletricidade ,0,0,0,0,2025-01-29T17:07:00Z,Moita,Setúbal,Área Metropolitana De Lisboa,-9.03857,38.64418
24888486,Póvoa de Santo Adrião e Olival Basto,Grande Lisboa,311,2025-01-29T17:10:00Z,24888486,Em resolução,3301,Queda de árvore,0,1,0,3,2025-01-29T17:10:00Z,Odivelas,Lisboa,Área Metropolitana De Lisboa,-9.15165,38.796
24888487,Silves,Algarve,313,2025-01-29T17:08:00Z,24888487,Em conclusão,3301,Queda de árvore,0,1,0,5,2025-01-29T17:08:00Z,Silves,Faro,Algarve,-8.51062,37.209035
24888504,Laranjeiro e Feijó,Península de Setúbal,311,2025-01-29T17:00:00Z,24888504,Em despacho,3301,Queda de árvore,0,1,0,3,2025-01-29T17:00:00Z,Almada,Setúbal,Área Metropolitana De Lisboa,-9.156624,38.652235
24888520,"S.julião, N.s. da Anunciada e S. Maria da Graça",Península de Setúbal,311,2025-01-29T17:15:00Z,24888520,Em curso,3301,Queda de árvore,0,0,0,0,2025-01-29T17:15:00Z,Setúbal,Setúbal,Área Metropolitana De Lisboa,-8.89488,38.53962
24888521,Gâmbia-Pontes-Alto da Guerra,Península de Setúbal,311,2025-01-29T17:15:00Z,24888521,Em curso,3301,Queda de árvore,0,1,0,5,2025-01-29T17:15:00Z,Setúbal,Setúbal,Área Metropolitana De Lisboa,-8.823037,38.54523
24888538,Palhais e Coina,Península de Setúbal,311,2025-01-29T17:02:00Z,24888538,Em despacho,3329,Queda de estruturas temporárias ou móveis,0,1,0,5,2025-01-29T17:02:00Z,Barreiro,Setúbal,Área Metropolitana De Lisboa,-9.043332,38.595522
24888539,Sesimbra (Castelo),Península de Setúbal,311,2025-01-29T17:18:00Z,24888539,Em curso,3329,Queda de estruturas temporárias ou móveis,0,0,0,0,2025-01-29T17:18:00Z,Sesimbra,Setúbal,Área Metropolitana De Lisboa,-9.156742,38.50376
24888555,Esmoriz,Região de Aveiro,310,2025-01-29T17:14:00Z,24888555,Em resolução,3321,Dano na rede de fornecimento de eletricidade ,0,1,0,5,2025-01-29T17:14:00Z,Ovar,Aveiro,Centro,-8.637974,40.962156
24888570,Pataias e Martingança,Oeste,311,2025-01-29T17:23:00Z,24888570,Em despacho,3309,Desabamento de estruturas edificadas,0,2,0,5,2025-01-29T17:23:00Z,Alcobaça,Leiria,Centro,-8.94373,39.66077
24888573,Aveiras de Cima,Lezíria do Tejo,311,2025-01-29T17:22:00Z,24888573,Em resolução,3301,Queda de árvore,0,1,0,5,2025-01-29T17:22:00Z,Azambuja,Lisboa,Alentejo,-8.919832,39.160132
24888620,Sesimbra (Castelo),Península de Setúbal,311,2025-01-29T17:31:00Z,24888620,Em curso,3301,Queda de árvore,0,0,0,0,2025-01-29T17:31:00Z,Sesimbra,Setúbal,Área Metropolitana De Lisboa,-9.17055,38.50205
24888621,Juncal,Região de Leiria,310,2025-01-29T17:24:00Z,24888621,Em curso,3301,Queda de árvore,0,1,0,4,2025-01-29T17:24:00Z,Porto De Mós,Leiria,Centro,-8.891382,39.63155
24888654,"Enxara do Bispo, Gradil e Vila Franca do Rosário",Grande Lisboa,311,2025-01-29T17:16:00Z,24888654,Em despacho,3301,Queda de árvore,0,1,0,5,2025-01-29T17:16:00Z,Mafra,Lisboa,Área Metropolitana De Lisboa,-9.254962,38.990018
24888672,Buarcos,Região de Coimbra,310,2025-01-29T17:25:00Z,24888672,Em despacho,3311,Queda de elementos de estruturas edificados,0,1,0,5,2025-01-29T17:25:00Z,Figueira Da Foz,Coimbra,Centro,-8.880897,40.168384
24888690,Nossa Senhora da Graça do Divor,Alentejo Central,312,2025-01-29T17:43:00Z,24888690,Em despacho,3301,Queda de árvore,0,0,0,0,2025-01-29T17:43:00Z,Évora,Évora,Alentejo,-8.051187,38.6831
24851780,"São Miguel, Santa Eufémia e Rabaçal",Região de Coimbra,310,2025-01-21T23:25:00Z,24851780,Em curso,3315,Inundação de estruturas por precipitação intensa,0,0,0,0,2025-01-21T23:25:00Z,Penela,Coimbra,Centro,-8.399036,40.025502
24888010,"Oeiras e S. Julião da Barra, Paço de Arcos e Caxias",Grande Lisboa,311,2025-01-29T15:39:00Z,24888010,Em conclusão,3321,Dano na rede de fornecimento de eletricidade ,0,1,0,1,2025-01-29T15:39:00Z,Oeiras,Lisboa,Área Metropolitana De Lisboa,-9.275682,38.698873
24888097,Ansião,Região de Leiria,310,2025-01-29T16:04:00Z,24888097,Em despacho,3315,Inundação de estruturas por precipitação intensa,0,1,0,3,2025-01-29T16:04:00Z,Ansião,Leiria,Centro,-8.43366,39.907437
24888214,Lourinhã e Atalaia,Oeste,311,2025-01-29T16:22:00Z,24888214,Em curso,3321,Dano na rede de fornecimento de eletricidade ,0,1,0,1,2025-01-29T16:22:00Z,Lourinhã,Lisboa,Centro,-9.28617,39.276139
24888264,"O. Azeméis, Riba-Ul, Ul, Macinhata Seixa, Madail",Area M. Porto,309,2025-01-29T16:00:00Z,24888264,Em despacho,3301,Queda de árvore,0,1,0,2,2025-01-29T16:00:00Z,Oliveira De Azeméis,Aveiro,Norte,-8.482939,40.836334
24888296,Alcanede,Lezíria do Tejo,311,2025-01-29T16:40:00Z,24888296,Em conclusão,3301,Queda de árvore,0,1,0,4,2025-01-29T16:40:00Z,Santarém,Santarém,Alentejo,-8.817931,39.387923
24888312,Caparica e Trafaria,Península de Setúbal,311,2025-01-29T16:45:00Z,24888312,Em despacho,3301,Queda de árvore,0,1,0,3,2025-01-29T16:45:00Z,Almada,Setúbal,Área Metropolitana De Lisboa,-9.22414,38.66636
24887223,"Cedofeita, Ildefonso, Sé, Miragaia, Nicolau e Vitória",Area M. Porto,309,2025-01-29T13:11:00Z,24887223,Em curso,3329,Queda de estruturas temporárias ou móveis,0,1,0,5,2025-01-29T13:11:00Z,Porto,Porto,Norte,-8.61101,41.16293
24887398,Sines,Alentejo Litoral,312,2025-01-29T13:40:00Z,24887398,Em conclusão,3315,Inundação de estruturas por precipitação intensa,0,2,0,3,2025-01-29T13:40:00Z,Sines,Setúbal,Alentejo,-8.830877,37.967532
24888134,Moita Dos Ferreiros,Oeste,311,2025-01-29T16:01:00Z,24888134,Em despacho,3309,Desabamento de estruturas edificadas,0,3,0,6,2025-01-29T16:01:00Z,Lourinhã,Lisboa,Centro,-9.227775,39.24698
24888173,Ventosa,Oeste,311,2025-01-29T16:19:00Z,24888173,Em curso,3321,Dano na rede de fornecimento de eletricidade ,0,1,0,2,2025-01-29T16:19:00Z,Torres Vedras,Lisboa,Centro,-9.29349,39.05413
24888284,Carcavelos e Parede,Grande Lisboa,311,2025-01-29T16:39:00Z,24888284,Em curso,3301,Queda de árvore,0,3,0,11,2025-01-29T16:39:00Z,Cascais,Lisboa,Área Metropolitana De Lisboa,-9.33524,38.69488
24888298,Castanheira do Ribatejo e Cachoeiras,Grande Lisboa,311,2025-01-29T16:38:00Z,24888298,Em curso,3301,Queda de árvore,0,1,0,4,2025-01-29T16:38:00Z,Vila Franca De Xira,Lisboa,Área Metropolitana De Lisboa,-8.979234,38.999552
24888341,Samora Correia,Lezíria do Tejo,311,2025-01-29T16:49:00Z,24888341,Em curso,3301,Queda de árvore,0,1,0,5,2025-01-29T16:49:00Z,Benavente,Santarém,Alentejo,-8.85068,38.90313
24877003,Malagueira e Horta Das Figueiras,Alentejo Central,312,2025-01-27T11:41:00Z,24877003,Em conclusão,3315,Inundação de estruturas por precipitação intensa,0,0,0,0,2025-01-27T11:41:00Z,Évora,Évora,Alentejo,-7.924277,38.57285
24887865,São Martinho Das Moitas e Covas do Rio,Viseu Dão Lafões,310,2025-01-29T15:10:00Z,24887865,Em curso,3313,Deslizamento de terras,0,3,0,12,2025-01-29T15:10:00Z,São Pedro Do Sul,Viseu,Centro,-8.08089,40.891495
24888108,Pombal,Região de Leiria,310,2025-01-29T15:55:00Z,24888108,Em despacho,3301,Queda de árvore,0,1,0,2,2025-01-29T15:55:00Z,Pombal,Leiria,Centro,-8.657032,39.908442
24888215,Pombal,Região de Leiria,310,2025-01-29T16:10:00Z,24888215,Em despacho,3315,Inundação de estruturas por precipitação intensa,0,1,0,2,2025-01-29T16:10:00Z,Pombal,Leiria,Centro,-8.62781,39.910371
24888249,Arrifana,Região de Coimbra,310,2025-01-29T16:30:00Z,24888249,Em curso,3313,Deslizamento de terras,0,0,0,0,2025-01-29T16:30:00Z,Vila Nova De Poiares,Coimbra,Centro,-8.28706,40.239146
24888292,Póvoa de Santo Adrião e Olival Basto,Grande Lisboa,311,2025-01-29T16:42:00Z,24888292,Em resolução,3301,Queda de árvore,0,1,0,5,2025-01-29T16:42:00Z,Odivelas,Lisboa,Área Metropolitana De Lisboa,-9.162431,38.80459
24888317,"Algés, Linda-a-Velha e Cruz Quebrada-Dafundo",Grande Lisboa,311,2025-01-29T16:45:00Z,24888317,Em resolução,3301,Queda de árvore,0,2,0,7,2025-01-29T16:45:00Z,Oeiras,Lisboa,Área Metropolitana De Lisboa,-9.24406,38.71071
24888358,Bonfim,Area M. Porto,309,2025-01-29T16:37:00Z,24888358,Em despacho,3311,Queda de elementos de estruturas edificados,0,1,0,4,2025-01-29T16:37:00Z,Porto,Porto,Norte,-8.596119,41.151713
24888365,Montijo e Afonsoeiro,Península de Setúbal,311,2025-01-29T16:52:00Z,24888365,Em despacho,3301,Queda de árvore,0,1,0,2,2025-01-29T16:52:00Z,Montijo,Setúbal,Área Metropolitana De Lisboa,-8.97468,38.71272
24888374,Caparica e Trafaria,Península de Setúbal,311,2025-01-29T16:53:00Z,24888374,Em despacho,3321,Dano na rede de fornecimento de eletricidade ,0,1,0,3,2025-01-29T16:53:00Z,Almada,Setúbal,Área Metropolitana De Lisboa,-9.2129,38.66309
24888376,Charneca de Caparica e Sobreda,Península de Setúbal,311,2025-01-29T16:54:00Z,24888376,Em despacho,3301,Queda de árvore,0,1,0,4,2025-01-29T16:54:00Z,Almada,Setúbal,Área Metropolitana De Lisboa,-9.17531,38.58232
24888383,Montijo e Afonsoeiro,Península de Setúbal,311,2025-01-29T16:55:00Z,24888383,Em despacho,3301,Queda de árvore,0,1,0,3,2025-01-29T16:55:00Z,Montijo,Setúbal,Área Metropolitana De Lisboa,-8.98233,38.70802
24888401,Corroios,Península de Setúbal,311,2025-01-29T16:58:00Z,24888401,Em despacho,3301,Queda de árvore,0,1,0,4,2025-01-29T16:58:00Z,Seixal,Setúbal,Área Metropolitana De Lisboa,-9.14876,38.64902
24888433,Samora Correia,Lezíria do Tejo,311,2025-01-29T17:01:00Z,24888433,Em despacho,3301,Queda de árvore,0,0,0,0,2025-01-29T17:01:00Z,Benavente,Santarém,Alentejo,-8.81816,38.799165
24888440,São Vicente do Paul e Vale de Figueira,Lezíria do Tejo,311,2025-01-29T16:59:00Z,24888440,Em conclusão,3301,Queda de árvore,0,2,0,7,2025-01-29T16:59:00Z,Santarém,Santarém,Alentejo,-8.652708,39.333837
24888331,São João Das Lampas e Terrugem,Grande Lisboa,311,2025-01-29T16:40:00Z,24888331,Em despacho,3301,Queda de árvore,0,1,0,4,2025-01-29T16:40:00Z,Sintra,Lisboa,Área Metropolitana De Lisboa,-9.442718,38.844843
24888396,Braga (São José de São Lázaro e São João do Souto),Cávado,309,2025-01-29T16:53:00Z,24888396,Em despacho,3315,Inundação de estruturas por precipitação intensa,0,1,0,2,2025-01-29T16:53:00Z,Braga,Braga,Norte,-8.419101,41.543217
24888411,Azeitão (São Lourenço e São Simão),Península de Setúbal,311,2025-01-29T16:55:00Z,24888411,Em despacho,3321,Dano na rede de fornecimento de eletricidade ,0,1,0,5,2025-01-29T16:55:00Z,Setúbal,Setúbal,Área Metropolitana De Lisboa,-9.04265,38.541479
24888412,"Almargem do Bispo, Pêro Pinheiro e Montelavar",Grande Lisboa,311,2025-01-29T16:52:00Z,24888412,Em resolução,3301,Queda de árvore,0,1,0,3,2025-01-29T16:52:00Z,Sintra,Lisboa,Área Metropolitana De Lisboa,-9.288379,38.844672
24888429,Atouguia da Baleia,Oeste,311,2025-01-29T16:55:00Z,24888429,Em curso,3329,Queda de estruturas temporárias ou móveis,0,2,0,3,2025-01-29T16:55:00Z,Peniche,Leiria,Centro,-9.32433,39.339703
24888446,Maceira,Região de Leiria,310,2025-01-29T16:58:00Z,24888446,Em curso,3311,Queda de elementos de estruturas edificados,0,2,0,7,2025-01-29T16:58:00Z,Leiria,Leiria,Centro,-8.889652,39.686501
24888495,Azeitão (São Lourenço e São Simão),Península de Setúbal,311,2025-01-29T17:11:00Z,24888495,Em curso,3301,Queda de árvore,0,0,0,0,2025-01-29T17:11:00Z,Setúbal,Setúbal,Área Metropolitana De Lisboa,-9.02457,38.52792
24888497,Sesimbra (Castelo),Península de Setúbal,311,2025-01-29T17:11:00Z,24888497,Em curso,3301,Queda de árvore,0,0,0,0,2025-01-29T17:11:00Z,Sesimbra,Setúbal,Área Metropolitana De Lisboa,-9.093316,38.47278
24888384,Santo António Dos Cavaleiros e Frielas,Grande Lisboa,311,2025-01-29T16:40:00Z,24888384,Em despacho,3301,Queda de árvore,0,1,0,5,2025-01-29T16:40:00Z,Loures,Lisboa,Área Metropolitana De Lisboa,-9.171619,38.815144
24888398,Gulpilhares e Valadares,Area M. Porto,309,2025-01-29T16:46:00Z,24888398,Em despacho,3313,Deslizamento de terras,0,1,0,2,2025-01-29T16:46:00Z,Vila Nova De Gaia,Porto,Norte,-8.637978,41.084091
24888407,Costa da Caparica,Península de Setúbal,311,2025-01-29T16:59:00Z,24888407,Em curso,3301,Queda de árvore,0,0,0,0,2025-01-29T16:59:00Z,Almada,Setúbal,Área Metropolitana De Lisboa,-9.24164,38.66025
24888416,Vila Nova,Região de Coimbra,310,2025-01-29T17:00:00Z,24888416,Em despacho,3301,Queda de árvore,0,1,0,2,2025-01-29T17:00:00Z,Miranda Do Corvo,Coimbra,Centro,-8.272594,40.062649
24888418,Vila Franca de Xira,Grande Lisboa,311,2025-01-29T16:50:00Z,24888418,Em resolução,3311,Queda de elementos de estruturas edificados,0,1,0,5,2025-01-29T16:50:00Z,Vila Franca De Xira,Lisboa,Área Metropolitana De Lisboa,-8.989293,38.955728
24888459,Almalaguês,Região de Coimbra,310,2025-01-29T17:03:00Z,24888459,Em despacho,3301,Queda de árvore,0,1,0,3,2025-01-29T17:03:00Z,Coimbra,Coimbra,Centro,-8.390062,40.130893
24888484,Quinta do Conde,Península de Setúbal,311,2025-01-29T17:10:00Z,24888484,Em curso,3301,Queda de árvore,0,1,0,5,2025-01-29T17:10:00Z,Sesimbra,Setúbal,Área Metropolitana De Lisboa,-9.05359,38.56709
24888534,Sesimbra (Castelo),Península de Setúbal,311,2025-01-29T17:17:00Z,24888534,Em curso,3301,Queda de árvore,0,0,0,0,2025-01-29T17:17:00Z,Sesimbra,Setúbal,Área Metropolitana De Lisboa,-9.107762,38.45416
24888529,Quinta do Conde,Península de Setúbal,311,2025-01-29T17:17:00Z,24888529,Em curso,3301,Queda de árvore,0,0,0,0,2025-01-29T17:17:00Z,Seixal,Setúbal,Área Metropolitana De Lisboa,-9.063159,38.551927
24888548,Chamusca e Pinheiro Grande,Lezíria do Tejo,311,2025-01-29T17:19:00Z,24888548,Em despacho,3301,Queda de árvore,0,1,0,2,2025-01-29T17:19:00Z,Chamusca,Santarém,Alentejo,-8.490477,39.362372
24888578,Eiras e São Paulo de Frades,Região de Coimbra,310,2025-01-29T17:23:00Z,24888578,Em despacho,3309,Desabamento de estruturas edificadas,0,1,0,2,2025-01-29T17:23:00Z,Coimbra,Coimbra,Centro,-8.402978,40.247336
24888581,"Camarate, Unhos e Apelação",Grande Lisboa,311,2025-01-29T17:10:00Z,24888581,Em resolução,3301,Queda de árvore,0,1,0,4,2025-01-29T17:10:00Z,Loures,Lisboa,Área Metropolitana De Lisboa,-9.139208,38.802817
24888614,Carregueiros,Médio Tejo,311,2025-01-29T17:29:00Z,24888614,Em resolução,3301,Queda de árvore,0,1,0,2,2025-01-29T17:29:00Z,Tomar,Santarém,Centro,-8.422755,39.6222
24888630,Famalicão,Oeste,311,2025-01-29T17:25:00Z,24888630,Em conclusão,3301,Queda de árvore,0,1,0,2,2025-01-29T17:25:00Z,Nazaré,Leiria,Centro,-9.088998,39.518408
24888645,"Sé Nova, Santa Cruz, Almedina e São Bartolomeu",Região de Coimbra,310,2025-01-29T17:08:00Z,24888645,Em despacho,3315,Inundação de estruturas por precipitação intensa,0,1,0,3,2025-01-29T17:08:00Z,Coimbra,Coimbra,Centro,-8.425582,40.205556
24888646,Calvaria de Cima,Região de Leiria,310,2025-01-29T17:33:00Z,24888646,Em despacho,3311,Queda de elementos de estruturas edificados,0,1,0,3,2025-01-29T17:33:00Z,Porto De Mós,Leiria,Centro,-8.873883,39.628961
24888483,Mina de Água,Grande Lisboa,311,2025-01-29T17:10:00Z,24888483,Em conclusão,3329,Queda de estruturas temporárias ou móveis,0,1,0,6,2025-01-29T17:10:00Z,Amadora,Lisboa,Área Metropolitana De Lisboa,-9.23098,38.79101
24888510,Fernão Ferro,Península de Setúbal,311,2025-01-29T17:14:00Z,24888510,Em curso,3301,Queda de árvore,0,0,0,0,2025-01-29T17:14:00Z,Seixal,Setúbal,Área Metropolitana De Lisboa,-9.064385,38.54397
24888519,"Algés, Linda-a-Velha e Cruz Quebrada-Dafundo",Grande Lisboa,311,2025-01-29T16:49:00Z,24888519,Em resolução,3301,Queda de árvore,0,1,0,3,2025-01-29T16:49:00Z,Oeiras,Lisboa,Área Metropolitana De Lisboa,-9.22967,38.696612
24888535,Corroios,Península de Setúbal,311,2025-01-29T17:17:00Z,24888535,Em curso,3329,Queda de estruturas temporárias ou móveis,0,0,0,0,2025-01-29T17:17:00Z,Seixal,Setúbal,Área Metropolitana De Lisboa,-9.15295,38.57497
24888560,Benavente,Lezíria do Tejo,311,2025-01-29T17:20:00Z,24888560,Em conclusão,3301,Queda de árvore,0,0,0,0,2025-01-29T17:20:00Z,Benavente,Santarém,Alentejo,-8.806315,38.977417
24888567,Sesimbra (Castelo),Península de Setúbal,311,2025-01-29T17:22:00Z,24888567,Em curso,3301,Queda de árvore,0,0,0,0,2025-01-29T17:22:00Z,Sesimbra,Setúbal,Área Metropolitana De Lisboa,-9.12365,38.4693
24888585,Sesimbra (Castelo),Península de Setúbal,311,2025-01-29T17:26:00Z,24888585,Em curso,3301,Queda de árvore,0,0,0,0,2025-01-29T17:26:00Z,Sesimbra,Setúbal,Área Metropolitana De Lisboa,-9.12354,38.48974
24888599,Charneca de Caparica e Sobreda,Península de Setúbal,311,2025-01-29T17:29:00Z,24888599,Em curso,3321,Dano na rede de fornecimento de eletricidade ,0,0,0,0,2025-01-29T17:29:00Z,Almada,Setúbal,Área Metropolitana De Lisboa,-9.175575,38.61425
24888601,Santo António da Charneca,Península de Setúbal,311,2025-01-29T17:03:00Z,24888601,Em despacho,3301,Queda de árvore,0,1,0,5,2025-01-29T17:03:00Z,Barreiro,Setúbal,Área Metropolitana De Lisboa,-9.029919,38.624451
24888541,"Algés, Linda-a-Velha e Cruz Quebrada-Dafundo",Grande Lisboa,311,2025-01-29T16:50:00Z,24888541,Em despacho,3321,Dano na rede de fornecimento de eletricidade ,0,1,0,3,2025-01-29T16:50:00Z,Oeiras,Lisboa,Área Metropolitana De Lisboa,-9.225998,38.712219
24888552,Pataias e Martingança,Oeste,311,2025-01-29T17:17:00Z,24888552,Em curso,3301,Queda de árvore,0,3,0,7,2025-01-29T17:17:00Z,Alcobaça,Leiria,Centro,-8.974603,39.710458
24888575,Pegões,Península de Setúbal,311,2025-01-29T17:24:00Z,24888575,Em despacho,3301,Queda de árvore,0,1,0,5,2025-01-29T17:24:00Z,Montijo,Setúbal,Área Metropolitana De Lisboa,-8.78138,38.68171
24888582,Azeitão (São Lourenço e São Simão),Península de Setúbal,311,2025-01-29T17:26:00Z,24888582,Em curso,3301,Queda de árvore,0,0,0,0,2025-01-29T17:26:00Z,Setúbal,Setúbal,Área Metropolitana De Lisboa,-9.009421,38.51905
24888591,Benavente,Lezíria do Tejo,311,2025-01-29T17:27:00Z,24888591,Em resolução,3321,Dano na rede de fornecimento de eletricidade ,0,1,0,4,2025-01-29T17:27:00Z,Benavente,Santarém,Alentejo,-8.806818,38.958438
24888602,Cacém e São Marcos,Grande Lisboa,311,2025-01-29T16:57:00Z,24888602,Em despacho,3311,Queda de elementos de estruturas edificados,0,1,0,3,2025-01-29T16:57:00Z,Sintra,Lisboa,Área Metropolitana De Lisboa,-9.296125,38.754519
24888618,Caparica e Trafaria,Península de Setúbal,311,2025-01-29T17:03:00Z,24888618,Em despacho,3301,Queda de árvore,0,1,0,3,2025-01-29T17:03:00Z,Almada,Setúbal,Área Metropolitana De Lisboa,-9.231582,38.671372
24888641,São João Das Lampas e Terrugem,Grande Lisboa,311,2025-01-29T17:34:00Z,24888641,Em despacho,3321,Dano na rede de fornecimento de eletricidade ,0,0,0,0,2025-01-29T17:34:00Z,Sintra,Lisboa,Área Metropolitana De Lisboa,-9.43165,38.87017
24888648,Porto Salvo,Grande Lisboa,311,2025-01-29T17:30:00Z,24888648,Em despacho,3311,Queda de elementos de estruturas edificados,0,1,0,4,2025-01-29T17:30:00Z,Oeiras,Lisboa,Área Metropolitana De Lisboa,-9.305901,38.719291
24888665,a Dos Cunhados e Maceira,Oeste,311,2025-01-29T17:23:00Z,24888665,Em despacho,3301,Queda de árvore,0,1,0,2,2025-01-29T17:23:00Z,Torres Vedras,Lisboa,Centro,-9.331999,39.1775
24888697,"Oeiras e S. Julião da Barra, Paço de Arcos e Caxias",Grande Lisboa,311,2025-01-29T17:38:00Z,24888697,Em despacho,3311,Queda de elementos de estruturas edificados,0,1,0,5,2025-01-29T17:38:00Z,Oeiras,Lisboa,Área Metropolitana De Lisboa,-9.310159,38.698531
24888659,Póvoa da Isenta,Lezíria do Tejo,311,2025-01-29T17:35:00Z,24888659,Em resolução,3313,Deslizamento de terras,0,1,0,1,2025-01-29T17:35:00Z,Santarém,Santarém,Alentejo,-8.745658,39.219894
24888684,Buarcos,Região de Coimbra,310,2025-01-29T17:40:00Z,24888684,Em despacho,3311,Queda de elementos de estruturas edificados,0,1,0,4,2025-01-29T17:40:00Z,Figueira Da Foz,Coimbra,Centro,-8.853671,40.146943
24888700,"S.pedro e Santiago, S.maria e S.miguel e Matacães",Oeste,311,2025-01-29T17:36:00Z,24888700,Em despacho,3301,Queda de árvore,0,2,0,4,2025-01-29T17:36:00Z,Torres Vedras,Lisboa,Centro,-9.251952,39.091829
24888716,"S.julião, N.s. da Anunciada e S. Maria da Graça",Península de Setúbal,311,2025-01-29T17:16:00Z,24888716,Em despacho,3301,Queda de árvore,0,1,0,2,2025-01-29T17:16:00Z,Setúbal,Setúbal,Área Metropolitana De Lisboa,-8.889983,38.529955
24888624,Barcarena,Grande Lisboa,311,2025-01-29T17:30:00Z,24888624,Em resolução,3311,Queda de elementos de estruturas edificados,0,1,0,5,2025-01-29T17:30:00Z,Oeiras,Lisboa,Área Metropolitana De Lisboa,-9.277392,38.733987
24888649,Colmeias e Memória,Região de Leiria,310,2025-01-29T17:26:00Z,24888649,Em despacho,3321,Dano na rede de fornecimento de eletricidade ,0,1,0,2,2025-01-29T17:26:00Z,Leiria,Leiria,Centro,-8.739163,39.80627
24888658,Valada,Lezíria do Tejo,311,2025-01-29T17:36:00Z,24888658,Em despacho,3301,Queda de árvore,0,1,0,4,2025-01-29T17:36:00Z,Cartaxo,Santarém,Alentejo,-8.764108,39.081983
24888667,Setúbal (São Sebastião),Península de Setúbal,311,2025-01-29T17:38:00Z,24888667,Em curso,3311,Queda de elementos de estruturas edificados,0,0,0,0,2025-01-29T17:38:00Z,Setúbal,Setúbal,Área Metropolitana De Lisboa,-8.874314,38.52946
24888674,Arraiolos,Alentejo Central,312,2025-01-29T17:40:00Z,24888674,Em despacho,3301,Queda de árvore,0,0,0,0,2025-01-29T17:40:00Z,Arraiolos,Évora,Alentejo,-7.9771,38.69429
24888692,Almeirim,Lezíria do Tejo,311,2025-01-29T17:43:00Z,24888692,Em resolução,3301,Queda de árvore,0,1,0,5,2025-01-29T17:43:00Z,Almeirim,Santarém,Alentejo,-8.588832,39.142251
24888701,Raposa,Lezíria do Tejo,311,2025-01-29T17:44:00Z,24888701,Em despacho,3301,Queda de árvore,0,1,0,2,2025-01-29T17:44:00Z,Almeirim,Santarém,Alentejo,-8.608447,39.134967
24888726,Gondemaria e Olival,Médio Tejo,311,2025-01-29T17:48:00Z,24888726,Em despacho,3301,Queda de árvore,0,1,0,2,2025-01-29T17:48:00Z,Ourém,Santarém,Centro,-8.623864,39.685229
