id,address,subregion,neighborhood,date,id.1,state,nature,nature_description,aerial_means,terrestrial_means,aquatic_means,operational,date.1,Concelho,Distrito,NUTII_DSG,longitude,latitude,state_2
25943672,Lorvão,Região de Coimbra,310,2025-09-04T17:36:00Z,25943672,Em Resolução/Conclusão,3101,Incêndio rural,0,13,0,50,2025-09-04T17:36:00Z,Penacova,Coimbra,Centro,-8.3475,40.25917,Resolução/Conclusão
25944057,Caparica e Trafaria,Península de Setúbal,311,2025-09-04T19:04:00Z,25944057,Em Despacho,3103,Incêndio rural,0,2,0,10,2025-09-04T19:04:00Z,Almada,Setúbal,Área Metropolitana De Lisboa,-9.198172,38.665376,Despacho
25832672,Piódão,Região de Coimbra,310,2025-08-13T05:08:00Z,25832672,Em Resolução/Conclusão,3103,Incêndio rural,0,17,0,47,2025-08-13T05:08:00Z,Arganil,Coimbra,Centro,-7.81972,40.23083,Resolução/Conclusão
25840417,Lousã e Vilarinho,Região de Coimbra,310,2025-08-14T13:46:00Z,25840417,Em Resolução/Conclusão,3101,Incêndio rural,0,0,0,0,2025-08-14T13:46:00Z,Lousã,Coimbra,Centro,-8.201561,40.080016,Resolução/Conclusão
25943499,Travanca,Tâmega e Sousa,309,2025-09-04T16:55:00Z,25943499,Em Resolução/Conclusão,3103,Incêndio rural,0,1,0,5,2025-09-04T16:55:00Z,Cinfães,Viseu,Norte,-8.230077,41.046292,Resolução/Conclusão
25943701,Escariz,Area M. Porto,309,2025-09-04T17:43:00Z,25943701,Em Resolução/Conclusão,3103,Incêndio rural,0,3,0,10,2025-09-04T17:43:00Z,Arouca,Aveiro,Norte,-8.397018,40.92901,Resolução/Conclusão
25943842,Miragaia e Marteleira,Oeste,311,2025-09-04T18:17:00Z,25943842,Em Resolução/Conclusão,3103,Incêndio rural,0,4,0,11,2025-09-04T18:17:00Z,Lourinhã,Lisboa,Centro,-9.25397,39.233923,Resolução/Conclusão
25943279,Arez e Amieira do Tejo,Alto Alentejo,312,2025-09-04T16:10:00Z,25943279,Em Resolução/Conclusão,3103,Incêndio rural,0,18,0,68,2025-09-04T16:10:00Z,Nisa,Portalegre,Alentejo,-7.764517,39.462882,Resolução/Conclusão
25943614,Santo Quintino,Oeste,311,2025-09-04T17:22:00Z,25943614,Em Resolução/Conclusão,3101,Incêndio rural,0,2,0,7,2025-09-04T17:22:00Z,Sobral De Monte Agraço,Lisboa,Centro,-9.145202,39.001403,Resolução/Conclusão
25943762,Casa Branca,Alto Alentejo,312,2025-09-04T17:52:00Z,25943762,Em Resolução/Conclusão,3105,Incêndio rural,0,11,0,34,2025-09-04T17:52:00Z,Sousel,Portalegre,Alentejo,-7.818165,38.915282,Resolução/Conclusão
25943981,Parada e Faílde,Terras de Trás-os-Montes,309,2025-09-04T18:48:00Z,25943981,Em Curso,3103,Incêndio rural,1,6,0,29,2025-09-04T18:48:00Z,Bragança,Bragança,Norte,-6.685525,41.684505,Curso
25944046,Lousã e Vilarinho,Região de Coimbra,310,2025-09-04T19:04:00Z,25944046,Em Despacho,3101,Incêndio rural,1,4,0,19,2025-09-04T19:04:00Z,Lousã,Coimbra,Centro,-8.201113,40.080726,Despacho
25942303,São Pedro e Santa Maria e Vila Boa do Mondego,Beiras e Serra da Estrela,310,2025-09-04T12:34:00Z,25942303,Em Resolução/Conclusão,3103,Incêndio rural,0,7,0,23,2025-09-04T12:34:00Z,Celorico Da Beira,Guarda,Centro,-7.414827,40.63419,Resolução/Conclusão
