id,address,subregion,neighborhood,date,id.1,state,nature,nature_description,aerial_means,terrestrial_means,aquatic_means,operational,date.1,Concelho,Distrito,NUTII_DSG,longitude,latitude,state_2
25763650,Milagres,Região de Leiria,310,2025-07-31T15:58:00Z,25763650,Em Resolução/Conclusão,3101,Incêndio rural,0,1,0,2,2025-07-31T15:58:00Z,Leiria,Leiria,Centro,-8.792217,39.793427,Resolução/Conclusão
25781305,Tamel (Santa Leocádia) e Vilar do Monte,Cávado,309,2025-08-03T23:17:00Z,25781305,Em Resolução/Conclusão,3103,Incêndio rural,0,1,0,5,2025-08-03T23:17:00Z,Barcelos,Braga,Norte,-8.66043,41.566023,Resolução/Conclusão
25785983,Caçarilhe e Infesta,Tâmega e Sousa,309,2025-08-04T18:22:00Z,25785983,Em Curso,3103,Incêndio rural,0,12,0,37,2025-08-04T18:22:00Z,Celorico De Basto,Braga,Norte,-8.04611,41.419858,Curso
25786312,Mões,Viseu Dão Lafões,310,2025-08-04T19:31:00Z,25786312,Em Resolução/Conclusão,3105,Incêndio rural,0,0,0,0,2025-08-04T19:31:00Z,Castro Daire,Viseu,Centro,-7.888317,40.866883,Resolução/Conclusão
25787021,Asseiceira,Médio Tejo,311,2025-08-04T22:10:00Z,25787021,Em Resolução/Conclusão,3101,Incêndio rural,0,6,0,17,2025-08-04T22:10:00Z,Tomar,Santarém,Centro,-8.403243,39.510193,Resolução/Conclusão
25787382,Borbela e Lamas de Olo,Douro,309,2025-08-04T23:59:00Z,25787382,Em Resolução/Conclusão,3103,Incêndio rural,0,1,0,5,2025-08-04T23:59:00Z,Vila Real,Vila Real,Norte,-7.804423,41.373396,Resolução/Conclusão
25787396,São Gens,Ave,309,2025-08-05T00:08:00Z,25787396,Em Resolução/Conclusão,3103,Incêndio rural,0,1,0,5,2025-08-05T00:08:00Z,Fafe,Braga,Norte,-8.12877,41.44832,Resolução/Conclusão
25787480,Freixo de Cima e de Baixo,Tâmega e Sousa,309,2025-08-05T00:46:00Z,25787480,Em Resolução/Conclusão,3103,Incêndio rural,0,2,0,10,2025-08-05T00:46:00Z,Amarante,Porto,Norte,-8.120392,41.311822,Resolução/Conclusão
25787507,Recezinhos (São Martinho),Tâmega e Sousa,309,2025-08-05T00:54:00Z,25787507,Em Resolução/Conclusão,3103,Incêndio rural,0,1,0,5,2025-08-05T00:54:00Z,Penafiel,Porto,Norte,-8.223308,41.220333,Resolução/Conclusão
25748118,Canelas e Espiunca,Area M. Porto,309,2025-07-28T17:16:00Z,25748118,Em Resolução/Conclusão,3101,Incêndio rural,0,8,0,30,2025-07-28T17:16:00Z,Arouca,Aveiro,Norte,-8.212231,40.969918,Resolução/Conclusão
25749320,Rebordões (Santa Maria),Alto Minho,309,2025-07-28T22:47:00Z,25749320,Em Resolução/Conclusão,3103,Incêndio rural,0,2,0,10,2025-07-28T22:47:00Z,Ponte De Lima,Viana Do Castelo,Norte,-8.588365,41.729993,Resolução/Conclusão
25749641,Silva Escura e Dornelas,Região de Aveiro,310,2025-07-29T01:02:00Z,25749641,Em Resolução/Conclusão,3101,Incêndio rural,0,1,0,5,2025-07-29T01:02:00Z,Sever Do Vouga,Aveiro,Centro,-8.399623,40.769354,Resolução/Conclusão
25756006,Pinhanços,Beiras e Serra da Estrela,310,2025-07-30T09:07:00Z,25756006,Em Resolução/Conclusão,3103,Incêndio rural,0,1,0,5,2025-07-30T09:07:00Z,Seia,Guarda,Centro,-7.708132,40.473517,Resolução/Conclusão
25776263,"Pena, Quintã e Vila Cova",Douro,309,2025-08-02T23:45:00Z,25776263,Em Curso,3103,Incêndio rural,0,211,0,626,2025-08-02T23:45:00Z,Vila Real,Vila Real,Norte,-7.811902,41.317355,Curso
25779639,Senhorim,Viseu Dão Lafões,310,2025-08-03T16:28:00Z,25779639,Em Resolução/Conclusão,3103,Incêndio rural,0,2,0,6,2025-08-03T16:28:00Z,Nelas,Viseu,Centro,-7.81226,40.511713,Resolução/Conclusão
25783717,Cunha Baixa,Viseu Dão Lafões,310,2025-08-04T11:48:00Z,25783717,Em Resolução/Conclusão,3101,Incêndio rural,0,1,0,2,2025-08-04T11:48:00Z,Mangualde,Viseu,Centro,-7.764411,40.559738,Resolução/Conclusão
25784751,"São Pedro do Sul, Várzea e Baiões",Viseu Dão Lafões,310,2025-08-04T14:36:00Z,25784751,Em Resolução/Conclusão,3103,Incêndio rural,0,1,0,1,2025-08-04T14:36:00Z,São Pedro Do Sul,Viseu,Centro,-8.098667,40.75791,Resolução/Conclusão
25784920,Castro Daire,Viseu Dão Lafões,310,2025-08-04T15:03:00Z,25784920,Em Resolução/Conclusão,3103,Incêndio rural,0,0,0,0,2025-08-04T15:03:00Z,Castro Daire,Viseu,Centro,-7.945405,40.912732,Resolução/Conclusão
25785204,Ribas,Tâmega e Sousa,309,2025-08-04T16:03:00Z,25785204,Em Resolução/Conclusão,3103,Incêndio rural,0,18,0,59,2025-08-04T16:03:00Z,Celorico De Basto,Braga,Norte,-8.022547,41.449583,Resolução/Conclusão
25786090,Eiras e Mei,Alto Minho,309,2025-08-04T18:46:00Z,25786090,Em Resolução/Conclusão,3103,Incêndio rural,0,1,0,5,2025-08-04T18:46:00Z,Arcos De Valdevez,Viana Do Castelo,Norte,-8.480077,41.922108,Resolução/Conclusão
25787377,Podence e Santa Combinha,Terras de Trás-os-Montes,309,2025-08-04T23:58:00Z,25787377,Em Resolução/Conclusão,3103,Incêndio rural,0,1,0,2,2025-08-04T23:58:00Z,Macedo De Cavaleiros,Bragança,Norte,-6.702448,41.525718,Resolução/Conclusão
25787394,Aboim Das Choças,Alto Minho,309,2025-08-05T00:00:00Z,25787394,Em Resolução/Conclusão,3101,Incêndio rural,0,1,0,3,2025-08-05T00:00:00Z,Arcos De Valdevez,Viana Do Castelo,Norte,-8.437402,41.929887,Resolução/Conclusão
25787545,Padroso,Alto Minho,309,2025-08-05T01:15:00Z,25787545,Em Curso,3103,Incêndio rural,0,2,0,6,2025-08-05T01:15:00Z,Arcos De Valdevez,Viana Do Castelo,Norte,-8.477038,41.943237,Curso
25787611,Dois Portos e Runa,Oeste,311,2025-08-05T02:01:00Z,25787611,Em Despacho,3101,Incêndio rural,0,0,0,0,2025-08-05T02:01:00Z,Torres Vedras,Lisboa,Centro,-9.211217,39.073298,Despacho
25787541,Senharei,Alto Minho,309,2025-08-05T01:12:00Z,25787541,Em Despacho,3103,Incêndio rural,0,1,0,4,2025-08-05T01:12:00Z,Arcos De Valdevez,Viana Do Castelo,Norte,-8.483904,41.885303,Despacho
25787580,Lavradas,Alto Minho,309,2025-08-05T01:41:00Z,25787580,Em Despacho,3103,Incêndio rural,0,2,0,5,2025-08-05T01:41:00Z,Ponte Da Barca,Viana Do Castelo,Norte,-8.461366,41.80038,Despacho
25750701,Capela,Tâmega e Sousa,309,2025-07-29T09:26:00Z,25750701,Em Resolução/Conclusão,3103,Incêndio rural,0,0,0,0,2025-07-29T09:26:00Z,Penafiel,Porto,Norte,-8.345202,41.09353,Resolução/Conclusão
25773830,Andrães,Douro,309,2025-08-02T14:23:00Z,25773830,Em Resolução/Conclusão,3103,Incêndio rural,0,29,0,100,2025-08-02T14:23:00Z,Vila Real,Vila Real,Norte,-7.671293,41.267593,Resolução/Conclusão
25774883,Arnóia,Tâmega e Sousa,309,2025-08-02T18:20:00Z,25774883,Em Resolução/Conclusão,3103,Incêndio rural,0,67,0,189,2025-08-02T18:20:00Z,Celorico De Basto,Braga,Norte,-7.998983,41.348727,Resolução/Conclusão
25775734,Sequeiros e Gradiz,Viseu Dão Lafões,310,2025-08-02T21:35:00Z,25775734,Em Resolução/Conclusão,3103,Incêndio rural,0,1,0,2,2025-08-02T21:35:00Z,Aguiar Da Beira,Guarda,Centro,-7.564515,40.858278,Resolução/Conclusão
25781884,Graça,Região de Leiria,310,2025-08-04T04:33:00Z,25781884,Em Resolução/Conclusão,3101,Incêndio rural,0,1,0,2,2025-08-04T04:33:00Z,Pedrógão Grande,Leiria,Centro,-8.204434,39.895198,Resolução/Conclusão
25787483,Vilar de Andorinho,Area M. Porto,309,2025-08-05T00:45:00Z,25787483,Em Despacho,3103,Incêndio rural,0,2,0,10,2025-08-05T00:45:00Z,Vila Nova De Gaia,Porto,Norte,-8.58201,41.10356,Despacho
25787584,Vilar de Andorinho,Area M. Porto,309,2025-08-05T01:42:00Z,25787584,Em Resolução/Conclusão,3103,Incêndio rural,0,1,0,6,2025-08-05T01:42:00Z,Vila Nova De Gaia,Porto,Norte,-8.587365,41.09826,Resolução/Conclusão
25738747,Lindoso,Alto Minho,309,2025-07-26T21:47:00Z,25738747,Em Resolução/Conclusão,3103,Incêndio rural,0,63,0,174,2025-07-26T21:47:00Z,Ponte Da Barca,Viana Do Castelo,Norte,-8.220528,41.865272,Resolução/Conclusão
25747773,Aranhas,Beira Baixa,310,2025-07-28T16:36:00Z,25747773,Em Resolução/Conclusão,3103,Incêndio rural,0,2,0,7,2025-07-28T16:36:00Z,Penamacor,Castelo Branco,Centro,-7.14438,40.117542,Resolução/Conclusão
25775263,Torgueda,Douro,309,2025-08-02T19:49:00Z,25775263,Em Resolução/Conclusão,3101,Incêndio rural,0,11,0,38,2025-08-02T19:49:00Z,Vila Real,Vila Real,Norte,-7.785983,41.274952,Resolução/Conclusão
25778337,Senhorim,Viseu Dão Lafões,310,2025-08-03T11:59:00Z,25778337,Em Resolução/Conclusão,3103,Incêndio rural,0,0,0,0,2025-08-03T11:59:00Z,Nelas,Viseu,Centro,-7.825723,40.54384,Resolução/Conclusão
25780604,Rio Frio,Alto Minho,309,2025-08-03T20:13:00Z,25780604,Em Resolução/Conclusão,3103,Incêndio rural,0,7,0,17,2025-08-03T20:13:00Z,Arcos De Valdevez,Viana Do Castelo,Norte,-8.492232,41.868325,Resolução/Conclusão
25781822,São Gens,Ave,309,2025-08-04T03:44:00Z,25781822,Em Resolução/Conclusão,3103,Incêndio rural,0,12,0,37,2025-08-04T03:44:00Z,Fafe,Braga,Norte,-8.101607,41.44259,Resolução/Conclusão
25785466,Caçarilhe e Infesta,Tâmega e Sousa,309,2025-08-04T16:48:00Z,25785466,Em Resolução/Conclusão,3103,Incêndio rural,0,16,0,44,2025-08-04T16:48:00Z,Celorico De Basto,Braga,Norte,-8.035342,41.42903,Resolução/Conclusão
25787540,Duas Igrejas,Tâmega e Sousa,309,2025-08-05T01:13:00Z,25787540,Em Resolução/Conclusão,3101,Incêndio rural,0,1,0,5,2025-08-05T01:13:00Z,Penafiel,Porto,Norte,-8.26953,41.196172,Resolução/Conclusão
