id,address,subregion,neighborhood,date,id.1,state,nature,nature_description,aerial_means,terrestrial_means,aquatic_means,operational,date.1,Concelho,Distrito,NUTII_DSG,longitude,latitude
25551247,Prado (São Miguel),Cávado,309,2025-06-20T02:26:00Z,25551247,Em conclusão,3101,Incêndio rural,0,5,0,16,2025-06-20T02:26:00Z,Vila Verde,Braga,Norte,-8.442548,41.707072
25551429,São Martinho da Gândara,Area M. Porto,309,2025-06-20T06:02:00Z,25551429,Em conclusão,3103,Incêndio rural,0,3,0,15,2025-06-20T06:02:00Z,Oliveira De Azeméis,Aveiro,Norte,-8.531623,40.838748
25551481,Recarei,Area M. Porto,309,2025-06-20T06:48:00Z,25551481,Em conclusão,3203,Detritos confinados,0,1,0,3,2025-06-20T06:48:00Z,Paredes,Porto,Norte,-8.405433,41.157163
25551419,Terrugem e Vila Boim,Alto Alentejo,312,2025-06-20T05:43:00Z,25551419,Em conclusão,3105,Incêndio rural,0,1,0,5,2025-06-20T05:43:00Z,Elvas,Portalegre,Alentejo,-7.281935,38.85897
25551444,Cabeço de Vide,Alto Alentejo,312,2025-06-20T06:10:00Z,25551444,Em conclusão,3203,Detritos confinados,0,2,0,4,2025-06-20T06:10:00Z,Fronteira,Portalegre,Alentejo,-7.58488,39.135558
25551574,Nelas,Viseu Dão Lafões,310,2025-06-20T07:29:00Z,25551574,Em curso,2301,Incêndio em transporte rodoviário,0,2,0,7,2025-06-20T07:29:00Z,Nelas,Viseu,Centro,-7.842357,40.545833
25550982,Carapito,Viseu Dão Lafões,310,2025-06-19T23:28:00Z,25550982,Em conclusão,2127,"Incêndio em edifícios e recintos industriais, oficinas e armazéns",0,1,0,5,2025-06-19T23:28:00Z,Aguiar Da Beira,Guarda,Centro,-7.474373,40.771847
