id,address,subregion,neighborhood,date,id.1,state,nature,nature_description,aerial_means,terrestrial_means,aquatic_means,operational,date.1,Concelho,Distrito,NUTII_DSG,longitude,latitude,state_2
25774883,Arnóia,Tâmega e Sousa,309,2025-08-02T18:20:00Z,25774883,Em Resolução/Conclusão,3103,Incêndio rural,0,1,0,1,2025-08-02T18:20:00Z,Celorico De Basto,Braga,Norte,-7.998983,41.348727,Resolução/Conclusão
25818455,Sobral de São Miguel,Beiras e Serra da Estrela,310,2025-08-10T15:02:00Z,25818455,Em Resolução/Conclusão,3103,Incêndio rural,0,10,0,28,2025-08-10T15:02:00Z,Covilhã,Castelo Branco,Centro,-7.77307,40.200173,Resolução/Conclusão
25837154,"Tavares (Chãs, Várzea e Travanca)",Viseu Dão Lafões,310,2025-08-13T21:27:00Z,25837154,Em Resolução/Conclusão,3103,Incêndio rural,0,0,0,0,2025-08-13T21:27:00Z,Mangualde,Viseu,Centro,-7.647492,40.608359,Resolução/Conclusão
25841466,São Miguel do Mato,Viseu Dão Lafões,310,2025-08-14T16:48:00Z,25841466,Em Resolução/Conclusão,3103,Incêndio rural,0,1,0,4,2025-08-14T16:48:00Z,Vouzela,Viseu,Centro,-8.0267,40.71845,Resolução/Conclusão
25846480,Sabugal e Aldeia de Santo António,Beiras e Serra da Estrela,310,2025-08-15T14:41:00Z,25846480,Em Curso,3103,Incêndio rural,0,38,0,129,2025-08-15T14:41:00Z,Sabugal,Guarda,Centro,-7.125037,40.34023,Curso
25848784,Anhões e Luzio,Alto Minho,309,2025-08-15T23:10:00Z,25848784,Em Resolução/Conclusão,3103,Incêndio rural,0,4,0,9,2025-08-15T23:10:00Z,Monção,Viana Do Castelo,Norte,-8.457423,41.973813,Resolução/Conclusão
25850238,Zibreira,Médio Tejo,311,2025-08-16T09:40:00Z,25850238,Em Resolução/Conclusão,3103,Incêndio rural,0,5,0,15,2025-08-16T09:40:00Z,Torres Novas,Santarém,Centro,-8.613148,39.484424,Resolução/Conclusão
25775263,Torgueda,Douro,309,2025-08-02T19:49:00Z,25775263,Em Resolução/Conclusão,3101,Incêndio rural,0,4,0,15,2025-08-02T19:49:00Z,Vila Real,Vila Real,Norte,-7.785983,41.274952,Resolução/Conclusão
25807426,Alvite,Douro,309,2025-08-08T14:31:00Z,25807426,Em Resolução/Conclusão,3103,Incêndio rural,0,5,0,26,2025-08-08T14:31:00Z,Moimenta Da Beira,Viseu,Norte,-7.688727,40.96613,Resolução/Conclusão
25841363,Santar e Moreira,Viseu Dão Lafões,310,2025-08-14T16:28:00Z,25841363,Em Resolução/Conclusão,3103,Incêndio rural,0,0,0,0,2025-08-14T16:28:00Z,Nelas,Viseu,Centro,-7.883308,40.563075,Resolução/Conclusão
25845171,Pêra do Moço,Beiras e Serra da Estrela,310,2025-08-15T10:44:00Z,25845171,Em Curso,3103,Incêndio rural,1,82,0,223,2025-08-15T10:44:00Z,Guarda,Guarda,Centro,-7.20956,40.61267,Curso
25846016,Poiares,Douro,309,2025-08-15T13:17:00Z,25846016,Em Curso,3105,Incêndio rural,1,98,0,307,2025-08-15T13:17:00Z,Freixo De Espada à Cinta,Bragança,Norte,-6.843393,41.075787,Curso
25847211,Campelo,Região de Leiria,310,2025-08-15T17:01:00Z,25847211,Em Resolução/Conclusão,3101,Incêndio rural,0,7,0,24,2025-08-15T17:01:00Z,Figueiró Dos Vinhos,Leiria,Centro,-8.258518,39.952923,Resolução/Conclusão
25847552,"Espírito Santo, Nossa Senhora da Graça e São Simão",Alto Alentejo,312,2025-08-15T18:13:00Z,25847552,Em Resolução/Conclusão,3101,Incêndio rural,0,21,0,68,2025-08-15T18:13:00Z,Nisa,Portalegre,Alentejo,-7.676539,39.448501,Resolução/Conclusão
25849878,Árvore,Area M. Porto,309,2025-08-16T08:12:00Z,25849878,Em Resolução/Conclusão,3101,Incêndio rural,0,1,0,5,2025-08-16T08:12:00Z,Vila Do Conde,Porto,Norte,-8.724595,41.34317,Resolução/Conclusão
25850001,"Canedo, Vale e Vila Maior",Area M. Porto,309,2025-08-16T08:46:00Z,25850001,Em Resolução/Conclusão,3103,Incêndio rural,0,1,0,5,2025-08-16T08:46:00Z,Santa Maria Da Feira,Aveiro,Norte,-8.48489,41.00671,Resolução/Conclusão
25850285,Duas Igrejas,Area M. Porto,309,2025-08-16T09:50:00Z,25850285,Em Resolução/Conclusão,3103,Incêndio rural,0,2,0,10,2025-08-16T09:50:00Z,Paredes,Porto,Norte,-8.37011,41.222433,Resolução/Conclusão
25850437,Castelo Rodrigo,Beiras e Serra da Estrela,310,2025-08-16T10:19:00Z,25850437,Em Despacho,3105,Incêndio rural,0,4,0,13,2025-08-16T10:19:00Z,Figueira De Castelo Rodrigo,Guarda,Centro,-6.945912,40.89135,Despacho
25785983,Caçarilhe e Infesta,Tâmega e Sousa,309,2025-08-04T18:22:00Z,25785983,Em Resolução/Conclusão,3103,Incêndio rural,0,4,0,14,2025-08-04T18:22:00Z,Celorico De Basto,Braga,Norte,-8.04611,41.419858,Resolução/Conclusão
25792058,Cibões e Brufe,Cávado,309,2025-08-05T19:10:00Z,25792058,Em Resolução/Conclusão,3103,Incêndio rural,0,1,0,5,2025-08-05T19:10:00Z,Terras De Bouro,Braga,Norte,-8.293932,41.764918,Resolução/Conclusão
25820422,Távora e Pereiro,Douro,309,2025-08-10T22:27:00Z,25820422,Em Resolução/Conclusão,3103,Incêndio rural,0,33,0,106,2025-08-10T22:27:00Z,Tabuaço,Viseu,Norte,-7.55556,41.097602,Resolução/Conclusão
25832672,Piódão,Região de Coimbra,310,2025-08-13T05:08:00Z,25832672,Em Curso,3103,Incêndio rural,14,337,0,1023,2025-08-13T05:08:00Z,Arganil,Coimbra,Centro,-7.81972,40.23083,Curso
25835176,Faíl e Vila Chã de Sá,Viseu Dão Lafões,310,2025-08-13T14:35:00Z,25835176,Em Resolução/Conclusão,3103,Incêndio rural,0,1,0,1,2025-08-13T14:35:00Z,Viseu,Viseu,Centro,-7.951177,40.594167,Resolução/Conclusão
25840417,Lousã e Vilarinho,Região de Coimbra,310,2025-08-14T13:46:00Z,25840417,Em Curso,3101,Incêndio rural,0,115,0,360,2025-08-14T13:46:00Z,Lousã,Coimbra,Centro,-8.201561,40.080016,Curso
25841546,São João de Lourosa,Viseu Dão Lafões,310,2025-08-14T16:55:00Z,25841546,Em Resolução/Conclusão,3103,Incêndio rural,0,0,0,0,2025-08-14T16:55:00Z,Viseu,Viseu,Centro,-7.9337,40.6126,Resolução/Conclusão
25848791,Portela,Alto Minho,309,2025-08-15T23:12:00Z,25848791,Em Curso,3103,Incêndio rural,1,10,0,40,2025-08-15T23:12:00Z,Monção,Viana Do Castelo,Norte,-8.491353,41.985432,Curso
25849407,Ervedosa,Terras de Trás-os-Montes,309,2025-08-16T03:33:00Z,25849407,Em Resolução/Conclusão,3103,Incêndio rural,0,6,0,17,2025-08-16T03:33:00Z,Vinhais,Bragança,Norte,-7.095813,41.726347,Resolução/Conclusão
25849768,"S.maria, S.miguel, S.martinho, S.pedro Penaferrim",Grande Lisboa,311,2025-08-16T07:37:00Z,25849768,Em Resolução/Conclusão,3103,Incêndio rural,0,14,0,46,2025-08-16T07:37:00Z,Sintra,Lisboa,Área Metropolitana De Lisboa,-9.357457,38.746958,Resolução/Conclusão
25850543,Arcozelo,Area M. Porto,309,2025-08-16T10:42:00Z,25850543,Em Despacho,3103,Incêndio rural,0,0,0,0,2025-08-16T10:42:00Z,Vila Nova De Gaia,Porto,Norte,-8.63181,41.04218,Despacho
25776263,"Pena, Quintã e Vila Cova",Douro,309,2025-08-02T23:45:00Z,25776263,Em Resolução/Conclusão,3103,Incêndio rural,0,47,0,149,2025-08-02T23:45:00Z,Vila Real,Vila Real,Norte,-7.811902,41.317355,Resolução/Conclusão
25813482,Freches e Torres,Beiras e Serra da Estrela,310,2025-08-09T16:21:00Z,25813482,Em Curso,3103,Incêndio rural,0,150,0,455,2025-08-09T16:21:00Z,Trancoso,Guarda,Centro,-7.363745,40.709022,Curso
25830378,Ermidas-Sado,Alentejo Litoral,312,2025-08-12T16:42:00Z,25830378,Em Resolução/Conclusão,3101,Incêndio rural,0,0,0,0,2025-08-12T16:42:00Z,Santiago Do Cacém,Setúbal,Alentejo,-8.407646,38.059897,Resolução/Conclusão
25832250,Ferreira de Aves,Viseu Dão Lafões,310,2025-08-13T00:03:00Z,25832250,Em Curso,3103,Incêndio rural,2,301,0,914,2025-08-13T00:03:00Z,Sátão,Viseu,Centro,-7.647793,40.79568,Curso
25835457,Quirás e Pinheiro Novo,Terras de Trás-os-Montes,309,2025-08-13T15:25:00Z,25835457,Em Resolução/Conclusão,3103,Incêndio rural,0,1,0,3,2025-08-13T15:25:00Z,Vinhais,Bragança,Norte,-7.170375,41.939618,Resolução/Conclusão
25836309,Cinfães,Tâmega e Sousa,309,2025-08-13T18:17:00Z,25836309,Em Resolução/Conclusão,3103,Incêndio rural,0,35,0,111,2025-08-13T18:17:00Z,Cinfães,Viseu,Norte,-8.071502,41.049757,Resolução/Conclusão
25840505,Ribeira de Nisa e Carreiras,Alto Alentejo,312,2025-08-14T14:01:00Z,25840505,Em Resolução/Conclusão,3101,Incêndio rural,0,40,0,112,2025-08-14T14:01:00Z,Portalegre,Portalegre,Alentejo,-7.47009,39.374707,Resolução/Conclusão
25844050,"Pena, Quintã e Vila Cova",Douro,309,2025-08-15T04:16:00Z,25844050,Em Resolução/Conclusão,3103,Incêndio rural,0,2,0,7,2025-08-15T04:16:00Z,Vila Real,Vila Real,Norte,-7.861022,41.318705,Resolução/Conclusão
25844080,Vale de Espinho,Beiras e Serra da Estrela,310,2025-08-15T04:35:00Z,25844080,Em Resolução/Conclusão,3103,Incêndio rural,0,2,0,4,2025-08-15T04:35:00Z,Sabugal,Guarda,Centro,-6.937728,40.270523,Resolução/Conclusão
25845736,Travancas e Roriz,Alto Tâmega e Barroso,309,2025-08-15T12:20:00Z,25845736,Em Resolução/Conclusão,3103,Incêndio rural,0,7,0,28,2025-08-15T12:20:00Z,Chaves,Vila Real,Norte,-7.316357,41.775985,Resolução/Conclusão
25850200,Santo André,Alto Tâmega e Barroso,309,2025-08-16T09:22:00Z,25850200,Em Resolução/Conclusão,3103,Incêndio rural,0,3,0,15,2025-08-16T09:22:00Z,Montalegre,Vila Real,Norte,-7.68918,41.870293,Resolução/Conclusão
