id,address,subregion,neighborhood,date,id.1,state,nature,nature_description,aerial_means,terrestrial_means,aquatic_means,operational,date.1,Concelho,Distrito,NUTII_DSG,longitude,latitude,state_2
25928763,Calvão e Soutelinho da Raia,Alto Tâmega e Barroso,309,2025-09-01T13:46:00Z,25928763,Em Resolução/Conclusão,3103,Incêndio rural,0,6,0,10,2025-09-01T13:46:00Z,Chaves,Vila Real,Norte,-7.570508,41.805473,Resolução/Conclusão
25832672,Piódão,Região de Coimbra,310,2025-08-13T05:08:00Z,25832672,Em Resolução/Conclusão,3103,Incêndio rural,0,16,0,42,2025-08-13T05:08:00Z,Arganil,Coimbra,Centro,-7.81972,40.23083,Resolução/Conclusão
25840417,Lousã e Vilarinho,Região de Coimbra,310,2025-08-14T13:46:00Z,25840417,Em Resolução/Conclusão,3101,Incêndio rural,0,1,0,1,2025-08-14T13:46:00Z,Lousã,Coimbra,Centro,-8.201561,40.080016,Resolução/Conclusão
25929520,Pitões Das Junias,Alto Tâmega e Barroso,309,2025-09-01T16:18:00Z,25929520,Em Resolução/Conclusão,3103,Incêndio rural,0,1,0,2,2025-09-01T16:18:00Z,Montalegre,Vila Real,Norte,-7.949417,41.807492,Resolução/Conclusão
25930939,São Pedro de Veiga de Lila,Alto Tâmega e Barroso,309,2025-09-01T22:53:00Z,25930939,Em Resolução/Conclusão,3103,Incêndio rural,0,3,0,12,2025-09-01T22:53:00Z,Valpaços,Vila Real,Norte,-7.35722,41.490343,Resolução/Conclusão
