id,address,subregion,neighborhood,date,id.1,state,nature,nature_description,aerial_means,terrestrial_means,aquatic_means,operational,date.1,Concelho,Distrito,NUTII_DSG,longitude,latitude
25581155,Azambuja,Lezíria do Tejo,311,2025-06-26T07:29:00Z,25581155,Em despacho,3109,Gestão de combustível,0,1,0,4,2025-06-26T07:29:00Z,Azambuja,Lisboa,Alentejo,-8.898558,39.118107
25583390,Reguengos de Monsaraz,Alentejo Central,312,2025-06-26T14:40:00Z,25583390,Em conclusão,3105,Incêndio rural,0,2,0,10,2025-06-26T14:40:00Z,Reguengos De Monsaraz,Évora,Alentejo,-7.569853,38.418395
25583983,Seiça,Médio Tejo,311,2025-06-26T16:48:00Z,25583983,Em conclusão,3103,Incêndio rural,0,0,0,0,2025-06-26T16:48:00Z,Ourém,Santarém,Centro,-8.550232,39.653094
25584617,Redondelo,Alto Tâmega e Barroso,309,2025-06-26T19:23:00Z,25584617,Em conclusão,3103,Incêndio rural,0,1,0,5,2025-06-26T19:23:00Z,Chaves,Vila Real,Norte,-7.564833,41.712678
25584717,Barreiro de Besteiros e Tourigo,Viseu Dão Lafões,310,2025-06-26T19:51:00Z,25584717,Em conclusão,3103,Incêndio rural,0,1,0,2,2025-06-26T19:51:00Z,Tondela,Viseu,Centro,-8.167743,40.516343
25584865,Vimeiro,Oeste,311,2025-06-26T20:35:00Z,25584865,Em conclusão,3103,Incêndio rural,0,4,0,14,2025-06-26T20:35:00Z,Alcobaça,Leiria,Centro,-9.059387,39.479592
25585033,Rebordões,Area M. Porto,309,2025-06-26T21:14:00Z,25585033,Em curso,3103,Incêndio rural,0,2,0,7,2025-06-26T21:14:00Z,Santo Tirso,Porto,Norte,-8.426964,41.3433
25585108,Cabanelas,Cávado,309,2025-06-26T21:30:00Z,25585108,Em resolução,3201,Detritos não confinados,0,2,0,7,2025-06-26T21:30:00Z,Vila Verde,Braga,Norte,-8.491323,41.60151
25585135,Santa Clara e Castelo Viegas,Região de Coimbra,310,2025-06-26T21:34:00Z,25585135,Em conclusão,2101,Incêndio em edifícios habitacionais,0,4,0,15,2025-06-26T21:34:00Z,Coimbra,Coimbra,Centro,-8.437323,40.204625
25584694,Sabadim,Alto Minho,309,2025-06-26T19:46:00Z,25584694,Em conclusão,3107,Consolidação de rescaldo de incêndio rural,0,1,0,5,2025-06-26T19:46:00Z,Arcos De Valdevez,Viana Do Castelo,Norte,-8.465439,41.906862
25584964,São Salvador,Terras de Trás-os-Montes,309,2025-06-26T20:58:00Z,25584964,Em despacho,3103,Incêndio rural,0,0,0,0,2025-06-26T20:58:00Z,Mirandela,Bragança,Norte,-7.153357,41.433898
25585078,Alverca do Ribatejo e Sobralinho,Grande Lisboa,311,2025-06-26T21:19:00Z,25585078,Em conclusão,3103,Incêndio rural,0,0,0,0,2025-06-26T21:19:00Z,Vila Franca De Xira,Lisboa,Área Metropolitana De Lisboa,-9.04044993132408,38.9058857445229
25585129,Bonfim,Area M. Porto,309,2025-06-26T21:36:00Z,25585129,Em resolução,3201,Detritos não confinados,0,4,0,17,2025-06-26T21:36:00Z,Porto,Porto,Norte,-8.590518,41.14697
25583887,Alfaiates,Beiras e Serra da Estrela,310,2025-06-26T16:25:00Z,25583887,Em conclusão,3103,Incêndio rural,0,2,0,10,2025-06-26T16:25:00Z,Sabugal,Guarda,Centro,-6.948192,40.392977
25584002,Ruivães e Novais,Ave,309,2025-06-26T16:56:00Z,25584002,Em conclusão,3103,Incêndio rural,0,1,0,2,2025-06-26T16:56:00Z,Vila Nova De Famalicão,Braga,Norte,-8.427715,41.394348
25584385,"Almada, Cova da Piedade, Pragal e Cacilhas",Península de Setúbal,311,2025-06-26T18:20:00Z,25584385,Em conclusão,3103,Incêndio rural,0,0,0,0,2025-06-26T18:20:00Z,Almada,Setúbal,Área Metropolitana De Lisboa,-9.172622,38.674612
25584255,Seiça,Médio Tejo,311,2025-06-26T17:53:00Z,25584255,Em conclusão,3103,Incêndio rural,0,0,0,0,2025-06-26T17:53:00Z,Ourém,Santarém,Centro,-8.550232,39.653094
25584457,"Messegães, Valadares e Sá",Alto Minho,309,2025-06-26T18:45:00Z,25584457,Em conclusão,3103,Incêndio rural,0,6,0,16,2025-06-26T18:45:00Z,Monção,Viana Do Castelo,Norte,-8.374895,42.075813
25584648,Beja (Salvador e Santa Maria da Feira),Baixo Alentejo,312,2025-06-26T19:31:00Z,25584648,Em conclusão,3103,Incêndio rural,0,0,0,0,2025-06-26T19:31:00Z,Beja,Beja,Alentejo,-7.865752,38.029935
25584916,Aveleda,Area M. Porto,309,2025-06-26T20:45:00Z,25584916,Em conclusão,3105,Incêndio rural,0,2,0,7,2025-06-26T20:45:00Z,Vila Do Conde,Porto,Norte,-8.696453,41.266623
25584984,Charneca de Caparica e Sobreda,Península de Setúbal,311,2025-06-26T21:04:00Z,25584984,Em conclusão,3201,Detritos não confinados,0,5,0,18,2025-06-26T21:04:00Z,Almada,Setúbal,Área Metropolitana De Lisboa,-9.181365,38.661137
25585100,Labruja,Alto Minho,309,2025-06-26T21:10:00Z,25585100,Em resolução,3101,Incêndio rural,0,3,0,8,2025-06-26T21:10:00Z,Ponte De Lima,Viana Do Castelo,Norte,-8.591375,41.835232
25585177,Murça,Douro,309,2025-06-26T21:45:00Z,25585177,Em despacho,2201,Incêndio em equipamentos ou produtos,0,2,0,7,2025-06-26T21:45:00Z,Murça,Vila Real,Norte,-7.463415,41.407036
