id,address,subregion,neighborhood,date,id.1,state,nature,nature_description,aerial_means,terrestrial_means,aquatic_means,operational,date.1,Concelho,Distrito,NUTII_DSG,longitude,latitude,state_2
25749937,Tarouquela,Tâmega e Sousa,309,2025-07-29T04:11:00Z,25749937,Em Curso,3103,Incêndio rural,0,18,0,65,2025-07-29T04:11:00Z,Cinfães,Viseu,Norte,-8.173308,41.072792,Curso
25751046,Castelejo,Beiras e Serra da Estrela,310,2025-07-29T10:13:00Z,25751046,Em Resolução/Conclusão,3103,Incêndio rural,0,5,0,15,2025-07-29T10:13:00Z,Fundão,Castelo Branco,Centro,-7.604291,40.108879,Resolução/Conclusão
25751241,Molelos,Viseu Dão Lafões,310,2025-07-29T10:43:00Z,25751241,Em Resolução/Conclusão,3103,Incêndio rural,0,6,0,21,2025-07-29T10:43:00Z,Tondela,Viseu,Centro,-8.09574,40.551495,Resolução/Conclusão
25751355,"Crato e Mártires, Flor da Rosa e Vale do Peso",Alto Alentejo,312,2025-07-29T10:59:00Z,25751355,Em Resolução/Conclusão,3103,Incêndio rural,0,1,0,4,2025-07-29T10:59:00Z,Crato,Portalegre,Alentejo,-7.641857,39.351982,Resolução/Conclusão
25751893,"Espírito Santo, Nossa Senhora da Graça e São Simão",Alto Alentejo,312,2025-07-29T12:32:00Z,25751893,Em Resolução/Conclusão,3101,Incêndio rural,1,98,0,304,2025-07-29T12:32:00Z,Nisa,Portalegre,Alentejo,-7.634827,39.571162,Resolução/Conclusão
25753170,"Leiria, Pousos, Barreira e Cortes",Região de Leiria,310,2025-07-29T16:36:00Z,25753170,Em Resolução/Conclusão,3101,Incêndio rural,0,3,0,11,2025-07-29T16:36:00Z,Leiria,Leiria,Centro,-8.795755,39.709552,Resolução/Conclusão
25755083,Avelar,Região de Leiria,310,2025-07-30T00:57:00Z,25755083,Em Resolução/Conclusão,3103,Incêndio rural,0,2,0,4,2025-07-30T00:57:00Z,Ansião,Leiria,Centro,-8.341278,39.93576,Resolução/Conclusão
25755317,Oliveira do Douro,Tâmega e Sousa,309,2025-07-30T03:45:00Z,25755317,Em Resolução/Conclusão,3103,Incêndio rural,0,2,0,6,2025-07-30T03:45:00Z,Cinfães,Viseu,Norte,-8.075338,41.08348,Resolução/Conclusão
25755669,Lordelo,Area M. Porto,309,2025-07-30T07:51:00Z,25755669,Em Resolução/Conclusão,3103,Incêndio rural,0,19,0,77,2025-07-30T07:51:00Z,Paredes,Porto,Norte,-8.419573,41.244742,Resolução/Conclusão
25756355,Padreiro (Salvador e Santa Cristina),Alto Minho,309,2025-07-30T10:02:00Z,25756355,Em Resolução/Conclusão,3103,Incêndio rural,0,6,0,23,2025-07-30T10:02:00Z,Arcos De Valdevez,Viana Do Castelo,Norte,-8.492345,41.833095,Resolução/Conclusão
25756932,Samora Correia,Lezíria do Tejo,311,2025-07-30T11:38:00Z,25756932,Em Resolução/Conclusão,3105,Incêndio rural,0,0,0,0,2025-07-30T11:38:00Z,Benavente,Santarém,Alentejo,-8.866387,38.919452,Resolução/Conclusão
25757023,Pedrouços,Area M. Porto,309,2025-07-30T11:56:00Z,25757023,Em Resolução/Conclusão,3103,Incêndio rural,0,4,0,8,2025-07-30T11:56:00Z,Maia,Porto,Norte,-8.59438,41.19943,Resolução/Conclusão
25757400,Campo e Sobrado,Area M. Porto,309,2025-07-30T12:51:00Z,25757400,Em Despacho,3101,Incêndio rural,0,3,0,12,2025-07-30T12:51:00Z,Valongo,Porto,Norte,-8.467145,41.204483,Despacho
25757473,Côja e Barril de Alva,Região de Coimbra,310,2025-07-30T13:25:00Z,25757473,Em Resolução/Conclusão,3101,Incêndio rural,2,15,0,64,2025-07-30T13:25:00Z,Arganil,Coimbra,Centro,-7.97694,40.25889,Resolução/Conclusão
25738747,Lindoso,Alto Minho,309,2025-07-26T21:47:00Z,25738747,Em Curso,3103,Incêndio rural,4,127,0,386,2025-07-26T21:47:00Z,Ponte Da Barca,Viana Do Castelo,Norte,-8.220528,41.865272,Curso
25747773,Aranhas,Beira Baixa,310,2025-07-28T16:36:00Z,25747773,Em Resolução/Conclusão,3103,Incêndio rural,0,114,0,341,2025-07-28T16:36:00Z,Penamacor,Castelo Branco,Centro,-7.14438,40.117542,Resolução/Conclusão
25749611,Sameice e Santa Eulália,Beiras e Serra da Estrela,310,2025-07-29T00:44:00Z,25749611,Em Resolução/Conclusão,3103,Incêndio rural,0,1,0,5,2025-07-29T00:44:00Z,Seia,Guarda,Centro,-7.77621,40.42021,Resolução/Conclusão
25750845,Fornos,Tâmega e Sousa,309,2025-07-29T09:46:00Z,25750845,Em Resolução/Conclusão,3103,Incêndio rural,0,13,0,43,2025-07-29T09:46:00Z,Castelo De Paiva,Aveiro,Norte,-8.247077,41.050502,Resolução/Conclusão
25751999,Pombal,Região de Leiria,310,2025-07-29T12:53:00Z,25751999,Em Resolução/Conclusão,3101,Incêndio rural,0,4,0,9,2025-07-29T12:53:00Z,Pombal,Leiria,Centro,-8.6801,39.93227,Resolução/Conclusão
25752083,Alcanede,Lezíria do Tejo,311,2025-07-29T13:12:00Z,25752083,Em Resolução/Conclusão,3103,Incêndio rural,0,88,0,271,2025-07-29T13:12:00Z,Santarém,Santarém,Alentejo,-8.802682,39.405543,Resolução/Conclusão
25755311,"Bagunte, Ferreiró, Outeiro Maior e Parada",Area M. Porto,309,2025-07-30T03:35:00Z,25755311,Em Resolução/Conclusão,3103,Incêndio rural,0,3,0,9,2025-07-30T03:35:00Z,Vila Do Conde,Porto,Norte,-8.679147,41.35679,Resolução/Conclusão
25755418,"Silvares, Pias, Nogueira e Alvarenga",Tâmega e Sousa,309,2025-07-30T05:16:00Z,25755418,Em Resolução/Conclusão,3103,Incêndio rural,0,6,0,23,2025-07-30T05:16:00Z,Lousada,Porto,Norte,-8.278102,41.301833,Resolução/Conclusão
25755452,Travancas e Roriz,Alto Tâmega e Barroso,309,2025-07-30T06:01:00Z,25755452,Em Resolução/Conclusão,3103,Incêndio rural,0,1,0,5,2025-07-30T06:01:00Z,Chaves,Vila Real,Norte,-7.319995,41.815377,Resolução/Conclusão
25755711,São Jorge e Ermelo,Alto Minho,309,2025-07-30T08:10:00Z,25755711,Em Resolução/Conclusão,3103,Incêndio rural,0,0,0,0,2025-07-30T08:10:00Z,Arcos De Valdevez,Viana Do Castelo,Norte,-8.35823,41.813058,Resolução/Conclusão
25749681,Fornos de Maceira Dão,Viseu Dão Lafões,310,2025-07-29T01:19:00Z,25749681,Em Resolução/Conclusão,3103,Incêndio rural,0,5,0,16,2025-07-29T01:19:00Z,Mangualde,Viseu,Centro,-7.806963,40.617022,Resolução/Conclusão
25750701,Capela,Tâmega e Sousa,309,2025-07-29T09:26:00Z,25750701,Em Curso,3103,Incêndio rural,2,44,0,168,2025-07-29T09:26:00Z,Penafiel,Porto,Norte,-8.345202,41.09353,Curso
25755329,Ansião,Região de Leiria,310,2025-07-30T03:57:00Z,25755329,Em Resolução/Conclusão,3101,Incêndio rural,0,1,0,2,2025-07-30T03:57:00Z,Ansião,Leiria,Centro,-8.413872,39.930002,Resolução/Conclusão
25756818,Beça,Alto Tâmega e Barroso,309,2025-07-30T11:19:00Z,25756818,Em Resolução/Conclusão,3101,Incêndio rural,0,7,0,26,2025-07-30T11:19:00Z,Boticas,Vila Real,Norte,-7.696038,41.690308,Resolução/Conclusão
25757267,Penacova,Região de Coimbra,310,2025-07-30T12:46:00Z,25757267,Em Resolução/Conclusão,3101,Incêndio rural,0,10,0,44,2025-07-30T12:46:00Z,Vila Nova De Poiares,Coimbra,Centro,-8.23722,40.24306,Resolução/Conclusão
25757286,Santa Cruz do Douro e São Tomé de Covelas,Tâmega e Sousa,309,2025-07-30T12:52:00Z,25757286,Em Curso,3103,Incêndio rural,1,4,0,24,2025-07-30T12:52:00Z,Baião,Porto,Norte,-7.971262,41.122462,Curso
25756606,São João de Areias,Viseu Dão Lafões,310,2025-07-30T10:43:00Z,25756606,Em Resolução/Conclusão,3101,Incêndio rural,0,11,0,39,2025-07-30T10:43:00Z,Santa Comba Dão,Viseu,Centro,-8.093252,40.380433,Resolução/Conclusão
25756620,Recarei,Area M. Porto,309,2025-07-30T10:47:00Z,25756620,Em Curso,3103,Incêndio rural,2,37,0,116,2025-07-30T10:47:00Z,Paredes,Porto,Norte,-8.416721,41.151,Curso
25757213,Brinches,Baixo Alentejo,312,2025-07-30T12:32:00Z,25757213,Em Resolução/Conclusão,3103,Incêndio rural,0,0,0,0,2025-07-30T12:32:00Z,Serpa,Beja,Alentejo,-7.566533,38.046602,Resolução/Conclusão
25757408,São Bartolomeu Dos Galegos e Moledo,Oeste,311,2025-07-30T13:17:00Z,25757408,Em Resolução/Conclusão,3105,Incêndio rural,0,7,0,30,2025-07-30T13:17:00Z,Lourinhã,Lisboa,Centro,-9.25493,39.279146,Resolução/Conclusão
25757488,Antime e Silvares (São Clemente),Ave,309,2025-07-30T13:27:00Z,25757488,Em Despacho,3103,Incêndio rural,1,3,0,18,2025-07-30T13:27:00Z,Fafe,Braga,Norte,-8.16342,41.430679,Despacho
25757436,Rego,Tâmega e Sousa,309,2025-07-30T13:21:00Z,25757436,Em Curso,3103,Incêndio rural,1,2,0,15,2025-07-30T13:21:00Z,Celorico De Basto,Braga,Norte,-8.079918,41.437935,Curso
25757570,Rio Tinto,Area M. Porto,309,2025-07-30T13:36:00Z,25757570,Em Despacho,3103,Incêndio rural,0,2,0,7,2025-07-30T13:36:00Z,Gondomar,Porto,Norte,-8.560102,41.179302,Despacho
25748118,Canelas e Espiunca,Area M. Porto,309,2025-07-28T17:16:00Z,25748118,Em Curso,3101,Incêndio rural,7,266,0,781,2025-07-28T17:16:00Z,Arouca,Aveiro,Norte,-8.212231,40.969918,Curso
25749320,Rebordões (Santa Maria),Alto Minho,309,2025-07-28T22:47:00Z,25749320,Em Curso,3103,Incêndio rural,0,53,0,168,2025-07-28T22:47:00Z,Ponte De Lima,Viana Do Castelo,Norte,-8.588365,41.729993,Curso
25749641,Silva Escura e Dornelas,Região de Aveiro,310,2025-07-29T01:02:00Z,25749641,Em Resolução/Conclusão,3101,Incêndio rural,0,32,0,97,2025-07-29T01:02:00Z,Sever Do Vouga,Aveiro,Centro,-8.399623,40.769354,Resolução/Conclusão
25753666,São Cristóvão de Nogueira,Tâmega e Sousa,309,2025-07-29T18:21:00Z,25753666,Em Curso,3103,Incêndio rural,0,7,0,25,2025-07-29T18:21:00Z,Cinfães,Viseu,Norte,-8.134771,41.05519,Curso
25755320,Aguda,Região de Leiria,310,2025-07-30T03:51:00Z,25755320,Em Resolução/Conclusão,3101,Incêndio rural,0,1,0,2,2025-07-30T03:51:00Z,Figueiró Dos Vinhos,Leiria,Centro,-8.325572,39.927893,Resolução/Conclusão
25755571,Maceira,Beiras e Serra da Estrela,310,2025-07-30T07:20:00Z,25755571,Em Resolução/Conclusão,3103,Incêndio rural,0,1,0,5,2025-07-30T07:20:00Z,Fornos De Algodres,Guarda,Centro,-7.475667,40.697278,Resolução/Conclusão
25756006,Pinhanços,Beiras e Serra da Estrela,310,2025-07-30T09:07:00Z,25756006,Em Curso,3103,Incêndio rural,2,59,0,197,2025-07-30T09:07:00Z,Seia,Guarda,Centro,-7.708132,40.473517,Curso
25756459,Santiago de Piães,Tâmega e Sousa,309,2025-07-30T10:20:00Z,25756459,Em Curso,3103,Incêndio rural,0,4,0,22,2025-07-30T10:20:00Z,Cinfães,Viseu,Norte,-8.142972,41.051255,Curso
25756626,Pinelo,Terras de Trás-os-Montes,309,2025-07-30T10:45:00Z,25756626,Em Resolução/Conclusão,3103,Incêndio rural,0,3,0,7,2025-07-30T10:45:00Z,Vimioso,Bragança,Norte,-6.545307,41.675165,Resolução/Conclusão
25757045,Fazendas de Almeirim,Lezíria do Tejo,311,2025-07-30T12:00:00Z,25757045,Em Resolução/Conclusão,3105,Incêndio rural,0,1,0,2,2025-07-30T12:00:00Z,Almeirim,Santarém,Alentejo,-8.597897,39.17923,Resolução/Conclusão
25757361,Algueirão-Mem Martins,Grande Lisboa,311,2025-07-30T13:06:00Z,25757361,Em Curso,3103,Incêndio rural,1,29,0,115,2025-07-30T13:06:00Z,Sintra,Lisboa,Área Metropolitana De Lisboa,-9.353645,38.79424,Curso
25757509,Rio Meão,Area M. Porto,309,2025-07-30T13:32:00Z,25757509,Em Despacho,3103,Incêndio rural,0,2,0,6,2025-07-30T13:32:00Z,Santa Maria Da Feira,Aveiro,Norte,-8.59945,40.94892,Despacho
25757512,"Requeixo, Nossa Senhora de Fátima e Nariz",Região de Aveiro,310,2025-07-30T13:24:00Z,25757512,Em Resolução/Conclusão,3101,Incêndio rural,0,2,0,7,2025-07-30T13:24:00Z,Aveiro,Aveiro,Centro,-8.576009,40.577003,Resolução/Conclusão
25757513,Rio Douro,Ave,309,2025-07-30T13:34:00Z,25757513,Em Resolução/Conclusão,3103,Incêndio rural,1,5,0,27,2025-07-30T13:34:00Z,Cabeceiras De Basto,Braga,Norte,-7.940727,41.557427,Resolução/Conclusão
25757577,Aguiar de Sousa,Area M. Porto,309,2025-07-30T13:49:00Z,25757577,Em Despacho,3103,Incêndio rural,0,0,0,0,2025-07-30T13:49:00Z,Paredes,Porto,Norte,-8.44649,41.12829,Despacho
25757579,Coronado (São Romão e São Mamede),Area M. Porto,309,2025-07-30T13:42:00Z,25757579,Em Despacho,3103,Incêndio rural,1,2,0,11,2025-07-30T13:42:00Z,Trofa,Porto,Norte,-8.574,41.2901,Despacho
