id,address,subregion,neighborhood,date,id.1,state,nature,nature_description,aerial_means,terrestrial_means,aquatic_means,operational,date.1,Concelho,Distrito,NUTII_DSG,longitude,latitude,state_2
26143367,Calvos e Frades,Ave,309,2025-10-16T00:02:00Z,26143367,Em Resolução/Conclusão,3103,Incêndio rural,0,2,0,7,2025-10-16T00:02:00Z,Póvoa De Lanhoso,Braga,Norte,-8.2484,41.612977,Resolução/Conclusão
26142678,Basto (São Clemente),Tâmega e Sousa,309,2025-10-15T20:09:00Z,26142678,Em Resolução/Conclusão,3103,Incêndio rural,0,6,0,21,2025-10-15T20:09:00Z,Celorico De Basto,Braga,Norte,-8.069937,41.46891,Resolução/Conclusão
26143382,Carregosa,Area M. Porto,309,2025-10-15T23:58:00Z,26143382,Em Resolução/Conclusão,3105,Incêndio rural,0,2,0,7,2025-10-15T23:58:00Z,Oliveira De Azeméis,Aveiro,Norte,-8.414865,40.89728,Resolução/Conclusão
26140802,Talhadas,Região de Aveiro,310,2025-10-15T13:42:00Z,26140802,Em Resolução/Conclusão,3101,Incêndio rural,0,1,0,5,2025-10-15T13:42:00Z,Sever Do Vouga,Aveiro,Centro,-8.320335,40.682953,Resolução/Conclusão
26142974,Escariz,Area M. Porto,309,2025-10-15T21:17:00Z,26142974,Em Resolução/Conclusão,3103,Incêndio rural,0,3,0,8,2025-10-15T21:17:00Z,Arouca,Aveiro,Norte,-8.388723,40.941227,Resolução/Conclusão
