id,address,subregion,neighborhood,date,id.1,state,nature,nature_description,aerial_means,terrestrial_means,aquatic_means,operational,date.1,Concelho,Distrito,NUTII_DSG,longitude,latitude
25526121,Maxial e Monte Redondo,Oeste,311,2025-06-14T19:54:00Z,25526121,Em conclusão,3103,Incêndio rural,0,2,0,6,2025-06-14T19:54:00Z,Torres Vedras,Lisboa,Centro,-9.1958,39.12388
25526205,Almeirim,Lezíria do Tejo,311,2025-06-14T20:19:00Z,25526205,Em conclusão,3105,Incêndio rural,0,3,0,9,2025-06-14T20:19:00Z,Almeirim,Santarém,Alentejo,-8.601488,39.20371
25526350,Matosinhos e Leça da Palmeira,Area M. Porto,309,2025-06-14T20:51:00Z,25526350,Em despacho,2101,Incêndio em edifícios habitacionais,0,1,0,4,2025-06-14T20:51:00Z,Matosinhos,Porto,Norte,-8.692583,41.193749
25525879,Ermelo e Pardelhas,Ave,309,2025-06-14T18:47:00Z,25525879,Em resolução,3107,Consolidação de rescaldo de incêndio rural,0,3,0,12,2025-06-14T18:47:00Z,Mondim De Basto,Vila Real,Norte,-7.835478,41.355555
25525906,Lagos (São Sebastião e Santa Maria),Algarve,313,2025-06-14T18:58:00Z,25525906,Em conclusão,3103,Incêndio rural,0,8,0,30,2025-06-14T18:58:00Z,Lagos,Faro,Algarve,-8.677873,37.141095
25526079,Oiã,Região de Aveiro,310,2025-06-14T19:45:00Z,25526079,Em resolução,2101,Incêndio em edifícios habitacionais,0,8,0,24,2025-06-14T19:45:00Z,Oliveira Do Bairro,Aveiro,Centro,-8.52019,40.55014
25526272,"Mealhada, Ventosa do Bairro e Antes",Região de Coimbra,310,2025-06-14T20:32:00Z,25526272,Em conclusão,2301,Incêndio em transporte rodoviário,0,2,0,6,2025-06-14T20:32:00Z,Mealhada,Aveiro,Centro,-8.462136,40.389867
25525049,Beja (Salvador e Santa Maria da Feira),Baixo Alentejo,312,2025-06-14T15:10:00Z,25525049,Em conclusão,3105,Incêndio rural,0,0,0,0,2025-06-14T15:10:00Z,Beja,Beja,Alentejo,-7.860185,38.027045
25525983,Maxial e Monte Redondo,Oeste,311,2025-06-14T19:13:00Z,25525983,Em conclusão,3101,Incêndio rural,0,1,0,2,2025-06-14T19:13:00Z,Torres Vedras,Lisboa,Centro,-9.18331,39.139305
25526186,Rio de Loba,Viseu Dão Lafões,310,2025-06-14T20:04:00Z,25526186,Em conclusão,2101,Incêndio em edifícios habitacionais,0,1,0,4,2025-06-14T20:04:00Z,Viseu,Viseu,Centro,-7.858128,40.637242
25525290,Selmes,Baixo Alentejo,312,2025-06-14T16:14:00Z,25525290,Em resolução,3105,Incêndio rural,0,27,0,69,2025-06-14T16:14:00Z,Vidigueira,Beja,Alentejo,-7.724372,38.135682
25526076,Alverca do Ribatejo e Sobralinho,Grande Lisboa,311,2025-06-14T19:45:00Z,25526076,Em conclusão,2101,Incêndio em edifícios habitacionais,0,3,0,9,2025-06-14T19:45:00Z,Vila Franca De Xira,Lisboa,Área Metropolitana De Lisboa,-9.036827,38.899136
25526260,Maceira,Região de Leiria,310,2025-06-14T20:29:00Z,25526260,Em despacho,2101,Incêndio em edifícios habitacionais,0,1,0,5,2025-06-14T20:29:00Z,Leiria,Leiria,Centro,-8.889652,39.686501
25526293,Fânzeres e São Pedro da Cova,Area M. Porto,309,2025-06-14T20:43:00Z,25526293,Em despacho,3103,Incêndio rural,0,0,0,0,2025-06-14T20:43:00Z,Gondomar,Porto,Norte,-8.54287,41.16852
25526326,Arcozelo,Area M. Porto,309,2025-06-14T20:41:00Z,25526326,Em conclusão,2109,Incêndio em edifícios escolares,0,3,0,13,2025-06-14T20:41:00Z,Vila Nova De Gaia,Porto,Norte,-8.640388,41.056331
