id,address,subregion,neighborhood,date,id.1,state,nature,nature_description,aerial_means,terrestrial_means,aquatic_means,operational,date.1,Concelho,Distrito,NUTII_DSG,longitude,latitude
25591299,Santa Maria do Castelo e Santiago e Santa Susana,Alentejo Litoral,312,2025-06-28T04:22:00Z,25591299,Em resolução,3103,Incêndio rural,0,3,0,8,2025-06-28T04:22:00Z,Alcácer Do Sal,Setúbal,Alentejo,-8.485184,38.299456
25591349,Paçô,Alto Minho,309,2025-06-28T05:36:00Z,25591349,Em curso,2101,Incêndio em edifícios habitacionais,0,2,0,7,2025-06-28T05:36:00Z,Arcos De Valdevez,Viana Do Castelo,Norte,-8.41279,41.82121
25588493,Ribeirão,Ave,309,2025-06-27T14:58:00Z,25588493,Em conclusão,3103,Incêndio rural,0,1,0,5,2025-06-27T14:58:00Z,Vila Nova De Famalicão,Braga,Norte,-8.558043,41.368877
25591293,Padreiro (Salvador e Santa Cristina),Alto Minho,309,2025-06-28T04:43:00Z,25591293,Em conclusão,3103,Incêndio rural,0,2,0,7,2025-06-28T04:43:00Z,Arcos De Valdevez,Viana Do Castelo,Norte,-8.480033,41.807265
25591316,"Querença, Tôr e Benafim",Algarve,313,2025-06-28T05:03:00Z,25591316,Em conclusão,3203,Detritos confinados,0,3,0,9,2025-06-28T05:03:00Z,Loulé,Faro,Algarve,-7.994519,37.199835
25591336,Braga (São José de São Lázaro e São João do Souto),Cávado,309,2025-06-28T05:25:00Z,25591336,Em conclusão,3203,Detritos confinados,0,1,0,6,2025-06-28T05:25:00Z,Braga,Braga,Norte,-8.418955,41.547847
25591359,Labruja,Alto Minho,309,2025-06-28T05:31:00Z,25591359,Em curso,3103,Incêndio rural,0,1,0,5,2025-06-28T05:31:00Z,Ponte De Lima,Viana Do Castelo,Norte,-8.599071,41.842101
