id,address,subregion,neighborhood,date,id.1,state,nature,nature_description,aerial_means,terrestrial_means,aquatic_means,operational,date.1,Concelho,Distrito,NUTII_DSG,longitude,latitude,state_2
26022995,Bordeira,Algarve,313,2025-09-21T12:21:00Z,26022995,Em Resolução/Conclusão,3103,Incêndio rural,0,7,0,22,2025-09-21T12:21:00Z,Aljezur,Faro,Algarve,-8.825374,37.23495,Resolução/Conclusão
26062237,Alpiarça,Lezíria do Tejo,311,2025-09-29T12:37:00Z,26062237,Em Resolução/Conclusão,3103,Incêndio rural,0,5,0,19,2025-09-29T12:37:00Z,Alpiarça,Santarém,Alentejo,-8.586198,39.249863,Resolução/Conclusão
26062806,Ferreira,Tâmega e Sousa,309,2025-09-29T14:20:00Z,26062806,Em Resolução/Conclusão,3103,Incêndio rural,0,5,0,22,2025-09-29T14:20:00Z,Paços De Ferreira,Porto,Norte,-8.356792,41.279773,Resolução/Conclusão
26062858,Lindoso,Alto Minho,309,2025-09-29T14:26:00Z,26062858,Em Curso,3103,Incêndio rural,1,3,0,16,2025-09-29T14:26:00Z,Ponte Da Barca,Viana Do Castelo,Norte,-8.202552,41.841879,Curso
26050704,Tortosendo,Beiras e Serra da Estrela,310,2025-09-26T23:04:00Z,26050704,Em Resolução/Conclusão,3103,Incêndio rural,0,1,0,4,2025-09-26T23:04:00Z,Covilhã,Castelo Branco,Centro,-7.521592,40.251592,Resolução/Conclusão
26061940,Teixeira e Teixeiró,Tâmega e Sousa,309,2025-09-29T11:42:00Z,26061940,Em Resolução/Conclusão,3105,Incêndio rural,0,1,0,2,2025-09-29T11:42:00Z,Baião,Porto,Norte,-7.913885,41.178228,Resolução/Conclusão
26062608,Bombarral e Vale Covo,Oeste,311,2025-09-29T13:49:00Z,26062608,Em Resolução/Conclusão,3103,Incêndio rural,0,6,0,21,2025-09-29T13:49:00Z,Bombarral,Leiria,Centro,-9.18571,39.235688,Resolução/Conclusão
25951176,Sandomil,Beiras e Serra da Estrela,310,2025-09-06T10:29:00Z,25951176,Em Resolução/Conclusão,3103,Incêndio rural,0,2,0,10,2025-09-06T10:29:00Z,Seia,Guarda,Centro,-7.76001,40.351547,Resolução/Conclusão
26060607,Gouveia (São Pedro e São Julião),Beiras e Serra da Estrela,310,2025-09-29T07:40:00Z,26060607,Em Resolução/Conclusão,3103,Incêndio rural,0,2,0,6,2025-09-29T07:40:00Z,Gouveia,Guarda,Centro,-7.59114,40.490052,Resolução/Conclusão
26062598,Vila de Prado,Cávado,309,2025-09-29T13:48:00Z,26062598,Em Resolução/Conclusão,3111,Queima,0,1,0,5,2025-09-29T13:48:00Z,Vila Verde,Braga,Norte,-8.46857,41.60779,Resolução/Conclusão
