id,address,subregion,neighborhood,date,id.1,state,nature,nature_description,aerial_means,terrestrial_means,aquatic_means,operational,date.1,Concelho,Distrito,NUTII_DSG,longitude,latitude,state_2
26013065,Mezio e Moura Morta,Viseu Dão Lafões,310,2025-09-19T11:05:00Z,26013065,Em Resolução/Conclusão,3103,Incêndio rural,0,5,0,15,2025-09-19T11:05:00Z,Castro Daire,Viseu,Centro,-7.878187,40.98632,Resolução/Conclusão
26013919,Ervedal e Vila Franca da Beira,Região de Coimbra,310,2025-09-19T13:25:00Z,26013919,Em Resolução/Conclusão,3101,Incêndio rural,0,4,0,17,2025-09-19T13:25:00Z,Oliveira Do Hospital,Coimbra,Centro,-7.90472,40.43917,Resolução/Conclusão
26028091,Pelmá,Região de Leiria,310,2025-09-22T13:35:00Z,26028091,Em Resolução/Conclusão,3103,Incêndio rural,0,1,0,2,2025-09-22T13:35:00Z,Alvaiázere,Leiria,Centro,-8.455905,39.771273,Resolução/Conclusão
26031908,Arcozelo Das Maias,Viseu Dão Lafões,310,2025-09-23T10:21:00Z,26031908,Em Resolução/Conclusão,3103,Incêndio rural,0,7,0,25,2025-09-23T10:21:00Z,Oliveira De Frades,Viseu,Centro,-8.27871,40.723646,Resolução/Conclusão
26036629,Ameixial (Santa Vitória e São Bento),Alentejo Central,312,2025-09-24T09:37:00Z,26036629,Em Resolução/Conclusão,3103,Incêndio rural,0,3,0,5,2025-09-24T09:37:00Z,Estremoz,Évora,Alentejo,-7.746217,38.88276,Resolução/Conclusão
26037590,Prados,Beiras e Serra da Estrela,310,2025-09-24T12:18:00Z,26037590,Em Resolução/Conclusão,3103,Incêndio rural,0,7,0,30,2025-09-24T12:18:00Z,Celorico Da Beira,Guarda,Centro,-7.378742,40.574498,Resolução/Conclusão
26038001,Argoncilhe,Area M. Porto,309,2025-09-24T13:41:00Z,26038001,Em Resolução/Conclusão,3103,Incêndio rural,1,5,0,27,2025-09-24T13:41:00Z,Santa Maria Da Feira,Aveiro,Norte,-8.52791,41.02336,Resolução/Conclusão
26038010,Tabuado,Tâmega e Sousa,309,2025-09-24T13:42:00Z,26038010,Em Resolução/Conclusão,3103,Incêndio rural,1,5,0,28,2025-09-24T13:42:00Z,Marco De Canaveses,Porto,Norte,-8.11883,41.186576,Resolução/Conclusão
25951176,Sandomil,Beiras e Serra da Estrela,310,2025-09-06T10:29:00Z,25951176,Em Resolução/Conclusão,3103,Incêndio rural,0,2,0,10,2025-09-06T10:29:00Z,Seia,Guarda,Centro,-7.76001,40.351547,Resolução/Conclusão
26024276,Monte Redondo e Carreira,Região de Leiria,310,2025-09-21T17:24:00Z,26024276,Em Resolução/Conclusão,3105,Incêndio rural,0,1,0,2,2025-09-21T17:24:00Z,Leiria,Leiria,Centro,-8.786287,39.874758,Resolução/Conclusão
26024592,Monte Redondo e Carreira,Região de Leiria,310,2025-09-21T18:44:00Z,26024592,Em Resolução/Conclusão,3105,Incêndio rural,0,1,0,2,2025-09-21T18:44:00Z,Leiria,Leiria,Centro,-8.85119,39.877718,Resolução/Conclusão
26027819,Santo André,Alto Tâmega e Barroso,309,2025-09-22T12:42:00Z,26027819,Em Resolução/Conclusão,3103,Incêndio rural,0,9,0,31,2025-09-22T12:42:00Z,Montalegre,Vila Real,Norte,-7.688477,41.868948,Resolução/Conclusão
26035925,Pelmá,Região de Leiria,310,2025-09-24T06:05:00Z,26035925,Em Resolução/Conclusão,3103,Incêndio rural,0,11,0,30,2025-09-24T06:05:00Z,Alvaiázere,Leiria,Centro,-8.431617,39.797163,Resolução/Conclusão
26037914,Lousado,Ave,309,2025-09-24T13:22:00Z,26037914,Em Resolução/Conclusão,3103,Incêndio rural,1,3,0,17,2025-09-24T13:22:00Z,Vila Nova De Famalicão,Braga,Norte,-8.53225,41.352678,Resolução/Conclusão
26037964,Campanhó e Paradança,Ave,309,2025-09-24T13:34:00Z,26037964,Em Resolução/Conclusão,3103,Incêndio rural,0,4,0,20,2025-09-24T13:34:00Z,Mondim De Basto,Vila Real,Norte,-7.934488,41.349928,Resolução/Conclusão
25832672,Piódão,Região de Coimbra,310,2025-08-13T05:08:00Z,25832672,Em Resolução/Conclusão,3103,Incêndio rural,0,0,0,0,2025-08-13T05:08:00Z,Arganil,Coimbra,Centro,-7.81972,40.23083,Resolução/Conclusão
26013902,Penacova,Região de Coimbra,310,2025-09-19T13:28:00Z,26013902,Em Resolução/Conclusão,3103,Incêndio rural,0,1,0,4,2025-09-19T13:28:00Z,Penacova,Coimbra,Centro,-8.32583,40.32722,Resolução/Conclusão
26036646,Rio de Loba,Viseu Dão Lafões,310,2025-09-24T09:39:00Z,26036646,Em Resolução/Conclusão,3101,Incêndio rural,0,3,0,9,2025-09-24T09:39:00Z,Viseu,Viseu,Centro,-7.87843,40.652965,Resolução/Conclusão
26036723,Lordelo,Area M. Porto,309,2025-09-24T09:50:00Z,26036723,Em Resolução/Conclusão,3103,Incêndio rural,0,4,0,17,2025-09-24T09:50:00Z,Paredes,Porto,Norte,-8.422737,41.239614,Resolução/Conclusão
26037389,Sande e São Lourenço,Tâmega e Sousa,309,2025-09-24T11:40:00Z,26037389,Em Curso,3103,Incêndio rural,2,9,0,32,2025-09-24T11:40:00Z,Marco De Canaveses,Porto,Norte,-8.172043,41.112067,Curso
26037741,São Pedro e Santa Maria e Vila Boa do Mondego,Beiras e Serra da Estrela,310,2025-09-24T12:51:00Z,26037741,Em Resolução/Conclusão,3103,Incêndio rural,0,7,0,23,2025-09-24T12:51:00Z,Celorico Da Beira,Guarda,Centro,-7.409708,40.629298,Resolução/Conclusão
26037950,Cardigos,Médio Tejo,311,2025-09-24T13:32:00Z,26037950,Em Resolução/Conclusão,3105,Incêndio rural,0,1,0,3,2025-09-24T13:32:00Z,Mação,Santarém,Centro,-8.021182,39.696125,Resolução/Conclusão
26038086,Telões,Alto Tâmega e Barroso,309,2025-09-24T13:54:00Z,26038086,Em Curso,3103,Incêndio rural,1,5,0,27,2025-09-24T13:54:00Z,Vila Pouca De Aguiar,Vila Real,Norte,-7.692462,41.464418,Curso
26038162,Estremoz (Santa Maria e Santo André),Alentejo Central,312,2025-09-24T14:05:00Z,26038162,Em Resolução/Conclusão,3103,Incêndio rural,0,2,0,7,2025-09-24T14:05:00Z,Estremoz,Évora,Alentejo,-7.582455,38.852225,Resolução/Conclusão
26038231,Queimada,Douro,309,2025-09-24T14:18:00Z,26038231,Em Despacho,3103,Incêndio rural,1,1,0,11,2025-09-24T14:18:00Z,Armamar,Viseu,Norte,-7.746276,41.098589,Despacho
26013405,Barreiros e Cepões,Viseu Dão Lafões,310,2025-09-19T11:56:00Z,26013405,Em Resolução/Conclusão,3103,Incêndio rural,0,3,0,14,2025-09-19T11:56:00Z,Viseu,Viseu,Centro,-7.786007,40.76602,Resolução/Conclusão
26022995,Bordeira,Algarve,313,2025-09-21T12:21:00Z,26022995,Em Resolução/Conclusão,3103,Incêndio rural,8,245,0,787,2025-09-21T12:21:00Z,Aljezur,Faro,Algarve,-8.825374,37.23495,Resolução/Conclusão
26037420,São João Baptista,Alto Alentejo,312,2025-09-24T11:40:00Z,26037420,Em Resolução/Conclusão,3105,Incêndio rural,0,11,0,32,2025-09-24T11:40:00Z,Campo Maior,Portalegre,Alentejo,-7.073807,39.007882,Resolução/Conclusão
26037436,São Martinho Das Amoreiras,Alentejo Litoral,312,2025-09-24T11:48:00Z,26037436,Em Resolução/Conclusão,3105,Incêndio rural,0,6,0,17,2025-09-24T11:48:00Z,Odemira,Beja,Alentejo,-8.381502,37.677497,Resolução/Conclusão
26037772,São Bento,Região de Leiria,310,2025-09-24T12:57:00Z,26037772,Em Resolução/Conclusão,3105,Incêndio rural,0,5,0,16,2025-09-24T12:57:00Z,Porto De Mós,Leiria,Centro,-8.739025,39.488718,Resolução/Conclusão
26037954,Sendim e Atenor,Terras de Trás-os-Montes,309,2025-09-24T13:32:00Z,26037954,Em Curso,3103,Incêndio rural,2,14,0,63,2025-09-24T13:32:00Z,Miranda Do Douro,Bragança,Norte,-6.414328,41.371475,Curso
26038161,"Sandim, Olival, Lever e Crestuma",Area M. Porto,309,2025-09-24T14:01:00Z,26038161,Em Despacho,3103,Incêndio rural,0,2,0,8,2025-09-24T14:01:00Z,Vila Nova De Gaia,Porto,Norte,-8.502382,41.048753,Despacho
