id,address,subregion,neighborhood,date,id.1,state,nature,nature_description,aerial_means,terrestrial_means,aquatic_means,operational,date.1,Concelho,Distrito,NUTII_DSG,longitude,latitude
24874564,"Sé, Santa Maria e Meixedo",Terras de Trás-os-Montes,309,2025-01-26T21:55:00Z,24874564,Em curso,3315,Inundação de estruturas por precipitação intensa,0,1,0,2,2025-01-26T21:55:00Z,Bragança,Bragança,Norte,-6.761223,41.813164
24876200,Ceira,Região de Coimbra,310,2025-01-27T09:56:00Z,24876200,Em despacho,3315,Inundação de estruturas por precipitação intensa,0,1,0,2,2025-01-27T09:56:00Z,Coimbra,Coimbra,Centro,-8.376144,40.175952
24876893,"Sé, Santa Maria e Meixedo",Terras de Trás-os-Montes,309,2025-01-27T11:22:00Z,24876893,Em curso,3315,Inundação de estruturas por precipitação intensa,0,1,0,1,2025-01-27T11:22:00Z,Bragança,Bragança,Norte,-6.761223,41.813164
24880237,Paranhos,Area M. Porto,309,2025-01-27T23:20:00Z,24880237,Em despacho,3301,Queda de árvore,0,1,0,5,2025-01-27T23:20:00Z,Porto,Porto,Norte,-8.582842,41.17862
24880444,Santo António da Charneca,Península de Setúbal,311,2025-01-28T01:25:00Z,24880444,Em despacho,3315,Inundação de estruturas por precipitação intensa,0,1,0,5,2025-01-28T01:25:00Z,Barreiro,Setúbal,Área Metropolitana De Lisboa,-9.029919,38.624451
24880348,Santa Joana,Região de Aveiro,310,2025-01-28T00:21:00Z,24880348,Em despacho,3301,Queda de árvore,0,1,0,3,2025-01-28T00:21:00Z,Aveiro,Aveiro,Centro,-8.62031,40.637378
24880365,São João Das Lampas e Terrugem,Grande Lisboa,311,2025-01-28T00:26:00Z,24880365,Em conclusão,3301,Queda de árvore,0,3,0,8,2025-01-28T00:26:00Z,Sintra,Lisboa,Área Metropolitana De Lisboa,-9.394403,38.872548
24851780,"São Miguel, Santa Eufémia e Rabaçal",Região de Coimbra,310,2025-01-21T23:25:00Z,24851780,Em curso,3315,Inundação de estruturas por precipitação intensa,0,0,0,0,2025-01-21T23:25:00Z,Penela,Coimbra,Centro,-8.399036,40.025502
24880255,Covas e Vila Nova de Oliveirinha,Região de Coimbra,310,2025-01-27T23:25:00Z,24880255,Em despacho,3301,Queda de árvore,0,1,0,3,2025-01-27T23:25:00Z,Tábua,Coimbra,Centro,-7.918972,40.324608
24877003,Malagueira e Horta Das Figueiras,Alentejo Central,312,2025-01-27T11:41:00Z,24877003,Em conclusão,3315,Inundação de estruturas por precipitação intensa,0,1,0,2,2025-01-27T11:41:00Z,Évora,Évora,Alentejo,-7.924277,38.57285
