id,address,subregion,neighborhood,date,id.1,state,nature,nature_description,aerial_means,terrestrial_means,aquatic_means,operational,date.1,Concelho,Distrito,NUTII_DSG,longitude,latitude
25493327,Garvão e Santa Luzia,Baixo Alentejo,312,2025-06-07T23:02:00Z,25493327,Em curso,3103,Incêndio rural,0,12,0,34,2025-06-07T23:02:00Z,Ourique,Beja,Alentejo,-8.394679,37.74535
25493298,Atouguia da Baleia,Oeste,311,2025-06-07T22:49:00Z,25493298,Em resolução,3105,Incêndio rural,0,2,0,8,2025-06-07T22:49:00Z,Peniche,Leiria,Centro,-9.348873,39.340312
25491602,Torre de Moncorvo,Douro,309,2025-06-07T15:40:00Z,25491602,Em conclusão,3103,Incêndio rural,0,1,0,5,2025-06-07T15:40:00Z,Torre De Moncorvo,Bragança,Norte,-7.096635,41.162693
25492983,Nogueira da Montanha,Alto Tâmega e Barroso,309,2025-06-07T21:18:00Z,25492983,Em conclusão,2101,Incêndio em edifícios habitacionais,0,1,0,5,2025-06-07T21:18:00Z,Chaves,Vila Real,Norte,-7.431127,41.666317
25492068,Charneca de Caparica e Sobreda,Península de Setúbal,311,2025-06-07T17:21:00Z,25492068,Em conclusão,3103,Incêndio rural,0,10,0,26,2025-06-07T17:21:00Z,Almada,Setúbal,Área Metropolitana De Lisboa,-9.19733,38.584712
25493102,Faro (Sé e São Pedro),Algarve,313,2025-06-07T21:44:00Z,25493102,Em conclusão,3201,Detritos não confinados,0,3,0,6,2025-06-07T21:44:00Z,Faro,Faro,Algarve,-7.942032,37.01865
25493321,Rio de Mouro,Grande Lisboa,311,2025-06-07T22:58:00Z,25493321,Em conclusão,3203,Detritos confinados,0,1,0,6,2025-06-07T22:58:00Z,Sintra,Lisboa,Área Metropolitana De Lisboa,-9.351328,38.75814
