id,address,subregion,neighborhood,date,id.1,state,nature,nature_description,aerial_means,terrestrial_means,aquatic_means,operational,date.1,Concelho,Distrito,NUTII_DSG,longitude,latitude
25203434,Corujeira e Trinta,Beiras e Serra da Estrela,310,2025-04-06T14:35:00Z,25203434,Em despacho,3301,Queda de árvore,0,1,0,3,2025-04-06T14:35:00Z,Guarda,Guarda,Centro,-7.354633,40.501967
25113184,Castanheira do Ribatejo e Cachoeiras,Grande Lisboa,311,2025-03-20T01:20:00Z,25113184,Em despacho,3301,Queda de árvore,0,0,0,0,2025-03-20T01:20:00Z,Vila Franca De Xira,Lisboa,Área Metropolitana De Lisboa,-8.979234,38.999552
25070044,Praia do Ribatejo,Médio Tejo,311,2025-03-10T19:30:00Z,25070044,Em curso,1101,Cheia,0,0,0,0,2025-03-10T19:30:00Z,Vila Nova Da Barquinha,Santarém,Centro,-8.357309,39.485638
25071496,São Manços e São Vicente do Pigeiro,Alentejo Central,312,2025-03-11T13:18:00Z,25071496,Em conclusão,1101,Cheia,0,0,0,0,2025-03-11T13:18:00Z,Évora,Évora,Alentejo,-7.713313,38.513673
25137544,Dois Portos e Runa,Oeste,311,2025-03-23T13:41:00Z,25137544,Em conclusão,3313,Deslizamento de terras,0,0,0,0,2025-03-23T13:41:00Z,Torres Vedras,Lisboa,Centro,-9.178343,39.036686
25068300,Almeirim,Lezíria do Tejo,311,2025-03-10T20:52:00Z,25068300,Em curso,1101,Cheia,0,0,0,0,2025-03-10T20:52:00Z,Almeirim,Santarém,Alentejo,-8.635002,39.187436
25203304,Salvaterra de Magos e Foros de Salvaterra,Lezíria do Tejo,311,2025-04-06T14:17:00Z,25203304,Em resolução,3315,Inundação de estruturas por precipitação intensa,0,2,0,8,2025-04-06T14:17:00Z,Salvaterra De Magos,Santarém,Alentejo,-8.671027,38.979532
25203397,"Coruche, Fajarda e Erra",Lezíria do Tejo,311,2025-04-06T14:40:00Z,25203397,Em despacho,3315,Inundação de estruturas por precipitação intensa,0,1,0,2,2025-04-06T14:40:00Z,Coruche,Santarém,Alentejo,-8.531156,38.965014
