id,address,subregion,neighborhood,date,id.1,state,nature,nature_description,aerial_means,terrestrial_means,aquatic_means,operational,date.1,Concelho,Distrito,NUTII_DSG,longitude,latitude
25539427,"Guia, Ilha e Mata Mourisca",Região de Leiria,310,2025-06-17T15:07:00Z,25539427,Em conclusão,3101,Incêndio rural,0,3,0,12,2025-06-17T15:07:00Z,Pombal,Leiria,Centro,-8.875093,39.958584
25543569,"Ponte de Sor, Tramaga e Vale de Açor",Alto Alentejo,312,2025-06-18T12:08:00Z,25543569,Em conclusão,3105,Incêndio rural,0,2,0,3,2025-06-18T12:08:00Z,Ponte De Sor,Portalegre,Alentejo,-8.043567,39.223365
25543996,Moreira,Area M. Porto,309,2025-06-18T13:33:00Z,25543996,Em conclusão,2127,"Incêndio em edifícios e recintos industriais, oficinas e armazéns",0,2,0,6,2025-06-18T13:33:00Z,Maia,Porto,Norte,-8.65106,41.228172
25544262,Esporões,Cávado,309,2025-06-18T14:22:00Z,25544262,Em conclusão,3103,Incêndio rural,0,2,0,7,2025-06-18T14:22:00Z,Braga,Braga,Norte,-8.412721,41.510724
25539765,Adeganha e Cardanha,Douro,309,2025-06-17T16:15:00Z,25539765,Em conclusão,3103,Incêndio rural,0,22,0,69,2025-06-17T16:15:00Z,Torre De Moncorvo,Bragança,Norte,-7.078435,41.281168
25542640,Ermelo e Pardelhas,Ave,309,2025-06-18T09:26:00Z,25542640,Em resolução,3107,Consolidação de rescaldo de incêndio rural,0,1,0,5,2025-06-18T09:26:00Z,Mondim De Basto,Vila Real,Norte,-7.837513,41.35855
25544311,Malagueira e Horta Das Figueiras,Alentejo Central,312,2025-06-18T14:27:00Z,25544311,Em conclusão,2301,Incêndio em transporte rodoviário,0,0,0,0,2025-06-18T14:27:00Z,Évora,Évora,Alentejo,-7.89842,38.558833
25544378,Penela da Beira,Douro,309,2025-06-18T14:37:00Z,25544378,Em resolução,3103,Incêndio rural,0,6,0,19,2025-06-18T14:37:00Z,Penedono,Viseu,Norte,-7.424025,41.037475
25544444,Rio Meão,Area M. Porto,309,2025-06-18T14:27:00Z,25544444,Em conclusão,3201,Detritos não confinados,0,1,0,5,2025-06-18T14:27:00Z,Santa Maria Da Feira,Aveiro,Norte,-8.586854,40.956066
25544459,Modivas,Area M. Porto,309,2025-06-18T14:44:00Z,25544459,Em despacho,2127,"Incêndio em edifícios e recintos industriais, oficinas e armazéns",0,1,0,5,2025-06-18T14:44:00Z,Vila Do Conde,Porto,Norte,-8.688294,41.295083
25544135,Toulões,Beira Baixa,310,2025-06-18T13:59:00Z,25544135,Em resolução,3103,Incêndio rural,3,17,0,61,2025-06-18T13:59:00Z,Idanha-a-Nova,Castelo Branco,Centro,-7.056978,39.904387
25544401,Escalos de Baixo e Mata,Beira Baixa,310,2025-06-18T14:38:00Z,25544401,Em conclusão,2301,Incêndio em transporte rodoviário,0,1,0,5,2025-06-18T14:38:00Z,Castelo Branco,Castelo Branco,Centro,-7.445313,39.870252
25544403,Ervões,Alto Tâmega e Barroso,309,2025-06-18T14:41:00Z,25544403,Em curso,3103,Incêndio rural,1,8,0,33,2025-06-18T14:41:00Z,Valpaços,Vila Real,Norte,-7.327417,41.63664
25544470,Eiras e São Paulo de Frades,Região de Coimbra,310,2025-06-18T14:54:00Z,25544470,Em conclusão,2101,Incêndio em edifícios habitacionais,0,2,0,6,2025-06-18T14:54:00Z,Coimbra,Coimbra,Centro,-8.434711,40.22123
25544602,Canelas e Fermelã,Região de Aveiro,310,2025-06-18T15:20:00Z,25544602,Em resolução,3101,Incêndio rural,1,3,0,21,2025-06-18T15:20:00Z,Estarreja,Aveiro,Centro,-8.539415,40.697017
25544621,Santo António Dos Olivais,Região de Coimbra,310,2025-06-18T15:20:00Z,25544621,Em resolução,2201,Incêndio em equipamentos ou produtos,0,2,0,11,2025-06-18T15:20:00Z,Coimbra,Coimbra,Centro,-8.403315,40.218219
25539267,Lomba,Area M. Porto,309,2025-06-17T14:37:00Z,25539267,Em conclusão,3101,Incêndio rural,0,6,0,23,2025-06-17T14:37:00Z,Gondomar,Porto,Norte,-8.404698,41.035962
25539742,Serpa (Salvador e Santa Maria),Baixo Alentejo,312,2025-06-17T16:12:00Z,25539742,Em conclusão,3105,Incêndio rural,0,0,0,1,2025-06-17T16:12:00Z,Serpa,Beja,Alentejo,-7.563295,37.92675
25544070,Bustelo,Tâmega e Sousa,309,2025-06-18T13:49:00Z,25544070,Em conclusão,3103,Incêndio rural,0,2,0,10,2025-06-18T13:49:00Z,Penafiel,Porto,Norte,-8.26763,41.231447
25544263,Pedroso e Seixezelo,Area M. Porto,309,2025-06-18T14:15:00Z,25544263,Em resolução,3107,Consolidação de rescaldo de incêndio rural,0,2,0,10,2025-06-18T14:15:00Z,Vila Nova De Gaia,Porto,Norte,-8.55785,41.06333
25544397,Alfena,Area M. Porto,309,2025-06-18T14:43:00Z,25544397,Em curso,3103,Incêndio rural,1,4,0,23,2025-06-18T14:43:00Z,Valongo,Porto,Norte,-8.52307,41.247133
25544515,Marinha Grande,Região de Leiria,310,2025-06-18T15:00:00Z,25544515,Em resolução,2101,Incêndio em edifícios habitacionais,0,4,0,10,2025-06-18T15:00:00Z,Marinha Grande,Leiria,Centro,-8.902773,39.762
25544590,Benquerenças,Beira Baixa,310,2025-06-18T15:17:00Z,25544590,Em curso,3103,Incêndio rural,2,13,0,60,2025-06-18T15:17:00Z,Castelo Branco,Castelo Branco,Centro,-7.592233,39.833623
25544674,Almeirim,Lezíria do Tejo,311,2025-06-18T15:30:00Z,25544674,Em curso,2301,Incêndio em transporte rodoviário,0,3,0,8,2025-06-18T15:30:00Z,Almeirim,Santarém,Alentejo,-8.588832,39.142251
25544687,Lagoa e Carvoeiro,Algarve,313,2025-06-18T15:33:00Z,25544687,Em despacho,3103,Incêndio rural,0,3,0,15,2025-06-18T15:33:00Z,Lagoa,Faro,Algarve,-8.452628,37.121089
25544560,Melres e Medas,Area M. Porto,309,2025-06-18T15:03:00Z,25544560,Em conclusão,3103,Incêndio rural,0,1,0,3,2025-06-18T15:03:00Z,Gondomar,Porto,Norte,-8.39181,41.05516
25544627,Paranhos,Beiras e Serra da Estrela,310,2025-06-18T15:24:00Z,25544627,Em curso,3103,Incêndio rural,1,11,0,49,2025-06-18T15:24:00Z,Seia,Guarda,Centro,-7.821697,40.497293
25544663,Matas e Cercal,Médio Tejo,311,2025-06-18T15:30:00Z,25544663,Em despacho,3101,Incêndio rural,2,7,0,41,2025-06-18T15:30:00Z,Ourém,Santarém,Centro,-8.657846,39.733577
