id,address,subregion,neighborhood,date,id.1,state,nature,nature_description,aerial_means,terrestrial_means,aquatic_means,operational,date.1,Concelho,Distrito,NUTII_DSG,longitude,latitude,state_2
26106612,São Gens,Ave,309,2025-10-08T14:10:00Z,26106612,Em Resolução/Conclusão,3101,Incêndio rural,0,5,0,18,2025-10-08T14:10:00Z,Fafe,Braga,Norte,-8.10069,41.427873,Resolução/Conclusão
26107032,"Lobão, Gião, Louredo e Guisande",Area M. Porto,309,2025-10-08T15:37:00Z,26107032,Em Resolução/Conclusão,3103,Incêndio rural,0,3,0,11,2025-10-08T15:37:00Z,Santa Maria Da Feira,Aveiro,Norte,-8.4588,40.98085,Resolução/Conclusão
26107205,Poceirão e Marateca,Península de Setúbal,311,2025-10-08T16:18:00Z,26107205,Em Resolução/Conclusão,3105,Incêndio rural,0,5,0,16,2025-10-08T16:18:00Z,Palmela,Setúbal,Área Metropolitana De Lisboa,-8.785355,38.565972,Resolução/Conclusão
26106068,Santa Marinha do Zêzere,Tâmega e Sousa,309,2025-10-08T12:07:00Z,26106068,Em Resolução/Conclusão,3103,Incêndio rural,0,1,0,5,2025-10-08T12:07:00Z,Baião,Porto,Norte,-7.945993,41.155528,Resolução/Conclusão
26106783,Nogueira da Montanha,Alto Tâmega e Barroso,309,2025-10-08T14:43:00Z,26106783,Em Resolução/Conclusão,3103,Incêndio rural,0,4,0,14,2025-10-08T14:43:00Z,Chaves,Vila Real,Norte,-7.448237,41.678545,Resolução/Conclusão
26107103,Ermesinde,Area M. Porto,309,2025-10-08T15:53:00Z,26107103,Em Resolução/Conclusão,3103,Incêndio rural,0,1,0,5,2025-10-08T15:53:00Z,Valongo,Porto,Norte,-8.529807,41.208518,Resolução/Conclusão
26107301,Sanguedo,Area M. Porto,309,2025-10-08T16:43:00Z,26107301,Em Despacho,3103,Incêndio rural,0,2,0,6,2025-10-08T16:43:00Z,Santa Maria Da Feira,Aveiro,Norte,-8.527672,41.00901,Despacho
26093991,Santa Comba,Beiras e Serra da Estrela,310,2025-10-06T01:09:00Z,26093991,Em Resolução/Conclusão,3101,Incêndio rural,0,3,0,9,2025-10-06T01:09:00Z,Seia,Guarda,Centro,-7.745905,40.442718,Resolução/Conclusão
26106441,Pedrógão,Baixo Alentejo,312,2025-10-08T13:36:00Z,26106441,Em Resolução/Conclusão,3105,Incêndio rural,0,0,0,0,2025-10-08T13:36:00Z,Vidigueira,Beja,Alentejo,-7.644212,38.120097,Resolução/Conclusão
26106843,Viade de Baixo e Fervidelas,Alto Tâmega e Barroso,309,2025-10-08T14:56:00Z,26106843,Em Curso,3103,Incêndio rural,1,9,0,40,2025-10-08T14:56:00Z,Montalegre,Vila Real,Norte,-7.828502,41.766327,Curso
26106911,Escalos de Baixo e Mata,Beira Baixa,310,2025-10-08T15:11:00Z,26106911,Em Resolução/Conclusão,3105,Incêndio rural,0,4,0,11,2025-10-08T15:11:00Z,Castelo Branco,Castelo Branco,Centro,-7.36049,39.868105,Resolução/Conclusão
26107195,Azoia de Cima e Tremês,Lezíria do Tejo,311,2025-10-08T16:17:00Z,26107195,Em Resolução/Conclusão,3105,Incêndio rural,1,9,0,41,2025-10-08T16:17:00Z,Santarém,Santarém,Alentejo,-8.738207,39.32553,Resolução/Conclusão
26107196,Costa da Caparica,Península de Setúbal,311,2025-10-08T16:14:00Z,26107196,Em Resolução/Conclusão,3103,Incêndio rural,0,4,0,20,2025-10-08T16:14:00Z,Almada,Setúbal,Área Metropolitana De Lisboa,-9.2477,38.65742,Resolução/Conclusão
26093602,Castro Daire,Viseu Dão Lafões,310,2025-10-05T22:05:00Z,26093602,Em Resolução/Conclusão,3103,Incêndio rural,0,1,0,5,2025-10-05T22:05:00Z,Castro Daire,Viseu,Centro,-7.9408,40.925289,Resolução/Conclusão
26106822,Paus,Tâmega e Sousa,309,2025-10-08T14:53:00Z,26106822,Em Resolução/Conclusão,3103,Incêndio rural,0,2,0,10,2025-10-08T14:53:00Z,Resende,Viseu,Norte,-7.918959,41.072025,Resolução/Conclusão
26107267,Vassal,Alto Tâmega e Barroso,309,2025-10-08T16:36:00Z,26107267,Em Curso,3103,Incêndio rural,1,5,0,24,2025-10-08T16:36:00Z,Valpaços,Vila Real,Norte,-7.353088,41.632633,Curso
26107294,Alquerubim,Região de Aveiro,310,2025-10-08T16:41:00Z,26107294,Em Resolução/Conclusão,3103,Incêndio rural,1,5,0,24,2025-10-08T16:41:00Z,Albergaria-a-Velha,Aveiro,Centro,-8.51585,40.61909,Resolução/Conclusão
