id,address,subregion,neighborhood,date,id.1,state,nature,nature_description,aerial_means,terrestrial_means,aquatic_means,operational,date.1,Concelho,Distrito,NUTII_DSG,longitude,latitude,state_2
26092509,Meixedo e Padornelos,Alto Tâmega e Barroso,309,2025-10-05T17:02:00Z,26092509,Em Despacho,3103,Incêndio rural,1,2,0,16,2025-10-05T17:02:00Z,Montalegre,Vila Real,Norte,-7.7518,41.86056,Despacho
26092566,Folgosa,Area M. Porto,309,2025-10-05T17:14:00Z,26092566,Em Despacho,3103,Incêndio rural,0,0,0,0,2025-10-05T17:14:00Z,Maia,Porto,Norte,-8.52932,41.27361,Despacho
26092172,São João da Ribeira e Ribeira de São João,Lezíria do Tejo,311,2025-10-05T15:36:00Z,26092172,Em Resolução/Conclusão,3103,Incêndio rural,0,7,0,21,2025-10-05T15:36:00Z,Rio Maior,Santarém,Alentejo,-8.859135,39.288798,Resolução/Conclusão
26092242,Sesimbra (Castelo),Península de Setúbal,311,2025-10-05T15:51:00Z,26092242,Em Resolução/Conclusão,3103,Incêndio rural,0,3,0,9,2025-10-05T15:51:00Z,Sesimbra,Setúbal,Área Metropolitana De Lisboa,-9.102162,38.48242,Resolução/Conclusão
26092349,São João Baptista,Alto Alentejo,312,2025-10-05T16:09:00Z,26092349,Em Resolução/Conclusão,3105,Incêndio rural,0,4,0,14,2025-10-05T16:09:00Z,Campo Maior,Portalegre,Alentejo,-7.094067,38.998867,Resolução/Conclusão
26092458,Mouriscas,Médio Tejo,311,2025-10-05T16:49:00Z,26092458,Em Resolução/Conclusão,3103,Incêndio rural,1,9,0,39,2025-10-05T16:49:00Z,Abrantes,Santarém,Centro,-8.093428,39.504367,Resolução/Conclusão
26092453,Telões,Alto Tâmega e Barroso,309,2025-10-05T16:46:00Z,26092453,Em Resolução/Conclusão,3103,Incêndio rural,0,3,0,12,2025-10-05T16:46:00Z,Vila Pouca De Aguiar,Vila Real,Norte,-7.67948,41.426785,Resolução/Conclusão
26092345,"Freixianda, Ribeira do Fárrio e Formigais",Médio Tejo,311,2025-10-05T16:18:00Z,26092345,Em Resolução/Conclusão,3105,Incêndio rural,0,4,0,13,2025-10-05T16:18:00Z,Ourém,Santarém,Centro,-8.452857,39.713988,Resolução/Conclusão
26092427,Alvites,Terras de Trás-os-Montes,309,2025-10-05T16:39:00Z,26092427,Em Curso,3103,Incêndio rural,1,8,0,32,2025-10-05T16:39:00Z,Mirandela,Bragança,Norte,-7.044288,41.552485,Curso
