id,address,subregion,neighborhood,date,id.1,state,nature,nature_description,aerial_means,terrestrial_means,aquatic_means,operational,date.1,Concelho,Distrito,NUTII_DSG,longitude,latitude,state_2
25749937,Tarouquela,Tâmega e Sousa,309,2025-07-29T04:11:00Z,25749937,Em Curso,3103,Incêndio rural,0,33,0,103,2025-07-29T04:11:00Z,Cinfães,Viseu,Norte,-8.173308,41.072792,Curso
25751241,Molelos,Viseu Dão Lafões,310,2025-07-29T10:43:00Z,25751241,Em Resolução/Conclusão,3103,Incêndio rural,0,1,0,5,2025-07-29T10:43:00Z,Tondela,Viseu,Centro,-8.09574,40.551495,Resolução/Conclusão
25751893,"Espírito Santo, Nossa Senhora da Graça e São Simão",Alto Alentejo,312,2025-07-29T12:32:00Z,25751893,Em Resolução/Conclusão,3101,Incêndio rural,0,19,0,53,2025-07-29T12:32:00Z,Nisa,Portalegre,Alentejo,-7.634827,39.571162,Resolução/Conclusão
25753170,"Leiria, Pousos, Barreira e Cortes",Região de Leiria,310,2025-07-29T16:36:00Z,25753170,Em Resolução/Conclusão,3101,Incêndio rural,0,1,0,2,2025-07-29T16:36:00Z,Leiria,Leiria,Centro,-8.795755,39.709552,Resolução/Conclusão
25755669,Lordelo,Area M. Porto,309,2025-07-30T07:51:00Z,25755669,Em Resolução/Conclusão,3103,Incêndio rural,0,0,0,0,2025-07-30T07:51:00Z,Paredes,Porto,Norte,-8.419573,41.244742,Resolução/Conclusão
25757766,Calde,Viseu Dão Lafões,310,2025-07-30T14:19:00Z,25757766,Em Resolução/Conclusão,3101,Incêndio rural,0,1,0,2,2025-07-30T14:19:00Z,Viseu,Viseu,Centro,-7.898995,40.758803,Resolução/Conclusão
25758986,São João de Areias,Viseu Dão Lafões,310,2025-07-30T18:19:00Z,25758986,Em Resolução/Conclusão,3103,Incêndio rural,0,1,0,5,2025-07-30T18:19:00Z,Santa Comba Dão,Viseu,Centro,-8.068341,40.390527,Resolução/Conclusão
25759068,Valadares,Viseu Dão Lafões,310,2025-07-30T18:37:00Z,25759068,Em Resolução/Conclusão,3105,Incêndio rural,0,1,0,4,2025-07-30T18:37:00Z,São Pedro Do Sul,Viseu,Centro,-8.203518,40.75472,Resolução/Conclusão
25760776,Castelo Branco,Beira Baixa,310,2025-07-31T06:05:00Z,25760776,Em Resolução/Conclusão,3103,Incêndio rural,0,1,0,5,2025-07-31T06:05:00Z,Castelo Branco,Castelo Branco,Centro,-7.426803,39.827243,Resolução/Conclusão
25760806,Sande e São Lourenço,Tâmega e Sousa,309,2025-07-31T06:27:00Z,25760806,Em Resolução/Conclusão,3103,Incêndio rural,0,14,0,43,2025-07-31T06:27:00Z,Marco De Canaveses,Porto,Norte,-8.149102,41.12836,Resolução/Conclusão
25761419,Estorãos,Ave,309,2025-07-31T09:18:00Z,25761419,Em Resolução/Conclusão,3103,Incêndio rural,0,2,0,5,2025-07-31T09:18:00Z,Fafe,Braga,Norte,-8.138278,41.48263,Resolução/Conclusão
25761996,Ninho do Açor e Sobral do Campo,Beira Baixa,310,2025-07-31T10:54:00Z,25761996,Em Resolução/Conclusão,3101,Incêndio rural,1,53,0,162,2025-07-31T10:54:00Z,Castelo Branco,Castelo Branco,Centro,-7.588895,39.990642,Resolução/Conclusão
25762528,Sobrado e Bairros,Tâmega e Sousa,309,2025-07-31T12:30:00Z,25762528,Em Resolução/Conclusão,3103,Incêndio rural,0,6,0,21,2025-07-31T12:30:00Z,Castelo De Paiva,Aveiro,Norte,-8.236423,41.032515,Resolução/Conclusão
25762812,Eiras e Mei,Alto Minho,309,2025-07-31T13:20:00Z,25762812,Em Curso,3103,Incêndio rural,1,7,0,27,2025-07-31T13:20:00Z,Arcos De Valdevez,Viana Do Castelo,Norte,-8.48304,41.923035,Curso
25762828,Chafé,Alto Minho,309,2025-07-31T13:23:00Z,25762828,Em Resolução/Conclusão,3103,Incêndio rural,0,2,0,10,2025-07-31T13:23:00Z,Viana Do Castelo,Viana Do Castelo,Norte,-8.795362,41.655432,Resolução/Conclusão
25762914,Oliveirinha,Região de Aveiro,310,2025-07-31T13:41:00Z,25762914,Em Resolução/Conclusão,3101,Incêndio rural,0,15,0,52,2025-07-31T13:41:00Z,Aveiro,Aveiro,Centro,-8.583247,40.593848,Resolução/Conclusão
25763314,Barreiro e Lavradio,Península de Setúbal,311,2025-07-31T14:43:00Z,25763314,Em Despacho,3103,Incêndio rural,0,1,0,5,2025-07-31T14:43:00Z,Barreiro,Setúbal,Área Metropolitana De Lisboa,-9.060271,38.662949,Despacho
25749681,Fornos de Maceira Dão,Viseu Dão Lafões,310,2025-07-29T01:19:00Z,25749681,Em Resolução/Conclusão,3103,Incêndio rural,0,2,0,8,2025-07-29T01:19:00Z,Mangualde,Viseu,Centro,-7.806963,40.617022,Resolução/Conclusão
25750701,Capela,Tâmega e Sousa,309,2025-07-29T09:26:00Z,25750701,Em Curso,3103,Incêndio rural,2,56,0,199,2025-07-29T09:26:00Z,Penafiel,Porto,Norte,-8.345202,41.09353,Curso
25757286,Santa Cruz do Douro e São Tomé de Covelas,Tâmega e Sousa,309,2025-07-30T12:52:00Z,25757286,Em Resolução/Conclusão,3103,Incêndio rural,0,6,0,20,2025-07-30T12:52:00Z,Baião,Porto,Norte,-7.971262,41.122462,Resolução/Conclusão
25757971,Ninho do Açor e Sobral do Campo,Beira Baixa,310,2025-07-30T14:54:00Z,25757971,Em Resolução/Conclusão,3101,Incêndio rural,0,1,0,3,2025-07-30T14:54:00Z,Castelo Branco,Castelo Branco,Centro,-7.569988,39.996368,Resolução/Conclusão
25762097,Odivelas,Baixo Alentejo,312,2025-07-31T11:08:00Z,25762097,Em Resolução/Conclusão,3105,Incêndio rural,0,2,0,3,2025-07-31T11:08:00Z,Ferreira Do Alentejo,Beja,Alentejo,-8.153908,38.163538,Resolução/Conclusão
25762852,São Miguel de Machede,Alentejo Central,312,2025-07-31T13:28:00Z,25762852,Em Resolução/Conclusão,3105,Incêndio rural,0,6,0,14,2025-07-31T13:28:00Z,Évora,Évora,Alentejo,-7.730827,38.652308,Resolução/Conclusão
25762916,Cota,Viseu Dão Lafões,310,2025-07-31T13:40:00Z,25762916,Em Resolução/Conclusão,3103,Incêndio rural,4,29,0,123,2025-07-31T13:40:00Z,Viseu,Viseu,Centro,-7.801223,40.780375,Resolução/Conclusão
25762918,"Bagunte, Ferreiró, Outeiro Maior e Parada",Area M. Porto,309,2025-07-31T13:42:00Z,25762918,Em Resolução/Conclusão,3103,Incêndio rural,0,1,0,3,2025-07-31T13:42:00Z,Vila Do Conde,Porto,Norte,-8.678245,41.357862,Resolução/Conclusão
25763119,Oliveira do Douro,Tâmega e Sousa,309,2025-07-31T14:27:00Z,25763119,Em Despacho,3103,Incêndio rural,1,2,0,16,2025-07-31T14:27:00Z,Cinfães,Viseu,Norte,-8.067568,41.08547,Despacho
25763136,Lordelo,Area M. Porto,309,2025-07-31T14:20:00Z,25763136,Em Curso,3103,Incêndio rural,1,1,0,11,2025-07-31T14:20:00Z,Paredes,Porto,Norte,-8.422737,41.239614,Curso
25763200,Vilar de Andorinho,Area M. Porto,309,2025-07-31T14:32:00Z,25763200,Em Resolução/Conclusão,3103,Incêndio rural,0,2,0,7,2025-07-31T14:32:00Z,Vila Nova De Gaia,Porto,Norte,-8.584166,41.10072,Resolução/Conclusão
25763286,Moure,Cávado,309,2025-07-31T14:47:00Z,25763286,Em Despacho,3105,Incêndio rural,0,2,0,5,2025-07-31T14:47:00Z,Barcelos,Braga,Norte,-8.54786,41.5029,Despacho
25763319,Cantanhede e Pocariça,Região de Coimbra,310,2025-07-31T14:52:00Z,25763319,Em Despacho,3103,Incêndio rural,1,6,0,26,2025-07-31T14:52:00Z,Cantanhede,Coimbra,Centro,-8.630782,40.318325,Despacho
25738747,Lindoso,Alto Minho,309,2025-07-26T21:47:00Z,25738747,Em Curso,3103,Incêndio rural,7,183,0,579,2025-07-26T21:47:00Z,Ponte Da Barca,Viana Do Castelo,Norte,-8.220528,41.865272,Curso
25741169,Cota,Viseu Dão Lafões,310,2025-07-27T11:54:00Z,25741169,Em Resolução/Conclusão,3101,Incêndio rural,0,1,0,4,2025-07-27T11:54:00Z,Viseu,Viseu,Centro,-7.815572,40.816505,Resolução/Conclusão
25747773,Aranhas,Beira Baixa,310,2025-07-28T16:36:00Z,25747773,Em Resolução/Conclusão,3103,Incêndio rural,0,44,0,143,2025-07-28T16:36:00Z,Penamacor,Castelo Branco,Centro,-7.14438,40.117542,Resolução/Conclusão
25750845,Fornos,Tâmega e Sousa,309,2025-07-29T09:46:00Z,25750845,Em Resolução/Conclusão,3103,Incêndio rural,0,3,0,5,2025-07-29T09:46:00Z,Castelo De Paiva,Aveiro,Norte,-8.247077,41.050502,Resolução/Conclusão
25751999,Pombal,Região de Leiria,310,2025-07-29T12:53:00Z,25751999,Em Resolução/Conclusão,3101,Incêndio rural,0,1,0,2,2025-07-29T12:53:00Z,Pombal,Leiria,Centro,-8.6801,39.93227,Resolução/Conclusão
25752083,Alcanede,Lezíria do Tejo,311,2025-07-29T13:12:00Z,25752083,Em Resolução/Conclusão,3103,Incêndio rural,0,21,0,69,2025-07-29T13:12:00Z,Santarém,Santarém,Alentejo,-8.802682,39.405543,Resolução/Conclusão
25756620,Recarei,Area M. Porto,309,2025-07-30T10:47:00Z,25756620,Em Resolução/Conclusão,3103,Incêndio rural,0,37,0,109,2025-07-30T10:47:00Z,Paredes,Porto,Norte,-8.416721,41.151,Resolução/Conclusão
25760825,São Gens,Ave,309,2025-07-31T06:44:00Z,25760825,Em Resolução/Conclusão,3103,Incêndio rural,0,11,0,39,2025-07-31T06:44:00Z,Fafe,Braga,Norte,-8.123767,41.443243,Resolução/Conclusão
25748118,Canelas e Espiunca,Area M. Porto,309,2025-07-28T17:16:00Z,25748118,Em Curso,3101,Incêndio rural,4,214,0,578,2025-07-28T17:16:00Z,Arouca,Aveiro,Norte,-8.212231,40.969918,Curso
25749320,Rebordões (Santa Maria),Alto Minho,309,2025-07-28T22:47:00Z,25749320,Em Resolução/Conclusão,3103,Incêndio rural,0,35,0,110,2025-07-28T22:47:00Z,Ponte De Lima,Viana Do Castelo,Norte,-8.588365,41.729993,Resolução/Conclusão
25749641,Silva Escura e Dornelas,Região de Aveiro,310,2025-07-29T01:02:00Z,25749641,Em Resolução/Conclusão,3101,Incêndio rural,0,16,0,53,2025-07-29T01:02:00Z,Sever Do Vouga,Aveiro,Centro,-8.399623,40.769354,Resolução/Conclusão
25753666,São Cristóvão de Nogueira,Tâmega e Sousa,309,2025-07-29T18:21:00Z,25753666,Em Resolução/Conclusão,3103,Incêndio rural,0,1,0,5,2025-07-29T18:21:00Z,Cinfães,Viseu,Norte,-8.134771,41.05519,Resolução/Conclusão
25756006,Pinhanços,Beiras e Serra da Estrela,310,2025-07-30T09:07:00Z,25756006,Em Resolução/Conclusão,3103,Incêndio rural,0,18,0,56,2025-07-30T09:07:00Z,Seia,Guarda,Centro,-7.708132,40.473517,Resolução/Conclusão
25756459,Nespereira,Tâmega e Sousa,309,2025-07-30T10:20:00Z,25756459,Em Resolução/Conclusão,3103,Incêndio rural,0,7,0,34,2025-07-30T10:20:00Z,Cinfães,Viseu,Norte,-8.130378,41.039695,Resolução/Conclusão
25759350,São Vicente de Lafões,Viseu Dão Lafões,310,2025-07-30T19:44:00Z,25759350,Em Resolução/Conclusão,3103,Incêndio rural,0,1,0,4,2025-07-30T19:44:00Z,Oliveira De Frades,Viseu,Centro,-8.171112,40.704042,Resolução/Conclusão
25760635,Belinho e Mar,Cávado,309,2025-07-31T03:55:00Z,25760635,Em Resolução/Conclusão,3103,Incêndio rural,0,7,0,21,2025-07-31T03:55:00Z,Esposende,Braga,Norte,-8.780248,41.593495,Resolução/Conclusão
25761154,Aguiar de Sousa,Area M. Porto,309,2025-07-31T08:29:00Z,25761154,Em Resolução/Conclusão,3103,Incêndio rural,0,2,0,7,2025-07-31T08:29:00Z,Paredes,Porto,Norte,-8.45765,41.13321,Resolução/Conclusão
25762461,Celeirós,Douro,309,2025-07-31T12:12:00Z,25762461,Em Resolução/Conclusão,3103,Incêndio rural,0,3,0,12,2025-07-31T12:12:00Z,Sabrosa,Vila Real,Norte,-7.549862,41.240428,Resolução/Conclusão
25763004,"Perafita, Lavra e Santa Cruz do Bispo",Area M. Porto,309,2025-07-31T13:58:00Z,25763004,Em Curso,3103,Incêndio rural,0,3,0,11,2025-07-31T13:58:00Z,Matosinhos,Porto,Norte,-8.703372,41.24096,Curso
25763304,Mozelos,Area M. Porto,309,2025-07-31T14:43:00Z,25763304,Em Resolução/Conclusão,3101,Incêndio rural,0,1,0,5,2025-07-31T14:43:00Z,Santa Maria Da Feira,Aveiro,Norte,-8.545778,40.996553,Resolução/Conclusão
25763315,Fragosela,Viseu Dão Lafões,310,2025-07-31T14:52:00Z,25763315,Em Curso,3103,Incêndio rural,0,1,0,1,2025-07-31T14:52:00Z,Viseu,Viseu,Centro,-7.851403,40.63074,Curso
25762272,Aguiar de Sousa,Area M. Porto,309,2025-07-31T11:38:00Z,25762272,Em Resolução/Conclusão,3103,Incêndio rural,0,1,0,5,2025-07-31T11:38:00Z,Paredes,Porto,Norte,-8.415372,41.129501,Resolução/Conclusão
25762358,Monte Córdova,Area M. Porto,309,2025-07-31T11:40:00Z,25762358,Em Resolução/Conclusão,3103,Incêndio rural,0,0,0,0,2025-07-31T11:40:00Z,Santo Tirso,Porto,Norte,-8.410513,41.317855,Resolução/Conclusão
25762740,Grijó e Sermonde,Area M. Porto,309,2025-07-31T13:09:00Z,25762740,Em Resolução/Conclusão,3103,Incêndio rural,0,11,0,36,2025-07-31T13:09:00Z,Vila Nova De Gaia,Porto,Norte,-8.558228,41.016907,Resolução/Conclusão
25763059,Campo e Sobrado,Area M. Porto,309,2025-07-31T14:07:00Z,25763059,Em Resolução/Conclusão,3103,Incêndio rural,0,4,0,13,2025-07-31T14:07:00Z,Valongo,Porto,Norte,-8.467145,41.204483,Resolução/Conclusão
25763142,São Cristóvão de Nogueira,Tâmega e Sousa,309,2025-07-31T14:10:00Z,25763142,Em Resolução/Conclusão,3103,Incêndio rural,0,1,0,5,2025-07-31T14:10:00Z,Cinfães,Viseu,Norte,-8.108343,41.085102,Resolução/Conclusão
25763243,Pontinha e Famões,Grande Lisboa,311,2025-07-31T14:39:00Z,25763243,Em Despacho,3103,Incêndio rural,0,3,0,15,2025-07-31T14:39:00Z,Odivelas,Lisboa,Área Metropolitana De Lisboa,-9.207891,38.80455,Despacho
25763309,Árvore,Area M. Porto,309,2025-07-31T14:51:00Z,25763309,Em Despacho,3103,Incêndio rural,0,0,0,0,2025-07-31T14:51:00Z,Vila Do Conde,Porto,Norte,-8.72465,41.34186,Despacho
