id,address,subregion,neighborhood,date,id.1,state,nature,nature_description,aerial_means,terrestrial_means,aquatic_means,operational,date.1,Concelho,Distrito,NUTII_DSG,longitude,latitude,state_2
25832672,Piódão,Região de Coimbra,310,2025-08-13T05:08:00Z,25832672,Em Resolução/Conclusão,3103,Incêndio rural,0,14,0,41,2025-08-13T05:08:00Z,Arganil,Coimbra,Centro,-7.81972,40.23083,Resolução/Conclusão
25840417,Lousã e Vilarinho,Região de Coimbra,310,2025-08-14T13:46:00Z,25840417,Em Resolução/Conclusão,3101,Incêndio rural,0,1,0,4,2025-08-14T13:46:00Z,Lousã,Coimbra,Centro,-8.201561,40.080016,Resolução/Conclusão
25965184,Pousaflores,Região de Leiria,310,2025-09-09T11:20:00Z,25965184,Em Resolução/Conclusão,3105,Incêndio rural,0,4,0,14,2025-09-09T11:20:00Z,Ansião,Leiria,Centro,-8.448902,39.873517,Resolução/Conclusão
25965486,Vila Cova da Lixa e Borba de Godim,Tâmega e Sousa,309,2025-09-09T12:19:00Z,25965486,Em Resolução/Conclusão,3105,Incêndio rural,0,1,0,5,2025-09-09T12:19:00Z,Felgueiras,Porto,Norte,-8.14251,41.322982,Resolução/Conclusão
25951176,Sandomil,Beiras e Serra da Estrela,310,2025-09-06T10:29:00Z,25951176,Em Resolução/Conclusão,3103,Incêndio rural,0,17,0,59,2025-09-06T10:29:00Z,Seia,Guarda,Centro,-7.76001,40.351547,Resolução/Conclusão
25961053,Santo António de Monforte,Alto Tâmega e Barroso,309,2025-09-08T13:20:00Z,25961053,Em Resolução/Conclusão,3103,Incêndio rural,2,63,0,185,2025-09-08T13:20:00Z,Chaves,Vila Real,Norte,-7.339083,41.787585,Resolução/Conclusão
25962908,Vale da Porca,Terras de Trás-os-Montes,309,2025-09-08T20:13:00Z,25962908,Em Resolução/Conclusão,3103,Incêndio rural,0,9,0,24,2025-09-08T20:13:00Z,Macedo De Cavaleiros,Bragança,Norte,-6.873435,41.529718,Resolução/Conclusão
25965365,Calde,Viseu Dão Lafões,310,2025-09-09T11:58:00Z,25965365,Em Resolução/Conclusão,3105,Incêndio rural,0,7,0,21,2025-09-09T11:58:00Z,Viseu,Viseu,Centro,-7.937277,40.771948,Resolução/Conclusão
25952858,Figueira de Castelo Rodrigo,Beiras e Serra da Estrela,310,2025-09-06T16:22:00Z,25952858,Em Resolução/Conclusão,3103,Incêndio rural,0,4,0,17,2025-09-06T16:22:00Z,Figueira De Castelo Rodrigo,Guarda,Centro,-6.934648,40.906778,Resolução/Conclusão
25965410,Atouguia da Baleia,Oeste,311,2025-09-09T12:02:00Z,25965410,Em Resolução/Conclusão,3111,Queima,0,2,0,7,2025-09-09T12:02:00Z,Peniche,Leiria,Centro,-9.311368,39.302417,Resolução/Conclusão
