id,address,subregion,neighborhood,date,id.1,state,nature,nature_description,aerial_means,terrestrial_means,aquatic_means,operational,date.1,Concelho,Distrito,NUTII_DSG,longitude,latitude
25051479,Azambuja,Lezíria do Tejo,311,2025-03-07T08:33:00Z,25051479,Em despacho,3301,Queda de árvore,0,3,0,5,2025-03-07T08:33:00Z,Azambuja,Lisboa,Alentejo,-8.864506,39.067885
25052561,Aljezur,Algarve,313,2025-03-07T11:40:00Z,25052561,Em despacho,3301,Queda de árvore,0,1,0,3,2025-03-07T11:40:00Z,Aljezur,Faro,Algarve,-8.8494,37.313973
25052238,Canidelo,Area M. Porto,309,2025-03-07T10:35:00Z,25052238,Em despacho,3311,Queda de elementos de estruturas edificados,0,1,0,3,2025-03-07T10:35:00Z,Vila Nova De Gaia,Porto,Norte,-8.643973,41.123309
25052352,Portela,Alto Minho,309,2025-03-07T11:10:00Z,25052352,Em despacho,3301,Queda de árvore,0,1,0,2,2025-03-07T11:10:00Z,Monção,Viana Do Castelo,Norte,-8.49168,41.98714
25052355,Azeitão (São Lourenço e São Simão),Península de Setúbal,311,2025-03-07T11:07:00Z,25052355,Em despacho,3301,Queda de árvore,0,1,0,5,2025-03-07T11:07:00Z,Setúbal,Setúbal,Área Metropolitana De Lisboa,-9.04265,38.541479
25052436,Lorvão,Região de Coimbra,310,2025-03-07T11:25:00Z,25052436,Em despacho,3301,Queda de árvore,0,1,0,2,2025-03-07T11:25:00Z,Penacova,Coimbra,Centro,-8.328179,40.235482
25052556,Charneca de Caparica e Sobreda,Península de Setúbal,311,2025-03-07T11:31:00Z,25052556,Em despacho,3329,Queda de estruturas temporárias ou móveis,0,1,0,6,2025-03-07T11:31:00Z,Almada,Setúbal,Área Metropolitana De Lisboa,-9.206824,38.629265
