id,address,subregion,neighborhood,date,id.1,state,nature,nature_description,aerial_means,terrestrial_means,aquatic_means,operational,date.1,Concelho,Distrito,NUTII_DSG,longitude,latitude
25508203,Ermelo e Pardelhas,Ave,309,2025-06-11T07:30:00Z,25508203,Em conclusão,3103,Incêndio rural,0,1,0,5,2025-06-11T07:30:00Z,Mondim De Basto,Vila Real,Norte,-7.842792,41.3582
25512331,Santo Agostinho e São João Baptista e Santo Amador,Baixo Alentejo,312,2025-06-11T21:15:00Z,25512331,Em conclusão,2301,Incêndio em transporte rodoviário,0,4,0,14,2025-06-11T21:15:00Z,Moura,Beja,Alentejo,-7.306262,38.121333
25512418,Fajozes,Area M. Porto,309,2025-06-11T21:49:00Z,25512418,Em conclusão,3103,Incêndio rural,0,1,0,5,2025-06-11T21:49:00Z,Vila Do Conde,Porto,Norte,-8.694427,41.33607
25512509,Abação e Gémeos,Ave,309,2025-06-11T22:26:00Z,25512509,Em despacho,3103,Incêndio rural,0,3,0,16,2025-06-11T22:26:00Z,Guimarães,Braga,Norte,-8.264293,41.409164
25512534,Canidelo,Area M. Porto,309,2025-06-11T22:31:00Z,25512534,Em despacho,3103,Incêndio rural,0,1,0,5,2025-06-11T22:31:00Z,Vila Nova De Gaia,Porto,Norte,-8.636884,41.130544
