id,address,subregion,neighborhood,date,id.1,state,nature,nature_description,aerial_means,terrestrial_means,aquatic_means,operational,date.1,Concelho,Distrito,NUTII_DSG,longitude,latitude
25453848,Sesimbra (Castelo),Península de Setúbal,311,2025-05-30T23:24:00Z,25453848,Em despacho,3321,Dano na rede de fornecimento de eletricidade ,0,1,0,4,2025-05-30T23:24:00Z,Sesimbra,Setúbal,Área Metropolitana De Lisboa,-9.110167,38.445447
25453172,Santa Eulália,Ave,309,2025-05-30T20:29:00Z,25453172,Em conclusão,3321,Dano na rede de fornecimento de eletricidade ,0,2,0,3,2025-05-30T20:29:00Z,Vizela,Braga,Norte,-8.30994,41.35081
25071496,São Manços e São Vicente do Pigeiro,Alentejo Central,312,2025-03-11T13:18:00Z,25071496,Em conclusão,1101,Cheia,0,0,0,0,2025-03-11T13:18:00Z,Évora,Évora,Alentejo,-7.713313,38.513673
25453711,"Oeiras e S. Julião da Barra, Paço de Arcos e Caxias",Grande Lisboa,311,2025-05-30T22:39:00Z,25453711,Em despacho,3317,Inundação de estruturas por água canalizada,0,1,0,4,2025-05-30T22:39:00Z,Oeiras,Lisboa,Área Metropolitana De Lisboa,-9.310159,38.698531
25453828,Agualva e Mira-Sintra,Grande Lisboa,311,2025-05-30T23:20:00Z,25453828,Em conclusão,3309,Desabamento de estruturas edificadas,0,1,0,5,2025-05-30T23:20:00Z,Sintra,Lisboa,Área Metropolitana De Lisboa,-9.294104,38.769933
