id,address,subregion,neighborhood,date,id.1,state,nature,nature_description,aerial_means,terrestrial_means,aquatic_means,operational,date.1,Concelho,Distrito,NUTII_DSG,longitude,latitude
25490197,Carregal do Sal,Viseu Dão Lafões,310,2025-06-07T10:15:00Z,25490197,Em conclusão,2127,"Incêndio em edifícios e recintos industriais, oficinas e armazéns",0,3,0,9,2025-06-07T10:15:00Z,Carregal Do Sal,Viseu,Centro,-8.02401,40.421237
25490136,Vale do Paraíso,Lezíria do Tejo,311,2025-06-07T10:01:00Z,25490136,Em resolução,3203,Detritos confinados,0,4,0,14,2025-06-07T10:01:00Z,Azambuja,Lisboa,Alentejo,-8.893342,39.109998
25490137,Monsanto e Idanha-a-Velha,Beira Baixa,310,2025-06-07T10:01:00Z,25490137,Em despacho,3107,Consolidação de rescaldo de incêndio rural,0,1,0,5,2025-06-07T10:01:00Z,Idanha-a-Nova,Castelo Branco,Centro,-7.11847,40.036689
25490154,"Oeiras e S. Julião da Barra, Paço de Arcos e Caxias",Grande Lisboa,311,2025-06-07T10:07:00Z,25490154,Em conclusão,2301,Incêndio em transporte rodoviário,0,1,0,5,2025-06-07T10:07:00Z,Oeiras,Lisboa,Área Metropolitana De Lisboa,-9.285919,38.70529
25490176,"Santa Iria de Azoia, São João da Talha e Bobadela",Grande Lisboa,311,2025-06-07T10:11:00Z,25490176,Em conclusão,3105,Incêndio rural,0,1,0,5,2025-06-07T10:11:00Z,Loures,Lisboa,Área Metropolitana De Lisboa,-9.093532,38.82329
25490181,Covas,Alto Minho,309,2025-06-07T10:05:00Z,25490181,Em curso,3109,Gestão de combustível,0,3,0,14,2025-06-07T10:05:00Z,Vila Nova De Cerveira,Viana Do Castelo,Norte,-8.692105,41.901722
25489816,Pelmá,Região de Leiria,310,2025-06-07T08:59:00Z,25489816,Em curso,2301,Incêndio em transporte rodoviário,0,2,0,7,2025-06-07T08:59:00Z,Alvaiázere,Leiria,Centro,-8.42965,39.791265
25490243,Mesão Frio (Santo André),Douro,309,2025-06-07T10:22:00Z,25490243,Em resolução,2101,Incêndio em edifícios habitacionais,0,4,0,11,2025-06-07T10:22:00Z,Mesão Frio,Vila Real,Norte,-7.886501,41.161103
