id,address,subregion,neighborhood,date,id.1,state,nature,nature_description,aerial_means,terrestrial_means,aquatic_means,operational,date.1,Concelho,Distrito,NUTII_DSG,longitude,latitude,state_2
25773830,Andrães,Douro,309,2025-08-02T14:23:00Z,25773830,Em Resolução/Conclusão,3103,Incêndio rural,0,16,0,59,2025-08-02T14:23:00Z,Vila Real,Vila Real,Norte,-7.671293,41.267593,Resolução/Conclusão
25774883,Arnóia,Tâmega e Sousa,309,2025-08-02T18:20:00Z,25774883,Em Resolução/Conclusão,3103,Incêndio rural,0,9,0,36,2025-08-02T18:20:00Z,Celorico De Basto,Braga,Norte,-7.998983,41.348727,Resolução/Conclusão
25794472,Boelhe,Tâmega e Sousa,309,2025-08-06T09:45:00Z,25794472,Em Resolução/Conclusão,3103,Incêndio rural,0,2,0,7,2025-08-06T09:45:00Z,Penafiel,Porto,Norte,-8.251117,41.129577,Resolução/Conclusão
25800855,Conceição e Cabanas de Tavira,Algarve,313,2025-08-07T11:25:00Z,25800855,Em Resolução/Conclusão,3103,Incêndio rural,0,0,0,0,2025-08-07T11:25:00Z,Tavira,Faro,Algarve,-7.641522,37.163985,Resolução/Conclusão
25738747,Lindoso,Alto Minho,309,2025-07-26T21:47:00Z,25738747,Em Resolução/Conclusão,3103,Incêndio rural,0,13,0,43,2025-07-26T21:47:00Z,Ponte Da Barca,Viana Do Castelo,Norte,-8.220528,41.865272,Resolução/Conclusão
25775263,Torgueda,Douro,309,2025-08-02T19:49:00Z,25775263,Em Resolução/Conclusão,3101,Incêndio rural,0,7,0,19,2025-08-02T19:49:00Z,Vila Real,Vila Real,Norte,-7.785983,41.274952,Resolução/Conclusão
25785466,Caçarilhe e Infesta,Tâmega e Sousa,309,2025-08-04T16:48:00Z,25785466,Em Resolução/Conclusão,3103,Incêndio rural,0,1,0,19,2025-08-04T16:48:00Z,Celorico De Basto,Braga,Norte,-8.035342,41.42903,Resolução/Conclusão
25793572,Real,Tâmega e Sousa,309,2025-08-06T04:31:00Z,25793572,Em Resolução/Conclusão,3103,Incêndio rural,0,1,0,5,2025-08-06T04:31:00Z,Castelo De Paiva,Aveiro,Norte,-8.293568,40.988583,Resolução/Conclusão
25796239,Eiras e Mei,Alto Minho,309,2025-08-06T14:18:00Z,25796239,Em Resolução/Conclusão,3103,Incêndio rural,0,1,0,5,2025-08-06T14:18:00Z,Arcos De Valdevez,Viana Do Castelo,Norte,-8.480352,41.924652,Resolução/Conclusão
25800301,Alvão,Alto Tâmega e Barroso,309,2025-08-07T10:03:00Z,25800301,Em Curso,3101,Incêndio rural,7,43,0,153,2025-08-07T10:03:00Z,Vila Pouca De Aguiar,Vila Real,Norte,-7.74157,41.466742000000004,Curso
25800667,Rio Frio,Alto Minho,309,2025-08-07T10:57:00Z,25800667,Em Resolução/Conclusão,3103,Incêndio rural,0,1,0,3,2025-08-07T10:57:00Z,Arcos De Valdevez,Viana Do Castelo,Norte,-8.501798,41.863003,Resolução/Conclusão
25801035,Ramalhal,Oeste,311,2025-08-07T11:57:00Z,25801035,Em Resolução/Conclusão,3103,Incêndio rural,0,2,0,7,2025-08-07T11:57:00Z,Torres Vedras,Lisboa,Centro,-9.23008,39.155462,Resolução/Conclusão
25801269,Marmelete,Algarve,313,2025-08-07T12:43:00Z,25801269,Em Curso,3103,Incêndio rural,2,1,0,7,2025-08-07T12:43:00Z,Monchique,Faro,Algarve,-8.655436,37.323099,Curso
25748118,Canelas e Espiunca,Area M. Porto,309,2025-07-28T17:16:00Z,25748118,Em Resolução/Conclusão,3101,Incêndio rural,0,2,0,7,2025-07-28T17:16:00Z,Arouca,Aveiro,Norte,-8.212231,40.969918,Resolução/Conclusão
25776263,"Pena, Quintã e Vila Cova",Douro,309,2025-08-02T23:45:00Z,25776263,Em Resolução/Conclusão,3103,Incêndio rural,1,109,0,342,2025-08-02T23:45:00Z,Vila Real,Vila Real,Norte,-7.811902,41.317355,Resolução/Conclusão
25783717,Cunha Baixa,Viseu Dão Lafões,310,2025-08-04T11:48:00Z,25783717,Em Resolução/Conclusão,3101,Incêndio rural,0,1,0,2,2025-08-04T11:48:00Z,Mangualde,Viseu,Centro,-7.764411,40.559738,Resolução/Conclusão
25785204,Ribas,Tâmega e Sousa,309,2025-08-04T16:03:00Z,25785204,Em Resolução/Conclusão,3103,Incêndio rural,0,3,0,4,2025-08-04T16:03:00Z,Celorico De Basto,Braga,Norte,-8.022547,41.449583,Resolução/Conclusão
25787860,Faíl e Vila Chã de Sá,Viseu Dão Lafões,310,2025-08-05T05:55:00Z,25787860,Em Resolução/Conclusão,3103,Incêndio rural,0,1,0,5,2025-08-05T05:55:00Z,Viseu,Viseu,Centro,-7.987877,40.601342,Resolução/Conclusão
25796634,Várzea Dos Cavaleiros,Beira Baixa,310,2025-08-06T15:20:00Z,25796634,Em Resolução/Conclusão,3103,Incêndio rural,0,14,0,52,2025-08-06T15:20:00Z,Sertã,Castelo Branco,Centro,-8.002335,39.78494,Resolução/Conclusão
25800411,Lustosa e Barrosas (Santo Estêvão),Tâmega e Sousa,309,2025-08-07T10:18:00Z,25800411,Em Resolução/Conclusão,3103,Incêndio rural,0,2,0,10,2025-08-07T10:18:00Z,Lousada,Porto,Norte,-8.30604,41.34375,Resolução/Conclusão
25801146,Fajozes,Area M. Porto,309,2025-08-07T12:08:00Z,25801146,Em Resolução/Conclusão,3103,Incêndio rural,0,1,0,5,2025-08-07T12:08:00Z,Vila Do Conde,Porto,Norte,-8.69572,41.32566,Resolução/Conclusão
25801149,Rego,Tâmega e Sousa,309,2025-08-07T12:22:00Z,25801149,Em Curso,3103,Incêndio rural,2,3,0,27,2025-08-07T12:22:00Z,Celorico De Basto,Braga,Norte,-8.098822,41.439243,Curso
25785983,Caçarilhe e Infesta,Tâmega e Sousa,309,2025-08-04T18:22:00Z,25785983,Em Resolução/Conclusão,3103,Incêndio rural,0,63,0,203,2025-08-04T18:22:00Z,Celorico De Basto,Braga,Norte,-8.04611,41.419858,Resolução/Conclusão
25790229,Galegos,Tâmega e Sousa,309,2025-08-05T13:59:00Z,25790229,Em Resolução/Conclusão,3103,Incêndio rural,0,15,0,47,2025-08-05T13:59:00Z,Penafiel,Porto,Norte,-8.31029,41.153427,Resolução/Conclusão
25792058,Cibões e Brufe,Cávado,309,2025-08-05T19:10:00Z,25792058,Em Resolução/Conclusão,3103,Incêndio rural,0,5,0,20,2025-08-05T19:10:00Z,Terras De Bouro,Braga,Norte,-8.293932,41.764918,Resolução/Conclusão
25799721,Tourais e Lajes,Beiras e Serra da Estrela,310,2025-08-07T08:26:00Z,25799721,Em Resolução/Conclusão,3103,Incêndio rural,0,3,0,9,2025-08-07T08:26:00Z,Seia,Guarda,Centro,-7.746688,40.480813,Resolução/Conclusão
25801093,Luzim e Vila Cova,Tâmega e Sousa,309,2025-08-07T11:50:00Z,25801093,Em Resolução/Conclusão,3103,Incêndio rural,0,2,0,7,2025-08-07T11:50:00Z,Penafiel,Porto,Norte,-8.249328,41.141807,Resolução/Conclusão
25801177,Recarei,Area M. Porto,309,2025-08-07T12:26:00Z,25801177,Em Resolução/Conclusão,3103,Incêndio rural,0,3,0,12,2025-08-07T12:26:00Z,Paredes,Porto,Norte,-8.423622,41.14961,Resolução/Conclusão
25801261,Vila Boa de Quires e Maureles,Tâmega e Sousa,309,2025-08-07T12:42:00Z,25801261,Em Resolução/Conclusão,3103,Incêndio rural,0,1,0,5,2025-08-07T12:42:00Z,Marco De Canaveses,Porto,Norte,-8.201095,41.207266,Resolução/Conclusão
