id,address,subregion,neighborhood,date,id.1,state,nature,nature_description,aerial_means,terrestrial_means,aquatic_means,operational,date.1,Concelho,Distrito,NUTII_DSG,longitude,latitude
25067716,Salir,Algarve,313,2025-03-10T18:27:00Z,25067716,Em curso,3313,Deslizamento de terras,0,0,0,0,2025-03-10T18:27:00Z,Loulé,Faro,Algarve,-7.957935,37.23457
25068300,Almeirim,Lezíria do Tejo,311,2025-03-10T20:52:00Z,25068300,Em curso,1101,Cheia,0,0,0,0,2025-03-10T20:52:00Z,Almeirim,Santarém,Alentejo,-8.635002,39.187436
25059714,Torrão,Alentejo Litoral,312,2025-03-08T22:10:00Z,25059714,Em curso,1101,Cheia,0,0,0,0,2025-03-08T22:10:00Z,Alcácer Do Sal,Setúbal,Alentejo,-8.359133,38.252053
25069674,"Seia, São Romão e Lapa Dos Dinheiros",Beiras e Serra da Estrela,310,2025-03-11T08:00:00Z,25069674,Em curso,3313,Deslizamento de terras,0,1,0,3,2025-03-11T08:00:00Z,Seia,Guarda,Centro,-7.706579,40.420381
25069721,Alcabideche,Grande Lisboa,311,2025-03-11T08:02:00Z,25069721,Em despacho,3301,Queda de árvore,0,1,0,5,2025-03-11T08:02:00Z,Cascais,Lisboa,Área Metropolitana De Lisboa,-9.438785,38.755713
25057015,Santa Maria do Castelo e Santiago e Santa Susana,Alentejo Litoral,312,2025-03-08T10:20:00Z,25057015,Em conclusão,1101,Cheia,0,0,0,0,2025-03-08T10:20:00Z,Alcácer Do Sal,Setúbal,Alentejo,-8.432801,38.398147
25063232,Santa Maria do Castelo e Santiago e Santa Susana,Alentejo Litoral,312,2025-03-09T19:02:00Z,25063232,Em curso,1101,Cheia,0,0,0,0,2025-03-09T19:02:00Z,Alcácer Do Sal,Setúbal,Alentejo,-8.48167,38.29806
25064922,Arruda Dos Vinhos,Oeste,311,2025-03-10T09:03:00Z,25064922,Em curso,3315,Inundação de estruturas por precipitação intensa,0,1,0,1,2025-03-10T09:03:00Z,Arruda Dos Vinhos,Lisboa,Centro,-9.098654,39.001645
25067630,Santa Maria do Castelo e Santiago e Santa Susana,Alentejo Litoral,312,2025-03-10T17:53:00Z,25067630,Em curso,3313,Deslizamento de terras,0,2,0,3,2025-03-10T17:53:00Z,Alcácer Do Sal,Setúbal,Alentejo,-8.513732,38.402515
25068748,São Martinho Das Amoreiras,Alentejo Litoral,312,2025-03-10T23:08:00Z,25068748,Em despacho,3313,Deslizamento de terras,0,1,0,2,2025-03-10T23:08:00Z,Odemira,Beja,Alentejo,-8.423175,37.653664
25069767,"Sé, Santa Maria e Meixedo",Terras de Trás-os-Montes,309,2025-03-11T08:11:00Z,25069767,Em despacho,3315,Inundação de estruturas por precipitação intensa,0,1,0,2,2025-03-11T08:11:00Z,Bragança,Bragança,Norte,-6.761223,41.813164
