id,address,subregion,neighborhood,date,id.1,state,nature,nature_description,aerial_means,terrestrial_means,aquatic_means,operational,date.1,Concelho,Distrito,NUTII_DSG,longitude,latitude
25070044,Praia do Ribatejo,Médio Tejo,311,2025-03-10T19:30:00Z,25070044,Em curso,1101,Cheia,0,0,0,0,2025-03-10T19:30:00Z,Vila Nova Da Barquinha,Santarém,Centro,-8.357309,39.485638
25071496,São Manços e São Vicente do Pigeiro,Alentejo Central,312,2025-03-11T13:18:00Z,25071496,Em conclusão,1101,Cheia,0,0,0,0,2025-03-11T13:18:00Z,Évora,Évora,Alentejo,-7.713313,38.513673
25202441,Serpa (Salvador e Santa Maria),Baixo Alentejo,312,2025-04-06T10:25:00Z,25202441,Em conclusão,1101,Cheia,0,0,0,0,2025-04-06T10:25:00Z,Serpa,Beja,Alentejo,-7.555783,37.88592
25251359,Colares,Grande Lisboa,311,2025-04-17T09:37:00Z,25251359,Em despacho,3301,Queda de árvore,0,1,0,2,2025-04-17T09:37:00Z,Sintra,Lisboa,Área Metropolitana De Lisboa,-9.460456,38.807712
25251640,Charneca de Caparica e Sobreda,Península de Setúbal,311,2025-04-17T10:33:00Z,25251640,Em despacho,3301,Queda de árvore,0,1,0,6,2025-04-17T10:33:00Z,Almada,Setúbal,Área Metropolitana De Lisboa,-9.190193,38.591584
25068300,Almeirim,Lezíria do Tejo,311,2025-03-10T20:52:00Z,25068300,Em curso,1101,Cheia,0,0,0,0,2025-03-10T20:52:00Z,Almeirim,Santarém,Alentejo,-8.635002,39.187436
25251739,"Fundão, Valverde, Donas, Aldeia de Joanes e Aldeia Nova do Cabo",Beiras e Serra da Estrela,310,2025-04-17T10:50:00Z,25251739,Em despacho,3315,Inundação de estruturas por precipitação intensa,0,1,0,2,2025-04-17T10:50:00Z,Fundão,Castelo Branco,Centro,-7.505345,40.138491
