id,address,subregion,neighborhood,date,id.1,state,nature,nature_description,aerial_means,terrestrial_means,aquatic_means,operational,date.1,Concelho,Distrito,NUTII_DSG,longitude,latitude,state_2
25832672,Piódão,Região de Coimbra,310,2025-08-13T05:08:00Z,25832672,Em Resolução/Conclusão,3103,Incêndio rural,0,0,0,0,2025-08-13T05:08:00Z,Arganil,Coimbra,Centro,-7.81972,40.23083,Resolução/Conclusão
26013902,Penacova,Região de Coimbra,310,2025-09-19T13:28:00Z,26013902,Em Resolução/Conclusão,3103,Incêndio rural,0,5,0,14,2025-09-19T13:28:00Z,Penacova,Coimbra,Centro,-8.32583,40.32722,Resolução/Conclusão
26016785,Gralhas,Alto Tâmega e Barroso,309,2025-09-20T01:20:00Z,26016785,Em Resolução/Conclusão,3103,Incêndio rural,0,55,0,196,2025-09-20T01:20:00Z,Montalegre,Vila Real,Norte,-7.720897,41.880163,Resolução/Conclusão
26019877,Guardão,Viseu Dão Lafões,310,2025-09-20T17:50:00Z,26019877,Em Resolução/Conclusão,3103,Incêndio rural,0,5,0,21,2025-09-20T17:50:00Z,Tondela,Viseu,Centro,-8.148484,40.610274,Resolução/Conclusão
26024055,Belinho e Mar,Cávado,309,2025-09-21T16:22:00Z,26024055,Em Resolução/Conclusão,3103,Incêndio rural,0,3,0,15,2025-09-21T16:22:00Z,Esposende,Braga,Norte,-8.760998,41.584353,Resolução/Conclusão
26024064,Cimo de Vila da Castanheira,Alto Tâmega e Barroso,309,2025-09-21T16:22:00Z,26024064,Em Resolução/Conclusão,3103,Incêndio rural,0,5,0,18,2025-09-21T16:22:00Z,Chaves,Vila Real,Norte,-7.294467,41.810837,Resolução/Conclusão
26003298,Barreiros e Cepões,Viseu Dão Lafões,310,2025-09-17T12:05:00Z,26003298,Em Resolução/Conclusão,3101,Incêndio rural,0,1,0,2,2025-09-17T12:05:00Z,Viseu,Viseu,Centro,-7.825281,40.745844,Resolução/Conclusão
26013065,Mezio e Moura Morta,Viseu Dão Lafões,310,2025-09-19T11:05:00Z,26013065,Em Resolução/Conclusão,3103,Incêndio rural,0,31,0,152,2025-09-19T11:05:00Z,Castro Daire,Viseu,Centro,-7.878187,40.98632,Resolução/Conclusão
26013919,Ervedal e Vila Franca da Beira,Região de Coimbra,310,2025-09-19T13:25:00Z,26013919,Em Resolução/Conclusão,3103,Incêndio rural,0,23,0,76,2025-09-19T13:25:00Z,Oliveira Do Hospital,Coimbra,Centro,-7.90472,40.43917,Resolução/Conclusão
26022857,NA,NA,0,2025-09-21T08:20:00Z,26022857,Em Resolução/Conclusão,3103,Incêndio rural,1,5,0,19,2025-09-21T08:20:00Z,NA,NA,NA,-8.10654,41.86587,Resolução/Conclusão
26024329,Estremoz (Santa Maria e Santo André),Alentejo Central,312,2025-09-21T17:36:00Z,26024329,Em Resolução/Conclusão,3103,Incêndio rural,0,5,0,14,2025-09-21T17:36:00Z,Estremoz,Évora,Alentejo,-7.574912,38.853268,Resolução/Conclusão
25951176,Sandomil,Beiras e Serra da Estrela,310,2025-09-06T10:29:00Z,25951176,Em Resolução/Conclusão,3103,Incêndio rural,0,2,0,10,2025-09-06T10:29:00Z,Seia,Guarda,Centro,-7.76001,40.351547,Resolução/Conclusão
26020631,"Tavares (Chãs, Várzea e Travanca)",Viseu Dão Lafões,310,2025-09-20T21:15:00Z,26020631,Em Resolução/Conclusão,3103,Incêndio rural,0,1,0,5,2025-09-20T21:15:00Z,Mangualde,Viseu,Centro,-7.639468,40.609133,Resolução/Conclusão
26023007,Viade de Baixo e Fervidelas,Alto Tâmega e Barroso,309,2025-09-21T12:25:00Z,26023007,Em Resolução/Conclusão,3103,Incêndio rural,0,1,0,3,2025-09-21T12:25:00Z,Montalegre,Vila Real,Norte,-7.82553,41.732438,Resolução/Conclusão
26023742,Nadadouro,Oeste,311,2025-09-21T15:07:00Z,26023742,Em Resolução/Conclusão,3101,Incêndio rural,0,9,0,29,2025-09-21T15:07:00Z,Caldas Da Rainha,Leiria,Centro,-9.192847,39.414958,Resolução/Conclusão
26023772,Rossas,Ave,309,2025-09-21T15:12:00Z,26023772,Em Curso,3103,Incêndio rural,2,15,0,54,2025-09-21T15:12:00Z,Vieira Do Minho,Braga,Norte,-8.091527,41.58864,Curso
26023993,Castro Marim,Algarve,313,2025-09-21T16:04:00Z,26023993,Em Resolução/Conclusão,3103,Incêndio rural,0,9,0,30,2025-09-21T16:04:00Z,Vila Real De Santo António,Faro,Algarve,-7.535302,37.24853,Resolução/Conclusão
26024173,Vidigueira,Baixo Alentejo,312,2025-09-21T16:58:00Z,26024173,Em Resolução/Conclusão,3105,Incêndio rural,1,10,0,34,2025-09-21T16:58:00Z,Vidigueira,Beja,Alentejo,-7.788042,38.196252,Resolução/Conclusão
26024381,Faro (Sé e São Pedro),Algarve,313,2025-09-21T17:50:00Z,26024381,Em Curso,3103,Incêndio rural,2,12,0,48,2025-09-21T17:50:00Z,Faro,Faro,Algarve,-7.942032,37.01865,Curso
26024465,Praia do Ribatejo,Médio Tejo,311,2025-09-21T18:14:00Z,26024465,Em Despacho,3103,Incêndio rural,1,0,0,1,2025-09-21T18:14:00Z,Vila Nova Da Barquinha,Santarém,Centro,-8.342418,39.47272,Despacho
26024312,Póvoa de Santa Iria e Forte da Casa,Grande Lisboa,311,2025-09-21T17:25:00Z,26024312,Em Resolução/Conclusão,3103,Incêndio rural,0,1,0,5,2025-09-21T17:25:00Z,Vila Franca De Xira,Lisboa,Área Metropolitana De Lisboa,-9.054583,38.866415,Resolução/Conclusão
26024330,"Almargem do Bispo, Pêro Pinheiro e Montelavar",Grande Lisboa,311,2025-09-21T17:35:00Z,26024330,Em Resolução/Conclusão,3103,Incêndio rural,0,1,0,5,2025-09-21T17:35:00Z,Sintra,Lisboa,Área Metropolitana De Lisboa,-9.304885,38.867927,Resolução/Conclusão
26024224,Roriz,Area M. Porto,309,2025-09-21T17:08:00Z,26024224,Em Resolução/Conclusão,3103,Incêndio rural,0,1,0,5,2025-09-21T17:08:00Z,Santo Tirso,Porto,Norte,-8.367715,41.342932,Resolução/Conclusão
26024276,Monte Redondo e Carreira,Região de Leiria,310,2025-09-21T17:24:00Z,26024276,Em Resolução/Conclusão,3103,Incêndio rural,0,7,0,24,2025-09-21T17:24:00Z,Leiria,Leiria,Centro,-8.786287,39.874758,Resolução/Conclusão
26013405,Barreiros e Cepões,Viseu Dão Lafões,310,2025-09-19T11:56:00Z,26013405,Em Resolução/Conclusão,3103,Incêndio rural,0,10,0,37,2025-09-19T11:56:00Z,Viseu,Viseu,Centro,-7.786007,40.76602,Resolução/Conclusão
26022995,Bordeira,Algarve,313,2025-09-21T12:21:00Z,26022995,Em Curso,3103,Incêndio rural,8,134,0,391,2025-09-21T12:21:00Z,Aljezur,Faro,Algarve,-8.825374,37.23495,Curso
26023264,Arnóia,Tâmega e Sousa,309,2025-09-21T13:33:00Z,26023264,Em Resolução/Conclusão,3103,Incêndio rural,0,7,0,25,2025-09-21T13:33:00Z,Celorico De Basto,Braga,Norte,-8.002693,41.357533,Resolução/Conclusão
26023566,Infias,Ave,309,2025-09-21T14:34:00Z,26023566,Em Resolução/Conclusão,3103,Incêndio rural,0,0,0,0,2025-09-21T14:34:00Z,Vizela,Braga,Norte,-8.313485,41.399695,Resolução/Conclusão
26024116,Termas de São Vicente,Tâmega e Sousa,309,2025-09-21T16:38:00Z,26024116,Em Resolução/Conclusão,3103,Incêndio rural,0,2,0,7,2025-09-21T16:38:00Z,Penafiel,Porto,Norte,-8.315382,41.115435,Resolução/Conclusão
26024435,Mina de Água,Grande Lisboa,311,2025-09-21T18:04:00Z,26024435,Em Despacho,3103,Incêndio rural,0,1,0,5,2025-09-21T18:04:00Z,Amadora,Lisboa,Área Metropolitana De Lisboa,-9.248621,38.77089,Despacho
26024451,Rossas,Ave,309,2025-09-21T18:09:00Z,26024451,Em Despacho,3101,Incêndio rural,2,0,0,12,2025-09-21T18:09:00Z,Vieira Do Minho,Braga,Norte,-8.071847,41.572457,Despacho
