id,address,subregion,neighborhood,date,id.1,state,nature,nature_description,aerial_means,terrestrial_means,aquatic_means,operational,date.1,Concelho,Distrito,NUTII_DSG,longitude,latitude,state_2
25669781,"Raiva, Pedorido e Paraíso",Tâmega e Sousa,309,2025-07-13T03:05:00Z,25669781,Em Resolução/Conclusão,3101,Incêndio rural,0,2,0,7,2025-07-13T03:05:00Z,Castelo De Paiva,Aveiro,Norte,-8.341048,41.018258,Resolução/Conclusão
25669833,Montargil,Alto Alentejo,312,2025-07-13T03:45:00Z,25669833,Em Despacho,3103,Incêndio rural,0,7,0,25,2025-07-13T03:45:00Z,Ponte De Sor,Portalegre,Alentejo,-8.19469,39.1085,Despacho
25662814,Soajo,Alto Minho,309,2025-07-11T15:16:00Z,25662814,Em Resolução/Conclusão,3103,Incêndio rural,0,4,0,14,2025-07-11T15:16:00Z,Arcos De Valdevez,Viana Do Castelo,Norte,-8.22891,41.87654,Resolução/Conclusão
25669834,Lagoa e Carvoeiro,Algarve,313,2025-07-13T03:45:00Z,25669834,Em Curso,3103,Incêndio rural,0,4,0,16,2025-07-13T03:45:00Z,Lagoa,Faro,Algarve,-8.478827,37.10958,Curso
25667313,Santa Eufémia e Boa Vista,Região de Leiria,310,2025-07-12T14:36:00Z,25667313,Em Resolução/Conclusão,3103,Incêndio rural,0,1,0,2,2025-07-12T14:36:00Z,Leiria,Leiria,Centro,-8.761077,39.76109,Resolução/Conclusão
25669535,São Martinho de Angueira,Terras de Trás-os-Montes,309,2025-07-13T00:45:00Z,25669535,Em Resolução/Conclusão,3103,Incêndio rural,0,0,0,0,2025-07-13T00:45:00Z,Miranda Do Douro,Bragança,Norte,-6.3524026,41.6346672,Resolução/Conclusão
25665133,Lindoso,Alto Minho,309,2025-07-12T02:50:00Z,25665133,Em Resolução/Conclusão,3103,Incêndio rural,0,21,0,73,2025-07-12T02:50:00Z,Ponte Da Barca,Viana Do Castelo,Norte,-8.224007,41.852543,Resolução/Conclusão
25669611,Basto (São Clemente),Tâmega e Sousa,309,2025-07-13T01:30:00Z,25669611,Em Resolução/Conclusão,3103,Incêndio rural,0,4,0,17,2025-07-13T01:30:00Z,Celorico De Basto,Braga,Norte,-8.01633,41.46849,Resolução/Conclusão
25669694,Santa Marinha do Zêzere,Tâmega e Sousa,309,2025-07-13T02:11:00Z,25669694,Em Resolução/Conclusão,3103,Incêndio rural,0,0,0,0,2025-07-13T02:11:00Z,Baião,Porto,Norte,-7.947263,41.162117,Resolução/Conclusão
25669730,Arcozelo,Area M. Porto,309,2025-07-13T02:38:00Z,25669730,Em Resolução/Conclusão,3103,Incêndio rural,0,2,0,7,2025-07-13T02:38:00Z,Vila Nova De Gaia,Porto,Norte,-8.64687,41.04825,Resolução/Conclusão
25669745,"Raiva, Pedorido e Paraíso",Tâmega e Sousa,309,2025-07-13T02:40:00Z,25669745,Em Resolução/Conclusão,3101,Incêndio rural,0,4,0,17,2025-07-13T02:40:00Z,Castelo De Paiva,Aveiro,Norte,-8.323442,41.046823,Resolução/Conclusão
25669827,Bacelo e Senhora da Saúde,Alentejo Central,312,2025-07-13T03:37:00Z,25669827,Em Resolução/Conclusão,3103,Incêndio rural,0,3,0,9,2025-07-13T03:37:00Z,Évora,Évora,Alentejo,-7.91353,38.579747,Resolução/Conclusão
