id,address,subregion,neighborhood,date,id.1,state,nature,nature_description,aerial_means,terrestrial_means,aquatic_means,operational,date.1,Concelho,Distrito,NUTII_DSG,longitude,latitude
24874564,"Sé, Santa Maria e Meixedo",Terras de Trás-os-Montes,309,2025-01-26T21:55:00Z,24874564,Em curso,3315,Inundação de estruturas por precipitação intensa,0,1,0,2,2025-01-26T21:55:00Z,Bragança,Bragança,Norte,-6.761223,41.813164
24875382,Pampilhosa da Serra,Região de Coimbra,310,2025-01-27T06:56:00Z,24875382,Em despacho,3315,Inundação de estruturas por precipitação intensa,0,4,0,8,2025-01-27T06:56:00Z,Pampilhosa Da Serra,Coimbra,Centro,-7.953077,40.054967
24876200,Ceira,Região de Coimbra,310,2025-01-27T09:56:00Z,24876200,Em despacho,3315,Inundação de estruturas por precipitação intensa,0,1,0,2,2025-01-27T09:56:00Z,Coimbra,Coimbra,Centro,-8.376144,40.175952
24876893,"Sé, Santa Maria e Meixedo",Terras de Trás-os-Montes,309,2025-01-27T11:22:00Z,24876893,Em curso,3315,Inundação de estruturas por precipitação intensa,0,1,0,1,2025-01-27T11:22:00Z,Bragança,Bragança,Norte,-6.761223,41.813164
24878106,São Pedro de Sarracenos,Terras de Trás-os-Montes,309,2025-01-27T14:44:00Z,24878106,Em curso,3315,Inundação de estruturas por precipitação intensa,0,1,0,2,2025-01-27T14:44:00Z,Bragança,Bragança,Norte,-6.751439,41.76443
24878747,Costa da Caparica,Península de Setúbal,311,2025-01-27T16:45:00Z,24878747,Em despacho,3301,Queda de árvore,0,1,0,3,2025-01-27T16:45:00Z,Almada,Setúbal,Área Metropolitana De Lisboa,-9.227696,38.642583
24878958,"Mogadouro, Valverde, Vale de Porco e Vilar de Rei",Terras de Trás-os-Montes,309,2025-01-27T17:29:00Z,24878958,Em curso,3315,Inundação de estruturas por precipitação intensa,0,1,0,2,2025-01-27T17:29:00Z,Mogadouro,Bragança,Norte,-6.706687,41.339826
24875937,Açores e Velosa,Beiras e Serra da Estrela,310,2025-01-27T09:15:00Z,24875937,Em despacho,3301,Queda de árvore,0,2,0,4,2025-01-27T09:15:00Z,Celorico Da Beira,Guarda,Centro,-7.293622,40.654959
24878043,Salto,Alto Tâmega e Barroso,309,2025-01-27T14:30:00Z,24878043,Em despacho,3301,Queda de árvore,0,1,0,4,2025-01-27T14:30:00Z,Montalegre,Vila Real,Norte,-7.930242,41.659104
24878060,"Sé, Santa Maria e Meixedo",Terras de Trás-os-Montes,309,2025-01-27T14:20:00Z,24878060,Em curso,3315,Inundação de estruturas por precipitação intensa,0,1,0,2,2025-01-27T14:20:00Z,Bragança,Bragança,Norte,-6.761223,41.813164
24878460,Candoso (São Martinho),Ave,309,2025-01-27T16:00:00Z,24878460,Em resolução,3311,Queda de elementos de estruturas edificados,0,2,0,3,2025-01-27T16:00:00Z,Guimarães,Braga,Norte,-8.334377,41.42388
24878495,Tramagal,Médio Tejo,311,2025-01-27T16:12:00Z,24878495,Em conclusão,3315,Inundação de estruturas por precipitação intensa,0,1,0,2,2025-01-27T16:12:00Z,Abrantes,Santarém,Centro,-8.243575,39.452175
24878559,Urrô,Area M. Porto,309,2025-01-27T16:16:00Z,24878559,Em despacho,3301,Queda de árvore,0,1,0,2,2025-01-27T16:16:00Z,Arouca,Aveiro,Norte,-8.292055,40.898489
24879062,Beco,Médio Tejo,311,2025-01-27T17:49:00Z,24879062,Em conclusão,3301,Queda de árvore,0,2,0,4,2025-01-27T17:49:00Z,Ferreira Do Zêzere,Santarém,Centro,-8.330793,39.760835
24879144,Santo Aleixo,Alto Alentejo,312,2025-01-27T18:03:00Z,24879144,Em conclusão,3301,Queda de árvore,0,2,0,4,2025-01-27T18:03:00Z,Monforte,Portalegre,Alentejo,-7.43769,38.929647
24879090,"N. S. da Vila, N. S. do Bispo e Silveiras",Alentejo Central,312,2025-01-27T17:53:00Z,24879090,Em despacho,3301,Queda de árvore,0,2,0,4,2025-01-27T17:53:00Z,Montemor-o-Novo,Évora,Alentejo,-8.206765,38.623083
24879099,Azambuja,Lezíria do Tejo,311,2025-01-27T17:56:00Z,24879099,Em curso,3301,Queda de árvore,0,3,0,7,2025-01-27T17:56:00Z,Azambuja,Lisboa,Alentejo,-8.913008,39.088283
24879149,Soure,Região de Coimbra,310,2025-01-27T18:00:00Z,24879149,Em despacho,3315,Inundação de estruturas por precipitação intensa,0,1,0,2,2025-01-27T18:00:00Z,Soure,Coimbra,Centro,-8.639406,40.055319
24879183,Santo António Dos Olivais,Região de Coimbra,310,2025-01-27T17:59:00Z,24879183,Em despacho,3315,Inundação de estruturas por precipitação intensa,0,1,0,3,2025-01-27T17:59:00Z,Coimbra,Coimbra,Centro,-8.426807,40.217261
24879235,Caparica e Trafaria,Península de Setúbal,311,2025-01-27T18:16:00Z,24879235,Em curso,3321,Dano na rede de fornecimento de eletricidade ,0,1,0,3,2025-01-27T18:16:00Z,Almada,Setúbal,Área Metropolitana De Lisboa,-9.231582,38.671372
24879265,Águas Livres,Grande Lisboa,311,2025-01-27T17:21:00Z,24879265,Em despacho,3329,Queda de estruturas temporárias ou móveis,0,1,0,5,2025-01-27T17:21:00Z,Amadora,Lisboa,Área Metropolitana De Lisboa,-9.219508,38.745534
24851780,"São Miguel, Santa Eufémia e Rabaçal",Região de Coimbra,310,2025-01-21T23:25:00Z,24851780,Em curso,3315,Inundação de estruturas por precipitação intensa,0,0,0,0,2025-01-21T23:25:00Z,Penela,Coimbra,Centro,-8.399036,40.025502
24876130,Bornes de Aguiar,Alto Tâmega e Barroso,309,2025-01-27T09:37:00Z,24876130,Em curso,3315,Inundação de estruturas por precipitação intensa,0,1,0,5,2025-01-27T09:37:00Z,Vila Pouca De Aguiar,Vila Real,Norte,-7.60702,41.543737
24878704,Salto,Alto Tâmega e Barroso,309,2025-01-27T16:44:00Z,24878704,Em despacho,1107,Nevão,0,3,0,6,2025-01-27T16:44:00Z,Montalegre,Vila Real,Norte,-7.953108,41.639334
24878736,"Oeiras e S. Julião da Barra, Paço de Arcos e Caxias",Grande Lisboa,311,2025-01-27T16:44:00Z,24878736,Em curso,3301,Queda de árvore,0,1,0,5,2025-01-27T16:44:00Z,Oeiras,Lisboa,Área Metropolitana De Lisboa,-9.290593,38.696925
24878801,Serpins,Região de Coimbra,310,2025-01-27T17:01:00Z,24878801,Em despacho,3313,Deslizamento de terras,0,1,0,1,2025-01-27T17:01:00Z,Lousã,Coimbra,Centro,-8.200016,40.156377
24875758,Valhelhas,Beiras e Serra da Estrela,310,2025-01-27T08:41:00Z,24875758,Em curso,3301,Queda de árvore,0,1,0,2,2025-01-27T08:41:00Z,Guarda,Guarda,Centro,-7.405093,40.406271
24877003,Malagueira e Horta Das Figueiras,Alentejo Central,312,2025-01-27T11:41:00Z,24877003,Em conclusão,3315,Inundação de estruturas por precipitação intensa,0,1,0,2,2025-01-27T11:41:00Z,Évora,Évora,Alentejo,-7.924277,38.57285
24878057,Salto,Alto Tâmega e Barroso,309,2025-01-27T14:42:00Z,24878057,Em despacho,3301,Queda de árvore,0,1,0,4,2025-01-27T14:42:00Z,Montalegre,Vila Real,Norte,-7.929191,41.611383
24878139,"Sé, Santa Maria e Meixedo",Terras de Trás-os-Montes,309,2025-01-27T14:59:00Z,24878139,Em curso,3315,Inundação de estruturas por precipitação intensa,0,1,0,2,2025-01-27T14:59:00Z,Bragança,Bragança,Norte,-6.761223,41.813164
24878657,"S.maria, S.miguel, S.martinho, S.pedro Penaferrim",Grande Lisboa,311,2025-01-27T16:38:00Z,24878657,Em despacho,3321,Dano na rede de fornecimento de eletricidade ,0,1,0,2,2025-01-27T16:38:00Z,Sintra,Lisboa,Área Metropolitana De Lisboa,-9.363811,38.743917
24878782,Soalhães,Tâmega e Sousa,309,2025-01-27T16:52:00Z,24878782,Em despacho,3301,Queda de árvore,0,1,0,2,2025-01-27T16:52:00Z,Marco De Canaveses,Porto,Norte,-8.100963,41.16136
24878882,Poceirão e Marateca,Península de Setúbal,311,2025-01-27T17:16:00Z,24878882,Em despacho,3301,Queda de árvore,0,3,0,5,2025-01-27T17:16:00Z,Palmela,Setúbal,Área Metropolitana De Lisboa,-8.741193,38.629608
24878898,Charneca de Caparica e Sobreda,Península de Setúbal,311,2025-01-27T16:52:00Z,24878898,Em despacho,3301,Queda de árvore,0,1,0,3,2025-01-27T16:52:00Z,Almada,Setúbal,Área Metropolitana De Lisboa,-9.206824,38.629265
24878939,Rio Tinto,Area M. Porto,309,2025-01-27T17:20:00Z,24878939,Em despacho,3311,Queda de elementos de estruturas edificados,0,1,0,2,2025-01-27T17:20:00Z,Gondomar,Porto,Norte,-8.556242,41.183094
24879177,Lavos,Região de Coimbra,310,2025-01-27T18:13:00Z,24879177,Em despacho,3301,Queda de árvore,0,2,0,7,2025-01-27T18:13:00Z,Figueira Da Foz,Coimbra,Centro,-8.827295,40.092169
24879228,Santa Maria Maior e Monserrate e Meadela,Alto Minho,309,2025-01-27T18:00:00Z,24879228,Em despacho,3301,Queda de árvore,0,1,0,3,2025-01-27T18:00:00Z,Viana Do Castelo,Viana Do Castelo,Norte,-8.81652,41.703882
24879245,Sangalhos,Região de Aveiro,310,2025-01-27T18:22:00Z,24879245,Em despacho,3301,Queda de árvore,0,1,0,2,2025-01-27T18:22:00Z,Anadia,Aveiro,Centro,-8.478739,40.494487
24879264,Canaviais,Alentejo Central,312,2025-01-27T18:15:00Z,24879264,Em curso,3301,Queda de árvore,0,2,0,4,2025-01-27T18:15:00Z,Évora,Évora,Alentejo,-7.899381,38.616252
24879313,"Almada, Cova da Piedade, Pragal e Cacilhas",Península de Setúbal,311,2025-01-27T18:30:00Z,24879313,Em despacho,3329,Queda de estruturas temporárias ou móveis,0,1,0,5,2025-01-27T18:30:00Z,Almada,Setúbal,Área Metropolitana De Lisboa,-9.173069,38.677312
24879002,Queiriz,Beiras e Serra da Estrela,310,2025-01-27T17:22:00Z,24879002,Em despacho,3301,Queda de árvore,0,1,0,3,2025-01-27T17:22:00Z,Fornos De Algodres,Guarda,Centro,-7.463091,40.734408
24879071,Porto Salvo,Grande Lisboa,311,2025-01-27T17:47:00Z,24879071,Em curso,3311,Queda de elementos de estruturas edificados,0,1,0,2,2025-01-27T17:47:00Z,Oeiras,Lisboa,Área Metropolitana De Lisboa,-9.305901,38.719291
24879086,Gafanha da Nazaré,Região de Aveiro,310,2025-01-27T17:52:00Z,24879086,Em despacho,3321,Dano na rede de fornecimento de eletricidade ,0,1,0,5,2025-01-27T17:52:00Z,Ílhavo,Aveiro,Centro,-8.719411,40.633995
24879204,Fanhões,Grande Lisboa,311,2025-01-27T18:10:00Z,24879204,Em curso,3301,Queda de árvore,0,1,0,4,2025-01-27T18:10:00Z,Loures,Lisboa,Área Metropolitana De Lisboa,-9.178456,38.888945
24879219,Alfragide,Grande Lisboa,311,2025-01-27T17:49:00Z,24879219,Em conclusão,3301,Queda de árvore,0,1,0,6,2025-01-27T17:49:00Z,Amadora,Lisboa,Área Metropolitana De Lisboa,-9.225704,38.738085
24879221,Baixa da Banheira e Vale da Amoreira,Península de Setúbal,311,2025-01-27T18:14:00Z,24879221,Em despacho,3301,Queda de árvore,0,1,0,5,2025-01-27T18:14:00Z,Moita,Setúbal,Área Metropolitana De Lisboa,-9.034794,38.646934
24879237,Canha,Península de Setúbal,311,2025-01-27T18:20:00Z,24879237,Em despacho,3301,Queda de árvore,0,1,0,5,2025-01-27T18:20:00Z,Montijo,Setúbal,Área Metropolitana De Lisboa,-8.640426,38.755608
24879269,Carnaxide e Queijas,Grande Lisboa,311,2025-01-27T18:22:00Z,24879269,Em despacho,3301,Queda de árvore,0,1,0,5,2025-01-27T18:22:00Z,Oeiras,Lisboa,Área Metropolitana De Lisboa,-9.233587,38.727201
24879287,Capelins (Santo António),Alentejo Central,312,2025-01-27T18:31:00Z,24879287,Em despacho,3301,Queda de árvore,0,2,0,4,2025-01-27T18:31:00Z,Alandroal,Évora,Alentejo,-7.342534,38.53077
24878984,"Sé, Santa Maria e Meixedo",Terras de Trás-os-Montes,309,2025-01-27T17:32:00Z,24878984,Em curso,3315,Inundação de estruturas por precipitação intensa,0,1,0,2,2025-01-27T17:32:00Z,Bragança,Bragança,Norte,-6.761223,41.813164
24879064,Navió e Vitorino Dos Piães,Alto Minho,309,2025-01-27T17:48:00Z,24879064,Em curso,3301,Queda de árvore,0,2,0,7,2025-01-27T17:48:00Z,Ponte De Lima,Viana Do Castelo,Norte,-8.613623,41.68979
24879209,Almeirim,Lezíria do Tejo,311,2025-01-27T18:19:00Z,24879209,Em conclusão,3321,Dano na rede de fornecimento de eletricidade ,0,1,0,2,2025-01-27T18:19:00Z,Almeirim,Santarém,Alentejo,-8.638673,39.20027
24879241,Figueiró Dos Vinhos e Bairradas,Região de Leiria,310,2025-01-27T18:18:00Z,24879241,Em despacho,3301,Queda de árvore,0,2,0,4,2025-01-27T18:18:00Z,Figueiró Dos Vinhos,Leiria,Centro,-8.273435,39.902339
24879243,Freiriz,Cávado,309,2025-01-27T18:14:00Z,24879243,Em despacho,3329,Queda de estruturas temporárias ou móveis,0,1,0,3,2025-01-27T18:14:00Z,Vila Verde,Braga,Norte,-8.508903,41.643228
24879306,"Oeiras e S. Julião da Barra, Paço de Arcos e Caxias",Grande Lisboa,311,2025-01-27T18:32:00Z,24879306,Em despacho,3329,Queda de estruturas temporárias ou móveis,0,1,0,4,2025-01-27T18:32:00Z,Oeiras,Lisboa,Área Metropolitana De Lisboa,-9.310159,38.698531
24879336,Benavente,Lezíria do Tejo,311,2025-01-27T18:47:00Z,24879336,Em despacho,3301,Queda de árvore,0,1,0,5,2025-01-27T18:47:00Z,Benavente,Santarém,Alentejo,-8.670345,38.909508
24879268,Infantas,Ave,309,2025-01-27T18:25:00Z,24879268,Em despacho,3301,Queda de árvore,0,1,0,2,2025-01-27T18:25:00Z,Guimarães,Braga,Norte,-8.242262,41.422864
24879277,Foz de Arouce e Casal de Ermio,Região de Coimbra,310,2025-01-27T18:30:00Z,24879277,Em despacho,3301,Queda de árvore,0,1,0,3,2025-01-27T18:30:00Z,Lousã,Coimbra,Centro,-8.25635,40.153628
24879284,a Dos Cunhados e Maceira,Oeste,311,2025-01-27T18:32:00Z,24879284,Em despacho,3309,Desabamento de estruturas edificadas,0,1,0,1,2025-01-27T18:32:00Z,Torres Vedras,Lisboa,Centro,-9.336366,39.162143
24879291,São Brás e São Lourenço,Alto Alentejo,312,2025-01-27T18:27:00Z,24879291,Em resolução,3301,Queda de árvore,0,2,0,6,2025-01-27T18:27:00Z,Elvas,Portalegre,Alentejo,-7.206623,38.874656
24879325,"Sandim, Olival, Lever e Crestuma",Area M. Porto,309,2025-01-27T18:40:00Z,24879325,Em despacho,3301,Queda de árvore,0,1,0,2,2025-01-27T18:40:00Z,Vila Nova De Gaia,Porto,Norte,-8.507685,41.028387
