id,address,subregion,neighborhood,date,id.1,state,nature,nature_description,aerial_means,terrestrial_means,aquatic_means,operational,date.1,Concelho,Distrito,NUTII_DSG,longitude,latitude
25495190,Peva e Segões,Douro,309,2025-06-08T11:17:00Z,25495190,Em conclusão,2127,"Incêndio em edifícios e recintos industriais, oficinas e armazéns",0,2,0,7,2025-06-08T11:17:00Z,Moimenta Da Beira,Viseu,Norte,-7.69063,40.890053
25497469,"Sé Nova, Santa Cruz, Almedina e São Bartolomeu",Região de Coimbra,310,2025-06-08T20:47:00Z,25497469,Em resolução,2201,Incêndio em equipamentos ou produtos,0,4,0,11,2025-06-08T20:47:00Z,Coimbra,Coimbra,Centro,-8.425582,40.205556
25497571,Almodôvar e Graça Dos Padrões,Baixo Alentejo,312,2025-06-08T21:11:00Z,25497571,Em conclusão,2201,Incêndio em equipamentos ou produtos,0,0,0,0,2025-06-08T21:11:00Z,Almodôvar,Beja,Alentejo,-8.063192,37.510733
25497676,"S.maria, S.miguel, S.martinho, S.pedro Penaferrim",Grande Lisboa,311,2025-06-08T21:36:00Z,25497676,Em conclusão,2101,Incêndio em edifícios habitacionais,0,3,0,12,2025-06-08T21:36:00Z,Sintra,Lisboa,Área Metropolitana De Lisboa,-9.419274,38.792948
25497574,Conde e Gandarela,Ave,309,2025-06-08T21:17:00Z,25497574,Em conclusão,3103,Incêndio rural,0,2,0,7,2025-06-08T21:17:00Z,Guimarães,Braga,Norte,-8.350132,41.399948
25497642,Cabanelas,Cávado,309,2025-06-08T21:37:00Z,25497642,Em conclusão,3201,Detritos não confinados,0,0,0,0,2025-06-08T21:37:00Z,Vila Verde,Braga,Norte,-8.483751,41.60001
25497739,Carnaxide e Queijas,Grande Lisboa,311,2025-06-08T22:11:00Z,25497739,Em conclusão,3105,Incêndio rural,0,1,0,5,2025-06-08T22:11:00Z,Oeiras,Lisboa,Área Metropolitana De Lisboa,-9.220193,38.7216
