id,address,subregion,neighborhood,date,id.1,state,nature,nature_description,aerial_means,terrestrial_means,aquatic_means,operational,date.1,Concelho,Distrito,NUTII_DSG,longitude,latitude,state_2
26164572,Castro Verde e Casével,Baixo Alentejo,312,2025-10-20T12:54:00Z,26164572,Em Resolução/Conclusão,3105,Incêndio rural,0,8,0,22,2025-10-20T12:54:00Z,Castro Verde,Beja,Alentejo,-8.01625,37.63235,Resolução/Conclusão
26160929,Caranguejeira,Região de Leiria,310,2025-10-19T16:50:00Z,26160929,Em Resolução/Conclusão,3101,Incêndio rural,0,1,0,2,2025-10-19T16:50:00Z,Leiria,Leiria,Centro,-8.697637,39.726483,Resolução/Conclusão
26165566,Malveira e São Miguel de Alcainça,Grande Lisboa,311,2025-10-20T16:02:00Z,26165566,Em Resolução/Conclusão,3111,Queima,0,1,0,5,2025-10-20T16:02:00Z,Mafra,Lisboa,Área Metropolitana De Lisboa,-9.299758,38.93304,Resolução/Conclusão
26165709,"N. S. da Vila, N. S. do Bispo e Silveiras",Alentejo Central,312,2025-10-20T16:27:00Z,26165709,Em Resolução/Conclusão,3105,Incêndio rural,0,3,0,11,2025-10-20T16:27:00Z,Montemor-o-Novo,Évora,Alentejo,-8.314918,38.646532,Resolução/Conclusão
26164727,Benavente,Lezíria do Tejo,311,2025-10-20T13:30:00Z,26164727,Em Resolução/Conclusão,3103,Incêndio rural,0,6,0,25,2025-10-20T13:30:00Z,Benavente,Santarém,Alentejo,-8.680143,38.920237,Resolução/Conclusão
26165313,Vimieiro,Alentejo Central,312,2025-10-20T15:11:00Z,26165313,Em Resolução/Conclusão,3103,Incêndio rural,0,6,0,19,2025-10-20T15:11:00Z,Arraiolos,Évora,Alentejo,-7.904952,38.831922,Resolução/Conclusão
26165645,Basto,Ave,309,2025-10-20T16:17:00Z,26165645,Em Resolução/Conclusão,3111,Queima,0,2,0,7,2025-10-20T16:17:00Z,Cabeceiras De Basto,Braga,Norte,-7.979872,41.493353,Resolução/Conclusão
