id,address,subregion,neighborhood,date,id.1,state,nature,nature_description,aerial_means,terrestrial_means,aquatic_means,operational,date.1,Concelho,Distrito,NUTII_DSG,longitude,latitude,state_2
25775263,Torgueda,Douro,309,2025-08-02T19:49:00Z,25775263,Em Resolução/Conclusão,3101,Incêndio rural,0,8,0,25,2025-08-02T19:49:00Z,Vila Real,Vila Real,Norte,-7.785983,41.274952,Resolução/Conclusão
25803707,Almofala e Escarigo,Beiras e Serra da Estrela,310,2025-08-07T20:50:00Z,25803707,Em Resolução/Conclusão,3103,Incêndio rural,0,4,0,14,2025-08-07T20:50:00Z,Figueira De Castelo Rodrigo,Guarda,Centro,-6.847203,40.887165,Resolução/Conclusão
25807426,Alvite,Douro,309,2025-08-08T14:31:00Z,25807426,Em Resolução/Conclusão,3103,Incêndio rural,0,67,0,227,2025-08-08T14:31:00Z,Moimenta Da Beira,Viseu,Norte,-7.688727,40.96613,Resolução/Conclusão
25812717,"Mangualde, Mesquitela e Cunha Alta",Viseu Dão Lafões,310,2025-08-09T12:50:00Z,25812717,Em Resolução/Conclusão,3103,Incêndio rural,0,4,0,14,2025-08-09T12:50:00Z,Mangualde,Viseu,Centro,-7.778468,40.59536,Resolução/Conclusão
25815725,Bouro (Santa Marta),Cávado,309,2025-08-10T01:54:00Z,25815725,Em Resolução/Conclusão,3103,Incêndio rural,0,8,0,23,2025-08-10T01:54:00Z,Amares,Braga,Norte,-8.279715,41.69202,Resolução/Conclusão
25817277,Lorvão,Região de Coimbra,310,2025-08-10T11:09:00Z,25817277,Em Resolução/Conclusão,3101,Incêndio rural,0,3,0,12,2025-08-10T11:09:00Z,Penacova,Coimbra,Centro,-8.31417,40.23889,Resolução/Conclusão
25817913,Valpedre,Tâmega e Sousa,309,2025-08-10T13:18:00Z,25817913,Em Resolução/Conclusão,3103,Incêndio rural,0,6,0,22,2025-08-10T13:18:00Z,Penafiel,Porto,Norte,-8.30697,41.14208,Resolução/Conclusão
25818290,Ourique,Baixo Alentejo,312,2025-08-10T14:33:00Z,25818290,Em Resolução/Conclusão,3103,Incêndio rural,0,3,0,5,2025-08-10T14:33:00Z,Ourique,Beja,Alentejo,-8.157723,37.629212,Resolução/Conclusão
25819119,Póvoa de Penela,Douro,309,2025-08-10T17:23:00Z,25819119,Em Resolução/Conclusão,3103,Incêndio rural,0,13,0,50,2025-08-10T17:23:00Z,Penedono,Viseu,Norte,-7.389118,41.032508,Resolução/Conclusão
25819592,Almodôvar e Graça Dos Padrões,Baixo Alentejo,312,2025-08-10T19:18:00Z,25819592,Em Resolução/Conclusão,3105,Incêndio rural,0,5,0,16,2025-08-10T19:18:00Z,Almodôvar,Beja,Alentejo,-8.071722,37.50587,Resolução/Conclusão
25819687,Bem Viver,Tâmega e Sousa,309,2025-08-10T19:39:00Z,25819687,Em Resolução/Conclusão,3105,Incêndio rural,0,1,0,5,2025-08-10T19:39:00Z,Marco De Canaveses,Porto,Norte,-8.222998,41.110092,Resolução/Conclusão
25785983,Caçarilhe e Infesta,Tâmega e Sousa,309,2025-08-04T18:22:00Z,25785983,Em Resolução/Conclusão,3103,Incêndio rural,0,11,0,33,2025-08-04T18:22:00Z,Celorico De Basto,Braga,Norte,-8.04611,41.419858,Resolução/Conclusão
25792058,Cibões e Brufe,Cávado,309,2025-08-05T19:10:00Z,25792058,Em Resolução/Conclusão,3103,Incêndio rural,0,1,0,5,2025-08-05T19:10:00Z,Terras De Bouro,Braga,Norte,-8.293932,41.764918,Resolução/Conclusão
25817921,Penacova,Região de Coimbra,310,2025-08-10T13:19:00Z,25817921,Em Resolução/Conclusão,3101,Incêndio rural,0,1,0,2,2025-08-10T13:19:00Z,Penacova,Coimbra,Centro,-8.27722,40.275,Resolução/Conclusão
25818375,Vila Boa de Quires e Maureles,Tâmega e Sousa,309,2025-08-10T14:48:00Z,25818375,Em Resolução/Conclusão,3103,Incêndio rural,0,4,0,19,2025-08-10T14:48:00Z,Marco De Canaveses,Porto,Norte,-8.205438,41.197593,Resolução/Conclusão
25818659,"Amarante (São Gonçalo), Madalena, Cepelos e Gatão",Tâmega e Sousa,309,2025-08-10T15:37:00Z,25818659,Em Resolução/Conclusão,3103,Incêndio rural,0,4,0,12,2025-08-10T15:37:00Z,Amarante,Porto,Norte,-8.091143,41.260022,Resolução/Conclusão
25819002,Mancelos,Tâmega e Sousa,309,2025-08-10T16:57:00Z,25819002,Em Resolução/Conclusão,3103,Incêndio rural,0,1,0,5,2025-08-10T16:57:00Z,Amarante,Porto,Norte,-8.170968,41.274135,Resolução/Conclusão
25819818,Sobrado e Bairros,Tâmega e Sousa,309,2025-08-10T20:13:00Z,25819818,Em Resolução/Conclusão,3103,Incêndio rural,0,8,0,23,2025-08-10T20:13:00Z,Castelo De Paiva,Aveiro,Norte,-8.252268,41.018942,Resolução/Conclusão
25819876,Vilela,Area M. Porto,309,2025-08-10T20:20:00Z,25819876,Em Resolução/Conclusão,3103,Incêndio rural,0,0,0,0,2025-08-10T20:20:00Z,Paredes,Porto,Norte,-8.381106,41.242851,Resolução/Conclusão
25820244,Souselo,Tâmega e Sousa,309,2025-08-10T21:43:00Z,25820244,Em Resolução/Conclusão,3103,Incêndio rural,0,1,0,5,2025-08-10T21:43:00Z,Cinfães,Viseu,Norte,-8.23114,41.06998,Resolução/Conclusão
25776263,"Pena, Quintã e Vila Cova",Douro,309,2025-08-02T23:45:00Z,25776263,Em Curso,3103,Incêndio rural,0,143,0,438,2025-08-02T23:45:00Z,Vila Real,Vila Real,Norte,-7.811902,41.317355,Curso
25783717,Cunha Baixa,Viseu Dão Lafões,310,2025-08-04T11:48:00Z,25783717,Em Resolução/Conclusão,3101,Incêndio rural,0,1,0,2,2025-08-04T11:48:00Z,Mangualde,Viseu,Centro,-7.764411,40.559738,Resolução/Conclusão
25787860,Faíl e Vila Chã de Sá,Viseu Dão Lafões,310,2025-08-05T05:55:00Z,25787860,Em Resolução/Conclusão,3103,Incêndio rural,0,0,0,0,2025-08-05T05:55:00Z,Viseu,Viseu,Centro,-7.987877,40.601342,Resolução/Conclusão
25802450,Canas de Santa Maria,Viseu Dão Lafões,310,2025-08-07T16:14:00Z,25802450,Em Resolução/Conclusão,3103,Incêndio rural,0,1,0,2,2025-08-07T16:14:00Z,Tondela,Viseu,Centro,-8.032777,40.56017,Resolução/Conclusão
25808937,Abrunhosa-a-Velha,Viseu Dão Lafões,310,2025-08-08T19:26:00Z,25808937,Em Resolução/Conclusão,3103,Incêndio rural,0,2,0,7,2025-08-08T19:26:00Z,Mangualde,Viseu,Centro,-7.647667,40.572515,Resolução/Conclusão
25813482,Freches e Torres,Beiras e Serra da Estrela,310,2025-08-09T16:21:00Z,25813482,Em Curso,3103,Incêndio rural,0,205,0,604,2025-08-09T16:21:00Z,Trancoso,Guarda,Centro,-7.363745,40.709022,Curso
25818610,Negrelos (São Tomé),Area M. Porto,309,2025-08-10T15:28:00Z,25818610,Em Resolução/Conclusão,3103,Incêndio rural,0,10,0,35,2025-08-10T15:28:00Z,Santo Tirso,Porto,Norte,-8.395752,41.353508,Resolução/Conclusão
25818948,Vila Boa de Quires e Maureles,Tâmega e Sousa,309,2025-08-10T16:22:00Z,25818948,Em Resolução/Conclusão,3103,Incêndio rural,0,6,0,23,2025-08-10T16:22:00Z,Marco De Canaveses,Porto,Norte,-8.204612,41.211897,Resolução/Conclusão
25773830,Andrães,Douro,309,2025-08-02T14:23:00Z,25773830,Em Resolução/Conclusão,3103,Incêndio rural,0,0,0,0,2025-08-02T14:23:00Z,Vila Real,Vila Real,Norte,-7.671293,41.267593,Resolução/Conclusão
25774883,Arnóia,Tâmega e Sousa,309,2025-08-02T18:20:00Z,25774883,Em Resolução/Conclusão,3103,Incêndio rural,0,3,0,8,2025-08-02T18:20:00Z,Celorico De Basto,Braga,Norte,-7.998983,41.348727,Resolução/Conclusão
25804968,Alvadia,Alto Tâmega e Barroso,309,2025-08-08T07:21:00Z,25804968,Em Resolução/Conclusão,3103,Incêndio rural,0,62,0,177,2025-08-08T07:21:00Z,Ribeira De Pena,Vila Real,Norte,-7.782872,41.457452,Resolução/Conclusão
25814493,Cota,Viseu Dão Lafões,310,2025-08-09T20:08:00Z,25814493,Em Resolução/Conclusão,3101,Incêndio rural,0,1,0,5,2025-08-09T20:08:00Z,Viseu,Viseu,Centro,-7.80263,40.777299,Resolução/Conclusão
25816131,"Crasto, Ruivos e Grovelas",Alto Minho,309,2025-08-10T06:25:00Z,25816131,Em Resolução/Conclusão,3103,Incêndio rural,0,4,0,9,2025-08-10T06:25:00Z,Ponte Da Barca,Viana Do Castelo,Norte,-8.444038,41.763607,Resolução/Conclusão
25817967,Vila Boa de Quires e Maureles,Tâmega e Sousa,309,2025-08-10T13:27:00Z,25817967,Em Resolução/Conclusão,3103,Incêndio rural,0,6,0,22,2025-08-10T13:27:00Z,Marco De Canaveses,Porto,Norte,-8.195109,41.182057,Resolução/Conclusão
25818455,Sobral de São Miguel,Beiras e Serra da Estrela,310,2025-08-10T15:02:00Z,25818455,Em Curso,3103,Incêndio rural,0,131,0,421,2025-08-10T15:02:00Z,Covilhã,Castelo Branco,Centro,-7.77307,40.200173,Curso
25818518,"Canedo, Vale e Vila Maior",Area M. Porto,309,2025-08-10T15:11:00Z,25818518,Em Resolução/Conclusão,3103,Incêndio rural,0,0,0,0,2025-08-10T15:11:00Z,Santa Maria Da Feira,Aveiro,Norte,-8.491618,41.007257,Resolução/Conclusão
25818555,Bustelo,Tâmega e Sousa,309,2025-08-10T15:15:00Z,25818555,Em Resolução/Conclusão,3103,Incêndio rural,0,0,0,0,2025-08-10T15:15:00Z,Penafiel,Porto,Norte,-8.273328,41.21275,Resolução/Conclusão
25818920,Antas e Ourozinho,Douro,309,2025-08-10T16:35:00Z,25818920,Em Resolução/Conclusão,3103,Incêndio rural,0,0,0,0,2025-08-10T16:35:00Z,Penedono,Viseu,Norte,-7.359645,40.954012,Resolução/Conclusão
25820222,"Almada, Cova da Piedade, Pragal e Cacilhas",Península de Setúbal,311,2025-08-10T21:32:00Z,25820222,Em Resolução/Conclusão,3103,Incêndio rural,0,4,0,17,2025-08-10T21:32:00Z,Almada,Setúbal,Área Metropolitana De Lisboa,-9.17214,38.6676,Resolução/Conclusão
25820279,Fornelos,Tâmega e Sousa,309,2025-08-10T21:41:00Z,25820279,Em Resolução/Conclusão,3103,Incêndio rural,0,2,0,7,2025-08-10T21:41:00Z,Cinfães,Viseu,Norte,-8.212805,41.034374,Resolução/Conclusão
25820406,Alfena,Area M. Porto,309,2025-08-10T22:20:00Z,25820406,Em Resolução/Conclusão,3103,Incêndio rural,0,1,0,5,2025-08-10T22:20:00Z,Valongo,Porto,Norte,-8.523192,41.237236,Resolução/Conclusão
25820422,Távora e Pereiro,Douro,309,2025-08-10T22:27:00Z,25820422,Em Despacho,3103,Incêndio rural,0,5,0,21,2025-08-10T22:27:00Z,Tabuaço,Viseu,Norte,-7.493235,41.10201,Despacho
25820438,Tabuaço,Douro,309,2025-08-10T22:32:00Z,25820438,Em Despacho,3101,Incêndio rural,0,1,0,5,2025-08-10T22:32:00Z,Tabuaço,Viseu,Norte,-7.563993,41.11284,Despacho
25820463,Boivães,Alto Minho,309,2025-08-10T22:33:00Z,25820463,Em Resolução/Conclusão,3101,Incêndio rural,0,3,0,11,2025-08-10T22:33:00Z,Ponte Da Barca,Viana Do Castelo,Norte,-8.44941,41.763282,Resolução/Conclusão
25820333,Recezinhos (São Martinho),Tâmega e Sousa,309,2025-08-10T22:05:00Z,25820333,Em Curso,3103,Incêndio rural,0,4,0,17,2025-08-10T22:05:00Z,Penafiel,Porto,Norte,-8.20734,41.225325,Curso
25820435,Bustelo,Tâmega e Sousa,309,2025-08-10T22:32:00Z,25820435,Em Despacho,3103,Incêndio rural,0,1,0,3,2025-08-10T22:32:00Z,Penafiel,Porto,Norte,-8.267772,41.23064,Despacho
25820468,São João da Pesqueira e Várzea de Trevões,Douro,309,2025-08-10T22:40:00Z,25820468,Em Curso,3101,Incêndio rural,0,0,0,0,2025-08-10T22:40:00Z,São João Da Pesqueira,Viseu,Norte,-7.39032,41.12169,Curso
25820226,Fornos,Tâmega e Sousa,309,2025-08-10T21:34:00Z,25820226,Em Curso,3103,Incêndio rural,0,7,0,22,2025-08-10T21:34:00Z,Castelo De Paiva,Aveiro,Norte,-8.241635,41.054507,Curso
25820290,Alfeizerão,Oeste,311,2025-08-10T21:51:00Z,25820290,Em Resolução/Conclusão,3103,Incêndio rural,0,7,0,23,2025-08-10T21:51:00Z,Alcobaça,Leiria,Centro,-9.087502,39.494103,Resolução/Conclusão
25820293,Rendufinho,Ave,309,2025-08-10T21:51:00Z,25820293,Em Curso,3103,Incêndio rural,0,2,0,10,2025-08-10T21:51:00Z,Póvoa De Lanhoso,Braga,Norte,-8.264356,41.616025,Curso
25820323,Vilar de Andorinho,Area M. Porto,309,2025-08-10T21:48:00Z,25820323,Em Resolução/Conclusão,3103,Incêndio rural,0,3,0,13,2025-08-10T21:48:00Z,Vila Nova De Gaia,Porto,Norte,-8.586687,41.10464,Resolução/Conclusão
25820423,Foz do Sousa e Covelo,Area M. Porto,309,2025-08-10T22:25:00Z,25820423,Em Despacho,3103,Incêndio rural,0,1,0,5,2025-08-10T22:25:00Z,Gondomar,Porto,Norte,-8.514015,41.094999,Despacho
25820441,Pereira,Cávado,309,2025-08-10T22:33:00Z,25820441,Em Despacho,3103,Incêndio rural,0,4,0,16,2025-08-10T22:33:00Z,Barcelos,Braga,Norte,-8.63171,41.49416,Despacho
25820443,Macinhata do Vouga,Região de Aveiro,310,2025-08-10T22:33:00Z,25820443,Em Despacho,3103,Incêndio rural,0,3,0,12,2025-08-10T22:33:00Z,Águeda,Aveiro,Centro,-8.46809,40.6548,Despacho
