id,address,subregion,neighborhood,date,id.1,state,nature,nature_description,aerial_means,terrestrial_means,aquatic_means,operational,date.1,Concelho,Distrito,NUTII_DSG,longitude,latitude,state_2
25662814,Soajo,Alto Minho,309,2025-07-11T15:16:00Z,25662814,Em Resolução/Conclusão,3103,Incêndio rural,0,3,0,12,2025-07-11T15:16:00Z,Arcos De Valdevez,Viana Do Castelo,Norte,-8.22891,41.87654,Resolução/Conclusão
25675566,Soutelo do Douro,Douro,309,2025-07-14T10:41:00Z,25675566,Em Curso,3103,Incêndio rural,1,5,0,28,2025-07-14T10:41:00Z,São João Da Pesqueira,Viseu,Norte,-7.416257,41.199227,Curso
25672444,Quintela de Lampaças,Terras de Trás-os-Montes,309,2025-07-13T16:29:00Z,25672444,Em Resolução/Conclusão,3103,Incêndio rural,0,8,0,23,2025-07-13T16:29:00Z,Bragança,Bragança,Norte,-6.899165,41.58745,Resolução/Conclusão
25665133,Lindoso,Alto Minho,309,2025-07-12T02:50:00Z,25665133,Em Resolução/Conclusão,3103,Incêndio rural,0,6,0,24,2025-07-12T02:50:00Z,Ponte Da Barca,Viana Do Castelo,Norte,-8.224007,41.852543,Resolução/Conclusão
25675762,São Vicente do Paul e Vale de Figueira,Lezíria do Tejo,311,2025-07-14T11:13:00Z,25675762,Em Despacho,3105,Incêndio rural,1,4,0,18,2025-07-14T11:13:00Z,Santarém,Santarém,Alentejo,-8.64248,39.33143,Despacho
