id,address,subregion,neighborhood,date,id.1,state,nature,nature_description,aerial_means,terrestrial_means,aquatic_means,operational,date.1,Concelho,Distrito,NUTII_DSG,longitude,latitude,state_2
25749937,Tarouquela,Tâmega e Sousa,309,2025-07-29T04:11:00Z,25749937,Em Curso,3103,Incêndio rural,0,12,0,42,2025-07-29T04:11:00Z,Cinfães,Viseu,Norte,-8.173308,41.072792,Curso
25751046,Castelejo,Beiras e Serra da Estrela,310,2025-07-29T10:13:00Z,25751046,Em Resolução/Conclusão,3103,Incêndio rural,0,7,0,18,2025-07-29T10:13:00Z,Fundão,Castelo Branco,Centro,-7.604291,40.108879,Resolução/Conclusão
25751355,"Crato e Mártires, Flor da Rosa e Vale do Peso",Alto Alentejo,312,2025-07-29T10:59:00Z,25751355,Em Resolução/Conclusão,3103,Incêndio rural,0,1,0,4,2025-07-29T10:59:00Z,Crato,Portalegre,Alentejo,-7.641857,39.351982,Resolução/Conclusão
25751893,"Espírito Santo, Nossa Senhora da Graça e São Simão",Alto Alentejo,312,2025-07-29T12:32:00Z,25751893,Em Curso,3101,Incêndio rural,0,98,0,297,2025-07-29T12:32:00Z,Nisa,Portalegre,Alentejo,-7.634827,39.571162,Curso
25753170,"Leiria, Pousos, Barreira e Cortes",Região de Leiria,310,2025-07-29T16:36:00Z,25753170,Em Resolução/Conclusão,3101,Incêndio rural,0,4,0,9,2025-07-29T16:36:00Z,Leiria,Leiria,Centro,-8.795755,39.709552,Resolução/Conclusão
25755083,Avelar,Região de Leiria,310,2025-07-30T00:57:00Z,25755083,Em Resolução/Conclusão,3103,Incêndio rural,0,1,0,2,2025-07-30T00:57:00Z,Ansião,Leiria,Centro,-8.341278,39.93576,Resolução/Conclusão
25755226,Rio Tinto,Area M. Porto,309,2025-07-30T02:30:00Z,25755226,Em Resolução/Conclusão,3103,Incêndio rural,0,3,0,9,2025-07-30T02:30:00Z,Gondomar,Porto,Norte,-8.566772,41.17757,Resolução/Conclusão
25755317,Oliveira do Douro,Tâmega e Sousa,309,2025-07-30T03:45:00Z,25755317,Em Resolução/Conclusão,3103,Incêndio rural,0,4,0,16,2025-07-30T03:45:00Z,Cinfães,Viseu,Norte,-8.075338,41.08348,Resolução/Conclusão
25755351,Andrães,Douro,309,2025-07-30T04:11:00Z,25755351,Em Resolução/Conclusão,3103,Incêndio rural,0,1,0,2,2025-07-30T04:11:00Z,Vila Real,Vila Real,Norte,-7.668125,41.242755,Resolução/Conclusão
25749681,Fornos de Maceira Dão,Viseu Dão Lafões,310,2025-07-29T01:19:00Z,25749681,Em Resolução/Conclusão,3103,Incêndio rural,0,1,0,5,2025-07-29T01:19:00Z,Mangualde,Viseu,Centro,-7.806963,40.617022,Resolução/Conclusão
25750701,Capela,Tâmega e Sousa,309,2025-07-29T09:26:00Z,25750701,Em Curso,3103,Incêndio rural,0,41,0,156,2025-07-29T09:26:00Z,Penafiel,Porto,Norte,-8.345202,41.09353,Curso
25755329,Ansião,Região de Leiria,310,2025-07-30T03:57:00Z,25755329,Em Resolução/Conclusão,3101,Incêndio rural,0,1,0,2,2025-07-30T03:57:00Z,Ansião,Leiria,Centro,-8.413872,39.930002,Resolução/Conclusão
25755331,Cavernães,Viseu Dão Lafões,310,2025-07-30T03:56:00Z,25755331,Em Resolução/Conclusão,3103,Incêndio rural,0,9,0,28,2025-07-30T03:56:00Z,Viseu,Viseu,Centro,-7.82671,40.724053,Resolução/Conclusão
25755499,Vila Nova da Telha,Area M. Porto,309,2025-07-30T06:35:00Z,25755499,Em Resolução/Conclusão,3103,Incêndio rural,0,3,0,7,2025-07-30T06:35:00Z,Maia,Porto,Norte,-8.676034,41.256424,Resolução/Conclusão
25748118,Canelas e Espiunca,Area M. Porto,309,2025-07-28T17:16:00Z,25748118,Em Curso,3101,Incêndio rural,1,258,0,766,2025-07-28T17:16:00Z,Arouca,Aveiro,Norte,-8.212231,40.969918,Curso
25749320,Rebordões (Santa Maria),Alto Minho,309,2025-07-28T22:47:00Z,25749320,Em Curso,3103,Incêndio rural,0,30,0,111,2025-07-28T22:47:00Z,Ponte De Lima,Viana Do Castelo,Norte,-8.588365,41.729993,Curso
25749641,Silva Escura e Dornelas,Região de Aveiro,310,2025-07-29T01:02:00Z,25749641,Em Resolução/Conclusão,3101,Incêndio rural,0,24,0,66,2025-07-29T01:02:00Z,Sever Do Vouga,Aveiro,Centro,-8.399623,40.769354,Resolução/Conclusão
25753666,São Cristóvão de Nogueira,Tâmega e Sousa,309,2025-07-29T18:21:00Z,25753666,Em Curso,3103,Incêndio rural,0,5,0,16,2025-07-29T18:21:00Z,Cinfães,Viseu,Norte,-8.134771,41.05519,Curso
25755236,Torres do Mondego,Região de Coimbra,310,2025-07-30T02:33:00Z,25755236,Em Resolução/Conclusão,3101,Incêndio rural,0,1,0,2,2025-07-30T02:33:00Z,Coimbra,Coimbra,Centro,-8.36446,40.19313,Resolução/Conclusão
25755320,Aguda,Região de Leiria,310,2025-07-30T03:51:00Z,25755320,Em Resolução/Conclusão,3101,Incêndio rural,0,1,0,2,2025-07-30T03:51:00Z,Figueiró Dos Vinhos,Leiria,Centro,-8.325572,39.927893,Resolução/Conclusão
25755372,Andrães,Douro,309,2025-07-30T04:32:00Z,25755372,Em Resolução/Conclusão,3103,Incêndio rural,0,0,0,0,2025-07-30T04:32:00Z,Vila Real,Vila Real,Norte,-7.653083,41.24205,Resolução/Conclusão
25755454,Monte Córdova,Area M. Porto,309,2025-07-30T06:02:00Z,25755454,Em Resolução/Conclusão,3103,Incêndio rural,0,1,0,5,2025-07-30T06:02:00Z,Santo Tirso,Porto,Norte,-8.40466,41.31679,Resolução/Conclusão
25755507,Antime e Silvares (São Clemente),Ave,309,2025-07-30T06:42:00Z,25755507,Em Despacho,3103,Incêndio rural,0,6,0,26,2025-07-30T06:42:00Z,Fafe,Braga,Norte,-8.16342,41.430679,Despacho
25755571,Maceira,Beiras e Serra da Estrela,310,2025-07-30T07:20:00Z,25755571,Em Despacho,3103,Incêndio rural,0,0,0,0,2025-07-30T07:20:00Z,Fornos De Algodres,Guarda,Centro,-7.47061,40.68396,Despacho
25738747,Lindoso,Alto Minho,309,2025-07-26T21:47:00Z,25738747,Em Curso,3103,Incêndio rural,0,125,0,362,2025-07-26T21:47:00Z,Ponte Da Barca,Viana Do Castelo,Norte,-8.220528,41.865272,Curso
25747773,Aranhas,Beira Baixa,310,2025-07-28T16:36:00Z,25747773,Em Resolução/Conclusão,3103,Incêndio rural,0,134,0,398,2025-07-28T16:36:00Z,Penamacor,Castelo Branco,Centro,-7.14438,40.117542,Resolução/Conclusão
25749611,Sameice e Santa Eulália,Beiras e Serra da Estrela,310,2025-07-29T00:44:00Z,25749611,Em Resolução/Conclusão,3103,Incêndio rural,0,2,0,10,2025-07-29T00:44:00Z,Seia,Guarda,Centro,-7.77621,40.42021,Resolução/Conclusão
25750845,Fornos,Tâmega e Sousa,309,2025-07-29T09:46:00Z,25750845,Em Resolução/Conclusão,3103,Incêndio rural,0,16,0,61,2025-07-29T09:46:00Z,Castelo De Paiva,Aveiro,Norte,-8.247077,41.050502,Resolução/Conclusão
25751999,Pombal,Região de Leiria,310,2025-07-29T12:53:00Z,25751999,Em Resolução/Conclusão,3101,Incêndio rural,0,4,0,9,2025-07-29T12:53:00Z,Pombal,Leiria,Centro,-8.6801,39.93227,Resolução/Conclusão
25752083,Alcanede,Lezíria do Tejo,311,2025-07-29T13:12:00Z,25752083,Em Resolução/Conclusão,3103,Incêndio rural,0,118,0,374,2025-07-29T13:12:00Z,Santarém,Santarém,Alentejo,-8.802682,39.405543,Resolução/Conclusão
25755311,"Bagunte, Ferreiró, Outeiro Maior e Parada",Area M. Porto,309,2025-07-30T03:35:00Z,25755311,Em Resolução/Conclusão,3103,Incêndio rural,0,4,0,10,2025-07-30T03:35:00Z,Vila Do Conde,Porto,Norte,-8.679147,41.35679,Resolução/Conclusão
25755418,"Silvares, Pias, Nogueira e Alvarenga",Tâmega e Sousa,309,2025-07-30T05:16:00Z,25755418,Em Curso,3103,Incêndio rural,0,6,0,23,2025-07-30T05:16:00Z,Lousada,Porto,Norte,-8.278102,41.301833,Curso
25755452,Travancas e Roriz,Alto Tâmega e Barroso,309,2025-07-30T06:01:00Z,25755452,Em Resolução/Conclusão,3103,Incêndio rural,0,6,0,28,2025-07-30T06:01:00Z,Chaves,Vila Real,Norte,-7.319995,41.815377,Resolução/Conclusão
25755459,"Lobão, Gião, Louredo e Guisande",Area M. Porto,309,2025-07-30T06:04:00Z,25755459,Em Resolução/Conclusão,3103,Incêndio rural,0,2,0,10,2025-07-30T06:04:00Z,Santa Maria Da Feira,Aveiro,Norte,-8.48406,40.98838,Resolução/Conclusão
25755475,Sé e São Lourenço,Alto Alentejo,312,2025-07-30T06:23:00Z,25755475,Em Resolução/Conclusão,3105,Incêndio rural,0,3,0,10,2025-07-30T06:23:00Z,Portalegre,Portalegre,Alentejo,-7.427325,39.288855,Resolução/Conclusão
25755493,Agrela,Area M. Porto,309,2025-07-30T06:27:00Z,25755493,Em Resolução/Conclusão,3103,Incêndio rural,0,5,0,17,2025-07-30T06:27:00Z,Santo Tirso,Porto,Norte,-8.471378,41.264943,Resolução/Conclusão
