id,address,subregion,neighborhood,date,id.1,state,nature,nature_description,aerial_means,terrestrial_means,aquatic_means,operational,date.1,Concelho,Distrito,NUTII_DSG,longitude,latitude,state_2
25682108,Lanhelas,Alto Minho,309,2025-07-15T15:02:00Z,25682108,Em Resolução/Conclusão,3103,Incêndio rural,0,18,0,59,2025-07-15T15:02:00Z,Caminha,Viana Do Castelo,Norte,-8.783442,41.9107,Resolução/Conclusão
25682969,São Bartolomeu de Messines,Algarve,313,2025-07-15T17:55:00Z,25682969,Em Resolução/Conclusão,3103,Incêndio rural,0,2,0,6,2025-07-15T17:55:00Z,Silves,Faro,Algarve,-8.260409,37.2019,Resolução/Conclusão
25683021,Vilar de Pinheiro,Area M. Porto,309,2025-07-15T18:04:00Z,25683021,Em Resolução/Conclusão,3103,Incêndio rural,1,4,0,23,2025-07-15T18:04:00Z,Vila Do Conde,Porto,Norte,-8.675347,41.270887,Resolução/Conclusão
25683260,Fornos,Tâmega e Sousa,309,2025-07-15T18:59:00Z,25683260,Em Resolução/Conclusão,3101,Incêndio rural,0,4,0,17,2025-07-15T18:59:00Z,Castelo De Paiva,Aveiro,Norte,-8.240702,41.056242,Resolução/Conclusão
25683360,"São Pedro do Sul, Várzea e Baiões",Viseu Dão Lafões,310,2025-07-15T19:20:00Z,25683360,Em Resolução/Conclusão,3103,Incêndio rural,2,15,0,71,2025-07-15T19:20:00Z,São Pedro Do Sul,Viseu,Centro,-8.05393,40.780768,Resolução/Conclusão
25665133,Lindoso,Alto Minho,309,2025-07-12T02:50:00Z,25665133,Em Resolução/Conclusão,3103,Incêndio rural,0,4,0,17,2025-07-12T02:50:00Z,Ponte Da Barca,Viana Do Castelo,Norte,-8.224007,41.852543,Resolução/Conclusão
25677014,Alcórrego e Maranhão,Alto Alentejo,312,2025-07-14T15:07:00Z,25677014,Em Resolução/Conclusão,3101,Incêndio rural,0,3,0,13,2025-07-14T15:07:00Z,Avis,Portalegre,Alentejo,-7.895798,38.982193,Resolução/Conclusão
25681114,"S. Mig. Pinheiro, S. Pedro Solis e S. Sebastião Carros",Baixo Alentejo,312,2025-07-15T11:44:00Z,25681114,Em Resolução/Conclusão,3105,Incêndio rural,0,0,0,0,2025-07-15T11:44:00Z,Mértola,Beja,Alentejo,-7.901305,37.480835,Resolução/Conclusão
25682332,Poiares,Alto Minho,309,2025-07-15T15:45:00Z,25682332,Em Resolução/Conclusão,3103,Incêndio rural,0,1,0,5,2025-07-15T15:45:00Z,Ponte De Lima,Viana Do Castelo,Norte,-8.633653,41.659273,Resolução/Conclusão
25682652,"Labrujó, Rendufe e Vilar do Monte",Alto Minho,309,2025-07-15T16:48:00Z,25682652,Em Resolução/Conclusão,3105,Incêndio rural,0,1,0,5,2025-07-15T16:48:00Z,Ponte De Lima,Viana Do Castelo,Norte,-8.556888,41.856642,Resolução/Conclusão
25682868,Sertã,Beira Baixa,310,2025-07-15T17:30:00Z,25682868,Em Resolução/Conclusão,3101,Incêndio rural,0,38,0,150,2025-07-15T17:30:00Z,Sertã,Castelo Branco,Centro,-8.092748,39.819602,Resolução/Conclusão
25683302,Vila Nova da Rainha,Lezíria do Tejo,311,2025-07-15T19:08:00Z,25683302,Em Curso,3103,Incêndio rural,0,2,0,10,2025-07-15T19:08:00Z,Azambuja,Lisboa,Alentejo,-8.95525,39.03675,Curso
25683432,Almeirim,Lezíria do Tejo,311,2025-07-15T19:38:00Z,25683432,Em Curso,3101,Incêndio rural,1,8,0,36,2025-07-15T19:38:00Z,Almeirim,Santarém,Alentejo,-8.632423,39.18134,Curso
25681100,Sendim e Atenor,Terras de Trás-os-Montes,309,2025-07-15T11:45:00Z,25681100,Em Resolução/Conclusão,3103,Incêndio rural,0,1,0,5,2025-07-15T11:45:00Z,Miranda Do Douro,Bragança,Norte,-6.433873,41.404508,Resolução/Conclusão
25682254,Panque,Cávado,309,2025-07-15T15:31:00Z,25682254,Em Curso,3101,Incêndio rural,2,22,0,77,2025-07-15T15:31:00Z,Barcelos,Braga,Norte,-8.607035,41.626113,Curso
25682641,São Bento,Região de Leiria,310,2025-07-15T16:44:00Z,25682641,Em Resolução/Conclusão,3101,Incêndio rural,0,19,0,63,2025-07-15T16:44:00Z,Porto De Mós,Leiria,Centro,-8.746241,39.52425,Resolução/Conclusão
25682856,Nespereira,Tâmega e Sousa,309,2025-07-15T17:24:00Z,25682856,Em Resolução/Conclusão,3103,Incêndio rural,0,8,0,28,2025-07-15T17:24:00Z,Cinfães,Viseu,Norte,-8.180775,41.013885,Resolução/Conclusão
25683057,Messejana,Baixo Alentejo,312,2025-07-15T18:10:00Z,25683057,Em Curso,3105,Incêndio rural,6,35,0,118,2025-07-15T18:10:00Z,Aljustrel,Beja,Alentejo,-8.253787,37.845618,Curso
25683306,Arouca e Burgo,Area M. Porto,309,2025-07-15T19:07:00Z,25683306,Em Resolução/Conclusão,3103,Incêndio rural,0,3,0,12,2025-07-15T19:07:00Z,Arouca,Aveiro,Norte,-8.252523,40.91976,Resolução/Conclusão
25683492,"Custóias, Leça do Balio e Guifões",Area M. Porto,309,2025-07-15T19:14:00Z,25683492,Em Resolução/Conclusão,3103,Incêndio rural,0,1,0,5,2025-07-15T19:14:00Z,Matosinhos,Porto,Norte,-8.643123,41.208539,Resolução/Conclusão
