id,address,subregion,neighborhood,date,id.1,state,nature,nature_description,aerial_means,terrestrial_means,aquatic_means,operational,date.1,Concelho,Distrito,NUTII_DSG,longitude,latitude,state_2
26115854,Gralhas,Alto Tâmega e Barroso,309,2025-10-10T12:13:00Z,26115854,Em Resolução/Conclusão,3103,Incêndio rural,0,1,0,5,2025-10-10T12:13:00Z,Montalegre,Vila Real,Norte,-7.72346,41.854762,Resolução/Conclusão
26123846,Loriga,Beiras e Serra da Estrela,310,2025-10-12T02:34:00Z,26123846,Em Resolução/Conclusão,3103,Incêndio rural,0,2,0,7,2025-10-12T02:34:00Z,Seia,Guarda,Centro,-7.6951599999999996,40.312578,Resolução/Conclusão
26124689,Prado (São Miguel),Cávado,309,2025-10-12T09:41:00Z,26124689,Em Resolução/Conclusão,3103,Incêndio rural,0,9,0,37,2025-10-12T09:41:00Z,Vila Verde,Braga,Norte,-8.439582,41.700673,Resolução/Conclusão
26125141,"Alhões, Bustelo, Gralheira e Ramires",Tâmega e Sousa,309,2025-10-12T11:19:00Z,26125141,Em Resolução/Conclusão,3103,Incêndio rural,0,5,0,21,2025-10-12T11:19:00Z,Cinfães,Viseu,Norte,-8.007718,41.027183,Resolução/Conclusão
26125450,"Vilela, São Cosme e São Damião e Sá",Alto Minho,309,2025-10-12T12:29:00Z,26125450,Em Despacho,3103,Incêndio rural,1,1,0,11,2025-10-12T12:29:00Z,Arcos De Valdevez,Viana Do Castelo,Norte,-8.428764,41.916516,Despacho
26123436,"Alhões, Bustelo, Gralheira e Ramires",Tâmega e Sousa,309,2025-10-11T22:45:00Z,26123436,Em Resolução/Conclusão,3103,Incêndio rural,1,2,0,10,2025-10-11T22:45:00Z,Cinfães,Viseu,Norte,-8.008836,41.061059,Resolução/Conclusão
26122931,"Algodres, Vale de Afonsinho e Vilar de Amargo",Beiras e Serra da Estrela,310,2025-10-11T20:10:00Z,26122931,Em Resolução/Conclusão,3103,Incêndio rural,0,1,0,5,2025-10-11T20:10:00Z,Figueira De Castelo Rodrigo,Guarda,Centro,-7.01107,40.93251,Resolução/Conclusão
26124952,Estorãos,Ave,309,2025-10-12T10:38:00Z,26124952,Em Resolução/Conclusão,3103,Incêndio rural,0,5,0,19,2025-10-12T10:38:00Z,Fafe,Braga,Norte,-8.13928,41.494195,Resolução/Conclusão
