id,address,subregion,neighborhood,date,id.1,state,nature,nature_description,aerial_means,terrestrial_means,aquatic_means,operational,date.1,Concelho,Distrito,NUTII_DSG,longitude,latitude,state_2
26069069,Barrô,Tâmega e Sousa,309,2025-09-30T18:07:00Z,26069069,Em Resolução/Conclusão,3103,Incêndio rural,0,1,0,5,2025-09-30T18:07:00Z,Resende,Viseu,Norte,-7.864913,41.126375,Resolução/Conclusão
25951176,Sandomil,Beiras e Serra da Estrela,310,2025-09-06T10:29:00Z,25951176,Em Resolução/Conclusão,3103,Incêndio rural,0,2,0,10,2025-09-06T10:29:00Z,Seia,Guarda,Centro,-7.76001,40.351547,Resolução/Conclusão
26069347,Alcains,Beira Baixa,310,2025-09-30T19:08:00Z,26069347,Em Resolução/Conclusão,3105,Incêndio rural,0,8,0,30,2025-09-30T19:08:00Z,Castelo Branco,Castelo Branco,Centro,-7.452431,39.89799,Resolução/Conclusão
26069550,Santo Quintino,Oeste,311,2025-09-30T20:00:00Z,26069550,Em Resolução/Conclusão,3111,Queima,0,3,0,9,2025-09-30T20:00:00Z,Sobral De Monte Agraço,Lisboa,Centro,-9.143078,38.981239,Resolução/Conclusão
26050704,Tortosendo,Beiras e Serra da Estrela,310,2025-09-26T23:04:00Z,26050704,Em Resolução/Conclusão,3103,Incêndio rural,0,1,0,4,2025-09-26T23:04:00Z,Covilhã,Castelo Branco,Centro,-7.521592,40.251592,Resolução/Conclusão
26022995,Bordeira,Algarve,313,2025-09-21T12:21:00Z,26022995,Em Resolução/Conclusão,3103,Incêndio rural,0,7,0,22,2025-09-21T12:21:00Z,Aljezur,Faro,Algarve,-8.825374,37.23495,Resolução/Conclusão
26069025,Estorãos,Ave,309,2025-09-30T17:55:00Z,26069025,Em Curso,3103,Incêndio rural,0,12,0,45,2025-09-30T17:55:00Z,Fafe,Braga,Norte,-8.128778,41.495933,Curso
26069491,"Sandim, Olival, Lever e Crestuma",Area M. Porto,309,2025-09-30T19:51:00Z,26069491,Em Despacho,3105,Incêndio rural,0,2,0,10,2025-09-30T19:51:00Z,Vila Nova De Gaia,Porto,Norte,-8.54162,41.04881,Despacho
