id,address,subregion,neighborhood,date,id.1,state,nature,nature_description,aerial_means,terrestrial_means,aquatic_means,operational,date.1,Concelho,Distrito,NUTII_DSG,longitude,latitude
25066522,Reguengo e São Julião,Alto Alentejo,312,2025-03-10T14:12:00Z,25066522,Em conclusão,3301,Queda de árvore,0,0,0,0,2025-03-10T14:12:00Z,Portalegre,Portalegre,Alentejo,-7.403278,39.298715
25067040,Sé e São Lourenço,Alto Alentejo,312,2025-03-10T15:45:00Z,25067040,Em conclusão,3301,Queda de árvore,0,1,0,2,2025-03-10T15:45:00Z,Portalegre,Portalegre,Alentejo,-7.407555,39.284165
25067824,Marinhais,Lezíria do Tejo,311,2025-03-10T18:55:00Z,25067824,Em conclusão,3315,Inundação de estruturas por precipitação intensa,0,2,0,2,2025-03-10T18:55:00Z,Salvaterra De Magos,Santarém,Alentejo,-8.71595,39.054252
25067933,Bacelo e Senhora da Saúde,Alentejo Central,312,2025-03-10T19:16:00Z,25067933,Em conclusão,3315,Inundação de estruturas por precipitação intensa,0,1,0,2,2025-03-10T19:16:00Z,Évora,Évora,Alentejo,-7.869122,38.593644
25059714,Torrão,Alentejo Litoral,312,2025-03-08T22:10:00Z,25059714,Em curso,1101,Cheia,0,0,0,0,2025-03-08T22:10:00Z,Alcácer Do Sal,Setúbal,Alentejo,-8.359133,38.252053
25066365,Reguengo e São Julião,Alto Alentejo,312,2025-03-10T13:47:00Z,25066365,Em conclusão,3301,Queda de árvore,0,0,0,0,2025-03-10T13:47:00Z,Portalegre,Portalegre,Alentejo,-7.40139,39.30139
25066467,Sé e São Lourenço,Alto Alentejo,312,2025-03-10T13:56:00Z,25066467,Em conclusão,3301,Queda de árvore,0,0,0,0,2025-03-10T13:56:00Z,Portalegre,Portalegre,Alentejo,-7.412372,39.282628
25066950,Sé e São Lourenço,Alto Alentejo,312,2025-03-10T15:40:00Z,25066950,Em conclusão,3313,Deslizamento de terras,0,1,0,5,2025-03-10T15:40:00Z,Portalegre,Portalegre,Alentejo,-7.402905,39.288733
25067153,Figueira Dos Cavaleiros,Baixo Alentejo,312,2025-03-10T16:13:00Z,25067153,Em despacho,3301,Queda de árvore,0,0,0,0,2025-03-10T16:13:00Z,Ferreira Do Alentejo,Beja,Alentejo,-8.283967,38.107288
25067352,Santa Marinha e São Pedro da Afurada,Area M. Porto,309,2025-03-10T17:10:00Z,25067352,Em despacho,3315,Inundação de estruturas por precipitação intensa,0,0,0,0,2025-03-10T17:10:00Z,Vila Nova De Gaia,Porto,Norte,-8.648161,41.14226
25067755,Santa Marinha e São Pedro da Afurada,Area M. Porto,309,2025-03-10T18:38:00Z,25067755,Em despacho,3315,Inundação de estruturas por precipitação intensa,0,0,0,0,2025-03-10T18:38:00Z,Vila Nova De Gaia,Porto,Norte,-8.62476,41.1364
25068305,Alvega e Concavada,Médio Tejo,311,2025-03-10T21:03:00Z,25068305,Em conclusão,3309,Desabamento de estruturas edificadas,0,1,0,2,2025-03-10T21:03:00Z,Abrantes,Santarém,Centro,-8.05692,39.45422
25068251,Ramada e Caneças,Grande Lisboa,311,2025-03-10T20:15:00Z,25068251,Em conclusão,3315,Inundação de estruturas por precipitação intensa,0,0,0,0,2025-03-10T20:15:00Z,Odivelas,Lisboa,Área Metropolitana De Lisboa,-9.224517,38.811058
25068385,Benfica do Ribatejo,Lezíria do Tejo,311,2025-03-10T21:27:00Z,25068385,Em despacho,3315,Inundação de estruturas por precipitação intensa,0,1,0,2,2025-03-10T21:27:00Z,Almeirim,Santarém,Alentejo,-8.668729,39.139431
25068410,Sé e São Lourenço,Alto Alentejo,312,2025-03-10T21:30:00Z,25068410,Em conclusão,3315,Inundação de estruturas por precipitação intensa,0,4,0,11,2025-03-10T21:30:00Z,Portalegre,Portalegre,Alentejo,-7.423208,39.272768
25068433,Paranhos,Area M. Porto,309,2025-03-10T21:32:00Z,25068433,Em despacho,3315,Inundação de estruturas por precipitação intensa,0,1,0,3,2025-03-10T21:32:00Z,Porto,Porto,Norte,-8.607437,41.17569
25068453,"Cedofeita, Ildefonso, Sé, Miragaia, Nicolau e Vitória",Area M. Porto,309,2025-03-10T21:29:00Z,25068453,Em despacho,3315,Inundação de estruturas por precipitação intensa,0,1,0,5,2025-03-10T21:29:00Z,Porto,Porto,Norte,-8.615939,41.15359
25068467,Ramalde,Area M. Porto,309,2025-03-10T22:01:00Z,25068467,Em despacho,3311,Queda de elementos de estruturas edificados,0,0,0,0,2025-03-10T22:01:00Z,Porto,Porto,Norte,-8.629498,41.17574
25065928,Sé e São Lourenço,Alto Alentejo,312,2025-03-10T12:15:00Z,25065928,Em conclusão,3309,Desabamento de estruturas edificadas,0,0,0,0,2025-03-10T12:15:00Z,Portalegre,Portalegre,Alentejo,-7.4066090000000004,39.288378
25065953,Sé e São Lourenço,Alto Alentejo,312,2025-03-10T12:21:00Z,25065953,Em conclusão,3301,Queda de árvore,0,0,0,0,2025-03-10T12:21:00Z,Portalegre,Portalegre,Alentejo,-7.405434,39.281244
25067364,Paranhos,Area M. Porto,309,2025-03-10T17:12:00Z,25067364,Em despacho,3315,Inundação de estruturas por precipitação intensa,0,0,0,0,2025-03-10T17:12:00Z,Porto,Porto,Norte,-8.60156,41.16693
25067716,Salir,Algarve,313,2025-03-10T18:27:00Z,25067716,Em curso,3313,Deslizamento de terras,0,0,0,0,2025-03-10T18:27:00Z,Loulé,Faro,Algarve,-7.957935,37.23457
25067775,Madalena,Area M. Porto,309,2025-03-10T18:45:00Z,25067775,Em despacho,3315,Inundação de estruturas por precipitação intensa,0,0,0,0,2025-03-10T18:45:00Z,Vila Nova De Gaia,Porto,Norte,-8.64005,41.11209
25067902,Angeja,Região de Aveiro,310,2025-03-10T19:05:00Z,25067902,Em conclusão,3313,Deslizamento de terras,0,1,0,2,2025-03-10T19:05:00Z,Albergaria-a-Velha,Aveiro,Centro,-8.56369,40.681509
25067916,Albergaria-a-Velha e Valmaior,Região de Aveiro,310,2025-03-10T19:05:00Z,25067916,Em conclusão,3313,Deslizamento de terras,0,1,0,2,2025-03-10T19:05:00Z,Albergaria-a-Velha,Aveiro,Centro,-8.479745,40.688996
25068034,Quinta do Anjo,Península de Setúbal,311,2025-03-10T19:43:00Z,25068034,Em despacho,3301,Queda de árvore,0,2,0,3,2025-03-10T19:43:00Z,Palmela,Setúbal,Área Metropolitana De Lisboa,-8.9718,38.55533
25063232,Santa Maria do Castelo e Santiago e Santa Susana,Alentejo Litoral,312,2025-03-09T19:02:00Z,25063232,Em curso,1101,Cheia,0,0,0,0,2025-03-09T19:02:00Z,Alcácer Do Sal,Setúbal,Alentejo,-8.48167,38.29806
25064922,Arruda Dos Vinhos,Oeste,311,2025-03-10T09:03:00Z,25064922,Em curso,3315,Inundação de estruturas por precipitação intensa,0,1,0,1,2025-03-10T09:03:00Z,Arruda Dos Vinhos,Lisboa,Centro,-9.098654,39.001645
25066126,Sé e São Lourenço,Alto Alentejo,312,2025-03-10T12:30:00Z,25066126,Em conclusão,3301,Queda de árvore,0,0,0,0,2025-03-10T12:30:00Z,Portalegre,Portalegre,Alentejo,-7.421847,39.289553
25066273,Sé e São Lourenço,Alto Alentejo,312,2025-03-10T13:02:00Z,25066273,Em conclusão,3309,Desabamento de estruturas edificadas,0,0,0,0,2025-03-10T13:02:00Z,Portalegre,Portalegre,Alentejo,-7.417375,39.288735
25066357,Sé e São Lourenço,Alto Alentejo,312,2025-03-10T13:27:00Z,25066357,Em conclusão,3309,Desabamento de estruturas edificadas,0,0,0,0,2025-03-10T13:27:00Z,Portalegre,Portalegre,Alentejo,-7.405077,39.28866
25066393,Sé e São Lourenço,Alto Alentejo,312,2025-03-10T13:30:00Z,25066393,Em conclusão,3309,Desabamento de estruturas edificadas,0,0,0,0,2025-03-10T13:30:00Z,Portalegre,Portalegre,Alentejo,-7.40493,39.2887
25066793,Sé e São Lourenço,Alto Alentejo,312,2025-03-10T15:06:00Z,25066793,Em conclusão,3301,Queda de árvore,0,0,0,0,2025-03-10T15:06:00Z,Portalegre,Portalegre,Alentejo,-7.404387,39.297978
25067630,Santa Maria do Castelo e Santiago e Santa Susana,Alentejo Litoral,312,2025-03-10T17:53:00Z,25067630,Em curso,3313,Deslizamento de terras,0,2,0,3,2025-03-10T17:53:00Z,Alcácer Do Sal,Setúbal,Alentejo,-8.513732,38.402515
25067679,Algueirão-Mem Martins,Grande Lisboa,311,2025-03-10T17:45:00Z,25067679,Em despacho,3301,Queda de árvore,0,1,0,2,2025-03-10T17:45:00Z,Sintra,Lisboa,Área Metropolitana De Lisboa,-9.340934,38.801232
25067878,Madalena,Area M. Porto,309,2025-03-10T19:07:00Z,25067878,Em despacho,3315,Inundação de estruturas por precipitação intensa,0,0,0,0,2025-03-10T19:07:00Z,Vila Nova De Gaia,Porto,Norte,-8.64865,41.10778
25068457,Lordelo do Ouro e Massarelos,Area M. Porto,309,2025-03-10T21:46:00Z,25068457,Em despacho,3311,Queda de elementos de estruturas edificados,0,1,0,5,2025-03-10T21:46:00Z,Porto,Porto,Norte,-8.644953,41.152973
25068398,Santo Estêvão,Lezíria do Tejo,311,2025-03-10T21:33:00Z,25068398,Em despacho,3315,Inundação de estruturas por precipitação intensa,0,1,0,2,2025-03-10T21:33:00Z,Benavente,Santarém,Alentejo,-8.741412,38.861418
25068430,Sé e São Lourenço,Alto Alentejo,312,2025-03-10T21:40:00Z,25068430,Em curso,3315,Inundação de estruturas por precipitação intensa,0,1,0,3,2025-03-10T21:40:00Z,Portalegre,Portalegre,Alentejo,-7.427537,39.27689
25068479,Vila Nova de Cacela,Algarve,313,2025-03-10T20:37:00Z,25068479,Em despacho,3321,Dano na rede de fornecimento de eletricidade ,0,1,0,5,2025-03-10T20:37:00Z,Vila Real De Santo António,Faro,Algarve,-7.560058,37.157087
25068480,São Félix da Marinha,Area M. Porto,309,2025-03-10T17:13:00Z,25068480,Em curso,3315,Inundação de estruturas por precipitação intensa,0,0,0,0,2025-03-10T17:13:00Z,Vila Nova De Gaia,Porto,Norte,-8.629189,41.030125
