id,address,subregion,neighborhood,date,id.1,state,nature,nature_description,aerial_means,terrestrial_means,aquatic_means,operational,date.1,Concelho,Distrito,NUTII_DSG,longitude,latitude
25572508,Gouveia (São Simão),Tâmega e Sousa,309,2025-06-24T10:55:00Z,25572508,Em despacho,3107,Consolidação de rescaldo de incêndio rural,0,1,0,5,2025-06-24T10:55:00Z,Amarante,Porto,Norte,-8.06252,41.23046
25573394,Sado,Península de Setúbal,311,2025-06-24T13:58:00Z,25573394,Em despacho,3105,Incêndio rural,0,2,0,9,2025-06-24T13:58:00Z,Setúbal,Setúbal,Área Metropolitana De Lisboa,-8.81201,38.48917
25573260,Aljustrel e Rio de Moinhos,Baixo Alentejo,312,2025-06-24T13:37:00Z,25573260,Em conclusão,3105,Incêndio rural,0,8,0,25,2025-06-24T13:37:00Z,Aljustrel,Beja,Alentejo,-8.169328,37.896
25573403,Reguengo e São Julião,Alto Alentejo,312,2025-06-24T14:03:00Z,25573403,Em despacho,3101,Incêndio rural,0,6,0,27,2025-06-24T14:03:00Z,Portalegre,Portalegre,Alentejo,-7.248848,39.278512
25573402,Sousel,Alto Alentejo,312,2025-06-24T13:58:00Z,25573402,Em curso,2101,Incêndio em edifícios habitacionais,0,4,0,14,2025-06-24T13:58:00Z,Sousel,Portalegre,Alentejo,-7.688949,38.954047
25573145,Nespereira,Ave,309,2025-06-24T12:59:00Z,25573145,Em despacho,3107,Consolidação de rescaldo de incêndio rural,0,1,0,5,2025-06-24T12:59:00Z,Guimarães,Braga,Norte,-8.328117,41.411398
25571448,Azambuja,Lezíria do Tejo,311,2025-06-24T07:17:00Z,25571448,Em despacho,3109,Gestão de combustível,0,1,0,4,2025-06-24T07:17:00Z,Azambuja,Lisboa,Alentejo,-8.864506,39.067885
25572861,Poceirão e Marateca,Península de Setúbal,311,2025-06-24T11:54:00Z,25572861,Em conclusão,3105,Incêndio rural,0,2,0,8,2025-06-24T11:54:00Z,Palmela,Setúbal,Área Metropolitana De Lisboa,-8.702358,38.586871
