id,address,subregion,neighborhood,date,id.1,state,nature,nature_description,aerial_means,terrestrial_means,aquatic_means,operational,date.1,Concelho,Distrito,NUTII_DSG,longitude,latitude,state_2
25665133,Lindoso,Alto Minho,309,2025-07-12T02:50:00Z,25665133,Em Resolução/Conclusão,3103,Incêndio rural,0,2,0,9,2025-07-12T02:50:00Z,Ponte Da Barca,Viana Do Castelo,Norte,-8.224007,41.852543,Resolução/Conclusão
25662814,Soajo,Alto Minho,309,2025-07-11T15:16:00Z,25662814,Em Resolução/Conclusão,3103,Incêndio rural,0,2,0,6,2025-07-11T15:16:00Z,Arcos De Valdevez,Viana Do Castelo,Norte,-8.22891,41.87654,Resolução/Conclusão
25674235,São Miguel de Poiares,Região de Coimbra,310,2025-07-14T02:36:00Z,25674235,Em Despacho,3103,Incêndio rural,0,2,0,10,2025-07-14T02:36:00Z,Vila Nova De Poiares,Coimbra,Centro,-8.228289,40.229304,Despacho
25672444,Quintela de Lampaças,Terras de Trás-os-Montes,309,2025-07-13T16:29:00Z,25672444,Em Resolução/Conclusão,3103,Incêndio rural,0,8,0,23,2025-07-13T16:29:00Z,Bragança,Bragança,Norte,-6.899165,41.58745,Resolução/Conclusão
25674033,"S. Mig. Pinheiro, S. Pedro Solis e S. Sebastião Carros",Baixo Alentejo,312,2025-07-14T00:24:00Z,25674033,Em Resolução/Conclusão,3105,Incêndio rural,0,6,0,20,2025-07-14T00:24:00Z,Mértola,Beja,Alentejo,-7.80779,37.485158,Resolução/Conclusão
25674166,Viariz,Tâmega e Sousa,309,2025-07-14T01:36:00Z,25674166,Em Resolução/Conclusão,3103,Incêndio rural,0,5,0,22,2025-07-14T01:36:00Z,Baião,Porto,Norte,-7.945072,41.167467,Resolução/Conclusão
25672473,Alter do Chão,Alto Alentejo,312,2025-07-13T16:35:00Z,25672473,Em Resolução/Conclusão,3105,Incêndio rural,0,8,0,27,2025-07-13T16:35:00Z,Alter Do Chão,Portalegre,Alentejo,-7.645302,39.193763,Resolução/Conclusão
