id,address,subregion,neighborhood,date,id.1,state,nature,nature_description,aerial_means,terrestrial_means,aquatic_means,operational,date.1,Concelho,Distrito,NUTII_DSG,longitude,latitude,state_2
25885553,Rio Frio,Alto Minho,309,2025-08-23T09:14:00Z,25885553,Em Curso,3103,Incêndio rural,0,6,0,21,2025-08-23T09:14:00Z,Arcos De Valdevez,Viana Do Castelo,Norte,-8.496635,41.850237,Curso
25881792,Fontelo,Douro,309,2025-08-22T13:00:00Z,25881792,Em Resolução/Conclusão,3103,Incêndio rural,0,13,0,41,2025-08-22T13:00:00Z,Armamar,Viseu,Norte,-7.73329,41.12587,Resolução/Conclusão
25852580,São João de Tarouca,Douro,309,2025-08-16T17:00:00Z,25852580,Em Resolução/Conclusão,3103,Incêndio rural,0,3,0,12,2025-08-16T17:00:00Z,Tarouca,Viseu,Norte,-7.760748,40.986773,Resolução/Conclusão
25846480,Sabugal e Aldeia de Santo António,Beiras e Serra da Estrela,310,2025-08-15T14:41:00Z,25846480,Em Resolução/Conclusão,3103,Incêndio rural,0,31,0,101,2025-08-15T14:41:00Z,Sabugal,Guarda,Centro,-7.125037,40.34023,Resolução/Conclusão
25818455,Sobral de São Miguel,Beiras e Serra da Estrela,310,2025-08-10T15:02:00Z,25818455,Em Resolução/Conclusão,3103,Incêndio rural,0,1,0,1,2025-08-10T15:02:00Z,Covilhã,Castelo Branco,Centro,-7.77307,40.200173,Resolução/Conclusão
25886072,Souto Maior,Douro,309,2025-08-23T11:03:00Z,25886072,Em Resolução/Conclusão,3103,Incêndio rural,0,2,0,7,2025-08-23T11:03:00Z,Sabrosa,Vila Real,Norte,-7.567843,41.273943,Resolução/Conclusão
25885629,Rio Frio,Alto Minho,309,2025-08-23T09:31:00Z,25885629,Em Resolução/Conclusão,3103,Incêndio rural,0,3,0,12,2025-08-23T09:31:00Z,Arcos De Valdevez,Viana Do Castelo,Norte,-8.511693,41.855503,Resolução/Conclusão
25832250,Ferreira de Aves,Viseu Dão Lafões,310,2025-08-13T00:03:00Z,25832250,Em Resolução/Conclusão,3103,Incêndio rural,0,12,0,41,2025-08-13T00:03:00Z,Sátão,Viseu,Centro,-7.647793,40.79568,Resolução/Conclusão
25851721,Arnóia,Tâmega e Sousa,309,2025-08-16T14:24:00Z,25851721,Em Resolução/Conclusão,3103,Incêndio rural,0,9,0,34,2025-08-16T14:24:00Z,Celorico De Basto,Braga,Norte,-7.994469,41.369836,Resolução/Conclusão
25885493,Castro Daire,Viseu Dão Lafões,310,2025-08-23T09:00:00Z,25885493,Em Resolução/Conclusão,3103,Incêndio rural,0,4,0,20,2025-08-23T09:00:00Z,Castro Daire,Viseu,Centro,-7.94658,40.911802,Resolução/Conclusão
25813482,Freches e Torres,Beiras e Serra da Estrela,310,2025-08-09T16:21:00Z,25813482,Em Resolução/Conclusão,3103,Incêndio rural,0,6,0,24,2025-08-09T16:21:00Z,Trancoso,Guarda,Centro,-7.363745,40.709022,Resolução/Conclusão
25840505,Ribeira de Nisa e Carreiras,Alto Alentejo,312,2025-08-14T14:01:00Z,25840505,Em Resolução/Conclusão,3101,Incêndio rural,0,2,0,7,2025-08-14T14:01:00Z,Portalegre,Portalegre,Alentejo,-7.47009,39.374707,Resolução/Conclusão
25885911,"Areias, Sequeiró, Lama e Palmeira",Area M. Porto,309,2025-08-23T10:33:00Z,25885911,Em Resolução/Conclusão,3103,Incêndio rural,0,1,0,5,2025-08-23T10:33:00Z,Santo Tirso,Porto,Norte,-8.492238,41.36044,Resolução/Conclusão
25881398,Seixo de Ansiães,Douro,309,2025-08-22T11:45:00Z,25881398,Em Resolução/Conclusão,3103,Incêndio rural,0,2,0,9,2025-08-22T11:45:00Z,Carrazeda De Ansiães,Bragança,Norte,-7.255142,41.178095,Resolução/Conclusão
25884981,Ervedosa,Terras de Trás-os-Montes,309,2025-08-23T04:39:00Z,25884981,Em Resolução/Conclusão,3103,Incêndio rural,0,9,0,26,2025-08-23T04:39:00Z,Vinhais,Bragança,Norte,-7.091225,41.725538,Resolução/Conclusão
25883011,Almofala,Viseu Dão Lafões,310,2025-08-22T17:00:00Z,25883011,Em Resolução/Conclusão,3103,Incêndio rural,3,32,0,106,2025-08-22T17:00:00Z,Castro Daire,Viseu,Centro,-7.767003,40.956183,Resolução/Conclusão
25861685,Santa Catarina da Serra e Chainça,Região de Leiria,310,2025-08-18T13:03:00Z,25861685,Em Resolução/Conclusão,3103,Incêndio rural,0,1,0,2,2025-08-18T13:03:00Z,Leiria,Leiria,Centro,-8.698656,39.708305,Resolução/Conclusão
25846016,Poiares,Douro,309,2025-08-15T13:17:00Z,25846016,Em Resolução/Conclusão,3103,Incêndio rural,0,6,0,12,2025-08-15T13:17:00Z,Freixo De Espada à Cinta,Bragança,Norte,-6.843393,41.075787,Resolução/Conclusão
25872413,Cinco Vilas e Reigada,Beiras e Serra da Estrela,310,2025-08-20T14:58:00Z,25872413,Em Resolução/Conclusão,3103,Incêndio rural,0,29,0,80,2025-08-20T14:58:00Z,Figueira De Castelo Rodrigo,Guarda,Centro,-6.95815,40.775573,Resolução/Conclusão
25832672,Piódão,Região de Coimbra,310,2025-08-13T05:08:00Z,25832672,Em Curso,3103,Incêndio rural,21,515,0,1530,2025-08-13T05:08:00Z,Arganil,Coimbra,Centro,-7.81972,40.23083,Curso
25857322,"Barcel, Marmelos e Valverde da Gestosa",Terras de Trás-os-Montes,309,2025-08-17T15:53:00Z,25857322,Em Resolução/Conclusão,3103,Incêndio rural,0,13,0,33,2025-08-17T15:53:00Z,Mirandela,Bragança,Norte,-7.209414,41.409479,Resolução/Conclusão
25840417,Lousã e Vilarinho,Região de Coimbra,310,2025-08-14T13:46:00Z,25840417,Em Resolução/Conclusão,3101,Incêndio rural,0,12,0,37,2025-08-14T13:46:00Z,Lousã,Coimbra,Centro,-8.201561,40.080016,Resolução/Conclusão
25882910,Picão e Ermida,Viseu Dão Lafões,310,2025-08-22T16:39:00Z,25882910,Em Resolução/Conclusão,3103,Incêndio rural,0,0,0,0,2025-08-22T16:39:00Z,Carregal Do Sal,Viseu,Centro,-7.945985,40.448677000000004,Resolução/Conclusão
25882071,Vila Marim,Douro,309,2025-08-22T14:02:00Z,25882071,Em Resolução/Conclusão,3103,Incêndio rural,0,13,0,44,2025-08-22T14:02:00Z,Vila Real,Vila Real,Norte,-7.814082,41.353615,Resolução/Conclusão
25836309,Cinfães,Tâmega e Sousa,309,2025-08-13T18:17:00Z,25836309,Em Resolução/Conclusão,3103,Incêndio rural,0,2,0,7,2025-08-13T18:17:00Z,Cinfães,Viseu,Norte,-8.071502,41.049757,Resolução/Conclusão
25885112,Moimenta e Montouto,Terras de Trás-os-Montes,309,2025-08-23T06:25:00Z,25885112,Em Resolução/Conclusão,3103,Incêndio rural,0,2,0,6,2025-08-23T06:25:00Z,Vinhais,Bragança,Norte,-6.953277,41.941952,Resolução/Conclusão
25860828,Vilar de Perdizes e Meixide,Alto Tâmega e Barroso,309,2025-08-18T10:25:00Z,25860828,Em Resolução/Conclusão,3103,Incêndio rural,0,24,0,104,2025-08-18T10:25:00Z,NA,NA,NA,-7.63634,41.880008,Resolução/Conclusão
25882003,"Mamouros, Alva e Ribolhos",Viseu Dão Lafões,310,2025-08-22T13:50:00Z,25882003,Em Resolução/Conclusão,3103,Incêndio rural,0,1,0,5,2025-08-22T13:50:00Z,Castro Daire,Viseu,Centro,-7.964705,40.861392,Resolução/Conclusão
