id,address,subregion,neighborhood,date,id.1,state,nature,nature_description,aerial_means,terrestrial_means,aquatic_means,operational,date.1,Concelho,Distrito,NUTII_DSG,longitude,latitude,state_2
26091182,Alfena,Area M. Porto,309,2025-10-05T11:35:00Z,26091182,Em Despacho,3103,Incêndio rural,0,1,0,5,2025-10-05T11:35:00Z,Valongo,Porto,Norte,-8.5276,41.22185,Despacho
26091038,Nossa Senhora de Fátima,Médio Tejo,311,2025-10-05T11:00:00Z,26091038,Em Resolução/Conclusão,3103,Incêndio rural,0,3,0,9,2025-10-05T11:00:00Z,Entroncamento,Santarém,Centro,-8.483195,39.478892,Resolução/Conclusão
26091145,Ouca,Região de Aveiro,310,2025-10-05T11:29:00Z,26091145,Em Despacho,3103,Incêndio rural,1,4,0,18,2025-10-05T11:29:00Z,Vagos,Aveiro,Centro,-8.659223,40.50922,Despacho
26090957,Amêndoa,Médio Tejo,311,2025-10-05T10:39:00Z,26090957,Em Resolução/Conclusão,3111,Queima,0,2,0,7,2025-10-05T10:39:00Z,Mação,Santarém,Centro,-8.053193,39.629695,Resolução/Conclusão
26091108,Travassos,Ave,309,2025-10-05T11:18:00Z,26091108,Em Despacho,3103,Incêndio rural,0,1,0,6,2025-10-05T11:18:00Z,Póvoa De Lanhoso,Braga,Norte,-8.2014,41.57486,Despacho
