id,address,subregion,neighborhood,date,id.1,state,nature,nature_description,aerial_means,terrestrial_means,aquatic_means,operational,date.1,Concelho,Distrito,NUTII_DSG,longitude,latitude,state_2
26176082,Encarnação,Grande Lisboa,311,2025-10-22T19:36:00Z,26176082,Em Despacho,3103,Incêndio rural,0,1,0,5,2025-10-22T19:36:00Z,Mafra,Lisboa,Área Metropolitana De Lisboa,-9.365289,39.029436,Despacho
26176011,"Caia, São Pedro e Alcáçova",Alto Alentejo,312,2025-10-22T19:20:00Z,26176011,Em Curso,3103,Incêndio rural,0,5,0,13,2025-10-22T19:20:00Z,Elvas,Portalegre,Alentejo,-7.143037,38.877515,Curso
26176072,Balazar,Area M. Porto,309,2025-10-22T19:15:00Z,26176072,Em Despacho,3103,Incêndio rural,0,1,0,5,2025-10-22T19:15:00Z,Póvoa De Varzim,Porto,Norte,-8.631829,41.40519,Despacho
26160929,Caranguejeira,Região de Leiria,310,2025-10-19T16:50:00Z,26160929,Em Resolução/Conclusão,3101,Incêndio rural,0,1,0,2,2025-10-19T16:50:00Z,Leiria,Leiria,Centro,-8.697637,39.726483,Resolução/Conclusão
26175928,Serpa (Salvador e Santa Maria),Baixo Alentejo,312,2025-10-22T19:04:00Z,26175928,Em Curso,3105,Incêndio rural,0,5,0,16,2025-10-22T19:04:00Z,Serpa,Beja,Alentejo,-7.555783,37.88592,Curso
26176064,Ventosa,Oeste,311,2025-10-22T19:37:00Z,26176064,Em Despacho,3103,Incêndio rural,0,0,0,0,2025-10-22T19:37:00Z,Torres Vedras,Lisboa,Centro,-9.329056,39.07674,Despacho
