id,address,subregion,neighborhood,date,id.1,state,nature,nature_description,aerial_means,terrestrial_means,aquatic_means,operational,date.1,Concelho,Distrito,NUTII_DSG,longitude,latitude,state_2
26078806,"Tavares (Chãs, Várzea e Travanca)",Viseu Dão Lafões,310,2025-10-02T17:31:00Z,26078806,Em Resolução/Conclusão,3103,Incêndio rural,0,2,0,7,2025-10-02T17:31:00Z,Mangualde,Viseu,Centro,-7.638958,40.609205,Resolução/Conclusão
26082580,Sanfins,Alto Tâmega e Barroso,309,2025-10-03T13:44:00Z,26082580,Em Resolução/Conclusão,3103,Incêndio rural,0,1,0,5,2025-10-03T13:44:00Z,Chaves,Vila Real,Norte,-7.249907,41.794552,Resolução/Conclusão
26083232,"Manique do Intendente, V. N. de São Pedro e Maçussa",Lezíria do Tejo,311,2025-10-03T15:56:00Z,26083232,Em Resolução/Conclusão,3103,Incêndio rural,0,10,0,31,2025-10-03T15:56:00Z,Azambuja,Lisboa,Alentejo,-8.884577,39.221332,Resolução/Conclusão
26083593,Montalegre e Padroso,Alto Tâmega e Barroso,309,2025-10-03T17:17:00Z,26083593,Em Resolução/Conclusão,3103,Incêndio rural,0,4,0,20,2025-10-03T17:17:00Z,Montalegre,Vila Real,Norte,-7.745468,41.860938,Resolução/Conclusão
26083836,Croca,Tâmega e Sousa,309,2025-10-03T18:11:00Z,26083836,Em Resolução/Conclusão,3105,Incêndio rural,0,1,0,5,2025-10-03T18:11:00Z,Penafiel,Porto,Norte,-8.243585,41.211715,Resolução/Conclusão
26082647,Odeceixe,Algarve,313,2025-10-03T13:58:00Z,26082647,Em Resolução/Conclusão,3103,Incêndio rural,0,10,0,28,2025-10-03T13:58:00Z,Aljezur,Faro,Algarve,-8.779653,37.4203,Resolução/Conclusão
26083758,Cimo de Vila da Castanheira,Alto Tâmega e Barroso,309,2025-10-03T17:53:00Z,26083758,Em Curso,3103,Incêndio rural,0,6,0,25,2025-10-03T17:53:00Z,Chaves,Vila Real,Norte,-7.283753,41.794895,Curso
26083842,"Soeira, Fresulfe e Mofreita",Terras de Trás-os-Montes,309,2025-10-03T18:11:00Z,26083842,Em Despacho,3103,Incêndio rural,0,7,0,25,2025-10-03T18:11:00Z,Vinhais,Bragança,Norte,-6.903364,41.86879,Despacho
26077823,São Cipriano e Vil de Souto,Viseu Dão Lafões,310,2025-10-02T14:18:00Z,26077823,Em Resolução/Conclusão,3103,Incêndio rural,0,1,0,2,2025-10-02T14:18:00Z,Viseu,Viseu,Centro,-7.953868,40.632302,Resolução/Conclusão
26078406,Arcozelo,Beiras e Serra da Estrela,310,2025-10-02T16:12:00Z,26078406,Em Resolução/Conclusão,3103,Incêndio rural,0,3,0,15,2025-10-02T16:12:00Z,Gouveia,Guarda,Centro,-7.635898,40.563733,Resolução/Conclusão
26022995,Bordeira,Algarve,313,2025-09-21T12:21:00Z,26022995,Em Resolução/Conclusão,3103,Incêndio rural,0,2,0,6,2025-09-21T12:21:00Z,Aljezur,Faro,Algarve,-8.825374,37.23495,Resolução/Conclusão
26082778,Argozelo,Terras de Trás-os-Montes,309,2025-10-03T14:25:00Z,26082778,Em Resolução/Conclusão,3103,Incêndio rural,0,4,0,14,2025-10-03T14:25:00Z,Vimioso,Bragança,Norte,-6.594535,41.647392,Resolução/Conclusão
26083781,Caparica e Trafaria,Península de Setúbal,311,2025-10-03T17:53:00Z,26083781,Em Resolução/Conclusão,3105,Incêndio rural,0,3,0,15,2025-10-03T17:53:00Z,Almada,Setúbal,Área Metropolitana De Lisboa,-9.206185,38.666258,Resolução/Conclusão
