id,address,subregion,neighborhood,date,id.1,state,nature,nature_description,aerial_means,terrestrial_means,aquatic_means,operational,date.1,Concelho,Distrito,NUTII_DSG,longitude,latitude,state_2
25646433,Poiares,Alto Minho,309,2025-07-08T12:15:00Z,25646433,Em Resolução/Conclusão,3103,Incêndio rural,0,2,0,10,2025-07-08T12:15:00Z,Ponte De Lima,Viana Do Castelo,Norte,-8.630928,41.664155,Resolução/Conclusão
25646834,Candemil e Gondar,Alto Minho,309,2025-07-08T13:37:00Z,25646834,Em Resolução/Conclusão,3103,Incêndio rural,0,11,0,37,2025-07-08T13:37:00Z,Vila Nova De Cerveira,Viana Do Castelo,Norte,-8.695768,41.93884,Resolução/Conclusão
25646932,Cerva e Limões,Alto Tâmega e Barroso,309,2025-07-08T13:55:00Z,25646932,Em Resolução/Conclusão,3103,Incêndio rural,0,4,0,17,2025-07-08T13:55:00Z,Ribeira De Pena,Vila Real,Norte,-7.791952,41.449613,Resolução/Conclusão
25647051,"Ovar, São João, Arada e São Vicente de Pereira Jusã",Região de Aveiro,310,2025-07-08T14:16:00Z,25647051,Em Resolução/Conclusão,3105,Incêndio rural,0,6,0,16,2025-07-08T14:16:00Z,Ovar,Aveiro,Centro,-8.63732,40.864115,Resolução/Conclusão
25647082,Barreiro e Lavradio,Península de Setúbal,311,2025-07-08T14:23:00Z,25647082,Em Resolução/Conclusão,3103,Incêndio rural,0,5,0,19,2025-07-08T14:23:00Z,Barreiro,Setúbal,Área Metropolitana De Lisboa,-9.054564,38.66949,Resolução/Conclusão
25642652,São Teotónio,Alentejo Litoral,312,2025-07-07T17:18:00Z,25642652,Em Resolução/Conclusão,3101,Incêndio rural,0,12,0,30,2025-07-07T17:18:00Z,Odemira,Beja,Alentejo,-8.590532,37.422208,Resolução/Conclusão
25644672,Pedrógão Grande,Região de Leiria,310,2025-07-08T05:25:00Z,25644672,Em Resolução/Conclusão,3101,Incêndio rural,0,1,0,2,2025-07-08T05:25:00Z,Pedrógão Grande,Leiria,Centro,-8.177475,39.934117,Resolução/Conclusão
25644708,Vila Facaia,Região de Leiria,310,2025-07-08T05:53:00Z,25644708,Em Resolução/Conclusão,3101,Incêndio rural,0,2,0,4,2025-07-08T05:53:00Z,Pedrógão Grande,Leiria,Centro,-8.219692,39.940218,Resolução/Conclusão
25646680,Cervães,Cávado,309,2025-07-08T13:07:00Z,25646680,Em Resolução/Conclusão,3103,Incêndio rural,0,5,0,17,2025-07-08T13:07:00Z,Vila Verde,Braga,Norte,-8.523402,41.607808,Resolução/Conclusão
25644550,Lomba,Area M. Porto,309,2025-07-08T03:03:00Z,25644550,Em Resolução/Conclusão,3103,Incêndio rural,0,4,0,14,2025-07-08T03:03:00Z,Gondomar,Porto,Norte,-8.406343,41.033605,Resolução/Conclusão
25644819,Penafiel,Tâmega e Sousa,309,2025-07-08T06:45:00Z,25644819,Em Resolução/Conclusão,3103,Incêndio rural,0,1,0,2,2025-07-08T06:45:00Z,Penafiel,Porto,Norte,-8.280964,41.200887,Resolução/Conclusão
25646023,Astromil,Area M. Porto,309,2025-07-08T10:50:00Z,25646023,Em Resolução/Conclusão,3103,Incêndio rural,0,2,0,7,2025-07-08T10:50:00Z,Paredes,Porto,Norte,-8.424297,41.196585,Resolução/Conclusão
25646540,Beja (Salvador e Santa Maria da Feira),Baixo Alentejo,312,2025-07-08T12:41:00Z,25646540,Em Resolução/Conclusão,3105,Incêndio rural,0,5,0,14,2025-07-08T12:41:00Z,Beja,Beja,Alentejo,-7.86418,38.02794,Resolução/Conclusão
25646909,Nespereira,Tâmega e Sousa,309,2025-07-08T13:53:00Z,25646909,Em Curso,3103,Incêndio rural,4,14,0,70,2025-07-08T13:53:00Z,Cinfães,Viseu,Norte,-8.14026,40.99028,Curso
25647208,São Saturnino,Alto Alentejo,312,2025-07-08T14:42:00Z,25647208,Em Resolução/Conclusão,3105,Incêndio rural,0,4,0,14,2025-07-08T14:42:00Z,Fronteira,Portalegre,Alentejo,-7.55495,39.003147,Resolução/Conclusão
25646735,Campelo e Ovil,Tâmega e Sousa,309,2025-07-08T13:19:00Z,25646735,Em Curso,3105,Incêndio rural,0,6,0,23,2025-07-08T13:19:00Z,Baião,Porto,Norte,-8.00404,41.193612,Curso
25646889,Lavos,Região de Coimbra,310,2025-07-08T13:50:00Z,25646889,Em Resolução/Conclusão,3101,Incêndio rural,0,2,0,10,2025-07-08T13:50:00Z,Figueira Da Foz,Coimbra,Centro,-8.86111,40.07833,Resolução/Conclusão
25646903,Gondiães e Vilar de Cunhas,Ave,309,2025-07-08T13:53:00Z,25646903,Em Resolução/Conclusão,3103,Incêndio rural,0,14,0,52,2025-07-08T13:53:00Z,Cabeceiras De Basto,Braga,Norte,-7.859303,41.557525,Resolução/Conclusão
25646971,Branca,Região de Aveiro,310,2025-07-08T14:05:00Z,25646971,Em Curso,3103,Incêndio rural,1,3,0,21,2025-07-08T14:05:00Z,Albergaria-a-Velha,Aveiro,Centro,-8.522664,40.74559,Curso
25647112,Branca,Região de Aveiro,310,2025-07-08T14:26:00Z,25647112,Em Resolução/Conclusão,3103,Incêndio rural,0,1,0,5,2025-07-08T14:26:00Z,Albergaria-a-Velha,Aveiro,Centro,-8.493352,40.74028,Resolução/Conclusão
25647148,Parada de Todeia,Area M. Porto,309,2025-07-08T14:30:00Z,25647148,Em Resolução/Conclusão,3103,Incêndio rural,0,2,0,10,2025-07-08T14:30:00Z,Paredes,Porto,Norte,-8.377273,41.170775,Resolução/Conclusão
25647218,Avanca,Região de Aveiro,310,2025-07-08T14:45:00Z,25647218,Em Resolução/Conclusão,3101,Incêndio rural,0,4,0,17,2025-07-08T14:45:00Z,Estarreja,Aveiro,Centro,-8.575154,40.804832,Resolução/Conclusão
25647385,Castelo Novo,Beiras e Serra da Estrela,310,2025-07-08T15:11:00Z,25647385,Em Despacho,3101,Incêndio rural,0,0,0,0,2025-07-08T15:11:00Z,Fundão,Castelo Branco,Centro,-7.46352,40.02745,Despacho
25647173,Algoz e Tunes,Algarve,313,2025-07-08T14:38:00Z,25647173,Em Resolução/Conclusão,3103,Incêndio rural,1,6,0,29,2025-07-08T14:38:00Z,Silves,Faro,Algarve,-8.304204,37.167351,Resolução/Conclusão
25647314,Alfena,Area M. Porto,309,2025-07-08T15:00:00Z,25647314,Em Despacho,3103,Incêndio rural,0,2,0,8,2025-07-08T15:00:00Z,Valongo,Porto,Norte,-8.520185,41.24427,Despacho
25641154,Urra,Alto Alentejo,312,2025-07-07T12:29:00Z,25641154,Em Resolução/Conclusão,3101,Incêndio rural,0,8,0,24,2025-07-07T12:29:00Z,Portalegre,Portalegre,Alentejo,-7.46314,39.23684,Resolução/Conclusão
25644630,Recezinhos (São Mamede),Tâmega e Sousa,309,2025-07-08T04:33:00Z,25644630,Em Resolução/Conclusão,3103,Incêndio rural,0,6,0,18,2025-07-08T04:33:00Z,Penafiel,Porto,Norte,-8.216673,41.2387,Resolução/Conclusão
25644846,Castêlo da Maia,Area M. Porto,309,2025-07-08T07:09:00Z,25644846,Em Resolução/Conclusão,3101,Incêndio rural,0,2,0,4,2025-07-08T07:09:00Z,Maia,Porto,Norte,-8.639653,41.276835,Resolução/Conclusão
25645343,"Lobão, Gião, Louredo e Guisande",Area M. Porto,309,2025-07-08T09:06:00Z,25645343,Em Resolução/Conclusão,3103,Incêndio rural,0,1,0,2,2025-07-08T09:06:00Z,Santa Maria Da Feira,Aveiro,Norte,-8.448798,40.964302000000004,Resolução/Conclusão
25645409,"N.s. Conceição, S. Brás Matos, Juromenha",Alentejo Central,312,2025-07-08T09:22:00Z,25645409,Em Curso,3103,Incêndio rural,6,70,0,218,2025-07-08T09:22:00Z,Alandroal,Évora,Alentejo,-7.4021,38.67416,Curso
25646277,Talhinhas e Bagueixe,Terras de Trás-os-Montes,309,2025-07-08T11:44:00Z,25646277,Em Resolução/Conclusão,3103,Incêndio rural,0,13,0,40,2025-07-08T11:44:00Z,Macedo De Cavaleiros,Bragança,Norte,-6.758352,41.539552,Resolução/Conclusão
25646352,São Marcos da Ataboeira,Baixo Alentejo,312,2025-07-08T11:56:00Z,25646352,Em Resolução/Conclusão,3105,Incêndio rural,0,21,0,59,2025-07-08T11:56:00Z,Castro Verde,Beja,Alentejo,-7.912954,37.747521,Resolução/Conclusão
25647045,Lamego (Almacave e Sé),Douro,309,2025-07-08T14:16:00Z,25647045,Em Resolução/Conclusão,3103,Incêndio rural,0,3,0,9,2025-07-08T14:16:00Z,Lamego,Viseu,Norte,-7.811038,41.104453,Resolução/Conclusão
25647106,Tortosendo,Beiras e Serra da Estrela,310,2025-07-08T14:25:00Z,25647106,Em Curso,3103,Incêndio rural,8,40,0,170,2025-07-08T14:25:00Z,Covilhã,Castelo Branco,Centro,-7.516167,40.239413,Curso
25647188,Vilar de Andorinho,Area M. Porto,309,2025-07-08T14:40:00Z,25647188,Em Resolução/Conclusão,3103,Incêndio rural,0,1,0,5,2025-07-08T14:40:00Z,Vila Nova De Gaia,Porto,Norte,-8.586946,41.10076,Resolução/Conclusão
25647206,São Pedro Fins,Area M. Porto,309,2025-07-08T14:43:00Z,25647206,Em Curso,3103,Incêndio rural,1,4,0,23,2025-07-08T14:43:00Z,Maia,Porto,Norte,-8.550979,41.2361,Curso
