id,address,subregion,neighborhood,date,id.1,state,nature,nature_description,aerial_means,terrestrial_means,aquatic_means,operational,date.1,Concelho,Distrito,NUTII_DSG,longitude,latitude
24874564,"Sé, Santa Maria e Meixedo",Terras de Trás-os-Montes,309,2025-01-26T21:55:00Z,24874564,Em curso,3315,Inundação de estruturas por precipitação intensa,0,1,0,2,2025-01-26T21:55:00Z,Bragança,Bragança,Norte,-6.761223,41.813164
24880730,Souselo,Tâmega e Sousa,309,2025-01-28T06:20:00Z,24880730,Em conclusão,3301,Queda de árvore,0,2,0,4,2025-01-28T06:20:00Z,Cinfães,Viseu,Norte,-8.23189,41.073078
24880764,Caldas da Rainha - Santo Onofre e Serra do Bouro,Oeste,311,2025-01-28T06:20:00Z,24880764,Em curso,3321,Dano na rede de fornecimento de eletricidade ,0,2,0,4,2025-01-28T06:20:00Z,Caldas Da Rainha,Leiria,Centro,-9.148929,39.401713
24880769,Lamas e Cercal,Oeste,311,2025-01-28T06:40:00Z,24880769,Em despacho,3301,Queda de árvore,0,2,0,7,2025-01-28T06:40:00Z,Cadaval,Lisboa,Centro,-8.99583,39.224613
24880848,Bunheiro,Região de Aveiro,310,2025-01-28T07:23:00Z,24880848,Em curso,3301,Queda de árvore,0,0,0,0,2025-01-28T07:23:00Z,Murtosa,Aveiro,Centro,-8.646906,40.77217
24880873,"Almada, Cova da Piedade, Pragal e Cacilhas",Península de Setúbal,311,2025-01-28T07:25:00Z,24880873,Em despacho,3301,Queda de árvore,0,1,0,4,2025-01-28T07:25:00Z,Almada,Setúbal,Área Metropolitana De Lisboa,-9.164498,38.675268
24880880,São Pedro Fins,Area M. Porto,309,2025-01-28T07:35:00Z,24880880,Em despacho,3301,Queda de árvore,0,0,0,0,2025-01-28T07:35:00Z,Maia,Porto,Norte,-8.53927,41.25492
24880912,Nazaré,Oeste,311,2025-01-28T07:43:00Z,24880912,Em curso,3315,Inundação de estruturas por precipitação intensa,0,1,0,2,2025-01-28T07:43:00Z,Nazaré,Leiria,Centro,-9.062127,39.596083
24880921,São Miguel de Vila Boa,Viseu Dão Lafões,310,2025-01-28T07:50:00Z,24880921,Em despacho,3301,Queda de árvore,0,1,0,2,2025-01-28T07:50:00Z,Sátão,Viseu,Centro,-7.73998,40.69795
24880937,"Santa Maria, São Pedro e Sobral da Lagoa",Oeste,311,2025-01-28T07:51:00Z,24880937,Em despacho,3301,Queda de árvore,0,1,0,5,2025-01-28T07:51:00Z,Óbidos,Leiria,Centro,-9.147116,39.356695
24880799,"Alhões, Bustelo, Gralheira e Ramires",Tâmega e Sousa,309,2025-01-28T06:55:00Z,24880799,Em despacho,1107,Nevão,0,1,0,2,2025-01-28T06:55:00Z,Cinfães,Viseu,Norte,-7.967908,41.005471
24880900,Vaiamonte,Alto Alentejo,312,2025-01-28T07:41:00Z,24880900,Em despacho,3301,Queda de árvore,0,0,0,0,2025-01-28T07:41:00Z,Monforte,Portalegre,Alentejo,-7.535877,39.114201
24880902,Caldas da Rainha - Santo Onofre e Serra do Bouro,Oeste,311,2025-01-28T07:44:00Z,24880902,Em resolução,3301,Queda de árvore,0,1,0,5,2025-01-28T07:44:00Z,Caldas Da Rainha,Leiria,Centro,-9.15213,39.40868
24880915,Alvor,Algarve,313,2025-01-28T07:31:00Z,24880915,Em despacho,3329,Queda de estruturas temporárias ou móveis,0,1,0,2,2025-01-28T07:31:00Z,Portimão,Faro,Algarve,-8.5944680000000009,37.131433
24880933,São Martinho do Porto,Oeste,311,2025-01-28T07:49:00Z,24880933,Em despacho,3301,Queda de árvore,0,1,0,2,2025-01-28T07:49:00Z,Alcobaça,Leiria,Centro,-9.131915,39.510842
24880935,"Guia, Ilha e Mata Mourisca",Região de Leiria,310,2025-01-28T07:53:00Z,24880935,Em despacho,3301,Queda de árvore,0,1,0,2,2025-01-28T07:53:00Z,Pombal,Leiria,Centro,-8.76037,39.93666
24880949,Almeirim,Lezíria do Tejo,311,2025-01-28T07:57:00Z,24880949,Em despacho,3301,Queda de árvore,0,1,0,1,2025-01-28T07:57:00Z,Almeirim,Santarém,Alentejo,-8.588832,39.142251
24877003,Malagueira e Horta Das Figueiras,Alentejo Central,312,2025-01-27T11:41:00Z,24877003,Em conclusão,3315,Inundação de estruturas por precipitação intensa,0,1,0,2,2025-01-27T11:41:00Z,Évora,Évora,Alentejo,-7.924277,38.57285
24880829,Urqueira,Médio Tejo,311,2025-01-28T07:14:00Z,24880829,Em conclusão,3301,Queda de árvore,0,1,0,4,2025-01-28T07:14:00Z,Ourém,Santarém,Centro,-8.575107,39.726325
24880838,"Santa Maria da Feira, Travanca, Sanfins e Espargo",Area M. Porto,309,2025-01-28T06:50:00Z,24880838,Em despacho,3301,Queda de árvore,0,2,0,4,2025-01-28T06:50:00Z,Santa Maria Da Feira,Aveiro,Norte,-8.555837,40.9255
24880845,Gafanha da Nazaré,Região de Aveiro,310,2025-01-28T07:23:00Z,24880845,Em conclusão,3311,Queda de elementos de estruturas edificados,0,1,0,5,2025-01-28T07:23:00Z,Ílhavo,Aveiro,Centro,-8.705107,40.64439
24880854,Cartaxo e Vale da Pinta,Lezíria do Tejo,311,2025-01-28T07:26:00Z,24880854,Em curso,3301,Queda de árvore,0,0,0,0,2025-01-28T07:26:00Z,Cartaxo,Santarém,Alentejo,-8.794948,39.166481
24880881,Sandomil,Beiras e Serra da Estrela,310,2025-01-28T07:33:00Z,24880881,Em despacho,3301,Queda de árvore,0,1,0,2,2025-01-28T07:33:00Z,Seia,Guarda,Centro,-7.773059,40.355121
24880911,Salto,Alto Tâmega e Barroso,309,2025-01-28T07:30:00Z,24880911,Em despacho,1107,Nevão,0,1,0,2,2025-01-28T07:30:00Z,Montalegre,Vila Real,Norte,-7.952023,41.597916
24880947,Bunheiro,Região de Aveiro,310,2025-01-28T07:27:00Z,24880947,Em despacho,3301,Queda de árvore,0,1,0,3,2025-01-28T07:27:00Z,Murtosa,Aveiro,Centro,-8.650778,40.776602
24880954,Atouguia da Baleia,Oeste,311,2025-01-28T07:55:00Z,24880954,Em despacho,3329,Queda de estruturas temporárias ou móveis,0,1,0,5,2025-01-28T07:55:00Z,Peniche,Leiria,Centro,-9.317393,39.325858
24851780,"São Miguel, Santa Eufémia e Rabaçal",Região de Coimbra,310,2025-01-21T23:25:00Z,24851780,Em curso,3315,Inundação de estruturas por precipitação intensa,0,0,0,0,2025-01-21T23:25:00Z,Penela,Coimbra,Centro,-8.399036,40.025502
24880725,Almoster,Região de Leiria,310,2025-01-28T03:05:00Z,24880725,Em curso,3301,Queda de árvore,0,1,0,2,2025-01-28T03:05:00Z,Alvaiázere,Leiria,Centro,-8.456751,39.84433
24880757,Bombarral e Vale Covo,Oeste,311,2025-01-28T06:35:00Z,24880757,Em conclusão,3301,Queda de árvore,0,3,0,9,2025-01-28T06:35:00Z,Bombarral,Leiria,Centro,-9.157852,39.255368
24880792,Ulme,Lezíria do Tejo,311,2025-01-28T06:56:00Z,24880792,Em curso,3301,Queda de árvore,0,3,0,4,2025-01-28T06:56:00Z,Chamusca,Santarém,Alentejo,-8.30251,39.33025
24880807,Benfica do Ribatejo,Lezíria do Tejo,311,2025-01-28T07:03:00Z,24880807,Em curso,3301,Queda de árvore,0,1,0,3,2025-01-28T07:03:00Z,Almeirim,Santarém,Alentejo,-8.664093,39.15862
24880907,Batalha,Região de Leiria,310,2025-01-28T07:40:00Z,24880907,Em despacho,3301,Queda de árvore,0,1,0,2,2025-01-28T07:40:00Z,Batalha,Leiria,Centro,-8.861479,39.667767
24880925,Cela,Oeste,311,2025-01-28T07:51:00Z,24880925,Em despacho,3321,Dano na rede de fornecimento de eletricidade ,0,2,0,4,2025-01-28T07:51:00Z,Alcobaça,Leiria,Centro,-9.04784,39.513
