id,address,subregion,neighborhood,date,id.1,state,nature,nature_description,aerial_means,terrestrial_means,aquatic_means,operational,date.1,Concelho,Distrito,NUTII_DSG,longitude,latitude,state_2
25948144,Valongo de Milhais,Douro,309,2025-09-05T16:25:00Z,25948144,Em Resolução/Conclusão,3103,Incêndio rural,0,0,0,0,2025-09-05T16:25:00Z,Murça,Vila Real,Norte,-7.412273,41.457142,Resolução/Conclusão
25950261,"Sandim, Olival, Lever e Crestuma",Area M. Porto,309,2025-09-06T05:38:00Z,25950261,Em Resolução/Conclusão,3103,Incêndio rural,0,4,0,18,2025-09-06T05:38:00Z,Vila Nova De Gaia,Porto,Norte,-8.545846,41.046266,Resolução/Conclusão
25950302,Arco de Baúlhe e Vila Nune,Ave,309,2025-09-06T06:20:00Z,25950302,Em Despacho,3103,Incêndio rural,0,5,0,25,2025-09-06T06:20:00Z,Cabeceiras De Basto,Braga,Norte,-7.952445,41.47819,Despacho
25832672,Piódão,Região de Coimbra,310,2025-08-13T05:08:00Z,25832672,Em Resolução/Conclusão,3103,Incêndio rural,0,14,0,40,2025-08-13T05:08:00Z,Arganil,Coimbra,Centro,-7.81972,40.23083,Resolução/Conclusão
25840417,Lousã e Vilarinho,Região de Coimbra,310,2025-08-14T13:46:00Z,25840417,Em Resolução/Conclusão,3101,Incêndio rural,0,0,0,0,2025-08-14T13:46:00Z,Lousã,Coimbra,Centro,-8.201561,40.080016,Resolução/Conclusão
