id,address,subregion,neighborhood,date,id.1,state,nature,nature_description,aerial_means,terrestrial_means,aquatic_means,operational,date.1,Concelho,Distrito,NUTII_DSG,longitude,latitude
24851821,Santa Maria do Castelo e Santiago e Santa Susana,Alentejo Litoral,312,2025-01-21T23:41:00Z,24851821,Em resolução,1103,Vento forte,0,11,0,21,2025-01-21T23:41:00Z,Alcácer Do Sal,Setúbal,Alentejo,-8.598678,38.397168
24852523,São Brás de Alportel,Algarve,313,2025-01-22T07:34:00Z,24852523,Em despacho,3315,Inundação de estruturas por precipitação intensa,0,0,0,0,2025-01-22T07:34:00Z,São Brás De Alportel,Faro,Algarve,-7.89716,37.17049
24853574,Figueiró Dos Vinhos e Bairradas,Região de Leiria,310,2025-01-22T08:57:00Z,24853574,Em despacho,3313,Deslizamento de terras,0,1,0,4,2025-01-22T08:57:00Z,Figueiró Dos Vinhos,Leiria,Centro,-8.274585,39.893331
24853594,Santiago da Guarda,Região de Leiria,310,2025-01-22T10:45:00Z,24853594,Em curso,3315,Inundação de estruturas por precipitação intensa,0,1,0,1,2025-01-22T10:45:00Z,Ansião,Leiria,Centro,-8.467569,39.906443
24853610,Miranda do Corvo,Região de Coimbra,310,2025-01-22T10:50:00Z,24853610,Em despacho,3313,Deslizamento de terras,0,1,0,2,2025-01-22T10:50:00Z,Miranda Do Corvo,Coimbra,Centro,-8.339499,40.09407
24853724,Nossa Senhora da Piedade,Médio Tejo,311,2025-01-22T11:16:00Z,24853724,Em resolução,3315,Inundação de estruturas por precipitação intensa,0,3,0,7,2025-01-22T11:16:00Z,Ourém,Santarém,Centro,-8.55522,39.656745
24853726,Torrão,Alentejo Litoral,312,2025-01-22T11:15:00Z,24853726,Em conclusão,3301,Queda de árvore,0,2,0,5,2025-01-22T11:15:00Z,Alcácer Do Sal,Setúbal,Alentejo,-8.194432,38.221755
24853741,Alcanede,Lezíria do Tejo,311,2025-01-22T11:23:00Z,24853741,Em conclusão,3315,Inundação de estruturas por precipitação intensa,0,0,0,0,2025-01-22T11:23:00Z,Santarém,Santarém,Alentejo,-8.825713,39.42071
24853778,Torrão,Alentejo Litoral,312,2025-01-22T11:18:00Z,24853778,Em despacho,3301,Queda de árvore,0,1,0,3,2025-01-22T11:18:00Z,Alcácer Do Sal,Setúbal,Alentejo,-8.213722,38.257947
24853811,Escudeiros e Penso (Santo Estêvão e São Vicente),Cávado,309,2025-01-22T11:35:00Z,24853811,Em despacho,3301,Queda de árvore,0,1,0,5,2025-01-22T11:35:00Z,Braga,Braga,Norte,-8.429371,41.48173
24851780,"São Miguel, Santa Eufémia e Rabaçal",Região de Coimbra,310,2025-01-21T23:25:00Z,24851780,Em curso,3315,Inundação de estruturas por precipitação intensa,0,0,0,0,2025-01-21T23:25:00Z,Penela,Coimbra,Centro,-8.399036,40.025502
24852597,São Brás de Alportel,Algarve,313,2025-01-22T08:04:00Z,24852597,Em curso,3315,Inundação de estruturas por precipitação intensa,0,1,0,5,2025-01-22T08:04:00Z,São Brás De Alportel,Faro,Algarve,-7.90377,37.15284
24853099,Peniche,Oeste,311,2025-01-22T09:38:00Z,24853099,Em despacho,3315,Inundação de estruturas por precipitação intensa,0,1,0,2,2025-01-22T09:38:00Z,Peniche,Leiria,Centro,-9.376833,39.357166
24853385,Peniche,Oeste,311,2025-01-22T10:22:00Z,24853385,Em curso,3315,Inundação de estruturas por precipitação intensa,0,2,0,4,2025-01-22T10:22:00Z,Peniche,Leiria,Centro,-9.376833,39.357166
24853501,Gondemaria e Olival,Médio Tejo,311,2025-01-22T10:48:00Z,24853501,Em despacho,3315,Inundação de estruturas por precipitação intensa,0,5,0,8,2025-01-22T10:48:00Z,Ourém,Santarém,Centro,-8.608005,39.703973
24853617,"Sé, Santa Maria e Meixedo",Terras de Trás-os-Montes,309,2025-01-22T10:28:00Z,24853617,Em despacho,3315,Inundação de estruturas por precipitação intensa,0,1,0,1,2025-01-22T10:28:00Z,Bragança,Bragança,Norte,-6.761223,41.813164
24853751,Alverca do Ribatejo e Sobralinho,Grande Lisboa,311,2025-01-22T11:02:00Z,24853751,Em conclusão,3301,Queda de árvore,0,1,0,4,2025-01-22T11:02:00Z,Vila Franca De Xira,Lisboa,Área Metropolitana De Lisboa,-9.064747,38.918733
24852551,Alvorge,Região de Leiria,310,2025-01-22T07:38:00Z,24852551,Em despacho,3315,Inundação de estruturas por precipitação intensa,0,1,0,4,2025-01-22T07:38:00Z,Ansião,Leiria,Centro,-8.437457,39.972271
24853339,Minde,Médio Tejo,311,2025-01-22T10:23:00Z,24853339,Em curso,3315,Inundação de estruturas por precipitação intensa,0,1,0,5,2025-01-22T10:23:00Z,Alcanena,Santarém,Centro,-8.691237,39.511095
24853598,Ventosa,Viseu Dão Lafões,310,2025-01-22T11:02:00Z,24853598,Em despacho,3301,Queda de árvore,0,2,0,6,2025-01-22T11:02:00Z,Vouzela,Viseu,Centro,-8.104723,40.710228
24853687,Monchique,Algarve,313,2025-01-22T10:45:00Z,24853687,Em conclusão,3301,Queda de árvore,0,1,0,1,2025-01-22T10:45:00Z,Monchique,Faro,Algarve,-8.565129,37.314454
24853805,Santa Luzia,Algarve,313,2025-01-22T11:19:00Z,24853805,Em despacho,3301,Queda de árvore,0,1,0,3,2025-01-22T11:19:00Z,Tavira,Faro,Algarve,-7.669591,37.101699000000004
24853846,Ortiga,Médio Tejo,311,2025-01-22T11:43:00Z,24853846,Em resolução,3315,Inundação de estruturas por precipitação intensa,0,1,0,2,2025-01-22T11:43:00Z,Mação,Santarém,Centro,-8.029652,39.486276
24853921,Moscavide e Portela,Grande Lisboa,311,2025-01-22T11:42:00Z,24853921,Em despacho,3317,Inundação de estruturas por água canalizada,0,1,0,4,2025-01-22T11:42:00Z,Lisboa,Lisboa,Área Metropolitana De Lisboa,-9.099341,38.780698
24852943,São Brás de Alportel,Algarve,313,2025-01-22T09:09:00Z,24852943,Em despacho,3315,Inundação de estruturas por precipitação intensa,0,1,0,1,2025-01-22T09:09:00Z,São Brás De Alportel,Faro,Algarve,-7.878642,37.195684
24853129,Soutelo de Aguiar,Alto Tâmega e Barroso,309,2025-01-22T09:41:00Z,24853129,Em despacho,3315,Inundação de estruturas por precipitação intensa,0,1,0,5,2025-01-22T09:41:00Z,Vila Pouca De Aguiar,Vila Real,Norte,-7.665087,41.468356
24853204,São Brás de Alportel,Algarve,313,2025-01-22T09:55:00Z,24853204,Em despacho,3315,Inundação de estruturas por precipitação intensa,0,1,0,4,2025-01-22T09:55:00Z,São Brás De Alportel,Faro,Algarve,-7.861824,37.138335
24853352,Santa Bárbara de Nexe,Algarve,313,2025-01-22T09:30:00Z,24853352,Em curso,3315,Inundação de estruturas por precipitação intensa,0,1,0,2,2025-01-22T09:30:00Z,Faro,Faro,Algarve,-7.921522,37.121336
24853961,Estremoz (Santa Maria e Santo André),Alentejo Central,312,2025-01-22T11:57:00Z,24853961,Em curso,3301,Queda de árvore,0,1,0,2,2025-01-22T11:57:00Z,Estremoz,Évora,Alentejo,-7.604398,38.843801
24853976,Loulé (São Sebastião),Algarve,313,2025-01-22T12:02:00Z,24853976,Em despacho,3313,Deslizamento de terras,0,1,0,3,2025-01-22T12:02:00Z,Loulé,Faro,Algarve,-8.053183,37.111585
24854025,Santa Marinha e São Pedro da Afurada,Area M. Porto,309,2025-01-22T12:15:00Z,24854025,Em despacho,3311,Queda de elementos de estruturas edificados,0,0,0,0,2025-01-22T12:15:00Z,Vila Nova De Gaia,Porto,Norte,-8.62617,41.13819
24853996,Alcanede,Lezíria do Tejo,311,2025-01-22T12:08:00Z,24853996,Em conclusão,3315,Inundação de estruturas por precipitação intensa,0,1,0,2,2025-01-22T12:08:00Z,Santarém,Santarém,Alentejo,-8.835476,39.401329
24853556,Figueiró Dos Vinhos e Bairradas,Região de Leiria,310,2025-01-22T08:04:00Z,24853556,Em despacho,3313,Deslizamento de terras,0,1,0,4,2025-01-22T08:04:00Z,Figueiró Dos Vinhos,Leiria,Centro,-8.293324,39.906816
24853731,"Marvila, Ribeira Santarém, S.salvador, S.nicolau",Lezíria do Tejo,311,2025-01-22T11:22:00Z,24853731,Em conclusão,3315,Inundação de estruturas por precipitação intensa,0,2,0,6,2025-01-22T11:22:00Z,Santarém,Santarém,Alentejo,-8.678591,39.231938
24853770,Meca,Oeste,311,2025-01-22T11:26:00Z,24853770,Em despacho,3315,Inundação de estruturas por precipitação intensa,0,1,0,2,2025-01-22T11:26:00Z,Alenquer,Lisboa,Centro,-9.030989,39.075727
24853840,Alcanede,Lezíria do Tejo,311,2025-01-22T11:41:00Z,24853840,Em despacho,3315,Inundação de estruturas por precipitação intensa,0,1,0,1,2025-01-22T11:41:00Z,Santarém,Santarém,Alentejo,-8.820545,39.417631
24853931,Carapeços,Cávado,309,2025-01-22T11:55:00Z,24853931,Em despacho,3315,Inundação de estruturas por precipitação intensa,0,1,0,2,2025-01-22T11:55:00Z,Barcelos,Braga,Norte,-8.625898,41.583204
24853902,"Freixianda, Ribeira do Fárrio e Formigais",Médio Tejo,311,2025-01-22T11:54:00Z,24853902,Em despacho,3315,Inundação de estruturas por precipitação intensa,0,1,0,4,2025-01-22T11:54:00Z,Ourém,Santarém,Centro,-8.481177,39.769072
24853986,Alcanede,Lezíria do Tejo,311,2025-01-22T12:08:00Z,24853986,Em conclusão,3315,Inundação de estruturas por precipitação intensa,0,1,0,3,2025-01-22T12:08:00Z,Santarém,Santarém,Alentejo,-8.820545,39.417631
24854033,Fátima,Médio Tejo,311,2025-01-22T12:16:00Z,24854033,Em despacho,3315,Inundação de estruturas por precipitação intensa,0,2,0,6,2025-01-22T12:16:00Z,Ourém,Santarém,Centro,-8.621916,39.574455
24854035,"Marvila, Ribeira Santarém, S.salvador, S.nicolau",Lezíria do Tejo,311,2025-01-22T12:17:00Z,24854035,Em curso,3301,Queda de árvore,0,1,0,1,2025-01-22T12:17:00Z,Santarém,Santarém,Alentejo,-8.678591,39.231938
