id,address,subregion,neighborhood,date,id.1,state,nature,nature_description,aerial_means,terrestrial_means,aquatic_means,operational,date.1,Concelho,Distrito,NUTII_DSG,longitude,latitude,state_2
25670253,Panque,Cávado,309,2025-07-13T08:05:00Z,25670253,Em Resolução/Conclusão,3103,Incêndio rural,0,3,0,9,2025-07-13T08:05:00Z,Barcelos,Braga,Norte,-8.579567,41.64239,Resolução/Conclusão
25665133,Lindoso,Alto Minho,309,2025-07-12T02:50:00Z,25665133,Em Resolução/Conclusão,3103,Incêndio rural,0,18,0,59,2025-07-12T02:50:00Z,Ponte Da Barca,Viana Do Castelo,Norte,-8.224007,41.852543,Resolução/Conclusão
25667313,Santa Eufémia e Boa Vista,Região de Leiria,310,2025-07-12T14:36:00Z,25667313,Em Resolução/Conclusão,3103,Incêndio rural,0,1,0,2,2025-07-12T14:36:00Z,Leiria,Leiria,Centro,-8.761077,39.76109,Resolução/Conclusão
25670541,Fornos,Tâmega e Sousa,309,2025-07-13T09:15:00Z,25670541,Em Resolução/Conclusão,3103,Incêndio rural,0,0,0,0,2025-07-13T09:15:00Z,Castelo De Paiva,Aveiro,Norte,-8.242377,41.056052,Resolução/Conclusão
25670889,Moimenta e Montouto,Terras de Trás-os-Montes,309,2025-07-13T10:27:00Z,25670889,Em Resolução/Conclusão,3103,Incêndio rural,1,6,0,31,2025-07-13T10:27:00Z,Vinhais,Bragança,Norte,-7.01139,41.93917,Resolução/Conclusão
25662814,Soajo,Alto Minho,309,2025-07-11T15:16:00Z,25662814,Em Resolução/Conclusão,3103,Incêndio rural,0,0,0,0,2025-07-11T15:16:00Z,Arcos De Valdevez,Viana Do Castelo,Norte,-8.22891,41.87654,Resolução/Conclusão
25670695,Azinheira Dos Barros e São Mamede do Sádão,Alentejo Litoral,312,2025-07-13T09:46:00Z,25670695,Em Resolução/Conclusão,3105,Incêndio rural,0,4,0,10,2025-07-13T09:46:00Z,Grândola,Setúbal,Alentejo,-8.424822,38.057768,Resolução/Conclusão
25670843,Almancil,Algarve,313,2025-07-13T10:15:00Z,25670843,Em Resolução/Conclusão,3103,Incêndio rural,0,2,0,6,2025-07-13T10:15:00Z,Loulé,Faro,Algarve,-8.02826,37.08161,Resolução/Conclusão
