id,address,subregion,neighborhood,date,id.1,state,nature,nature_description,aerial_means,terrestrial_means,aquatic_means,operational,date.1,Concelho,Distrito,NUTII_DSG,longitude,latitude,state_2
26013065,Mezio e Moura Morta,Viseu Dão Lafões,310,2025-09-19T11:05:00Z,26013065,Em Resolução/Conclusão,3103,Incêndio rural,0,2,0,6,2025-09-19T11:05:00Z,Castro Daire,Viseu,Centro,-7.878187,40.98632,Resolução/Conclusão
26013919,Ervedal e Vila Franca da Beira,Região de Coimbra,310,2025-09-19T13:25:00Z,26013919,Em Resolução/Conclusão,3101,Incêndio rural,0,0,0,0,2025-09-19T13:25:00Z,Oliveira Do Hospital,Coimbra,Centro,-7.90472,40.43917,Resolução/Conclusão
26028091,Pelmá,Região de Leiria,310,2025-09-22T13:35:00Z,26028091,Em Resolução/Conclusão,3103,Incêndio rural,0,1,0,2,2025-09-22T13:35:00Z,Alvaiázere,Leiria,Centro,-8.455905,39.771273,Resolução/Conclusão
26031908,Arcozelo Das Maias,Viseu Dão Lafões,310,2025-09-23T10:21:00Z,26031908,Em Resolução/Conclusão,3103,Incêndio rural,0,3,0,12,2025-09-23T10:21:00Z,Oliveira De Frades,Viseu,Centro,-8.27871,40.723646,Resolução/Conclusão
26045305,Válega,Região de Aveiro,310,2025-09-25T22:20:00Z,26045305,Em Curso,3103,Incêndio rural,0,7,0,18,2025-09-25T22:20:00Z,Ovar,Aveiro,Centro,-8.549982,40.833902,Curso
25951176,Sandomil,Beiras e Serra da Estrela,310,2025-09-06T10:29:00Z,25951176,Em Resolução/Conclusão,3103,Incêndio rural,0,2,0,10,2025-09-06T10:29:00Z,Seia,Guarda,Centro,-7.76001,40.351547,Resolução/Conclusão
26024276,Monte Redondo e Carreira,Região de Leiria,310,2025-09-21T17:24:00Z,26024276,Em Resolução/Conclusão,3105,Incêndio rural,0,1,0,2,2025-09-21T17:24:00Z,Leiria,Leiria,Centro,-8.786287,39.874758,Resolução/Conclusão
26024592,Monte Redondo e Carreira,Região de Leiria,310,2025-09-21T18:44:00Z,26024592,Em Resolução/Conclusão,3105,Incêndio rural,0,1,0,2,2025-09-21T18:44:00Z,Leiria,Leiria,Centro,-8.85119,39.877718,Resolução/Conclusão
26035925,Pelmá,Região de Leiria,310,2025-09-24T06:05:00Z,26035925,Em Resolução/Conclusão,3101,Incêndio rural,0,1,0,2,2025-09-24T06:05:00Z,Alvaiázere,Leiria,Centro,-8.431617,39.797163,Resolução/Conclusão
26045048,Felgueiras e Feirão,Tâmega e Sousa,309,2025-09-25T20:50:00Z,26045048,Em Resolução/Conclusão,3103,Incêndio rural,0,2,0,10,2025-09-25T20:50:00Z,Resende,Viseu,Norte,-7.936447,41.075638,Resolução/Conclusão
26045250,Santo André,Alto Tâmega e Barroso,309,2025-09-25T21:52:00Z,26045250,Em Resolução/Conclusão,3103,Incêndio rural,0,1,0,5,2025-09-25T21:52:00Z,Montalegre,Vila Real,Norte,-7.665836,41.863612,Resolução/Conclusão
26037389,Sande e São Lourenço,Tâmega e Sousa,309,2025-09-24T11:40:00Z,26037389,Em Resolução/Conclusão,3103,Incêndio rural,0,6,0,20,2025-09-24T11:40:00Z,Marco De Canaveses,Porto,Norte,-8.18871,41.112067,Resolução/Conclusão
26042714,Alcofra,Viseu Dão Lafões,310,2025-09-25T12:40:00Z,26042714,Em Resolução/Conclusão,3103,Incêndio rural,0,2,0,7,2025-09-25T12:40:00Z,Vouzela,Viseu,Centro,-8.189008,40.643305,Resolução/Conclusão
26045322,"Camarate, Unhos e Apelação",Grande Lisboa,311,2025-09-25T22:24:00Z,26045322,Em Resolução/Conclusão,3103,Incêndio rural,0,5,0,16,2025-09-25T22:24:00Z,Loures,Lisboa,Área Metropolitana De Lisboa,-9.14025,38.81009,Resolução/Conclusão
26045338,Meãs do Campo,Região de Coimbra,310,2025-09-25T22:28:00Z,26045338,Em Resolução/Conclusão,3103,Incêndio rural,0,6,0,17,2025-09-25T22:28:00Z,Montemor-o-Velho,Coimbra,Centro,-8.62417,40.22111,Resolução/Conclusão
26045370,Castelo Rodrigo,Beiras e Serra da Estrela,310,2025-09-25T22:45:00Z,26045370,Em Resolução/Conclusão,3103,Incêndio rural,0,4,0,17,2025-09-25T22:45:00Z,Figueira De Castelo Rodrigo,Guarda,Centro,-6.919867,40.868843,Resolução/Conclusão
26045397,Bemposta,Médio Tejo,311,2025-09-25T22:59:00Z,26045397,Em Despacho,3101,Incêndio rural,0,9,0,34,2025-09-25T22:59:00Z,Abrantes,Santarém,Centro,-8.1331,39.339506,Despacho
26013405,Barreiros e Cepões,Viseu Dão Lafões,310,2025-09-19T11:56:00Z,26013405,Em Resolução/Conclusão,3103,Incêndio rural,0,0,0,0,2025-09-19T11:56:00Z,Viseu,Viseu,Centro,-7.786007,40.76602,Resolução/Conclusão
26022995,Bordeira,Algarve,313,2025-09-21T12:21:00Z,26022995,Em Resolução/Conclusão,3103,Incêndio rural,0,149,0,448,2025-09-21T12:21:00Z,Aljezur,Faro,Algarve,-8.825374,37.23495,Resolução/Conclusão
26044154,"Coz, Alpedriz e Montes",Oeste,311,2025-09-25T17:11:00Z,26044154,Em Resolução/Conclusão,3103,Incêndio rural,0,13,0,48,2025-09-25T17:11:00Z,Alcobaça,Leiria,Centro,-8.922227,39.590357,Resolução/Conclusão
26045226,Alvares,Região de Coimbra,310,2025-09-25T21:48:00Z,26045226,Em Resolução/Conclusão,3101,Incêndio rural,0,8,0,28,2025-09-25T21:48:00Z,Góis,Coimbra,Centro,-8.092095,40.053722,Resolução/Conclusão
26045275,Travanca,Tâmega e Sousa,309,2025-09-25T22:04:00Z,26045275,Em Resolução/Conclusão,3103,Incêndio rural,0,0,0,0,2025-09-25T22:04:00Z,Amarante,Porto,Norte,-8.193395,41.259113,Resolução/Conclusão
