id,address,subregion,neighborhood,date,id.1,state,nature,nature_description,aerial_means,terrestrial_means,aquatic_means,operational,date.1,Concelho,Distrito,NUTII_DSG,longitude,latitude,state_2
26112710,Bordeira,Algarve,313,2025-10-09T18:21:00Z,26112710,Em Resolução/Conclusão,3103,Incêndio rural,0,1,0,5,2025-10-09T18:21:00Z,Aljezur,Faro,Algarve,-8.822937,37.221525,Resolução/Conclusão
26113513,Gondufe,Alto Minho,309,2025-10-09T22:11:00Z,26113513,Em Despacho,3103,Incêndio rural,0,1,0,5,2025-10-09T22:11:00Z,Ponte De Lima,Viana Do Castelo,Norte,-8.504777,41.772119000000004,Despacho
26093602,Castro Daire,Viseu Dão Lafões,310,2025-10-05T22:05:00Z,26093602,Em Resolução/Conclusão,3103,Incêndio rural,0,0,0,0,2025-10-05T22:05:00Z,Castro Daire,Viseu,Centro,-7.9408,40.925289,Resolução/Conclusão
26113283,Gralhas,Alto Tâmega e Barroso,309,2025-10-09T20:51:00Z,26113283,Em Curso,3103,Incêndio rural,0,6,0,26,2025-10-09T20:51:00Z,Montalegre,Vila Real,Norte,-7.719948,41.856633,Curso
26113484,Baguim do Monte (Rio Tinto),Area M. Porto,309,2025-10-09T21:59:00Z,26113484,Em Despacho,3103,Incêndio rural,0,4,0,9,2025-10-09T21:59:00Z,Gondomar,Porto,Norte,-8.542001,41.19305,Despacho
