id,address,subregion,neighborhood,date,id.1,state,nature,nature_description,aerial_means,terrestrial_means,aquatic_means,operational,date.1,Concelho,Distrito,NUTII_DSG,longitude,latitude,state_2
25818455,Sobral de São Miguel,Beiras e Serra da Estrela,310,2025-08-10T15:02:00Z,25818455,Em Resolução/Conclusão,3103,Incêndio rural,0,2,0,2,2025-08-10T15:02:00Z,Covilhã,Castelo Branco,Centro,-7.77307,40.200173,Resolução/Conclusão
25846480,Sabugal e Aldeia de Santo António,Beiras e Serra da Estrela,310,2025-08-15T14:41:00Z,25846480,Em Curso,3103,Incêndio rural,4,122,0,451,2025-08-15T14:41:00Z,Sabugal,Guarda,Centro,-7.125037,40.34023,Curso
25852580,São João de Tarouca,Douro,309,2025-08-16T17:00:00Z,25852580,Em Resolução/Conclusão,3103,Incêndio rural,0,21,0,66,2025-08-16T17:00:00Z,Tarouca,Viseu,Norte,-7.760748,40.986773,Resolução/Conclusão
25867021,Carrazeda de Ansiães,Douro,309,2025-08-19T13:27:00Z,25867021,Em Resolução/Conclusão,3103,Incêndio rural,0,29,0,97,2025-08-19T13:27:00Z,Carrazeda De Ansiães,Bragança,Norte,-7.28399,41.211137,Resolução/Conclusão
25868208,Vila da Ponte,Douro,309,2025-08-19T17:29:00Z,25868208,Em Resolução/Conclusão,3103,Incêndio rural,0,0,0,0,2025-08-19T17:29:00Z,Sernancelhe,Viseu,Norte,-7.51704,40.917505,Resolução/Conclusão
25868589,Proença-a-Nova e Peral,Beira Baixa,310,2025-08-19T19:06:00Z,25868589,Em Resolução/Conclusão,3101,Incêndio rural,0,12,0,41,2025-08-19T19:06:00Z,Proença-a-Nova,Castelo Branco,Centro,-7.90942,39.713548,Resolução/Conclusão
25868876,Louredo e Fornelos,Douro,309,2025-08-19T20:10:00Z,25868876,Em Resolução/Conclusão,3103,Incêndio rural,0,2,0,7,2025-08-19T20:10:00Z,Santa Marta De Penaguião,Vila Real,Norte,-7.825263,41.239325,Resolução/Conclusão
25871015,Caldas de São Jorge e Pigeiros,Area M. Porto,309,2025-08-20T10:30:00Z,25871015,Em Resolução/Conclusão,3101,Incêndio rural,0,1,0,5,2025-08-20T10:30:00Z,Santa Maria Da Feira,Aveiro,Norte,-8.4982780000000009,40.95582,Resolução/Conclusão
25871265,Vimieiro,Alentejo Central,312,2025-08-20T11:12:00Z,25871265,Em Resolução/Conclusão,3103,Incêndio rural,0,19,0,64,2025-08-20T11:12:00Z,Arraiolos,Évora,Alentejo,-7.916822,38.890937,Resolução/Conclusão
25871365,Vera Cruz,Alentejo Central,312,2025-08-20T11:28:00Z,25871365,Em Resolução/Conclusão,3105,Incêndio rural,1,16,0,45,2025-08-20T11:28:00Z,Portel,Évora,Alentejo,-7.726097,38.235628,Resolução/Conclusão
25871500,Sertã,Beira Baixa,310,2025-08-20T11:52:00Z,25871500,Em Resolução/Conclusão,3101,Incêndio rural,0,10,0,32,2025-08-20T11:52:00Z,Sertã,Castelo Branco,Centro,-8.044303,39.850257,Resolução/Conclusão
25872049,Lustosa e Barrosas (Santo Estêvão),Tâmega e Sousa,309,2025-08-20T13:48:00Z,25872049,Em Despacho,3103,Incêndio rural,1,1,0,11,2025-08-20T13:48:00Z,Lousada,Porto,Norte,-8.326389,41.32361,Despacho
25872050,Gafanha da Nazaré,Região de Aveiro,310,2025-08-20T13:45:00Z,25872050,Em Curso,3103,Incêndio rural,0,2,0,10,2025-08-20T13:45:00Z,Ílhavo,Aveiro,Centro,-8.692294,40.62848,Curso
25845171,Pêra do Moço,Beiras e Serra da Estrela,310,2025-08-15T10:44:00Z,25845171,Em Resolução/Conclusão,3103,Incêndio rural,0,2,0,10,2025-08-15T10:44:00Z,Guarda,Guarda,Centro,-7.20956,40.61267,Resolução/Conclusão
25846016,Poiares,Douro,309,2025-08-15T13:17:00Z,25846016,Em Resolução/Conclusão,3103,Incêndio rural,0,32,0,95,2025-08-15T13:17:00Z,Freixo De Espada à Cinta,Bragança,Norte,-6.843393,41.075787,Resolução/Conclusão
25847211,Campelo,Região de Leiria,310,2025-08-15T17:01:00Z,25847211,Em Resolução/Conclusão,3101,Incêndio rural,0,7,0,26,2025-08-15T17:01:00Z,Figueiró Dos Vinhos,Leiria,Centro,-8.258518,39.952923,Resolução/Conclusão
25861685,Santa Catarina da Serra e Chainça,Região de Leiria,310,2025-08-18T13:03:00Z,25861685,Em Resolução/Conclusão,3103,Incêndio rural,0,1,0,2,2025-08-18T13:03:00Z,Leiria,Leiria,Centro,-8.698656,39.708305,Resolução/Conclusão
25866858,"Pena, Quintã e Vila Cova",Douro,309,2025-08-19T12:52:00Z,25866858,Em Resolução/Conclusão,3103,Incêndio rural,0,2,0,7,2025-08-19T12:52:00Z,Vila Real,Vila Real,Norte,-7.819168,41.2897,Resolução/Conclusão
25871527,Nespereira e Casais,Tâmega e Sousa,309,2025-08-20T11:50:00Z,25871527,Em Resolução/Conclusão,3103,Incêndio rural,0,1,0,5,2025-08-20T11:50:00Z,Lousada,Porto,Norte,-8.310048,41.270828,Resolução/Conclusão
25871559,Mértola,Baixo Alentejo,312,2025-08-20T12:00:00Z,25871559,Em Despacho,3105,Incêndio rural,0,3,0,11,2025-08-20T12:00:00Z,Mértola,Beja,Alentejo,-7.697118,37.791069,Despacho
25871952,Poceirão e Marateca,Península de Setúbal,311,2025-08-20T13:27:00Z,25871952,Em Resolução/Conclusão,3103,Incêndio rural,0,4,0,16,2025-08-20T13:27:00Z,Palmela,Setúbal,Área Metropolitana De Lisboa,-8.734842,38.673408,Resolução/Conclusão
25872063,Souto,Douro,309,2025-08-20T13:48:00Z,25872063,Em Despacho,3103,Incêndio rural,1,3,0,16,2025-08-20T13:48:00Z,Penedono,Viseu,Norte,-7.38141,41.01858,Despacho
25813482,Freches e Torres,Beiras e Serra da Estrela,310,2025-08-09T16:21:00Z,25813482,Em Resolução/Conclusão,3103,Incêndio rural,0,12,0,41,2025-08-09T16:21:00Z,Trancoso,Guarda,Centro,-7.363745,40.709022,Resolução/Conclusão
25832250,Ferreira de Aves,Viseu Dão Lafões,310,2025-08-13T00:03:00Z,25832250,Em Resolução/Conclusão,3103,Incêndio rural,0,19,0,58,2025-08-13T00:03:00Z,Sátão,Viseu,Centro,-7.647793,40.79568,Resolução/Conclusão
25836309,Cinfães,Tâmega e Sousa,309,2025-08-13T18:17:00Z,25836309,Em Resolução/Conclusão,3103,Incêndio rural,0,1,0,2,2025-08-13T18:17:00Z,Cinfães,Viseu,Norte,-8.071502,41.049757,Resolução/Conclusão
25840505,Ribeira de Nisa e Carreiras,Alto Alentejo,312,2025-08-14T14:01:00Z,25840505,Em Resolução/Conclusão,3101,Incêndio rural,0,3,0,9,2025-08-14T14:01:00Z,Portalegre,Portalegre,Alentejo,-7.47009,39.374707,Resolução/Conclusão
25851721,Arnóia,Tâmega e Sousa,309,2025-08-16T14:24:00Z,25851721,Em Resolução/Conclusão,3103,Incêndio rural,0,8,0,28,2025-08-16T14:24:00Z,Celorico De Basto,Braga,Norte,-7.994469,41.369836,Resolução/Conclusão
25860828,Vilar de Perdizes e Meixide,Alto Tâmega e Barroso,309,2025-08-18T10:25:00Z,25860828,Em Resolução/Conclusão,3103,Incêndio rural,4,107,0,315,2025-08-18T10:25:00Z,NA,NA,NA,-7.63634,41.880008,Resolução/Conclusão
25867995,Lomba,Area M. Porto,309,2025-08-19T16:36:00Z,25867995,Em Resolução/Conclusão,3103,Incêndio rural,0,6,0,21,2025-08-19T16:36:00Z,Gondomar,Porto,Norte,-8.41085,41.05968,Resolução/Conclusão
25868316,"Espírito Santo, Nossa Senhora da Graça e São Simão",Alto Alentejo,312,2025-08-19T17:52:00Z,25868316,Em Resolução/Conclusão,3101,Incêndio rural,0,8,0,28,2025-08-19T17:52:00Z,Nisa,Portalegre,Alentejo,-7.710377,39.493737,Resolução/Conclusão
25871924,Cabeça Santa,Tâmega e Sousa,309,2025-08-20T13:15:00Z,25871924,Em Resolução/Conclusão,3103,Incêndio rural,0,3,0,11,2025-08-20T13:15:00Z,Penafiel,Porto,Norte,-8.312803,41.145165,Resolução/Conclusão
25871941,Bencatel,Alentejo Central,312,2025-08-20T13:24:00Z,25871941,Em Resolução/Conclusão,3103,Incêndio rural,0,2,0,7,2025-08-20T13:24:00Z,Vila Viçosa,Évora,Alentejo,-7.461059,38.739322,Resolução/Conclusão
25872059,Fiães,Area M. Porto,309,2025-08-20T13:44:00Z,25872059,Em Despacho,3103,Incêndio rural,0,1,0,5,2025-08-20T13:44:00Z,Santa Maria Da Feira,Aveiro,Norte,-8.522206,40.985785,Despacho
25872060,"Canedo, Vale e Vila Maior",Area M. Porto,309,2025-08-20T13:48:00Z,25872060,Em Despacho,3103,Incêndio rural,1,1,0,11,2025-08-20T13:48:00Z,Santa Maria Da Feira,Aveiro,Norte,-8.474879,41.04571,Despacho
25832672,Piódão,Região de Coimbra,310,2025-08-13T05:08:00Z,25832672,Em Curso,3103,Incêndio rural,20,546,0,1622,2025-08-13T05:08:00Z,Arganil,Coimbra,Centro,-7.81972,40.23083,Curso
25840417,Lousã e Vilarinho,Região de Coimbra,310,2025-08-14T13:46:00Z,25840417,Em Resolução/Conclusão,3101,Incêndio rural,0,20,0,55,2025-08-14T13:46:00Z,Lousã,Coimbra,Centro,-8.201561,40.080016,Resolução/Conclusão
25857322,"Barcel, Marmelos e Valverde da Gestosa",Terras de Trás-os-Montes,309,2025-08-17T15:53:00Z,25857322,Em Resolução/Conclusão,3103,Incêndio rural,0,105,0,309,2025-08-17T15:53:00Z,Mirandela,Bragança,Norte,-7.209414,41.409479,Resolução/Conclusão
25859212,Moimenta,Cávado,309,2025-08-17T23:49:00Z,25859212,Em Resolução/Conclusão,3103,Incêndio rural,0,3,0,13,2025-08-17T23:49:00Z,Terras De Bouro,Braga,Norte,-8.303262,41.711533,Resolução/Conclusão
25869388,Armil,Ave,309,2025-08-19T22:29:00Z,25869388,Em Resolução/Conclusão,3103,Incêndio rural,0,7,0,24,2025-08-19T22:29:00Z,Fafe,Braga,Norte,-8.180218,41.423148,Resolução/Conclusão
25869865,Monchique,Algarve,313,2025-08-20T02:38:00Z,25869865,Em Resolução/Conclusão,3103,Incêndio rural,0,1,0,2,2025-08-20T02:38:00Z,Monchique,Faro,Algarve,-8.573545,37.31644,Resolução/Conclusão
25871337,Trigaches e São Brissos,Baixo Alentejo,312,2025-08-20T11:19:00Z,25871337,Em Resolução/Conclusão,3101,Incêndio rural,0,4,0,10,2025-08-20T11:19:00Z,Beja,Beja,Alentejo,-7.91426,38.069137,Resolução/Conclusão
25871342,Folgosa,Area M. Porto,309,2025-08-20T11:15:00Z,25871342,Em Resolução/Conclusão,3103,Incêndio rural,0,2,0,7,2025-08-20T11:15:00Z,Maia,Porto,Norte,-8.544233,41.237647,Resolução/Conclusão
25871571,Cachopo,Algarve,313,2025-08-20T12:07:00Z,25871571,Em Resolução/Conclusão,3103,Incêndio rural,0,5,0,18,2025-08-20T12:07:00Z,Tavira,Faro,Algarve,-7.826764,37.34092,Resolução/Conclusão
25871803,Babe,Terras de Trás-os-Montes,309,2025-08-20T12:57:00Z,25871803,Em Resolução/Conclusão,3105,Incêndio rural,0,6,0,19,2025-08-20T12:57:00Z,Bragança,Bragança,Norte,-6.629258,41.81887,Resolução/Conclusão
25871819,Mezio e Moura Morta,Viseu Dão Lafões,310,2025-08-20T12:57:00Z,25871819,Em Resolução/Conclusão,3101,Incêndio rural,0,4,0,8,2025-08-20T12:57:00Z,Castro Daire,Viseu,Centro,-7.883077,40.985595000000004,Resolução/Conclusão
25871887,São João Das Lampas e Terrugem,Grande Lisboa,311,2025-08-20T13:13:00Z,25871887,Em Resolução/Conclusão,3103,Incêndio rural,0,7,0,25,2025-08-20T13:13:00Z,Sintra,Lisboa,Área Metropolitana De Lisboa,-9.418768,38.87425,Resolução/Conclusão
25872005,Árvore,Area M. Porto,309,2025-08-20T13:37:00Z,25872005,Em Despacho,3103,Incêndio rural,0,1,0,5,2025-08-20T13:37:00Z,Vila Do Conde,Porto,Norte,-8.724797,41.34222,Despacho
25872014,Esporões,Cávado,309,2025-08-20T13:43:00Z,25872014,Em Despacho,3103,Incêndio rural,2,6,0,33,2025-08-20T13:43:00Z,Braga,Braga,Norte,-8.40039,41.51394,Despacho
