id,address,subregion,neighborhood,date,id.1,state,nature,nature_description,aerial_means,terrestrial_means,aquatic_means,operational,date.1,Concelho,Distrito,NUTII_DSG,longitude,latitude
24851780,"São Miguel, Santa Eufémia e Rabaçal",Região de Coimbra,310,2025-01-21T23:25:00Z,24851780,Em curso,3315,Inundação de estruturas por precipitação intensa,0,0,0,0,2025-01-21T23:25:00Z,Penela,Coimbra,Centro,-8.399036,40.025502
24852597,São Brás de Alportel,Algarve,313,2025-01-22T08:04:00Z,24852597,Em curso,3315,Inundação de estruturas por precipitação intensa,0,1,0,5,2025-01-22T08:04:00Z,São Brás De Alportel,Faro,Algarve,-7.90377,37.15284
24852733,Tavira (Santa Maria e Santiago),Algarve,313,2025-01-22T08:29:00Z,24852733,Em despacho,3315,Inundação de estruturas por precipitação intensa,0,1,0,2,2025-01-22T08:29:00Z,Tavira,Faro,Algarve,-7.64691,37.130442
24852749,"Marvila, Ribeira Santarém, S.salvador, S.nicolau",Lezíria do Tejo,311,2025-01-22T08:40:00Z,24852749,Em despacho,3315,Inundação de estruturas por precipitação intensa,0,1,0,1,2025-01-22T08:40:00Z,Santarém,Santarém,Alentejo,-8.674035,39.241867
24852763,Brinches,Baixo Alentejo,312,2025-01-22T08:30:00Z,24852763,Em despacho,3317,Inundação de estruturas por água canalizada,0,1,0,4,2025-01-22T08:30:00Z,Serpa,Beja,Alentejo,-7.616075,38.086762
24852551,Alvorge,Região de Leiria,310,2025-01-22T07:38:00Z,24852551,Em despacho,3315,Inundação de estruturas por precipitação intensa,0,1,0,4,2025-01-22T07:38:00Z,Ansião,Leiria,Centro,-8.437457,39.972271
24852694,Nossa Senhora Das Misericórdias,Médio Tejo,311,2025-01-22T08:26:00Z,24852694,Em resolução,3315,Inundação de estruturas por precipitação intensa,0,2,0,7,2025-01-22T08:26:00Z,Ourém,Santarém,Centro,-8.60697,39.64998
24852760,Glória do Ribatejo e Granho,Lezíria do Tejo,311,2025-01-22T08:41:00Z,24852760,Em despacho,3315,Inundação de estruturas por precipitação intensa,0,1,0,5,2025-01-22T08:41:00Z,Salvaterra De Magos,Santarém,Alentejo,-8.650894,39.087947
24850991,"Santa Maria da Feira, Travanca, Sanfins e Espargo",Area M. Porto,309,2025-01-21T19:32:00Z,24850991,Em despacho,3315,Inundação de estruturas por precipitação intensa,0,1,0,2,2025-01-21T19:32:00Z,Santa Maria Da Feira,Aveiro,Norte,-8.53693,40.93173
24852595,Algueirão-Mem Martins,Grande Lisboa,311,2025-01-22T08:03:00Z,24852595,Em despacho,3321,Dano na rede de fornecimento de eletricidade ,0,1,0,2,2025-01-22T08:03:00Z,Sintra,Lisboa,Área Metropolitana De Lisboa,-9.3202,38.80391
24852602,Caranguejeira,Região de Leiria,310,2025-01-22T08:03:00Z,24852602,Em despacho,3321,Dano na rede de fornecimento de eletricidade ,0,1,0,2,2025-01-22T08:03:00Z,Leiria,Leiria,Centro,-8.711905,39.758676
24851821,Santa Maria do Castelo e Santiago e Santa Susana,Alentejo Litoral,312,2025-01-21T23:41:00Z,24851821,Em resolução,1103,Vento forte,0,11,0,21,2025-01-21T23:41:00Z,Alcácer Do Sal,Setúbal,Alentejo,-8.598678,38.397168
24852523,São Brás de Alportel,Algarve,313,2025-01-22T07:34:00Z,24852523,Em despacho,3315,Inundação de estruturas por precipitação intensa,0,0,0,0,2025-01-22T07:34:00Z,São Brás De Alportel,Faro,Algarve,-7.89716,37.17049
24852640,Cabril,Região de Coimbra,310,2025-01-22T08:10:00Z,24852640,Em conclusão,3313,Deslizamento de terras,0,1,0,2,2025-01-22T08:10:00Z,Pampilhosa Da Serra,Coimbra,Centro,-7.870566,40.06154
24852655,Loulé (São Clemente),Algarve,313,2025-01-22T08:16:00Z,24852655,Em conclusão,3315,Inundação de estruturas por precipitação intensa,0,1,0,3,2025-01-22T08:16:00Z,Loulé,Faro,Algarve,-8.018267,37.137687
24852807,Abrantes (São Vicente e São João) e Alferrarede,Médio Tejo,311,2025-01-22T08:50:00Z,24852807,Em curso,3315,Inundação de estruturas por precipitação intensa,0,1,0,2,2025-01-22T08:50:00Z,Abrantes,Santarém,Centro,-8.193526,39.462886
24852896,Monchique,Algarve,313,2025-01-22T08:40:00Z,24852896,Em despacho,3301,Queda de árvore,0,1,0,5,2025-01-22T08:40:00Z,Monchique,Faro,Algarve,-8.567422,37.320753
