id,address,subregion,neighborhood,date,id.1,state,nature,nature_description,aerial_means,terrestrial_means,aquatic_means,operational,date.1,Concelho,Distrito,NUTII_DSG,longitude,latitude,state_2
25749937,Tarouquela,Tâmega e Sousa,309,2025-07-29T04:11:00Z,25749937,Em Resolução/Conclusão,3103,Incêndio rural,0,28,0,88,2025-07-29T04:11:00Z,Cinfães,Viseu,Norte,-8.173308,41.072792,Resolução/Conclusão
25751893,"Espírito Santo, Nossa Senhora da Graça e São Simão",Alto Alentejo,312,2025-07-29T12:32:00Z,25751893,Em Resolução/Conclusão,3101,Incêndio rural,0,3,0,8,2025-07-29T12:32:00Z,Nisa,Portalegre,Alentejo,-7.634827,39.571162,Resolução/Conclusão
25757766,Calde,Viseu Dão Lafões,310,2025-07-30T14:19:00Z,25757766,Em Resolução/Conclusão,3101,Incêndio rural,0,1,0,2,2025-07-30T14:19:00Z,Viseu,Viseu,Centro,-7.898995,40.758803,Resolução/Conclusão
25758986,São João de Areias,Viseu Dão Lafões,310,2025-07-30T18:19:00Z,25758986,Em Resolução/Conclusão,3103,Incêndio rural,0,0,0,0,2025-07-30T18:19:00Z,Santa Comba Dão,Viseu,Centro,-8.068341,40.390527,Resolução/Conclusão
25759068,Valadares,Viseu Dão Lafões,310,2025-07-30T18:37:00Z,25759068,Em Resolução/Conclusão,3105,Incêndio rural,0,0,0,0,2025-07-30T18:37:00Z,São Pedro Do Sul,Viseu,Centro,-8.203518,40.75472,Resolução/Conclusão
25760776,Castelo Branco,Beira Baixa,310,2025-07-31T06:05:00Z,25760776,Em Resolução/Conclusão,3103,Incêndio rural,0,1,0,5,2025-07-31T06:05:00Z,Castelo Branco,Castelo Branco,Centro,-7.426803,39.827243,Resolução/Conclusão
25761996,Ninho do Açor e Sobral do Campo,Beira Baixa,310,2025-07-31T10:54:00Z,25761996,Em Resolução/Conclusão,3101,Incêndio rural,0,34,0,108,2025-07-31T10:54:00Z,Castelo Branco,Castelo Branco,Centro,-7.588895,39.990642,Resolução/Conclusão
25762528,Sobrado e Bairros,Tâmega e Sousa,309,2025-07-31T12:30:00Z,25762528,Em Resolução/Conclusão,3103,Incêndio rural,0,2,0,10,2025-07-31T12:30:00Z,Castelo De Paiva,Aveiro,Norte,-8.236423,41.032515,Resolução/Conclusão
25763532,Ninho do Açor e Sobral do Campo,Beira Baixa,310,2025-07-31T15:31:00Z,25763532,Em Resolução/Conclusão,3101,Incêndio rural,0,3,0,11,2025-07-31T15:31:00Z,Castelo Branco,Castelo Branco,Centro,-7.57756,39.994833,Resolução/Conclusão
25763650,Milagres,Região de Leiria,310,2025-07-31T15:58:00Z,25763650,Em Resolução/Conclusão,3101,Incêndio rural,0,5,0,16,2025-07-31T15:58:00Z,Leiria,Leiria,Centro,-8.792217,39.793427,Resolução/Conclusão
25764066,Cinfães,Tâmega e Sousa,309,2025-07-31T17:05:00Z,25764066,Em Resolução/Conclusão,3103,Incêndio rural,0,4,0,14,2025-07-31T17:05:00Z,Cinfães,Viseu,Norte,-8.077182,41.05769,Resolução/Conclusão
25764075,"Ardegão, Arnozela e Seidões",Ave,309,2025-07-31T17:22:00Z,25764075,Em Resolução/Conclusão,3101,Incêndio rural,0,7,0,32,2025-07-31T17:22:00Z,Fafe,Braga,Norte,-8.110025,41.40508,Resolução/Conclusão
25764468,Vidigueira,Baixo Alentejo,312,2025-07-31T18:47:00Z,25764468,Em Resolução/Conclusão,3105,Incêndio rural,0,9,0,28,2025-07-31T18:47:00Z,Vidigueira,Beja,Alentejo,-7.770448,38.205505,Resolução/Conclusão
25764995,Paderne,Alto Minho,309,2025-07-31T20:45:00Z,25764995,Em Resolução/Conclusão,3103,Incêndio rural,0,4,0,12,2025-07-31T20:45:00Z,Melgaço,Viana Do Castelo,Norte,-8.288695,42.094523,Resolução/Conclusão
25765004,Bravães,Alto Minho,309,2025-07-31T20:48:00Z,25765004,Em Resolução/Conclusão,3103,Incêndio rural,0,6,0,23,2025-07-31T20:48:00Z,Ponte Da Barca,Viana Do Castelo,Norte,-8.440397,41.788573,Resolução/Conclusão
25765427,Oliveirinha,Região de Aveiro,310,2025-07-31T22:46:00Z,25765427,Em Curso,3105,Incêndio rural,0,3,0,12,2025-07-31T22:46:00Z,Aveiro,Aveiro,Centro,-8.615079,40.590354,Curso
25765461,Silvã de Cima,Viseu Dão Lafões,310,2025-07-31T22:55:00Z,25765461,Em Resolução/Conclusão,3103,Incêndio rural,0,3,0,8,2025-07-31T22:55:00Z,Sátão,Viseu,Centro,-7.688089,40.722886,Resolução/Conclusão
25749681,Fornos de Maceira Dão,Viseu Dão Lafões,310,2025-07-29T01:19:00Z,25749681,Em Resolução/Conclusão,3103,Incêndio rural,0,0,0,0,2025-07-29T01:19:00Z,Mangualde,Viseu,Centro,-7.806963,40.617022,Resolução/Conclusão
25750701,Capela,Tâmega e Sousa,309,2025-07-29T09:26:00Z,25750701,Em Curso,3103,Incêndio rural,0,69,0,239,2025-07-29T09:26:00Z,Penafiel,Porto,Norte,-8.345202,41.09353,Curso
25757286,Santa Marinha do Zêzere,Tâmega e Sousa,309,2025-07-30T12:52:00Z,25757286,Em Resolução/Conclusão,3103,Incêndio rural,0,0,0,0,2025-07-30T12:52:00Z,Baião,Porto,Norte,-7.950478,41.138624,Resolução/Conclusão
25757971,Ninho do Açor e Sobral do Campo,Beira Baixa,310,2025-07-30T14:54:00Z,25757971,Em Resolução/Conclusão,3101,Incêndio rural,0,1,0,3,2025-07-30T14:54:00Z,Castelo Branco,Castelo Branco,Centro,-7.569988,39.996368,Resolução/Conclusão
25762916,Cota,Viseu Dão Lafões,310,2025-07-31T13:40:00Z,25762916,Em Resolução/Conclusão,3101,Incêndio rural,0,0,0,0,2025-07-31T13:40:00Z,Viseu,Viseu,Centro,-7.801223,40.780375,Resolução/Conclusão
25763768,São Cristóvão,Alentejo Central,312,2025-07-31T16:16:00Z,25763768,Em Resolução/Conclusão,3105,Incêndio rural,0,5,0,14,2025-07-31T16:16:00Z,Montemor-o-Novo,Évora,Alentejo,-8.24627,38.519177,Resolução/Conclusão
25764122,Lustosa e Barrosas (Santo Estêvão),Tâmega e Sousa,309,2025-07-31T17:32:00Z,25764122,Em Resolução/Conclusão,3103,Incêndio rural,0,4,0,17,2025-07-31T17:32:00Z,Lousada,Porto,Norte,-8.318658,41.338565,Resolução/Conclusão
25764738,Monte Córdova,Area M. Porto,309,2025-07-31T19:50:00Z,25764738,Em Resolução/Conclusão,3103,Incêndio rural,0,2,0,7,2025-07-31T19:50:00Z,Santo Tirso,Porto,Norte,-8.410882,41.317342,Resolução/Conclusão
25764991,Ribafeita,Viseu Dão Lafões,310,2025-07-31T20:45:00Z,25764991,Em Resolução/Conclusão,3103,Incêndio rural,0,6,0,17,2025-07-31T20:45:00Z,Viseu,Viseu,Centro,-7.94864,40.74179,Resolução/Conclusão
25748118,Canelas e Espiunca,Area M. Porto,309,2025-07-28T17:16:00Z,25748118,Em Curso,3101,Incêndio rural,0,177,0,475,2025-07-28T17:16:00Z,Arouca,Aveiro,Norte,-8.212231,40.969918,Curso
25749320,Rebordões (Santa Maria),Alto Minho,309,2025-07-28T22:47:00Z,25749320,Em Resolução/Conclusão,3103,Incêndio rural,0,13,0,34,2025-07-28T22:47:00Z,Ponte De Lima,Viana Do Castelo,Norte,-8.588365,41.729993,Resolução/Conclusão
25749641,Silva Escura e Dornelas,Região de Aveiro,310,2025-07-29T01:02:00Z,25749641,Em Resolução/Conclusão,3101,Incêndio rural,0,9,0,27,2025-07-29T01:02:00Z,Sever Do Vouga,Aveiro,Centro,-8.399623,40.769354,Resolução/Conclusão
25753666,São Cristóvão de Nogueira,Tâmega e Sousa,309,2025-07-29T18:21:00Z,25753666,Em Resolução/Conclusão,3103,Incêndio rural,0,1,0,5,2025-07-29T18:21:00Z,Cinfães,Viseu,Norte,-8.134771,41.05519,Resolução/Conclusão
25756006,Pinhanços,Beiras e Serra da Estrela,310,2025-07-30T09:07:00Z,25756006,Em Resolução/Conclusão,3103,Incêndio rural,0,12,0,31,2025-07-30T09:07:00Z,Seia,Guarda,Centro,-7.708132,40.473517,Resolução/Conclusão
25756459,Nespereira,Tâmega e Sousa,309,2025-07-30T10:20:00Z,25756459,Em Resolução/Conclusão,3103,Incêndio rural,0,11,0,48,2025-07-30T10:20:00Z,Cinfães,Viseu,Norte,-8.130378,41.039695,Resolução/Conclusão
25759350,São Vicente de Lafões,Viseu Dão Lafões,310,2025-07-30T19:44:00Z,25759350,Em Resolução/Conclusão,3103,Incêndio rural,0,0,0,0,2025-07-30T19:44:00Z,Oliveira De Frades,Viseu,Centro,-8.171112,40.704042,Resolução/Conclusão
25760635,Belinho e Mar,Cávado,309,2025-07-31T03:55:00Z,25760635,Em Resolução/Conclusão,3103,Incêndio rural,0,4,0,12,2025-07-31T03:55:00Z,Esposende,Braga,Norte,-8.780248,41.593495,Resolução/Conclusão
25763964,Pêro Viseu,Beiras e Serra da Estrela,310,2025-07-31T16:58:00Z,25763964,Em Resolução/Conclusão,3103,Incêndio rural,0,2,0,10,2025-07-31T16:58:00Z,Fundão,Castelo Branco,Centro,-7.457652,40.199215,Resolução/Conclusão
25765359,Semide e Rio Vide,Região de Coimbra,310,2025-07-31T22:27:00Z,25765359,Em Resolução/Conclusão,3101,Incêndio rural,0,5,0,18,2025-07-31T22:27:00Z,Miranda Do Corvo,Coimbra,Centro,-8.33889,40.17611,Resolução/Conclusão
25765473,Sameice e Santa Eulália,Beiras e Serra da Estrela,310,2025-07-31T23:02:00Z,25765473,Em Resolução/Conclusão,3103,Incêndio rural,0,5,0,19,2025-07-31T23:02:00Z,Seia,Guarda,Centro,-7.775783,40.420218,Resolução/Conclusão
25764749,Ceivães e Badim,Alto Minho,309,2025-07-31T19:54:00Z,25764749,Em Resolução/Conclusão,3105,Incêndio rural,0,0,0,0,2025-07-31T19:54:00Z,Monção,Viana Do Castelo,Norte,-8.361482,42.061062,Resolução/Conclusão
25764846,Eixo e Eirol,Região de Aveiro,310,2025-07-31T20:15:00Z,25764846,Em Resolução/Conclusão,3101,Incêndio rural,0,1,0,2,2025-07-31T20:15:00Z,Aveiro,Aveiro,Centro,-8.57825,40.62862,Resolução/Conclusão
25764982,Sátão,Viseu Dão Lafões,310,2025-07-31T20:41:00Z,25764982,Em Resolução/Conclusão,3103,Incêndio rural,0,0,0,0,2025-07-31T20:41:00Z,Sátão,Viseu,Centro,-7.750297,40.748882,Resolução/Conclusão
25765114,Alegrete,Alto Alentejo,312,2025-07-31T21:12:00Z,25765114,Em Resolução/Conclusão,3101,Incêndio rural,0,17,0,50,2025-07-31T21:12:00Z,Portalegre,Portalegre,Alentejo,-7.287715,39.256223,Resolução/Conclusão
25765349,Mira,Região de Coimbra,310,2025-07-31T22:21:00Z,25765349,Em Resolução/Conclusão,3103,Incêndio rural,0,2,0,10,2025-07-31T22:21:00Z,Mira,Coimbra,Centro,-8.70056,40.42417,Resolução/Conclusão
25765414,Sameice e Santa Eulália,Beiras e Serra da Estrela,310,2025-07-31T22:43:00Z,25765414,Em Resolução/Conclusão,3103,Incêndio rural,0,1,0,5,2025-07-31T22:43:00Z,Seia,Guarda,Centro,-7.78561,40.421483,Resolução/Conclusão
25765418,Avelal,Viseu Dão Lafões,310,2025-07-31T22:16:00Z,25765418,Em Resolução/Conclusão,3103,Incêndio rural,0,1,0,5,2025-07-31T22:16:00Z,Sátão,Viseu,Centro,-7.693828,40.760357,Resolução/Conclusão
25765434,Silvã de Cima,Viseu Dão Lafões,310,2025-07-31T22:37:00Z,25765434,Em Despacho,3103,Incêndio rural,0,0,0,0,2025-07-31T22:37:00Z,Sátão,Viseu,Centro,-7.68016,40.722972,Despacho
25738747,Lindoso,Alto Minho,309,2025-07-26T21:47:00Z,25738747,Em Curso,3103,Incêndio rural,0,218,0,648,2025-07-26T21:47:00Z,Ponte Da Barca,Viana Do Castelo,Norte,-8.220528,41.865272,Curso
25741169,Cota,Viseu Dão Lafões,310,2025-07-27T11:54:00Z,25741169,Em Resolução/Conclusão,3101,Incêndio rural,0,1,0,4,2025-07-27T11:54:00Z,Viseu,Viseu,Centro,-7.815572,40.816505,Resolução/Conclusão
25747773,Aranhas,Beira Baixa,310,2025-07-28T16:36:00Z,25747773,Em Resolução/Conclusão,3103,Incêndio rural,0,14,0,43,2025-07-28T16:36:00Z,Penamacor,Castelo Branco,Centro,-7.14438,40.117542,Resolução/Conclusão
25751999,Pombal,Região de Leiria,310,2025-07-29T12:53:00Z,25751999,Em Resolução/Conclusão,3101,Incêndio rural,0,1,0,2,2025-07-29T12:53:00Z,Pombal,Leiria,Centro,-8.6801,39.93227,Resolução/Conclusão
25752083,Alcanede,Lezíria do Tejo,311,2025-07-29T13:12:00Z,25752083,Em Resolução/Conclusão,3103,Incêndio rural,0,16,0,51,2025-07-29T13:12:00Z,Santarém,Santarém,Alentejo,-8.802682,39.405543,Resolução/Conclusão
25756620,Recarei,Area M. Porto,309,2025-07-30T10:47:00Z,25756620,Em Resolução/Conclusão,3103,Incêndio rural,0,38,0,108,2025-07-30T10:47:00Z,Paredes,Porto,Norte,-8.416721,41.151,Resolução/Conclusão
25763004,"Perafita, Lavra e Santa Cruz do Bispo",Area M. Porto,309,2025-07-31T13:58:00Z,25763004,Em Resolução/Conclusão,3103,Incêndio rural,0,3,0,8,2025-07-31T13:58:00Z,Matosinhos,Porto,Norte,-8.703372,41.24096,Resolução/Conclusão
25763822,Lordelo,Area M. Porto,309,2025-07-31T16:33:00Z,25763822,Em Resolução/Conclusão,3103,Incêndio rural,0,6,0,20,2025-07-31T16:33:00Z,Paredes,Porto,Norte,-8.409851,41.232163,Resolução/Conclusão
25764258,Valongo de Milhais,Douro,309,2025-07-31T18:03:00Z,25764258,Em Resolução/Conclusão,3103,Incêndio rural,0,14,0,48,2025-07-31T18:03:00Z,Murça,Vila Real,Norte,-7.42714,41.46461,Resolução/Conclusão
25764960,Recezinhos (São Mamede),Tâmega e Sousa,309,2025-07-31T20:38:00Z,25764960,Em Resolução/Conclusão,3103,Incêndio rural,0,4,0,11,2025-07-31T20:38:00Z,Penafiel,Porto,Norte,-8.224372,41.2408,Resolução/Conclusão
25765062,Miranda,Alto Minho,309,2025-07-31T21:05:00Z,25765062,Em Resolução/Conclusão,3103,Incêndio rural,0,3,0,12,2025-07-31T21:05:00Z,Arcos De Valdevez,Viana Do Castelo,Norte,-8.494534,41.83056,Resolução/Conclusão
25765330,Avelal,Viseu Dão Lafões,310,2025-07-31T22:15:00Z,25765330,Em Resolução/Conclusão,3103,Incêndio rural,0,4,0,17,2025-07-31T22:15:00Z,Sátão,Viseu,Centro,-7.693882,40.74364,Resolução/Conclusão
25765335,Árvore,Area M. Porto,309,2025-07-31T22:18:00Z,25765335,Em Resolução/Conclusão,3103,Incêndio rural,0,1,0,5,2025-07-31T22:18:00Z,Vila Do Conde,Porto,Norte,-8.724865,41.342855,Resolução/Conclusão
25765460,Benedita,Oeste,311,2025-07-31T22:56:00Z,25765460,Em Resolução/Conclusão,3103,Incêndio rural,0,4,0,17,2025-07-31T22:56:00Z,Alcobaça,Leiria,Centro,-8.999331,39.40985,Resolução/Conclusão
