id,address,subregion,neighborhood,date,id.1,state,nature,nature_description,aerial_means,terrestrial_means,aquatic_means,operational,date.1,Concelho,Distrito,NUTII_DSG,longitude,latitude
25507757,São João da Madeira,Area M. Porto,309,2025-06-11T00:36:00Z,25507757,Em despacho,3103,Incêndio rural,0,2,0,7,2025-06-11T00:36:00Z,São João Da Madeira,Aveiro,Norte,-8.49988,40.8875
25507326,Águas Santas,Area M. Porto,309,2025-06-10T21:47:00Z,25507326,Em conclusão,2101,Incêndio em edifícios habitacionais,0,9,0,28,2025-06-10T21:47:00Z,Maia,Porto,Norte,-8.558595,41.203898
25507402,Pedrouços,Area M. Porto,309,2025-06-10T22:08:00Z,25507402,Em conclusão,2301,Incêndio em transporte rodoviário,0,3,0,7,2025-06-10T22:08:00Z,Maia,Porto,Norte,-8.587972,41.180862
25507452,Santa Maria de Marvão,Alto Alentejo,312,2025-06-10T22:24:00Z,25507452,Em conclusão,3201,Detritos não confinados,0,3,0,8,2025-06-10T22:24:00Z,Marvão,Portalegre,Alentejo,-7.39952,39.399253
25507719,Rio de Moinhos,Alentejo Central,312,2025-06-11T00:11:00Z,25507719,Em conclusão,3105,Incêndio rural,0,4,0,17,2025-06-11T00:11:00Z,Borba,Évora,Alentejo,-7.50286,38.772047
