id,address,subregion,neighborhood,date,id.1,state,nature,nature_description,aerial_means,terrestrial_means,aquatic_means,operational,date.1,Concelho,Distrito,NUTII_DSG,longitude,latitude,state_2
25818455,Sobral de São Miguel,Beiras e Serra da Estrela,310,2025-08-10T15:02:00Z,25818455,Em Resolução/Conclusão,3103,Incêndio rural,0,1,0,1,2025-08-10T15:02:00Z,Covilhã,Castelo Branco,Centro,-7.77307,40.200173,Resolução/Conclusão
25846480,Sabugal e Aldeia de Santo António,Beiras e Serra da Estrela,310,2025-08-15T14:41:00Z,25846480,Em Resolução/Conclusão,3103,Incêndio rural,0,33,0,102,2025-08-15T14:41:00Z,Sabugal,Guarda,Centro,-7.125037,40.34023,Resolução/Conclusão
25852580,São João de Tarouca,Douro,309,2025-08-16T17:00:00Z,25852580,Em Resolução/Conclusão,3103,Incêndio rural,0,3,0,12,2025-08-16T17:00:00Z,Tarouca,Viseu,Norte,-7.760748,40.986773,Resolução/Conclusão
25881792,Fontelo,Douro,309,2025-08-22T13:00:00Z,25881792,Em Resolução/Conclusão,3103,Incêndio rural,0,22,0,80,2025-08-22T13:00:00Z,Armamar,Viseu,Norte,-7.73329,41.12587,Resolução/Conclusão
25882911,Aião,Tâmega e Sousa,309,2025-08-22T16:42:00Z,25882911,Em Resolução/Conclusão,3103,Incêndio rural,0,6,0,19,2025-08-22T16:42:00Z,Marco De Canaveses,Porto,Norte,-8.203958,41.196682,Resolução/Conclusão
25813482,Freches e Torres,Beiras e Serra da Estrela,310,2025-08-09T16:21:00Z,25813482,Em Resolução/Conclusão,3103,Incêndio rural,0,7,0,25,2025-08-09T16:21:00Z,Trancoso,Guarda,Centro,-7.363745,40.709022,Resolução/Conclusão
25832250,Ferreira de Aves,Viseu Dão Lafões,310,2025-08-13T00:03:00Z,25832250,Em Resolução/Conclusão,3103,Incêndio rural,0,12,0,41,2025-08-13T00:03:00Z,Sátão,Viseu,Centro,-7.647793,40.79568,Resolução/Conclusão
25836309,Cinfães,Tâmega e Sousa,309,2025-08-13T18:17:00Z,25836309,Em Resolução/Conclusão,3103,Incêndio rural,0,3,0,12,2025-08-13T18:17:00Z,Cinfães,Viseu,Norte,-8.071502,41.049757,Resolução/Conclusão
25840505,Ribeira de Nisa e Carreiras,Alto Alentejo,312,2025-08-14T14:01:00Z,25840505,Em Resolução/Conclusão,3101,Incêndio rural,0,3,0,9,2025-08-14T14:01:00Z,Portalegre,Portalegre,Alentejo,-7.47009,39.374707,Resolução/Conclusão
25851721,Arnóia,Tâmega e Sousa,309,2025-08-16T14:24:00Z,25851721,Em Resolução/Conclusão,3103,Incêndio rural,0,6,0,24,2025-08-16T14:24:00Z,Celorico De Basto,Braga,Norte,-7.994469,41.369836,Resolução/Conclusão
25860828,Vilar de Perdizes e Meixide,Alto Tâmega e Barroso,309,2025-08-18T10:25:00Z,25860828,Em Resolução/Conclusão,3103,Incêndio rural,0,47,0,165,2025-08-18T10:25:00Z,NA,NA,NA,-7.63634,41.880008,Resolução/Conclusão
25880416,"Aboim, Felgueiras, Gontim e Pedraído",Ave,309,2025-08-22T08:51:00Z,25880416,Em Resolução/Conclusão,3103,Incêndio rural,0,4,0,9,2025-08-22T08:51:00Z,Fafe,Braga,Norte,-8.125113,41.504362,Resolução/Conclusão
25881134,Fornos,Tâmega e Sousa,309,2025-08-22T11:02:00Z,25881134,Em Resolução/Conclusão,3103,Incêndio rural,0,2,0,10,2025-08-22T11:02:00Z,Castelo De Paiva,Aveiro,Norte,-8.241565,41.044228,Resolução/Conclusão
25882003,"Mamouros, Alva e Ribolhos",Viseu Dão Lafões,310,2025-08-22T13:50:00Z,25882003,Em Resolução/Conclusão,3103,Incêndio rural,0,1,0,5,2025-08-22T13:50:00Z,Castro Daire,Viseu,Centro,-7.964705,40.861392,Resolução/Conclusão
25882071,Vila Marim,Douro,309,2025-08-22T14:02:00Z,25882071,Em Resolução/Conclusão,3103,Incêndio rural,0,23,0,79,2025-08-22T14:02:00Z,Vila Real,Vila Real,Norte,-7.814082,41.353615,Resolução/Conclusão
25882669,Rego,Tâmega e Sousa,309,2025-08-22T15:50:00Z,25882669,Em Resolução/Conclusão,3105,Incêndio rural,0,2,0,7,2025-08-22T15:50:00Z,Celorico De Basto,Braga,Norte,-8.099298,41.437642,Resolução/Conclusão
25882686,Cativelos,Beiras e Serra da Estrela,310,2025-08-22T15:53:00Z,25882686,Em Resolução/Conclusão,3103,Incêndio rural,0,3,0,8,2025-08-22T15:53:00Z,Gouveia,Guarda,Centro,-7.694037,40.537404,Resolução/Conclusão
25882703,Ramada e Caneças,Grande Lisboa,311,2025-08-22T15:56:00Z,25882703,Em Resolução/Conclusão,3101,Incêndio rural,0,20,0,60,2025-08-22T15:56:00Z,Odivelas,Lisboa,Área Metropolitana De Lisboa,-9.207663,38.816475,Resolução/Conclusão
25882904,Silvares (São Martinho),Ave,309,2025-08-22T16:38:00Z,25882904,Em Resolução/Conclusão,3103,Incêndio rural,0,4,0,15,2025-08-22T16:38:00Z,Fafe,Braga,Norte,-8.172483,41.422267,Resolução/Conclusão
25883924,Fontelo,Douro,309,2025-08-22T20:45:00Z,25883924,Em Despacho,3103,Incêndio rural,0,0,0,0,2025-08-22T20:45:00Z,Armamar,Viseu,Norte,-7.72882,41.11932,Despacho
25846016,Poiares,Douro,309,2025-08-15T13:17:00Z,25846016,Em Resolução/Conclusão,3103,Incêndio rural,0,6,0,12,2025-08-15T13:17:00Z,Freixo De Espada à Cinta,Bragança,Norte,-6.843393,41.075787,Resolução/Conclusão
25847211,Campelo,Região de Leiria,310,2025-08-15T17:01:00Z,25847211,Em Resolução/Conclusão,3101,Incêndio rural,0,7,0,26,2025-08-15T17:01:00Z,Figueiró Dos Vinhos,Leiria,Centro,-8.258518,39.952923,Resolução/Conclusão
25861685,Santa Catarina da Serra e Chainça,Região de Leiria,310,2025-08-18T13:03:00Z,25861685,Em Resolução/Conclusão,3103,Incêndio rural,0,1,0,2,2025-08-18T13:03:00Z,Leiria,Leiria,Centro,-8.698656,39.708305,Resolução/Conclusão
25872413,Cinco Vilas e Reigada,Beiras e Serra da Estrela,310,2025-08-20T14:58:00Z,25872413,Em Resolução/Conclusão,3103,Incêndio rural,0,64,0,191,2025-08-20T14:58:00Z,Figueira De Castelo Rodrigo,Guarda,Centro,-6.95815,40.775573,Resolução/Conclusão
25878938,"Aboim, Felgueiras, Gontim e Pedraído",Ave,309,2025-08-21T20:54:00Z,25878938,Em Resolução/Conclusão,3103,Incêndio rural,0,4,0,12,2025-08-21T20:54:00Z,Fafe,Braga,Norte,-8.076505,41.529353,Resolução/Conclusão
25880053,Rossas,Ave,309,2025-08-22T06:47:00Z,25880053,Em Resolução/Conclusão,3101,Incêndio rural,0,1,0,3,2025-08-22T06:47:00Z,Vieira Do Minho,Braga,Norte,-8.073835,41.576405,Resolução/Conclusão
25881398,Seixo de Ansiães,Douro,309,2025-08-22T11:45:00Z,25881398,Em Resolução/Conclusão,3103,Incêndio rural,0,9,0,31,2025-08-22T11:45:00Z,Carrazeda De Ansiães,Bragança,Norte,-7.255142,41.178095,Resolução/Conclusão
25881823,Ovadas e Panchorra,Tâmega e Sousa,309,2025-08-22T13:15:00Z,25881823,Em Resolução/Conclusão,3103,Incêndio rural,0,3,0,15,2025-08-22T13:15:00Z,Resende,Viseu,Norte,-7.976263,41.051157,Resolução/Conclusão
25882891,Pontinha e Famões,Grande Lisboa,311,2025-08-22T16:35:00Z,25882891,Em Resolução/Conclusão,3105,Incêndio rural,0,2,0,7,2025-08-22T16:35:00Z,Odivelas,Lisboa,Área Metropolitana De Lisboa,-9.196285,38.77715,Resolução/Conclusão
25883011,Almofala,Viseu Dão Lafões,310,2025-08-22T17:00:00Z,25883011,Em Curso,3103,Incêndio rural,0,71,0,242,2025-08-22T17:00:00Z,Castro Daire,Viseu,Centro,-7.767003,40.956183,Curso
25832672,Piódão,Região de Coimbra,310,2025-08-13T05:08:00Z,25832672,Em Curso,3103,Incêndio rural,0,520,0,1518,2025-08-13T05:08:00Z,Arganil,Coimbra,Centro,-7.81972,40.23083,Curso
25840417,Lousã e Vilarinho,Região de Coimbra,310,2025-08-14T13:46:00Z,25840417,Em Resolução/Conclusão,3101,Incêndio rural,0,16,0,47,2025-08-14T13:46:00Z,Lousã,Coimbra,Centro,-8.201561,40.080016,Resolução/Conclusão
25857322,"Barcel, Marmelos e Valverde da Gestosa",Terras de Trás-os-Montes,309,2025-08-17T15:53:00Z,25857322,Em Resolução/Conclusão,3103,Incêndio rural,0,13,0,33,2025-08-17T15:53:00Z,Mirandela,Bragança,Norte,-7.209414,41.409479,Resolução/Conclusão
25882910,Picão e Ermida,Viseu Dão Lafões,310,2025-08-22T16:39:00Z,25882910,Em Resolução/Conclusão,3103,Incêndio rural,0,0,0,0,2025-08-22T16:39:00Z,Carregal Do Sal,Viseu,Centro,-7.945985,40.448677000000004,Resolução/Conclusão
25883802,"Marvila, Ribeira Santarém, S.salvador, S.nicolau",Lezíria do Tejo,311,2025-08-22T20:17:00Z,25883802,Em Curso,3103,Incêndio rural,0,4,0,16,2025-08-22T20:17:00Z,Santarém,Santarém,Alentejo,-8.688446,39.238096,Curso
25883829,Mafra,Grande Lisboa,311,2025-08-22T20:16:00Z,25883829,Em Resolução/Conclusão,3103,Incêndio rural,0,5,0,21,2025-08-22T20:16:00Z,Mafra,Lisboa,Área Metropolitana De Lisboa,-9.321424,38.961436,Resolução/Conclusão
25883904,São Martinho do Bispo e Ribeira de Frades,Região de Coimbra,310,2025-08-22T20:40:00Z,25883904,Em Despacho,3105,Incêndio rural,0,3,0,12,2025-08-22T20:40:00Z,Coimbra,Coimbra,Centro,-8.479624,40.208108,Despacho
