id,address,subregion,neighborhood,date,id.1,state,nature,nature_description,aerial_means,terrestrial_means,aquatic_means,operational,date.1,Concelho,Distrito,NUTII_DSG,longitude,latitude,state_2
25445507,Cabeça Gorda,Baixo Alentejo,312,2025-05-29T12:44:00Z,25445507,Em conclusão,3101,Incêndio rural,0,0,0,0,2025-05-29T12:44:00Z,Beja,Beja,Alentejo,-7.811333,37.900468,Em conclusão
25599361,Chancelaria,Médio Tejo,311,2025-06-29T16:59:00Z,25599361,Em conclusão,3101,Incêndio rural,0,6,0,17,2025-06-29T16:59:00Z,Torres Novas,Santarém,Centro,-8.54621,39.518782,Em conclusão
25602519,Cousso,Alto Minho,309,2025-06-30T10:04:00Z,25602519,Em conclusão,3107,Consolidação de rescaldo de incêndio rural,0,2,0,9,2025-06-30T10:04:00Z,Melgaço,Viana Do Castelo,Norte,-8.27583,42.053508,Em conclusão
25602886,Duas Igrejas,Tâmega e Sousa,309,2025-06-30T10:48:00Z,25602886,Em despacho,3107,Consolidação de rescaldo de incêndio rural,0,1,0,5,2025-06-30T10:48:00Z,Penafiel,Porto,Norte,-8.278005,41.170128,Em despacho
25603256,Ruivães e Novais,Ave,309,2025-06-30T12:01:00Z,25603256,Em conclusão,3107,Consolidação de rescaldo de incêndio rural,0,3,0,7,2025-06-30T12:01:00Z,Vila Nova De Famalicão,Braga,Norte,-8.427468,41.39519,Em conclusão
25603690,Romariz,Area M. Porto,309,2025-06-30T13:23:00Z,25603690,Em conclusão,3103,Incêndio rural,0,5,0,17,2025-06-30T13:23:00Z,Santa Maria Da Feira,Aveiro,Norte,-8.449163,40.954263,Em conclusão
25604024,Gouveia (São Simão),Tâmega e Sousa,309,2025-06-30T14:15:00Z,25604024,Em despacho,3107,Consolidação de rescaldo de incêndio rural,0,2,0,7,2025-06-30T14:15:00Z,Amarante,Porto,Norte,-8.063557,41.230262,Em despacho
25604223,Campos e Louredo,Ave,309,2025-06-30T14:53:00Z,25604223,Em despacho,3107,Consolidação de rescaldo de incêndio rural,0,1,0,5,2025-06-30T14:53:00Z,Póvoa De Lanhoso,Braga,Norte,-8.294605,41.550835,Em despacho
25604307,Ventosa e Cova,Ave,309,2025-06-30T15:06:00Z,25604307,Em despacho,3107,Consolidação de rescaldo de incêndio rural,0,1,0,5,2025-06-30T15:06:00Z,Vieira Do Minho,Braga,Norte,-8.168892,41.676273,Em despacho
25604341,Lustosa e Barrosas (Santo Estêvão),Tâmega e Sousa,309,2025-06-30T15:13:00Z,25604341,Em despacho,3103,Incêndio rural,1,3,0,21,2025-06-30T15:13:00Z,Lousada,Porto,Norte,-8.32484,41.34255,Em despacho
25604426,Selho (São Cristóvão),Ave,309,2025-06-30T15:26:00Z,25604426,Em curso,3103,Incêndio rural,0,3,0,14,2025-06-30T15:26:00Z,Guimarães,Braga,Norte,-8.351959,41.4132,Em curso
25601698,Penamacor,Beira Baixa,310,2025-06-30T07:38:00Z,25601698,Em conclusão,3101,Incêndio rural,0,5,0,15,2025-06-30T07:38:00Z,Penamacor,Castelo Branco,Centro,-7.081393,40.1962,Em conclusão
25603441,"St.tirso, Couto (S.cristina e S.miguel) e Burgães",Area M. Porto,309,2025-06-30T12:33:00Z,25603441,Em conclusão,3103,Incêndio rural,0,1,0,5,2025-06-30T12:33:00Z,Santo Tirso,Porto,Norte,-8.495383,41.355088,Em conclusão
25603543,Alcoentre,Lezíria do Tejo,311,2025-06-30T12:52:00Z,25603543,Em despacho,3109,Gestão de combustível,0,1,0,3,2025-06-30T12:52:00Z,Azambuja,Lisboa,Alentejo,-8.968984,39.206794,Em despacho
25603575,"Lavandeira, Beira Grande e Selores",Douro,309,2025-06-30T12:58:00Z,25603575,Em conclusão,3103,Incêndio rural,0,2,0,6,2025-06-30T12:58:00Z,Carrazeda De Ansiães,Bragança,Norte,-7.297288,41.20056,Em conclusão
25603618,Messejana,Baixo Alentejo,312,2025-06-30T13:09:00Z,25603618,Em curso,3101,Incêndio rural,7,37,0,118,2025-06-30T13:09:00Z,Aljustrel,Beja,Alentejo,-8.169013,37.814978,Em curso
25603684,Vilarinho Dos Freires,Douro,309,2025-06-30T13:15:00Z,25603684,Em despacho,3107,Consolidação de rescaldo de incêndio rural,0,2,0,6,2025-06-30T13:15:00Z,Peso Da Régua,Vila Real,Norte,-7.731495,41.205995,Em despacho
25602092,Santa Marinha,Alto Tâmega e Barroso,309,2025-06-30T08:59:00Z,25602092,Em curso,3107,Consolidação de rescaldo de incêndio rural,0,3,0,9,2025-06-30T08:59:00Z,Ribeira De Pena,Vila Real,Norte,-7.781975,41.547104,Em curso
25603747,Paços de Ferreira,Tâmega e Sousa,309,2025-06-30T13:22:00Z,25603747,Em resolução,3107,Consolidação de rescaldo de incêndio rural,0,2,0,6,2025-06-30T13:22:00Z,Paços De Ferreira,Porto,Norte,-8.370658,41.278172,Em resolução
25603965,Cabreiro,Alto Minho,309,2025-06-30T14:10:00Z,25603965,Em conclusão,3103,Incêndio rural,0,2,0,9,2025-06-30T14:10:00Z,Arcos De Valdevez,Viana Do Castelo,Norte,-8.385903,41.944667,Em conclusão
25604181,São João de Ver,Area M. Porto,309,2025-06-30T14:45:00Z,25604181,Em resolução,3103,Incêndio rural,0,4,0,13,2025-06-30T14:45:00Z,Santa Maria Da Feira,Aveiro,Norte,-8.554135,40.95554,Em resolução
25604348,Corroios,Península de Setúbal,311,2025-06-30T15:12:00Z,25604348,Em conclusão,3103,Incêndio rural,0,3,0,13,2025-06-30T15:12:00Z,Seixal,Setúbal,Área Metropolitana De Lisboa,-9.152985,38.63667,Em conclusão
25604465,Monte da Pedra,Alto Alentejo,312,2025-06-30T15:33:00Z,25604465,Em conclusão,3103,Incêndio rural,1,11,0,41,2025-06-30T15:33:00Z,Crato,Portalegre,Alentejo,-7.69737,39.32872,Em conclusão
25604516,"Silvares, Pias, Nogueira e Alvarenga",Tâmega e Sousa,309,2025-06-30T15:38:00Z,25604516,Em despacho,3103,Incêndio rural,0,2,0,4,2025-06-30T15:38:00Z,Lousada,Porto,Norte,-8.257249,41.268447,Em despacho
25603845,Ota,Oeste,311,2025-06-30T13:53:00Z,25603845,Em conclusão,3103,Incêndio rural,0,0,0,0,2025-06-30T13:53:00Z,Alenquer,Lisboa,Centro,-8.99176,39.11164,Em conclusão
25604086,Alvarenga,Area M. Porto,309,2025-06-30T14:23:00Z,25604086,Em curso,3103,Incêndio rural,7,21,0,91,2025-06-30T14:23:00Z,Arouca,Aveiro,Norte,-8.144899,40.967288,Em curso
25604220,Campo,Viseu Dão Lafões,310,2025-06-30T14:52:00Z,25604220,Em curso,3107,Consolidação de rescaldo de incêndio rural,0,1,0,5,2025-06-30T14:52:00Z,Viseu,Viseu,Centro,-7.95445,40.690428,Em curso
25599357,Alpalhão,Alto Alentejo,312,2025-06-29T16:55:00Z,25599357,Em conclusão,3103,Incêndio rural,0,16,0,53,2025-06-29T16:55:00Z,Nisa,Portalegre,Alentejo,-7.63684,39.452513,Em conclusão
25599382,Almaceda,Beira Baixa,310,2025-06-29T17:03:00Z,25599382,Em resolução,3101,Incêndio rural,4,51,0,165,2025-06-29T17:03:00Z,Castelo Branco,Castelo Branco,Centro,-7.65644,39.97,Em resolução
25601904,Ermelo e Pardelhas,Ave,309,2025-06-30T08:29:00Z,25601904,Em despacho,3107,Consolidação de rescaldo de incêndio rural,0,2,0,7,2025-06-30T08:29:00Z,Mondim De Basto,Vila Real,Norte,-7.835997,41.35894,Em despacho
25602624,Lomba,Area M. Porto,309,2025-06-30T10:19:00Z,25602624,Em conclusão,3103,Incêndio rural,0,1,0,5,2025-06-30T10:19:00Z,Gondomar,Porto,Norte,-8.408252,41.034001,Em conclusão
25602783,Romarigães,Alto Minho,309,2025-06-30T10:43:00Z,25602783,Em conclusão,3101,Incêndio rural,0,2,0,5,2025-06-30T10:43:00Z,Paredes De Coura,Viana Do Castelo,Norte,-8.624152,41.847172,Em conclusão
25603669,Riba de Âncora,Alto Minho,309,2025-06-30T13:19:00Z,25603669,Em despacho,3107,Consolidação de rescaldo de incêndio rural,0,1,0,4,2025-06-30T13:19:00Z,Caminha,Viana Do Castelo,Norte,-8.803938,41.814638,Em despacho
25603801,Almodôvar e Graça Dos Padrões,Baixo Alentejo,312,2025-06-30T13:35:00Z,25603801,Em conclusão,3105,Incêndio rural,0,15,0,37,2025-06-30T13:35:00Z,Almodôvar,Beja,Alentejo,-8.121232,37.544488,Em conclusão
25604069,Galveias,Alto Alentejo,312,2025-06-30T14:26:00Z,25604069,Em conclusão,3103,Incêndio rural,0,22,0,59,2025-06-30T14:26:00Z,Ponte De Sor,Portalegre,Alentejo,-8.026567,39.117655,Em conclusão
25604246,Bustelo,Tâmega e Sousa,309,2025-06-30T14:55:00Z,25604246,Em curso,3103,Incêndio rural,1,5,0,26,2025-06-30T14:55:00Z,Penafiel,Porto,Norte,-8.255573,41.232038,Em curso
25604462,Penafiel,Tâmega e Sousa,309,2025-06-30T15:35:00Z,25604462,Em curso,3103,Incêndio rural,0,1,0,5,2025-06-30T15:35:00Z,Penafiel,Porto,Norte,-8.266104,41.21627,Em curso
