id,address,subregion,neighborhood,date,id.1,state,nature,nature_description,aerial_means,terrestrial_means,aquatic_means,operational,date.1,Concelho,Distrito,NUTII_DSG,longitude,latitude
25589193,Ribeira do Neiva,Cávado,309,2025-06-27T17:18:00Z,25589193,Em conclusão,3103,Incêndio rural,0,6,0,20,2025-06-27T17:18:00Z,Vila Verde,Braga,Norte,-8.467598,41.72493
25590144,Salvaterra de Magos e Foros de Salvaterra,Lezíria do Tejo,311,2025-06-27T20:54:00Z,25590144,Em conclusão,2101,Incêndio em edifícios habitacionais,0,5,0,13,2025-06-27T20:54:00Z,Salvaterra De Magos,Santarém,Alentejo,-8.76338,39.00186
25590196,Lagos (São Sebastião e Santa Maria),Algarve,313,2025-06-27T20:56:00Z,25590196,Em conclusão,3103,Incêndio rural,0,0,0,0,2025-06-27T20:56:00Z,Lagos,Faro,Algarve,-8.668524,37.100485
25590279,"Perafita, Lavra e Santa Cruz do Bispo",Area M. Porto,309,2025-06-27T21:22:00Z,25590279,Em resolução,3103,Incêndio rural,0,2,0,10,2025-06-27T21:22:00Z,Matosinhos,Porto,Norte,-8.70456,41.228017
25590361,Odivelas,Grande Lisboa,311,2025-06-27T21:39:00Z,25590361,Em despacho,2301,Incêndio em transporte rodoviário,0,1,0,5,2025-06-27T21:39:00Z,Odivelas,Lisboa,Área Metropolitana De Lisboa,-9.17326,38.79453
25588493,Ribeirão,Ave,309,2025-06-27T14:58:00Z,25588493,Em conclusão,3103,Incêndio rural,0,2,0,10,2025-06-27T14:58:00Z,Vila Nova De Famalicão,Braga,Norte,-8.558043,41.368877
25589254,Monforte,Alto Alentejo,312,2025-06-27T17:30:00Z,25589254,Em conclusão,3103,Incêndio rural,0,5,0,17,2025-06-27T17:30:00Z,Monforte,Portalegre,Alentejo,-7.370965,39.01471
25589411,Vila Velha de Ródão,Beira Baixa,310,2025-06-27T18:03:00Z,25589411,Em conclusão,3103,Incêndio rural,0,8,0,25,2025-06-27T18:03:00Z,Vila Velha De Ródão,Castelo Branco,Centro,-7.707447,39.634637
25589588,"Ardegão, Arnozela e Seidões",Ave,309,2025-06-27T18:45:00Z,25589588,Em conclusão,3103,Incêndio rural,0,3,0,12,2025-06-27T18:45:00Z,Fafe,Braga,Norte,-8.13644,41.3781
25589915,São Cristóvão,Alentejo Central,312,2025-06-27T19:57:00Z,25589915,Em curso,3105,Incêndio rural,0,14,0,48,2025-06-27T19:57:00Z,Montemor-o-Novo,Évora,Alentejo,-8.316474,38.489023
25589607,Fratel,Beira Baixa,310,2025-06-27T18:23:00Z,25589607,Em conclusão,3103,Incêndio rural,0,5,0,16,2025-06-27T18:23:00Z,Vila Velha De Ródão,Castelo Branco,Centro,-7.717527,39.624502
25590157,Croca,Tâmega e Sousa,309,2025-06-27T20:57:00Z,25590157,Em resolução,2115,Incêndio em edifícios hoteleiros e de restauração,0,2,0,7,2025-06-27T20:57:00Z,Penafiel,Porto,Norte,-8.25165,41.220047
25590173,"Abrunheira, Verride e Vila Nova da Barca",Região de Coimbra,310,2025-06-27T21:00:00Z,25590173,Em resolução,2301,Incêndio em transporte rodoviário,0,11,0,41,2025-06-27T21:00:00Z,Montemor-o-Velho,Coimbra,Centro,-8.744938,40.128483
25590200,Aveleda,Tâmega e Sousa,309,2025-06-27T20:55:00Z,25590200,Em resolução,2101,Incêndio em edifícios habitacionais,0,3,0,8,2025-06-27T20:55:00Z,Lousada,Porto,Norte,-8.255563,41.285202
25590250,São João Das Lampas e Terrugem,Grande Lisboa,311,2025-06-27T21:10:00Z,25590250,Em conclusão,3103,Incêndio rural,0,1,0,5,2025-06-27T21:10:00Z,Sintra,Lisboa,Área Metropolitana De Lisboa,-9.360194,38.868259
25590264,Vila Nova de Famalicão e Calendário,Ave,309,2025-06-27T21:19:00Z,25590264,Em conclusão,2127,"Incêndio em edifícios e recintos industriais, oficinas e armazéns",0,5,0,18,2025-06-27T21:19:00Z,Vila Nova De Famalicão,Braga,Norte,-8.53966,41.38057
25589115,"St.tirso, Couto (S.cristina e S.miguel) e Burgães",Area M. Porto,309,2025-06-27T17:04:00Z,25589115,Em conclusão,3103,Incêndio rural,0,5,0,16,2025-06-27T17:04:00Z,Santo Tirso,Porto,Norte,-8.49937,41.35176
25589502,Quinta do Anjo,Península de Setúbal,311,2025-06-27T18:22:00Z,25589502,Em conclusão,3105,Incêndio rural,0,0,0,0,2025-06-27T18:22:00Z,Palmela,Setúbal,Área Metropolitana De Lisboa,-8.949972,38.572763
25590235,Felgar e Souto da Velha,Douro,309,2025-06-27T21:08:00Z,25590235,Em curso,2201,Incêndio em equipamentos ou produtos,0,3,0,12,2025-06-27T21:08:00Z,Torre De Moncorvo,Bragança,Norte,-6.97107,41.184328
25590402,Benedita,Oeste,311,2025-06-27T21:45:00Z,25590402,Em resolução,3103,Incêndio rural,0,6,0,24,2025-06-27T21:45:00Z,Alcobaça,Leiria,Centro,-8.963628,39.439213
25590307,Alcains,Beira Baixa,310,2025-06-27T21:28:00Z,25590307,Em conclusão,3103,Incêndio rural,0,7,0,29,2025-06-27T21:28:00Z,Castelo Branco,Castelo Branco,Centro,-7.454748,39.915759
25590247,Sesimbra (Santiago),Península de Setúbal,311,2025-06-27T21:15:00Z,25590247,Em conclusão,2115,Incêndio em edifícios hoteleiros e de restauração,0,3,0,11,2025-06-27T21:15:00Z,Sesimbra,Setúbal,Área Metropolitana De Lisboa,-9.09876,38.44302
25590281,Mira de Aire,Região de Leiria,310,2025-06-27T21:22:00Z,25590281,Em despacho,3101,Incêndio rural,0,8,0,32,2025-06-27T21:22:00Z,Porto De Mós,Leiria,Centro,-8.7143,39.54291
25590322,Moncarapacho e Fuseta,Algarve,313,2025-06-27T21:32:00Z,25590322,Em curso,2101,Incêndio em edifícios habitacionais,0,2,0,4,2025-06-27T21:32:00Z,Olhão,Faro,Algarve,-7.79091,37.05677
25590397,Faro (Sé e São Pedro),Algarve,313,2025-06-27T21:35:00Z,25590397,Em despacho,3101,Incêndio rural,0,1,0,2,2025-06-27T21:35:00Z,Faro,Faro,Algarve,-7.942032,37.01865
25590406,Santo António Dos Cavaleiros e Frielas,Grande Lisboa,311,2025-06-27T21:51:00Z,25590406,Em despacho,2129,Incêndio em edifícios degradados ou devolutos,0,0,0,0,2025-06-27T21:51:00Z,Loures,Lisboa,Área Metropolitana De Lisboa,-9.179004,38.80991
