id,address,subregion,neighborhood,date,id.1,state,nature,nature_description,aerial_means,terrestrial_means,aquatic_means,operational,date.1,Concelho,Distrito,NUTII_DSG,longitude,latitude,state_2
26052925,Maceira,Região de Leiria,310,2025-09-27T12:54:00Z,26052925,Em Resolução/Conclusão,3105,Incêndio rural,0,1,0,2,2025-09-27T12:54:00Z,Leiria,Leiria,Centro,-8.89598,39.651515,Resolução/Conclusão
26061642,Urrô,Area M. Porto,309,2025-09-29T10:49:00Z,26061642,Em Despacho,3111,Queima,0,1,0,5,2025-09-29T10:49:00Z,Arouca,Aveiro,Norte,-8.28936,40.90647,Despacho
26022995,Bordeira,Algarve,313,2025-09-21T12:21:00Z,26022995,Em Resolução/Conclusão,3103,Incêndio rural,0,7,0,22,2025-09-21T12:21:00Z,Aljezur,Faro,Algarve,-8.825374,37.23495,Resolução/Conclusão
26061150,Fontes,Médio Tejo,311,2025-09-29T09:31:00Z,26061150,Em Resolução/Conclusão,3111,Queima,0,3,0,8,2025-09-29T09:31:00Z,Abrantes,Santarém,Centro,-8.240752,39.61491,Resolução/Conclusão
26050704,Tortosendo,Beiras e Serra da Estrela,310,2025-09-26T23:04:00Z,26050704,Em Resolução/Conclusão,3103,Incêndio rural,0,1,0,4,2025-09-26T23:04:00Z,Covilhã,Castelo Branco,Centro,-7.521592,40.251592,Resolução/Conclusão
25951176,Sandomil,Beiras e Serra da Estrela,310,2025-09-06T10:29:00Z,25951176,Em Resolução/Conclusão,3103,Incêndio rural,0,2,0,10,2025-09-06T10:29:00Z,Seia,Guarda,Centro,-7.76001,40.351547,Resolução/Conclusão
26060607,Gouveia (São Pedro e São Julião),Beiras e Serra da Estrela,310,2025-09-29T07:40:00Z,26060607,Em Resolução/Conclusão,3103,Incêndio rural,0,4,0,9,2025-09-29T07:40:00Z,Gouveia,Guarda,Centro,-7.59114,40.490052,Resolução/Conclusão
26061277,Rio de Couros e Casal Dos Bernardos,Médio Tejo,311,2025-09-29T09:53:00Z,26061277,Em Resolução/Conclusão,3103,Incêndio rural,0,0,0,0,2025-09-29T09:53:00Z,Ourém,Santarém,Centro,-8.556792,39.74789,Resolução/Conclusão
