id,address,subregion,neighborhood,date,id.1,state,nature,nature_description,aerial_means,terrestrial_means,aquatic_means,operational,date.1,Concelho,Distrito,NUTII_DSG,longitude,latitude,state_2
26092458,Mouriscas,Médio Tejo,311,2025-10-05T16:49:00Z,26092458,Em Resolução/Conclusão,3103,Incêndio rural,0,7,0,26,2025-10-05T16:49:00Z,Abrantes,Santarém,Centro,-8.093428,39.504367,Resolução/Conclusão
26092669,Seiça,Médio Tejo,311,2025-10-05T17:39:00Z,26092669,Em Resolução/Conclusão,3103,Incêndio rural,0,4,0,11,2025-10-05T17:39:00Z,Ourém,Santarém,Centro,-8.55475,39.672698,Resolução/Conclusão
26092817,Marrazes e Barosa,Região de Leiria,310,2025-10-05T18:13:00Z,26092817,Em Despacho,3103,Incêndio rural,0,4,0,17,2025-10-05T18:13:00Z,Leiria,Leiria,Centro,-8.86311,39.74695,Despacho
26092509,Meixedo e Padornelos,Alto Tâmega e Barroso,309,2025-10-05T17:02:00Z,26092509,Em Resolução/Conclusão,3103,Incêndio rural,0,2,0,10,2025-10-05T17:02:00Z,Montalegre,Vila Real,Norte,-7.746053,41.861425,Resolução/Conclusão
26092566,Folgosa,Area M. Porto,309,2025-10-05T17:14:00Z,26092566,Em Resolução/Conclusão,3103,Incêndio rural,0,7,0,27,2025-10-05T17:14:00Z,Maia,Porto,Norte,-8.529422,41.274522,Resolução/Conclusão
26092427,Alvites,Terras de Trás-os-Montes,309,2025-10-05T16:39:00Z,26092427,Em Resolução/Conclusão,3103,Incêndio rural,0,10,0,33,2025-10-05T16:39:00Z,Mirandela,Bragança,Norte,-7.044288,41.552485,Resolução/Conclusão
26092831,"S.maria, S.miguel, S.martinho, S.pedro Penaferrim",Grande Lisboa,311,2025-10-05T18:12:00Z,26092831,Em Resolução/Conclusão,3111,Queima,0,2,0,8,2025-10-05T18:12:00Z,Sintra,Lisboa,Área Metropolitana De Lisboa,-9.380334,38.768062,Resolução/Conclusão
26092929,Rebolosa,Beiras e Serra da Estrela,310,2025-10-05T18:44:00Z,26092929,Em Despacho,3103,Incêndio rural,0,1,0,5,2025-10-05T18:44:00Z,Sabugal,Guarda,Centro,-6.914105,40.4214,Despacho
26092907,Mondim de Basto,Ave,309,2025-10-05T18:39:00Z,26092907,Em Despacho,3103,Incêndio rural,0,0,0,0,2025-10-05T18:39:00Z,Mondim De Basto,Vila Real,Norte,-7.962343,41.397498,Despacho
