id,address,subregion,neighborhood,date,id.1,state,nature,nature_description,aerial_means,terrestrial_means,aquatic_means,operational,date.1,Concelho,Distrito,NUTII_DSG,longitude,latitude
25549140,Lomba,Area M. Porto,309,2025-06-19T14:47:00Z,25549140,Em conclusão,3103,Incêndio rural,0,0,0,0,2025-06-19T14:47:00Z,Gondomar,Porto,Norte,-8.404618,41.033438
25549358,Vila Chã (São João Baptista e Santiago),Alto Minho,309,2025-06-19T15:49:00Z,25549358,Em conclusão,3103,Incêndio rural,0,10,0,21,2025-06-19T15:49:00Z,Ponte Da Barca,Viana Do Castelo,Norte,-8.321927,41.809178
25549425,Perre,Alto Minho,309,2025-06-19T16:04:00Z,25549425,Em conclusão,3103,Incêndio rural,0,3,0,6,2025-06-19T16:04:00Z,Viana Do Castelo,Viana Do Castelo,Norte,-8.781872,41.726893
25550462,Mafamude e Vilar do Paraíso,Area M. Porto,309,2025-06-19T20:27:00Z,25550462,Em conclusão,3103,Incêndio rural,0,2,0,10,2025-06-19T20:27:00Z,Vila Nova De Gaia,Porto,Norte,-8.601126,41.126193
25550494,Estremoz (Santa Maria e Santo André),Alentejo Central,312,2025-06-19T20:47:00Z,25550494,Em despacho,3201,Detritos não confinados,0,0,0,0,2025-06-19T20:47:00Z,Estremoz,Évora,Alentejo,-7.604398,38.843801
25549973,Mafamude e Vilar do Paraíso,Area M. Porto,309,2025-06-19T18:34:00Z,25549973,Em conclusão,3103,Incêndio rural,0,0,0,0,2025-06-19T18:34:00Z,Vila Nova De Gaia,Porto,Norte,-8.628438,41.10744
25550164,Soalheira,Beiras e Serra da Estrela,310,2025-06-19T19:18:00Z,25550164,Em curso,3201,Detritos não confinados,0,5,0,19,2025-06-19T19:18:00Z,Fundão,Castelo Branco,Centro,-7.47974,40.03315
25550255,Lindoso,Alto Minho,309,2025-06-19T19:30:00Z,25550255,Em conclusão,3105,Incêndio rural,0,1,0,3,2025-06-19T19:30:00Z,Ponte Da Barca,Viana Do Castelo,Norte,-8.240723,41.860782
25550416,Rio Tinto,Area M. Porto,309,2025-06-19T20:25:00Z,25550416,Em conclusão,3201,Detritos não confinados,0,1,0,2,2025-06-19T20:25:00Z,Gondomar,Porto,Norte,-8.55365,41.18793
25544590,Benquerenças,Beira Baixa,310,2025-06-18T15:17:00Z,25544590,Em conclusão,3103,Incêndio rural,0,3,0,9,2025-06-18T15:17:00Z,Castelo Branco,Castelo Branco,Centro,-7.59037,39.839717
25549454,Cabeça Boa,Douro,309,2025-06-19T16:08:00Z,25549454,Em conclusão,3103,Incêndio rural,0,13,0,41,2025-06-19T16:08:00Z,Torre De Moncorvo,Bragança,Norte,-7.15936,41.196307
25550263,Buarcos,Região de Coimbra,310,2025-06-19T19:43:00Z,25550263,Em conclusão,2101,Incêndio em edifícios habitacionais,0,4,0,14,2025-06-19T19:43:00Z,Figueira Da Foz,Coimbra,Centro,-8.866125,40.15283
25544135,Toulões,Beira Baixa,310,2025-06-18T13:59:00Z,25544135,Em conclusão,3105,Incêndio rural,0,0,0,0,2025-06-18T13:59:00Z,Idanha-a-Nova,Castelo Branco,Centro,-7.056978,39.904387
25550352,Santa Bárbara de Nexe,Algarve,313,2025-06-19T20:04:00Z,25550352,Em resolução,3111,Queima,0,4,0,10,2025-06-19T20:04:00Z,Faro,Faro,Algarve,-7.960949,37.101576
25550386,Lomba,Area M. Porto,309,2025-06-19T20:17:00Z,25550386,Em resolução,3103,Incêndio rural,0,4,0,17,2025-06-19T20:17:00Z,Gondomar,Porto,Norte,-8.404195,41.033718
25550503,Loures,Grande Lisboa,311,2025-06-19T20:43:00Z,25550503,Em despacho,2127,"Incêndio em edifícios e recintos industriais, oficinas e armazéns",0,4,0,14,2025-06-19T20:43:00Z,Loures,Lisboa,Área Metropolitana De Lisboa,-9.17315,38.841252
