id,address,subregion,neighborhood,date,id.1,state,nature,nature_description,aerial_means,terrestrial_means,aquatic_means,operational,date.1,Concelho,Distrito,NUTII_DSG,longitude,latitude
25087162,Pedrógão,Baixo Alentejo,312,2025-03-14T17:00:00Z,25087162,Em curso,1101,Cheia,0,0,0,0,2025-03-14T17:00:00Z,Vidigueira,Beja,Alentejo,-7.630327,38.110775
25111394,Marinha Grande,Região de Leiria,310,2025-03-19T20:49:00Z,25111394,Em despacho,3301,Queda de árvore,0,3,0,5,2025-03-19T20:49:00Z,Marinha Grande,Leiria,Centro,-8.940945,39.76753
25111421,Febres,Região de Coimbra,310,2025-03-19T20:53:00Z,25111421,Em despacho,3311,Queda de elementos de estruturas edificados,0,1,0,2,2025-03-19T20:53:00Z,Cantanhede,Coimbra,Centro,-8.637168,40.385839
25111537,Santo António Dos Olivais,Região de Coimbra,310,2025-03-19T21:22:00Z,25111537,Em despacho,3301,Queda de árvore,0,1,0,3,2025-03-19T21:22:00Z,Coimbra,Coimbra,Centro,-8.426807,40.217261
25111569,Peniche,Oeste,311,2025-03-19T21:21:00Z,25111569,Em despacho,3321,Dano na rede de fornecimento de eletricidade ,0,1,0,6,2025-03-19T21:21:00Z,Peniche,Leiria,Centro,-9.376833,39.357166
25068300,Almeirim,Lezíria do Tejo,311,2025-03-10T20:52:00Z,25068300,Em curso,1101,Cheia,0,0,0,0,2025-03-10T20:52:00Z,Almeirim,Santarém,Alentejo,-8.635002,39.187436
25111204,Atouguia da Baleia,Oeste,311,2025-03-19T19:57:00Z,25111204,Em curso,3301,Queda de árvore,0,1,0,1,2025-03-19T19:57:00Z,Peniche,Leiria,Centro,-9.293139,39.353139
25111284,"Manique do Intendente, V. N. de São Pedro e Maçussa",Lezíria do Tejo,311,2025-03-19T20:22:00Z,25111284,Em conclusão,3329,Queda de estruturas temporárias ou móveis,0,1,0,2,2025-03-19T20:22:00Z,Azambuja,Lisboa,Alentejo,-8.889528,39.229128
25111420,Fátima,Médio Tejo,311,2025-03-19T20:54:00Z,25111420,Em conclusão,3321,Dano na rede de fornecimento de eletricidade ,0,2,0,4,2025-03-19T20:54:00Z,Ourém,Santarém,Centro,-8.670268,39.649073
25059714,Torrão,Alentejo Litoral,312,2025-03-08T22:10:00Z,25059714,Em curso,1101,Cheia,0,2,0,3,2025-03-08T22:10:00Z,Alcácer Do Sal,Setúbal,Alentejo,-8.359133,38.252053
25070044,Praia do Ribatejo,Médio Tejo,311,2025-03-10T19:30:00Z,25070044,Em curso,1101,Cheia,0,0,0,0,2025-03-10T19:30:00Z,Vila Nova Da Barquinha,Santarém,Centro,-8.357309,39.485638
25071496,São Manços e São Vicente do Pigeiro,Alentejo Central,312,2025-03-11T13:18:00Z,25071496,Em curso,1101,Cheia,0,2,0,4,2025-03-11T13:18:00Z,Évora,Évora,Alentejo,-7.713313,38.513673
25111442,Nogueira do Cravo,Região de Coimbra,310,2025-03-19T20:55:00Z,25111442,Em despacho,3329,Queda de estruturas temporárias ou móveis,0,1,0,2,2025-03-19T20:55:00Z,Oliveira Do Hospital,Coimbra,Centro,-7.893039,40.338066
25111474,Bombarral e Vale Covo,Oeste,311,2025-03-19T21:07:00Z,25111474,Em curso,3301,Queda de árvore,0,6,0,13,2025-03-19T21:07:00Z,Bombarral,Leiria,Centro,-9.16726,39.2754
25111574,Sesimbra (Castelo),Península de Setúbal,311,2025-03-19T21:29:00Z,25111574,Em despacho,3301,Queda de árvore,0,1,0,3,2025-03-19T21:29:00Z,Sesimbra,Setúbal,Área Metropolitana De Lisboa,-9.0917,38.4686
25111623,Alqueidão,Região de Coimbra,310,2025-03-19T21:36:00Z,25111623,Em despacho,3301,Queda de árvore,0,0,0,0,2025-03-19T21:36:00Z,Figueira Da Foz,Coimbra,Centro,-8.76809,40.07898
25111596,Paião,Região de Coimbra,310,2025-03-19T21:30:00Z,25111596,Em despacho,3301,Queda de árvore,0,1,0,2,2025-03-19T21:30:00Z,Figueira Da Foz,Coimbra,Centro,-8.756598,40.054747
25111610,Marrazes e Barosa,Região de Leiria,310,2025-03-19T21:35:00Z,25111610,Em despacho,3301,Queda de árvore,0,0,0,0,2025-03-19T21:35:00Z,Leiria,Leiria,Centro,-8.81813,39.75452
25111619,Tavarede,Região de Coimbra,310,2025-03-19T21:36:00Z,25111619,Em despacho,3301,Queda de árvore,0,1,0,5,2025-03-19T21:36:00Z,Figueira Da Foz,Coimbra,Centro,-8.841111,40.1675
25111637,Guarda,Beiras e Serra da Estrela,310,2025-03-19T21:39:00Z,25111637,Em despacho,3301,Queda de árvore,0,1,0,2,2025-03-19T21:39:00Z,Guarda,Guarda,Centro,-7.270807,40.53506
25111662,Juncal,Região de Leiria,310,2025-03-19T21:38:00Z,25111662,Em despacho,3301,Queda de árvore,0,1,0,2,2025-03-19T21:38:00Z,Porto De Mós,Leiria,Centro,-8.908329,39.584603
25111669,Marinha Grande,Região de Leiria,310,2025-03-19T21:26:00Z,25111669,Em despacho,3311,Queda de elementos de estruturas edificados,0,1,0,2,2025-03-19T21:26:00Z,Marinha Grande,Leiria,Centro,-8.937219,39.767238
25111685,Bombarral e Vale Covo,Oeste,311,2025-03-19T21:44:00Z,25111685,Em despacho,3301,Queda de árvore,0,1,0,3,2025-03-19T21:44:00Z,Bombarral,Leiria,Centro,-9.171316,39.267313
25111687,Povolide,Viseu Dão Lafões,310,2025-03-19T21:48:00Z,25111687,Em despacho,3301,Queda de árvore,0,1,0,2,2025-03-19T21:48:00Z,Viseu,Viseu,Centro,-7.79787,40.64324
25111696,Porto Salvo,Grande Lisboa,311,2025-03-19T21:49:00Z,25111696,Em resolução,3321,Dano na rede de fornecimento de eletricidade ,0,2,0,7,2025-03-19T21:49:00Z,Oeiras,Lisboa,Área Metropolitana De Lisboa,-9.311213,38.72429
25111703,Cascais e Estoril,Grande Lisboa,311,2025-03-19T21:39:00Z,25111703,Em conclusão,3301,Queda de árvore,0,1,0,5,2025-03-19T21:39:00Z,Cascais,Lisboa,Área Metropolitana De Lisboa,-9.419397,38.700982
25111513,Silves,Algarve,313,2025-03-19T21:04:00Z,25111513,Em curso,3301,Queda de árvore,0,1,0,5,2025-03-19T21:04:00Z,Silves,Faro,Algarve,-8.519646,37.244332
25111538,Eixo e Eirol,Região de Aveiro,310,2025-03-19T21:22:00Z,25111538,Em despacho,3301,Queda de árvore,0,1,0,4,2025-03-19T21:22:00Z,Aveiro,Aveiro,Centro,-8.567958,40.62154
25111604,Cernache,Região de Coimbra,310,2025-03-19T21:34:00Z,25111604,Em despacho,3301,Queda de árvore,0,1,0,3,2025-03-19T21:34:00Z,Coimbra,Coimbra,Centro,-8.491944,40.12861
25111611,Sesimbra (Castelo),Península de Setúbal,311,2025-03-19T21:35:00Z,25111611,Em curso,3301,Queda de árvore,0,0,0,0,2025-03-19T21:35:00Z,Sesimbra,Setúbal,Área Metropolitana De Lisboa,-9.106586,38.49022
25111702,Alcobaça e Vestiaria,Oeste,311,2025-03-19T21:45:00Z,25111702,Em curso,3329,Queda de estruturas temporárias ou móveis,0,2,0,5,2025-03-19T21:45:00Z,Alcobaça,Leiria,Centro,-8.970766,39.549944000000004
25111711,"S.julião, N.s. da Anunciada e S. Maria da Graça",Península de Setúbal,311,2025-03-19T21:51:00Z,25111711,Em despacho,3321,Dano na rede de fornecimento de eletricidade ,0,2,0,9,2025-03-19T21:51:00Z,Setúbal,Setúbal,Área Metropolitana De Lisboa,-8.915094,38.51882
25111722,Carvoeira e Carmões,Oeste,311,2025-03-19T21:50:00Z,25111722,Em despacho,3301,Queda de árvore,0,1,0,4,2025-03-19T21:50:00Z,Torres Vedras,Lisboa,Centro,-9.147479,39.060359
25111736,Bombarral e Vale Covo,Oeste,311,2025-03-19T21:49:00Z,25111736,Em despacho,3329,Queda de estruturas temporárias ou móveis,0,1,0,4,2025-03-19T21:49:00Z,Bombarral,Leiria,Centro,-9.171316,39.267313
25111624,Alcabideche,Grande Lisboa,311,2025-03-19T21:30:00Z,25111624,Em despacho,3301,Queda de árvore,0,1,0,5,2025-03-19T21:30:00Z,Cascais,Lisboa,Área Metropolitana De Lisboa,-9.438785,38.755713
25111657,Sangalhos,Região de Aveiro,310,2025-03-19T21:41:00Z,25111657,Em despacho,3301,Queda de árvore,0,2,0,6,2025-03-19T21:41:00Z,Anadia,Aveiro,Centro,-8.478739,40.494487
25111658,Alvorninha,Oeste,311,2025-03-19T21:41:00Z,25111658,Em despacho,3311,Queda de elementos de estruturas edificados,0,1,0,5,2025-03-19T21:41:00Z,Caldas Da Rainha,Leiria,Centro,-9.047004,39.419673
25111673,Bajouca,Região de Leiria,310,2025-03-19T21:36:00Z,25111673,Em despacho,3301,Queda de árvore,0,1,0,2,2025-03-19T21:36:00Z,Leiria,Leiria,Centro,-8.793774,39.899636
25111689,Cadaval e Pêro Moniz,Oeste,311,2025-03-19T21:49:00Z,25111689,Em despacho,3301,Queda de árvore,0,0,0,0,2025-03-19T21:49:00Z,Cadaval,Lisboa,Centro,-9.101481,39.244497
25111693,Glória e Vera Cruz,Região de Aveiro,310,2025-03-19T21:45:00Z,25111693,Em resolução,3301,Queda de árvore,0,2,0,6,2025-03-19T21:45:00Z,Aveiro,Aveiro,Centro,-8.647359,40.640643
25111708,Algueirão-Mem Martins,Grande Lisboa,311,2025-03-19T21:43:00Z,25111708,Em despacho,3301,Queda de árvore,0,1,0,3,2025-03-19T21:43:00Z,Sintra,Lisboa,Área Metropolitana De Lisboa,-9.345795,38.786998
25111759,Atouguia da Baleia,Oeste,311,2025-03-19T21:45:00Z,25111759,Em despacho,3301,Queda de árvore,0,3,0,5,2025-03-19T21:45:00Z,Peniche,Leiria,Centro,-9.32433,39.339703
25111773,São Silvestre,Região de Coimbra,310,2025-03-19T21:53:00Z,25111773,Em despacho,3301,Queda de árvore,0,1,0,3,2025-03-19T21:53:00Z,Coimbra,Coimbra,Centro,-8.534947,40.227742
25111829,"S.maria, S.miguel, S.martinho, S.pedro Penaferrim",Grande Lisboa,311,2025-03-19T22:02:00Z,25111829,Em despacho,3301,Queda de árvore,0,1,0,5,2025-03-19T22:02:00Z,Sintra,Lisboa,Área Metropolitana De Lisboa,-9.380105,38.790996
25111847,Monte Redondo e Carreira,Região de Leiria,310,2025-03-19T22:13:00Z,25111847,Em despacho,3301,Queda de árvore,0,1,0,2,2025-03-19T22:13:00Z,Leiria,Leiria,Centro,-8.847483,39.892112
25111854,Cascais e Estoril,Grande Lisboa,311,2025-03-19T22:07:00Z,25111854,Em curso,3301,Queda de árvore,0,1,0,3,2025-03-19T22:07:00Z,Cascais,Lisboa,Área Metropolitana De Lisboa,-9.419397,38.700982
25111863,Portimão,Algarve,313,2025-03-19T22:05:00Z,25111863,Em despacho,3311,Queda de elementos de estruturas edificados,0,1,0,3,2025-03-19T22:05:00Z,Portimão,Faro,Algarve,-8.532608,37.137966
25111870,Rossas,Area M. Porto,309,2025-03-19T22:10:00Z,25111870,Em despacho,3311,Queda de elementos de estruturas edificados,0,1,0,2,2025-03-19T22:10:00Z,Arouca,Aveiro,Norte,-8.31542,40.903464
25111872,Samora Correia,Lezíria do Tejo,311,2025-03-19T22:19:00Z,25111872,Em despacho,3301,Queda de árvore,0,2,0,5,2025-03-19T22:19:00Z,Benavente,Santarém,Alentejo,-8.88153,38.90603
25111877,Gondemaria e Olival,Médio Tejo,311,2025-03-19T22:12:00Z,25111877,Em curso,3301,Queda de árvore,0,1,0,5,2025-03-19T22:12:00Z,Ourém,Santarém,Centro,-8.606564,39.71232
25111879,Vau,Oeste,311,2025-03-19T22:12:00Z,25111879,Em despacho,3301,Queda de árvore,0,1,0,2,2025-03-19T22:12:00Z,Óbidos,Leiria,Centro,-9.254195,39.378229
25111712,Mafra,Grande Lisboa,311,2025-03-19T21:51:00Z,25111712,Em despacho,3301,Queda de árvore,0,1,0,3,2025-03-19T21:51:00Z,Mafra,Lisboa,Área Metropolitana De Lisboa,-9.33053,38.94999
25111714,Verdelhos,Beiras e Serra da Estrela,310,2025-03-19T21:45:00Z,25111714,Em despacho,3301,Queda de árvore,0,1,0,2,2025-03-19T21:45:00Z,Covilhã,Castelo Branco,Centro,-7.45837,40.379578
25111746,Alcanede,Lezíria do Tejo,311,2025-03-19T21:55:00Z,25111746,Em conclusão,3301,Queda de árvore,0,1,0,5,2025-03-19T21:55:00Z,Santarém,Santarém,Alentejo,-8.790827,39.398112
25111753,Vidais,Oeste,311,2025-03-19T21:58:00Z,25111753,Em despacho,3301,Queda de árvore,0,0,0,0,2025-03-19T21:58:00Z,Caldas Da Rainha,Leiria,Centro,-9.048666,39.369221
25111762,São Martinho,Alentejo Litoral,312,2025-03-19T21:50:00Z,25111762,Em conclusão,3301,Queda de árvore,0,2,0,3,2025-03-19T21:50:00Z,Alcácer Do Sal,Setúbal,Alentejo,-8.523709,38.447975
25111778,São Pedro da Cadeira,Oeste,311,2025-03-19T22:02:00Z,25111778,Em despacho,3321,Dano na rede de fornecimento de eletricidade ,0,2,0,5,2025-03-19T22:02:00Z,Torres Vedras,Lisboa,Centro,-9.385521,39.063448
25111780,Carriço,Região de Leiria,310,2025-03-19T21:55:00Z,25111780,Em despacho,3301,Queda de árvore,0,1,0,3,2025-03-19T21:55:00Z,Pombal,Leiria,Centro,-8.8051,39.981527
25111794,Santiago e S. Simão de Litém e Albergaria Dos Doze,Região de Leiria,310,2025-03-19T22:00:00Z,25111794,Em despacho,3311,Queda de elementos de estruturas edificados,0,1,0,2,2025-03-19T22:00:00Z,Pombal,Leiria,Centro,-8.58281,39.824995
25111803,Costa da Caparica,Península de Setúbal,311,2025-03-19T22:01:00Z,25111803,Em despacho,3301,Queda de árvore,0,1,0,3,2025-03-19T22:01:00Z,Almada,Setúbal,Área Metropolitana De Lisboa,-9.227696,38.642583
25111821,Couto de Baixo e Couto de Cima,Viseu Dão Lafões,310,2025-03-19T22:03:00Z,25111821,Em despacho,3301,Queda de árvore,0,1,0,2,2025-03-19T22:03:00Z,Viseu,Viseu,Centro,-8.005421,40.656132
25063232,Santa Maria do Castelo e Santiago e Santa Susana,Alentejo Litoral,312,2025-03-09T19:02:00Z,25063232,Em curso,1101,Cheia,0,0,0,0,2025-03-09T19:02:00Z,Alcácer Do Sal,Setúbal,Alentejo,-8.48167,38.29806
25111431,Santa Eufémia e Boa Vista,Região de Leiria,310,2025-03-19T20:58:00Z,25111431,Em despacho,3301,Queda de árvore,0,1,0,3,2025-03-19T20:58:00Z,Leiria,Leiria,Centro,-8.746531,39.73764
25111567,Alpiarça,Lezíria do Tejo,311,2025-03-19T21:25:00Z,25111567,Em resolução,3309,Desabamento de estruturas edificadas,0,6,0,10,2025-03-19T21:25:00Z,Alpiarça,Santarém,Alentejo,-8.595402,39.262022
25111582,"Sé Nova, Santa Cruz, Almedina e São Bartolomeu",Região de Coimbra,310,2025-03-19T21:30:00Z,25111582,Em despacho,3301,Queda de árvore,0,0,0,0,2025-03-19T21:30:00Z,Coimbra,Coimbra,Centro,-8.425582,40.205556
25111584,Miranda do Corvo,Região de Coimbra,310,2025-03-19T21:25:00Z,25111584,Em despacho,3329,Queda de estruturas temporárias ou móveis,0,1,0,4,2025-03-19T21:25:00Z,Miranda Do Corvo,Coimbra,Centro,-8.339499,40.09407
25111632,Peniche,Oeste,311,2025-03-19T21:30:00Z,25111632,Em despacho,3329,Queda de estruturas temporárias ou móveis,0,4,0,8,2025-03-19T21:30:00Z,Peniche,Leiria,Centro,-9.376833,39.357166
25111809,Algueirão-Mem Martins,Grande Lisboa,311,2025-03-19T21:54:00Z,25111809,Em despacho,3301,Queda de árvore,0,1,0,2,2025-03-19T21:54:00Z,Sintra,Lisboa,Área Metropolitana De Lisboa,-9.345795,38.786998
25111824,Amoreira,Oeste,311,2025-03-19T21:58:00Z,25111824,Em despacho,3301,Queda de árvore,0,1,0,5,2025-03-19T21:58:00Z,Óbidos,Leiria,Centro,-9.213027,39.342591
25111826,Alfeizerão,Oeste,311,2025-03-19T21:55:00Z,25111826,Em despacho,3301,Queda de árvore,0,1,0,3,2025-03-19T21:55:00Z,Alcobaça,Leiria,Centro,-9.110786,39.496611
25111842,Marinha Grande,Região de Leiria,310,2025-03-19T22:07:00Z,25111842,Em despacho,3301,Queda de árvore,0,1,0,3,2025-03-19T22:07:00Z,Marinha Grande,Leiria,Centro,-8.945197,39.750971
25111859,Cadaval e Pêro Moniz,Oeste,311,2025-03-19T22:07:00Z,25111859,Em curso,3301,Queda de árvore,0,1,0,3,2025-03-19T22:07:00Z,Cadaval,Lisboa,Centro,-9.101481,39.244497
25111860,Longueira/Almograve,Alentejo Litoral,312,2025-03-19T22:09:00Z,25111860,Em conclusão,3301,Queda de árvore,0,1,0,2,2025-03-19T22:09:00Z,Odemira,Beja,Alentejo,-8.71748,37.612027
25111874,Carcavelos e Parede,Grande Lisboa,311,2025-03-19T22:09:00Z,25111874,Em despacho,3329,Queda de estruturas temporárias ou móveis,0,1,0,3,2025-03-19T22:09:00Z,Cascais,Lisboa,Área Metropolitana De Lisboa,-9.355169,38.690219
25111876,Pataias e Martingança,Oeste,311,2025-03-19T21:56:00Z,25111876,Em despacho,3301,Queda de árvore,0,2,0,10,2025-03-19T21:56:00Z,Alcobaça,Leiria,Centro,-8.948779,39.65908
25111890,Ereira,Região de Coimbra,310,2025-03-19T22:18:00Z,25111890,Em despacho,3301,Queda de árvore,0,2,0,5,2025-03-19T22:18:00Z,Montemor-o-Velho,Coimbra,Centro,-8.716436,40.154921
25111891,Verdelhos,Beiras e Serra da Estrela,310,2025-03-19T22:20:00Z,25111891,Em despacho,3301,Queda de árvore,0,1,0,2,2025-03-19T22:20:00Z,Covilhã,Castelo Branco,Centro,-7.45837,40.379578
25111892,Marinha Das Ondas,Região de Coimbra,310,2025-03-19T22:22:00Z,25111892,Em despacho,3309,Desabamento de estruturas edificadas,0,0,0,0,2025-03-19T22:22:00Z,Figueira Da Foz,Coimbra,Centro,-8.832842,40.02937
25111907,Alvorninha,Oeste,311,2025-03-19T22:10:00Z,25111907,Em despacho,3301,Queda de árvore,0,1,0,5,2025-03-19T22:10:00Z,Caldas Da Rainha,Leiria,Centro,-9.022426,39.404552
25111909,Reguengo do Fetal,Região de Leiria,310,2025-03-19T22:09:00Z,25111909,Em despacho,3301,Queda de árvore,0,1,0,3,2025-03-19T22:09:00Z,Batalha,Leiria,Centro,-8.789033,39.647485
25111923,Cascais e Estoril,Grande Lisboa,311,2025-03-19T22:27:00Z,25111923,Em despacho,3301,Queda de árvore,0,0,0,0,2025-03-19T22:27:00Z,Cascais,Lisboa,Área Metropolitana De Lisboa,-9.4403,38.70115
25111925,Góis,Região de Coimbra,310,2025-03-19T22:23:00Z,25111925,Em despacho,3301,Queda de árvore,0,1,0,3,2025-03-19T22:23:00Z,Góis,Coimbra,Centro,-8.097889,40.18431
25111926,Foz do Arelho,Oeste,311,2025-03-19T22:00:00Z,25111926,Em despacho,3309,Desabamento de estruturas edificadas,0,1,0,5,2025-03-19T22:00:00Z,Caldas Da Rainha,Leiria,Centro,-9.207478,39.434512
25111913,Águas Santas,Area M. Porto,309,2025-03-19T22:26:00Z,25111913,Em despacho,3329,Queda de estruturas temporárias ou móveis,0,0,0,0,2025-03-19T22:26:00Z,Maia,Porto,Norte,-8.561286,41.20415
25111920,Nelas,Viseu Dão Lafões,310,2025-03-19T22:25:00Z,25111920,Em despacho,3301,Queda de árvore,0,0,0,0,2025-03-19T22:25:00Z,Nelas,Viseu,Centro,-7.848666,40.536085
25111922,Ossela,Area M. Porto,309,2025-03-19T22:11:00Z,25111922,Em curso,3321,Dano na rede de fornecimento de eletricidade ,0,1,0,2,2025-03-19T22:11:00Z,Oliveira De Azeméis,Aveiro,Norte,-8.428963,40.827387
25111936,Alfeizerão,Oeste,311,2025-03-19T22:29:00Z,25111936,Em despacho,3301,Queda de árvore,0,0,0,0,2025-03-19T22:29:00Z,Alcobaça,Leiria,Centro,-9.10212,39.50255
25111938,Carregal do Sal,Viseu Dão Lafões,310,2025-03-19T22:27:00Z,25111938,Em despacho,3329,Queda de estruturas temporárias ou móveis,0,1,0,3,2025-03-19T22:27:00Z,Carregal Do Sal,Viseu,Centro,-7.999939,40.437298
25111839,Alfeizerão,Oeste,311,2025-03-19T21:57:00Z,25111839,Em resolução,3311,Queda de elementos de estruturas edificados,0,1,0,3,2025-03-19T21:57:00Z,Alcobaça,Leiria,Centro,-9.110786,39.496611
25111844,Cadafaz e Colmeal,Região de Coimbra,310,2025-03-19T22:11:00Z,25111844,Em despacho,3309,Desabamento de estruturas edificadas,0,2,0,2,2025-03-19T22:11:00Z,Góis,Coimbra,Centro,-8.013447,40.126617
25111855,Cacém e São Marcos,Grande Lisboa,311,2025-03-19T21:54:00Z,25111855,Em curso,3301,Queda de árvore,0,1,0,3,2025-03-19T21:54:00Z,Sintra,Lisboa,Área Metropolitana De Lisboa,-9.296125,38.754519
25111880,Caldas da Rainha - Santo Onofre e Serra do Bouro,Oeste,311,2025-03-19T22:21:00Z,25111880,Em despacho,3301,Queda de árvore,0,0,0,0,2025-03-19T22:21:00Z,Caldas Da Rainha,Leiria,Centro,-9.14999,39.4037
25111889,Almoster,Região de Leiria,310,2025-03-19T22:19:00Z,25111889,Em despacho,3301,Queda de árvore,0,1,0,2,2025-03-19T22:19:00Z,Alvaiázere,Leiria,Centro,-8.456751,39.84433
25111905,Lorvão,Região de Coimbra,310,2025-03-19T22:22:00Z,25111905,Em despacho,3301,Queda de árvore,0,1,0,2,2025-03-19T22:22:00Z,Penacova,Coimbra,Centro,-8.316504,40.263418
25111912,Marinha Grande,Região de Leiria,310,2025-03-19T22:23:00Z,25111912,Em despacho,3301,Queda de árvore,0,1,0,2,2025-03-19T22:23:00Z,Marinha Grande,Leiria,Centro,-8.937219,39.767238
25111919,São Brás de Alportel,Algarve,313,2025-03-19T22:22:00Z,25111919,Em despacho,3301,Queda de árvore,0,1,0,5,2025-03-19T22:22:00Z,São Brás De Alportel,Faro,Algarve,-7.84599,37.159022
25111930,Charneca de Caparica e Sobreda,Península de Setúbal,311,2025-03-19T22:21:00Z,25111930,Em despacho,3301,Queda de árvore,0,1,0,4,2025-03-19T22:21:00Z,Almada,Setúbal,Área Metropolitana De Lisboa,-9.190193,38.591584
25111633,"Guia, Ilha e Mata Mourisca",Região de Leiria,310,2025-03-19T21:30:00Z,25111633,Em despacho,3301,Queda de árvore,0,1,0,3,2025-03-19T21:30:00Z,Pombal,Leiria,Centro,-8.789424,39.933884
25111683,Beja (Santiago Maior e São João Baptista),Baixo Alentejo,312,2025-03-19T21:47:00Z,25111683,Em conclusão,3301,Queda de árvore,0,1,0,4,2025-03-19T21:47:00Z,Beja,Beja,Alentejo,-7.875623,38.024622
25111698,Aldeia Galega da Merceana e Aldeia Gavinha,Oeste,311,2025-03-19T21:40:00Z,25111698,Em despacho,3301,Queda de árvore,0,1,0,3,2025-03-19T21:40:00Z,Alenquer,Lisboa,Centro,-9.123435,39.075879
25111699,Maceira,Região de Leiria,310,2025-03-19T21:29:00Z,25111699,Em despacho,3301,Queda de árvore,0,1,0,3,2025-03-19T21:29:00Z,Leiria,Leiria,Centro,-8.889652,39.686501
25111717,Praia de Mira,Região de Coimbra,310,2025-03-19T21:36:00Z,25111717,Em despacho,3301,Queda de árvore,0,1,0,2,2025-03-19T21:36:00Z,Mira,Coimbra,Centro,-8.788778,40.475131
25111765,Fernão Ferro,Península de Setúbal,311,2025-03-19T21:50:00Z,25111765,Em despacho,3301,Queda de árvore,0,1,0,2,2025-03-19T21:50:00Z,Seixal,Setúbal,Área Metropolitana De Lisboa,-9.115329,38.572419
25111781,Lajeosa do Dão,Viseu Dão Lafões,310,2025-03-19T22:02:00Z,25111781,Em despacho,3301,Queda de árvore,0,1,0,2,2025-03-19T22:02:00Z,Tondela,Viseu,Centro,-7.990324,40.52644
25111782,Podentes,Região de Coimbra,310,2025-03-19T22:00:00Z,25111782,Em despacho,3311,Queda de elementos de estruturas edificados,0,1,0,2,2025-03-19T22:00:00Z,Penela,Coimbra,Centro,-8.393306,40.058838
25111799,Paços de Brandão,Area M. Porto,309,2025-03-19T22:05:00Z,25111799,Em curso,3329,Queda de estruturas temporárias ou móveis,0,1,0,2,2025-03-19T22:05:00Z,Santa Maria Da Feira,Aveiro,Norte,-8.590571,40.973587
25111816,Regueira de Pontes,Região de Leiria,310,2025-03-19T21:57:00Z,25111816,Em despacho,3301,Queda de árvore,0,1,0,3,2025-03-19T21:57:00Z,Leiria,Leiria,Centro,-8.830185,39.800354
25111832,Soure,Região de Coimbra,310,2025-03-19T21:45:00Z,25111832,Em despacho,3301,Queda de árvore,0,1,0,2,2025-03-19T21:45:00Z,Soure,Coimbra,Centro,-8.648687,40.04267
25111834,Alvor,Algarve,313,2025-03-19T22:11:00Z,25111834,Em curso,3301,Queda de árvore,0,1,0,3,2025-03-19T22:11:00Z,Portimão,Faro,Algarve,-8.572222,37.16222
25111848,Alenquer (Santo Estêvão e Triana),Oeste,311,2025-03-19T22:14:00Z,25111848,Em despacho,3301,Queda de árvore,0,1,0,2,2025-03-19T22:14:00Z,Alenquer,Lisboa,Centro,-9.02472,39.02977
25111850,Moita Dos Ferreiros,Oeste,311,2025-03-19T21:45:00Z,25111850,Em conclusão,3301,Queda de árvore,0,4,0,6,2025-03-19T21:45:00Z,Lourinhã,Lisboa,Centro,-9.227775,39.24698
25111851,Manteigas (Santa Maria),Beiras e Serra da Estrela,310,2025-03-19T22:06:00Z,25111851,Em despacho,3301,Queda de árvore,0,1,0,3,2025-03-19T22:06:00Z,Manteigas,Guarda,Centro,-7.537826,40.403513
25111866,"Enxara do Bispo, Gradil e Vila Franca do Rosário",Grande Lisboa,311,2025-03-19T22:05:00Z,25111866,Em despacho,3329,Queda de estruturas temporárias ou móveis,0,1,0,5,2025-03-19T22:05:00Z,Mafra,Lisboa,Área Metropolitana De Lisboa,-9.240904,38.976641
25111884,Ventosa,Oeste,311,2025-03-19T22:21:00Z,25111884,Em despacho,3301,Queda de árvore,0,0,0,0,2025-03-19T22:21:00Z,Torres Vedras,Lisboa,Centro,-9.302352,39.064312
25111885,Vidais,Oeste,311,2025-03-19T22:17:00Z,25111885,Em despacho,3301,Queda de árvore,0,1,0,5,2025-03-19T22:17:00Z,Caldas Da Rainha,Leiria,Centro,-9.048666,39.369221
25111898,Santo Isidoro,Grande Lisboa,311,2025-03-19T22:16:00Z,25111898,Em despacho,3301,Queda de árvore,0,1,0,5,2025-03-19T22:16:00Z,Mafra,Lisboa,Área Metropolitana De Lisboa,-9.368141,38.994278
25111899,Igreja Nova e Cheleiros,Grande Lisboa,311,2025-03-19T22:07:00Z,25111899,Em despacho,3301,Queda de árvore,0,1,0,3,2025-03-19T22:07:00Z,Mafra,Lisboa,Área Metropolitana De Lisboa,-9.290378,38.896896
25111915,Góis,Região de Coimbra,310,2025-03-19T22:23:00Z,25111915,Em despacho,3301,Queda de árvore,0,1,0,4,2025-03-19T22:23:00Z,Góis,Coimbra,Centro,-8.120659,40.134935
25111932,Alcochete,Península de Setúbal,311,2025-03-19T22:17:00Z,25111932,Em despacho,3311,Queda de elementos de estruturas edificados,0,1,0,5,2025-03-19T22:17:00Z,Alcochete,Setúbal,Área Metropolitana De Lisboa,-8.962464,38.749259
25111934,Monchique,Algarve,313,2025-03-19T22:18:00Z,25111934,Em despacho,3301,Queda de árvore,0,1,0,3,2025-03-19T22:18:00Z,Monchique,Faro,Algarve,-8.614574,37.284529
