id,address,subregion,neighborhood,date,id.1,state,nature,nature_description,aerial_means,terrestrial_means,aquatic_means,operational,date.1,Concelho,Distrito,NUTII_DSG,longitude,latitude,state_2
25639447,Croca,Tâmega e Sousa,309,2025-07-07T07:37:00Z,25639447,Em Resolução/Conclusão,3103,Incêndio rural,0,2,0,10,2025-07-07T07:37:00Z,Penafiel,Porto,Norte,-8.230277,41.216447,Resolução/Conclusão
25640248,Lavradas,Alto Minho,309,2025-07-07T10:00:00Z,25640248,Em Resolução/Conclusão,3103,Incêndio rural,0,1,0,5,2025-07-07T10:00:00Z,Ponte Da Barca,Viana Do Castelo,Norte,-8.469045,41.795428,Resolução/Conclusão
25639989,Luso,Região de Coimbra,310,2025-07-07T09:24:00Z,25639989,Em Resolução/Conclusão,3101,Incêndio rural,0,9,0,36,2025-07-07T09:24:00Z,Mealhada,Aveiro,Centro,-8.36167,40.38667,Resolução/Conclusão
25640258,Andrães,Douro,309,2025-07-07T10:02:00Z,25640258,Em Resolução/Conclusão,3103,Incêndio rural,0,4,0,14,2025-07-07T10:02:00Z,Vila Real,Vila Real,Norte,-7.718227,41.24959,Resolução/Conclusão
25640458,Duas Igrejas,Area M. Porto,309,2025-07-07T10:26:00Z,25640458,Em Resolução/Conclusão,3103,Incêndio rural,0,1,0,5,2025-07-07T10:26:00Z,Paredes,Porto,Norte,-8.374952,41.233638,Resolução/Conclusão
25640493,Cornes,Alto Minho,309,2025-07-07T10:38:00Z,25640493,Em Resolução/Conclusão,3105,Incêndio rural,0,1,0,3,2025-07-07T10:38:00Z,Vila Nova De Cerveira,Viana Do Castelo,Norte,-8.682532,41.952518,Resolução/Conclusão
25636341,Navió e Vitorino Dos Piães,Alto Minho,309,2025-07-06T13:36:00Z,25636341,Em Resolução/Conclusão,3103,Incêndio rural,0,21,0,64,2025-07-06T13:36:00Z,Ponte De Lima,Viana Do Castelo,Norte,-8.636015,41.674557,Resolução/Conclusão
25636995,Graça,Região de Leiria,310,2025-07-06T16:00:00Z,25636995,Em Resolução/Conclusão,3101,Incêndio rural,0,1,0,2,2025-07-06T16:00:00Z,Pedrógão Grande,Leiria,Centro,-8.220789,39.883478,Resolução/Conclusão
25637334,São Miguel de Acha,Beira Baixa,310,2025-07-06T17:22:00Z,25637334,Em Resolução/Conclusão,3105,Incêndio rural,0,3,0,15,2025-07-06T17:22:00Z,Idanha-a-Nova,Castelo Branco,Centro,-7.277732,39.997078,Resolução/Conclusão
