id,address,subregion,neighborhood,date,id.1,state,nature,nature_description,aerial_means,terrestrial_means,aquatic_means,operational,date.1,Concelho,Distrito,NUTII_DSG,longitude,latitude,state_2
25832672,Piódão,Região de Coimbra,310,2025-08-13T05:08:00Z,25832672,Em Resolução/Conclusão,3103,Incêndio rural,0,0,0,0,2025-08-13T05:08:00Z,Arganil,Coimbra,Centro,-7.81972,40.23083,Resolução/Conclusão
26013902,Penacova,Região de Coimbra,310,2025-09-19T13:28:00Z,26013902,Em Resolução/Conclusão,3103,Incêndio rural,0,2,0,5,2025-09-19T13:28:00Z,Penacova,Coimbra,Centro,-8.32583,40.32722,Resolução/Conclusão
26016508,Rossas,Ave,309,2025-09-19T23:25:00Z,26016508,Em Resolução/Conclusão,3103,Incêndio rural,0,3,0,14,2025-09-19T23:25:00Z,Vieira Do Minho,Braga,Norte,-8.073845,41.586948,Resolução/Conclusão
26016533,Chamoim e Vilar,Cávado,309,2025-09-19T23:31:00Z,26016533,Em Curso,3103,Incêndio rural,0,5,0,25,2025-09-19T23:31:00Z,Terras De Bouro,Braga,Norte,-8.255313,41.720563,Curso
25951176,Sandomil,Beiras e Serra da Estrela,310,2025-09-06T10:29:00Z,25951176,Em Resolução/Conclusão,3103,Incêndio rural,0,2,0,10,2025-09-06T10:29:00Z,Seia,Guarda,Centro,-7.76001,40.351547,Resolução/Conclusão
26015988,"Algodres, Vale de Afonsinho e Vilar de Amargo",Beiras e Serra da Estrela,310,2025-09-19T20:30:00Z,26015988,Em Resolução/Conclusão,3103,Incêndio rural,0,1,0,5,2025-09-19T20:30:00Z,Figueira De Castelo Rodrigo,Guarda,Centro,-6.999137,40.94832,Resolução/Conclusão
26016304,Chamoim e Vilar,Cávado,309,2025-09-19T22:00:00Z,26016304,Em Resolução/Conclusão,3103,Incêndio rural,0,4,0,20,2025-09-19T22:00:00Z,Terras De Bouro,Braga,Norte,-8.24961,41.726578,Resolução/Conclusão
26013405,Barreiros e Cepões,Viseu Dão Lafões,310,2025-09-19T11:56:00Z,26013405,Em Resolução/Conclusão,3103,Incêndio rural,0,129,0,390,2025-09-19T11:56:00Z,Viseu,Viseu,Centro,-7.786007,40.76602,Resolução/Conclusão
26015842,Lazarim,Douro,309,2025-09-19T19:53:00Z,26015842,Em Despacho,3103,Incêndio rural,0,0,0,0,2025-09-19T19:53:00Z,Lamego,Viseu,Norte,-7.84444,41.03196,Despacho
26015978,Penhalonga e Paços de Gaiolo,Tâmega e Sousa,309,2025-09-19T20:29:00Z,26015978,Em Resolução/Conclusão,3103,Incêndio rural,0,1,0,5,2025-09-19T20:29:00Z,Marco De Canaveses,Porto,Norte,-8.138933,41.091443,Resolução/Conclusão
26016528,Gouviães e Ucanha,Douro,309,2025-09-19T23:29:00Z,26016528,Em Resolução/Conclusão,3103,Incêndio rural,0,1,0,5,2025-09-19T23:29:00Z,Tarouca,Viseu,Norte,-7.752978,41.04069,Resolução/Conclusão
26003298,Barreiros e Cepões,Viseu Dão Lafões,310,2025-09-17T12:05:00Z,26003298,Em Resolução/Conclusão,3101,Incêndio rural,0,1,0,2,2025-09-17T12:05:00Z,Viseu,Viseu,Centro,-7.825281,40.745844,Resolução/Conclusão
26013065,Mezio e Moura Morta,Viseu Dão Lafões,310,2025-09-19T11:05:00Z,26013065,Em Curso,3103,Incêndio rural,0,174,0,549,2025-09-19T11:05:00Z,Castro Daire,Viseu,Centro,-7.878187,40.98632,Curso
26013919,Ervedal e Vila Franca da Beira,Região de Coimbra,310,2025-09-19T13:25:00Z,26013919,Em Curso,3103,Incêndio rural,0,148,0,499,2025-09-19T13:25:00Z,Oliveira Do Hospital,Coimbra,Centro,-7.90472,40.43917,Curso
