id,address,subregion,neighborhood,date,id.1,state,nature,nature_description,aerial_means,terrestrial_means,aquatic_means,operational,date.1,Concelho,Distrito,NUTII_DSG,longitude,latitude,state_2
25846016,Poiares,Douro,309,2025-08-15T13:17:00Z,25846016,Em Resolução/Conclusão,3103,Incêndio rural,0,8,0,16,2025-08-15T13:17:00Z,Freixo De Espada à Cinta,Bragança,Norte,-6.843393,41.075787,Resolução/Conclusão
25847211,Campelo,Região de Leiria,310,2025-08-15T17:01:00Z,25847211,Em Resolução/Conclusão,3101,Incêndio rural,0,7,0,26,2025-08-15T17:01:00Z,Figueiró Dos Vinhos,Leiria,Centro,-8.258518,39.952923,Resolução/Conclusão
25861685,Santa Catarina da Serra e Chainça,Região de Leiria,310,2025-08-18T13:03:00Z,25861685,Em Curso,3103,Incêndio rural,0,2,0,7,2025-08-18T13:03:00Z,Leiria,Leiria,Centro,-8.698656,39.708305,Curso
25872413,Cinco Vilas e Reigada,Beiras e Serra da Estrela,310,2025-08-20T14:58:00Z,25872413,Em Curso,3103,Incêndio rural,5,71,0,224,2025-08-20T14:58:00Z,Figueira De Castelo Rodrigo,Guarda,Centro,-6.95815,40.775573,Curso
25878938,"Aboim, Felgueiras, Gontim e Pedraído",Ave,309,2025-08-21T20:54:00Z,25878938,Em Curso,3103,Incêndio rural,1,4,0,22,2025-08-21T20:54:00Z,Fafe,Braga,Norte,-8.076505,41.529353,Curso
25880053,Rossas,Ave,309,2025-08-22T06:47:00Z,25880053,Em Resolução/Conclusão,3103,Incêndio rural,0,13,0,42,2025-08-22T06:47:00Z,Vieira Do Minho,Braga,Norte,-8.073835,41.576405,Resolução/Conclusão
25880319,Vilela,Area M. Porto,309,2025-08-22T08:24:00Z,25880319,Em Resolução/Conclusão,3103,Incêndio rural,0,2,0,7,2025-08-22T08:24:00Z,Paredes,Porto,Norte,-8.39427,41.234347,Resolução/Conclusão
25881398,Seixo de Ansiães,Douro,309,2025-08-22T11:45:00Z,25881398,Em Curso,3103,Incêndio rural,2,15,0,57,2025-08-22T11:45:00Z,Carrazeda De Ansiães,Bragança,Norte,-7.255142,41.178095,Curso
25881823,Ovadas e Panchorra,Tâmega e Sousa,309,2025-08-22T13:15:00Z,25881823,Em Curso,3103,Incêndio rural,1,4,0,26,2025-08-22T13:15:00Z,Resende,Viseu,Norte,-7.976263,41.051157,Curso
25881889,Comenda,Alto Alentejo,312,2025-08-22T13:26:00Z,25881889,Em Resolução/Conclusão,3105,Incêndio rural,0,6,0,19,2025-08-22T13:26:00Z,Gavião,Portalegre,Alentejo,-7.778342,39.39508,Resolução/Conclusão
25881921,Lomba,Area M. Porto,309,2025-08-22T13:33:00Z,25881921,Em Resolução/Conclusão,3103,Incêndio rural,2,9,0,46,2025-08-22T13:33:00Z,Gondomar,Porto,Norte,-8.406853,41.050913,Resolução/Conclusão
25818455,Sobral de São Miguel,Beiras e Serra da Estrela,310,2025-08-10T15:02:00Z,25818455,Em Resolução/Conclusão,3103,Incêndio rural,0,1,0,1,2025-08-10T15:02:00Z,Covilhã,Castelo Branco,Centro,-7.77307,40.200173,Resolução/Conclusão
25846480,Sabugal e Aldeia de Santo António,Beiras e Serra da Estrela,310,2025-08-15T14:41:00Z,25846480,Em Resolução/Conclusão,3103,Incêndio rural,1,57,0,188,2025-08-15T14:41:00Z,Sabugal,Guarda,Centro,-7.125037,40.34023,Resolução/Conclusão
25852580,São João de Tarouca,Douro,309,2025-08-16T17:00:00Z,25852580,Em Resolução/Conclusão,3103,Incêndio rural,0,3,0,10,2025-08-16T17:00:00Z,Tarouca,Viseu,Norte,-7.760748,40.986773,Resolução/Conclusão
25877898,Asseiceira,Médio Tejo,311,2025-08-21T16:44:00Z,25877898,Em Resolução/Conclusão,3103,Incêndio rural,0,1,0,4,2025-08-21T16:44:00Z,Tomar,Santarém,Centro,-8.380645,39.49352,Resolução/Conclusão
25881024,Valpedre,Tâmega e Sousa,309,2025-08-22T10:44:00Z,25881024,Em Resolução/Conclusão,3103,Incêndio rural,0,5,0,22,2025-08-22T10:44:00Z,Penafiel,Porto,Norte,-8.31431,41.142633,Resolução/Conclusão
25813482,Freches e Torres,Beiras e Serra da Estrela,310,2025-08-09T16:21:00Z,25813482,Em Resolução/Conclusão,3103,Incêndio rural,0,10,0,34,2025-08-09T16:21:00Z,Trancoso,Guarda,Centro,-7.363745,40.709022,Resolução/Conclusão
25832250,Ferreira de Aves,Viseu Dão Lafões,310,2025-08-13T00:03:00Z,25832250,Em Resolução/Conclusão,3103,Incêndio rural,0,16,0,55,2025-08-13T00:03:00Z,Sátão,Viseu,Centro,-7.647793,40.79568,Resolução/Conclusão
25836309,Cinfães,Tâmega e Sousa,309,2025-08-13T18:17:00Z,25836309,Em Resolução/Conclusão,3103,Incêndio rural,0,1,0,2,2025-08-13T18:17:00Z,Cinfães,Viseu,Norte,-8.071502,41.049757,Resolução/Conclusão
25840505,Ribeira de Nisa e Carreiras,Alto Alentejo,312,2025-08-14T14:01:00Z,25840505,Em Resolução/Conclusão,3101,Incêndio rural,0,3,0,9,2025-08-14T14:01:00Z,Portalegre,Portalegre,Alentejo,-7.47009,39.374707,Resolução/Conclusão
25851721,Arnóia,Tâmega e Sousa,309,2025-08-16T14:24:00Z,25851721,Em Resolução/Conclusão,3103,Incêndio rural,0,6,0,24,2025-08-16T14:24:00Z,Celorico De Basto,Braga,Norte,-7.994469,41.369836,Resolução/Conclusão
25860828,Vilar de Perdizes e Meixide,Alto Tâmega e Barroso,309,2025-08-18T10:25:00Z,25860828,Em Resolução/Conclusão,3103,Incêndio rural,0,61,0,213,2025-08-18T10:25:00Z,NA,NA,NA,-7.63634,41.880008,Resolução/Conclusão
25867995,Lomba,Area M. Porto,309,2025-08-19T16:36:00Z,25867995,Em Resolução/Conclusão,3103,Incêndio rural,0,0,0,0,2025-08-19T16:36:00Z,Gondomar,Porto,Norte,-8.41085,41.05968,Resolução/Conclusão
25877725,São Cipriano e Vil de Souto,Viseu Dão Lafões,310,2025-08-21T16:05:00Z,25877725,Em Resolução/Conclusão,3103,Incêndio rural,0,1,0,5,2025-08-21T16:05:00Z,Viseu,Viseu,Centro,-7.959537,40.61783,Resolução/Conclusão
25880416,"Aboim, Felgueiras, Gontim e Pedraído",Ave,309,2025-08-22T08:51:00Z,25880416,Em Resolução/Conclusão,3103,Incêndio rural,0,7,0,20,2025-08-22T08:51:00Z,Fafe,Braga,Norte,-8.125113,41.504362,Resolução/Conclusão
25881134,Fornos,Tâmega e Sousa,309,2025-08-22T11:02:00Z,25881134,Em Resolução/Conclusão,3103,Incêndio rural,0,10,0,36,2025-08-22T11:02:00Z,Castelo De Paiva,Aveiro,Norte,-8.241565,41.044228,Resolução/Conclusão
25881585,Seixas,Douro,309,2025-08-22T12:21:00Z,25881585,Em Curso,3103,Incêndio rural,0,3,0,9,2025-08-22T12:21:00Z,Vila Nova De Foz Côa,Guarda,Norte,-7.25345,41.11332,Curso
25882003,"Mamouros, Alva e Ribolhos",Viseu Dão Lafões,310,2025-08-22T13:50:00Z,25882003,Em Despacho,3103,Incêndio rural,0,4,0,20,2025-08-22T13:50:00Z,Castro Daire,Viseu,Centro,-7.95812,40.86258,Despacho
25881792,Fontelo,Douro,309,2025-08-22T13:00:00Z,25881792,Em Curso,3103,Incêndio rural,1,13,0,50,2025-08-22T13:00:00Z,Armamar,Viseu,Norte,-7.73329,41.12587,Curso
25882029,Oleiros,Alto Minho,309,2025-08-22T13:50:00Z,25882029,Em Resolução/Conclusão,3103,Incêndio rural,0,2,0,9,2025-08-22T13:50:00Z,Ponte Da Barca,Viana Do Castelo,Norte,-8.432059,41.797925,Resolução/Conclusão
25832672,Piódão,Região de Coimbra,310,2025-08-13T05:08:00Z,25832672,Em Curso,3103,Incêndio rural,13,549,0,1666,2025-08-13T05:08:00Z,Arganil,Coimbra,Centro,-7.81972,40.23083,Curso
25840417,Lousã e Vilarinho,Região de Coimbra,310,2025-08-14T13:46:00Z,25840417,Em Resolução/Conclusão,3101,Incêndio rural,0,18,0,56,2025-08-14T13:46:00Z,Lousã,Coimbra,Centro,-8.201561,40.080016,Resolução/Conclusão
25857322,"Barcel, Marmelos e Valverde da Gestosa",Terras de Trás-os-Montes,309,2025-08-17T15:53:00Z,25857322,Em Resolução/Conclusão,3103,Incêndio rural,0,11,0,24,2025-08-17T15:53:00Z,Mirandela,Bragança,Norte,-7.209414,41.409479,Resolução/Conclusão
25881156,Ferral,Alto Tâmega e Barroso,309,2025-08-22T11:04:00Z,25881156,Em Resolução/Conclusão,3103,Incêndio rural,0,4,0,15,2025-08-22T11:04:00Z,Montalegre,Vila Real,Norte,-7.989922,41.697582,Resolução/Conclusão
25881222,Charneca de Caparica e Sobreda,Península de Setúbal,311,2025-08-22T11:13:00Z,25881222,Em Resolução/Conclusão,3103,Incêndio rural,0,0,0,0,2025-08-22T11:13:00Z,Almada,Setúbal,Área Metropolitana De Lisboa,-9.190773,38.625678,Resolução/Conclusão
25881663,"Sandim, Olival, Lever e Crestuma",Area M. Porto,309,2025-08-22T12:39:00Z,25881663,Em Resolução/Conclusão,3103,Incêndio rural,1,4,0,23,2025-08-22T12:39:00Z,Vila Nova De Gaia,Porto,Norte,-8.499287,41.022202,Resolução/Conclusão
25881983,Beire,Area M. Porto,309,2025-08-22T13:42:00Z,25881983,Em Despacho,3103,Incêndio rural,0,2,0,8,2025-08-22T13:42:00Z,Paredes,Porto,Norte,-8.31925,41.248553,Despacho
