id,address,subregion,neighborhood,date,id.1,state,nature,nature_description,aerial_means,terrestrial_means,aquatic_means,operational,date.1,Concelho,Distrito,NUTII_DSG,longitude,latitude,state_2
26143768,"Geraz do Lima (S.maria, S.leocádia, Moreira), Deão",Alto Minho,309,2025-10-16T06:20:00Z,26143768,Em Resolução/Conclusão,3103,Incêndio rural,0,1,0,5,2025-10-16T06:20:00Z,Viana Do Castelo,Viana Do Castelo,Norte,-8.671058,41.6898,Resolução/Conclusão
26146126,Ferrel,Oeste,311,2025-10-16T14:48:00Z,26146126,Em Despacho,3111,Queima,0,1,0,2,2025-10-16T14:48:00Z,Peniche,Leiria,Centro,-9.358463,39.35284,Despacho
26146208,Touro,Viseu Dão Lafões,310,2025-10-16T15:02:00Z,26146208,Em Resolução/Conclusão,3103,Incêndio rural,0,7,0,19,2025-10-16T15:02:00Z,Vila Nova De Paiva,Viseu,Centro,-7.748647,40.895095,Resolução/Conclusão
26146227,Ílhavo (São Salvador),Região de Aveiro,310,2025-10-16T15:06:00Z,26146227,Em Resolução/Conclusão,3103,Incêndio rural,0,2,0,7,2025-10-16T15:06:00Z,Ílhavo,Aveiro,Centro,-8.658426,40.60686,Resolução/Conclusão
26146375,Grade e Carralcova,Alto Minho,309,2025-10-16T15:37:00Z,26146375,Em Curso,3103,Incêndio rural,1,1,0,10,2025-10-16T15:37:00Z,Arcos De Valdevez,Viana Do Castelo,Norte,-8.35901,41.89159,Curso
26140802,Talhadas,Região de Aveiro,310,2025-10-15T13:42:00Z,26140802,Em Resolução/Conclusão,3101,Incêndio rural,0,1,0,5,2025-10-15T13:42:00Z,Sever Do Vouga,Aveiro,Centro,-8.320335,40.682953,Resolução/Conclusão
26143696,Guarda,Beiras e Serra da Estrela,310,2025-10-16T05:20:00Z,26143696,Em Resolução/Conclusão,3103,Incêndio rural,0,2,0,10,2025-10-16T05:20:00Z,Guarda,Guarda,Centro,-7.275577,40.531809,Resolução/Conclusão
26146036,Vau,Oeste,311,2025-10-16T14:29:00Z,26146036,Em Resolução/Conclusão,3103,Incêndio rural,0,5,0,16,2025-10-16T14:29:00Z,Óbidos,Leiria,Centro,-9.200892,39.363547,Resolução/Conclusão
26146071,Riba de Mouro,Alto Minho,309,2025-10-16T14:37:00Z,26146071,Em Resolução/Conclusão,3105,Incêndio rural,0,3,0,7,2025-10-16T14:37:00Z,Monção,Viana Do Castelo,Norte,-8.335897,42.033613,Resolução/Conclusão
26146257,"Mangualde, Mesquitela e Cunha Alta",Viseu Dão Lafões,310,2025-10-16T15:13:00Z,26146257,Em Resolução/Conclusão,3103,Incêndio rural,1,9,0,39,2025-10-16T15:13:00Z,Mangualde,Viseu,Centro,-7.73026,40.598771,Resolução/Conclusão
26142678,Basto (São Clemente),Tâmega e Sousa,309,2025-10-15T20:09:00Z,26142678,Em Resolução/Conclusão,3103,Incêndio rural,0,2,0,7,2025-10-15T20:09:00Z,Celorico De Basto,Braga,Norte,-8.069937,41.46891,Resolução/Conclusão
26144800,Cedovim,Douro,309,2025-10-16T10:44:00Z,26144800,Em Resolução/Conclusão,3103,Incêndio rural,0,5,0,14,2025-10-16T10:44:00Z,Vila Nova De Foz Côa,Guarda,Norte,-7.27186,41.041813,Resolução/Conclusão
26145393,Vila da Ponte,Alto Tâmega e Barroso,309,2025-10-16T12:24:00Z,26145393,Em Resolução/Conclusão,3103,Incêndio rural,1,11,0,46,2025-10-16T12:24:00Z,Montalegre,Vila Real,Norte,-7.875308,41.718108,Resolução/Conclusão
26145586,Rebordosa,Area M. Porto,309,2025-10-16T13:05:00Z,26145586,Em Resolução/Conclusão,3103,Incêndio rural,0,1,0,5,2025-10-16T13:05:00Z,Paredes,Porto,Norte,-8.383577,41.222537,Resolução/Conclusão
26146004,Reguengos de Monsaraz,Alentejo Central,312,2025-10-16T14:13:00Z,26146004,Em Resolução/Conclusão,3103,Incêndio rural,0,5,0,17,2025-10-16T14:13:00Z,Reguengos De Monsaraz,Évora,Alentejo,-7.546342,38.416473,Resolução/Conclusão
26146054,Modivas,Area M. Porto,309,2025-10-16T14:32:00Z,26146054,Em Curso,3103,Incêndio rural,0,4,0,15,2025-10-16T14:32:00Z,Vila Do Conde,Porto,Norte,-8.705442,41.30273,Curso
26146229,Sobreira,Area M. Porto,309,2025-10-16T15:04:00Z,26146229,Em Curso,3101,Incêndio rural,1,7,0,29,2025-10-16T15:04:00Z,Paredes,Porto,Norte,-8.393939,41.119562,Curso
26146231,Perre,Alto Minho,309,2025-10-16T15:00:00Z,26146231,Em Resolução/Conclusão,3105,Incêndio rural,0,3,0,10,2025-10-16T15:00:00Z,Viana Do Castelo,Viana Do Castelo,Norte,-8.776892,41.735507,Resolução/Conclusão
26146249,Vila Boa de Quires e Maureles,Tâmega e Sousa,309,2025-10-16T15:06:00Z,26146249,Em Resolução/Conclusão,3105,Incêndio rural,0,1,0,5,2025-10-16T15:06:00Z,Marco De Canaveses,Porto,Norte,-8.191272,41.218315,Resolução/Conclusão
