id,address,subregion,neighborhood,date,id.1,state,nature,nature_description,aerial_means,terrestrial_means,aquatic_means,operational,date.1,Concelho,Distrito,NUTII_DSG,longitude,latitude,state_2
26093991,Santa Comba,Beiras e Serra da Estrela,310,2025-10-06T01:09:00Z,26093991,Em Resolução/Conclusão,3101,Incêndio rural,0,2,0,7,2025-10-06T01:09:00Z,Seia,Guarda,Centro,-7.745905,40.442718,Resolução/Conclusão
26106843,Viade de Baixo e Fervidelas,Alto Tâmega e Barroso,309,2025-10-08T14:56:00Z,26106843,Em Resolução/Conclusão,3103,Incêndio rural,0,7,0,28,2025-10-08T14:56:00Z,Montalegre,Vila Real,Norte,-7.828502,41.766327,Resolução/Conclusão
26107294,Alquerubim,Região de Aveiro,310,2025-10-08T16:41:00Z,26107294,Em Resolução/Conclusão,3101,Incêndio rural,0,2,0,9,2025-10-08T16:41:00Z,Albergaria-a-Velha,Aveiro,Centro,-8.51585,40.61909,Resolução/Conclusão
26106068,Santa Marinha do Zêzere,Tâmega e Sousa,309,2025-10-08T12:07:00Z,26106068,Em Resolução/Conclusão,3103,Incêndio rural,0,1,0,5,2025-10-08T12:07:00Z,Baião,Porto,Norte,-7.945993,41.155528,Resolução/Conclusão
26106783,Nogueira da Montanha,Alto Tâmega e Barroso,309,2025-10-08T14:43:00Z,26106783,Em Resolução/Conclusão,3103,Incêndio rural,0,3,0,9,2025-10-08T14:43:00Z,Chaves,Vila Real,Norte,-7.448237,41.678545,Resolução/Conclusão
26107470,"Mamouros, Alva e Ribolhos",Viseu Dão Lafões,310,2025-10-08T17:17:00Z,26107470,Em Despacho,3103,Incêndio rural,0,1,0,5,2025-10-08T17:17:00Z,Castro Daire,Viseu,Centro,-7.957615,40.851477,Despacho
26107032,"Lobão, Gião, Louredo e Guisande",Area M. Porto,309,2025-10-08T15:37:00Z,26107032,Em Resolução/Conclusão,3103,Incêndio rural,0,3,0,11,2025-10-08T15:37:00Z,Santa Maria Da Feira,Aveiro,Norte,-8.458442,40.965663,Resolução/Conclusão
26093602,Castro Daire,Viseu Dão Lafões,310,2025-10-05T22:05:00Z,26093602,Em Resolução/Conclusão,3103,Incêndio rural,0,0,0,0,2025-10-05T22:05:00Z,Castro Daire,Viseu,Centro,-7.9408,40.925289,Resolução/Conclusão
26106822,Paus,Tâmega e Sousa,309,2025-10-08T14:53:00Z,26106822,Em Resolução/Conclusão,3103,Incêndio rural,0,1,0,5,2025-10-08T14:53:00Z,Resende,Viseu,Norte,-7.918959,41.072025,Resolução/Conclusão
26107267,Ervões,Alto Tâmega e Barroso,309,2025-10-08T16:36:00Z,26107267,Em Resolução/Conclusão,3103,Incêndio rural,0,3,0,10,2025-10-08T16:36:00Z,Valpaços,Vila Real,Norte,-7.353088,41.632633,Resolução/Conclusão
26107508,Sarraquinhos,Alto Tâmega e Barroso,309,2025-10-08T17:30:00Z,26107508,Em Despacho,3103,Incêndio rural,0,3,0,15,2025-10-08T17:30:00Z,Montalegre,Vila Real,Norte,-7.679023,41.80074,Despacho
