id,address,subregion,neighborhood,date,id.1,state,nature,nature_description,aerial_means,terrestrial_means,aquatic_means,operational,date.1,Concelho,Distrito,NUTII_DSG,longitude,latitude,state_2
25728646,Vila Fernando,Beiras e Serra da Estrela,310,2025-07-24T23:39:00Z,25728646,Em Resolução/Conclusão,3103,Incêndio rural,0,1,0,5,2025-07-24T23:39:00Z,Guarda,Guarda,Centro,-7.135077,40.484042,Resolução/Conclusão
25730832,Aveleda e Rio de Onor,Terras de Trás-os-Montes,309,2025-07-25T12:07:00Z,25730832,Em Resolução/Conclusão,3103,Incêndio rural,0,36,0,107,2025-07-25T12:07:00Z,Bragança,Bragança,Norte,-6.707873,41.891435,Resolução/Conclusão
25727257,Santiago de Piães,Tâmega e Sousa,309,2025-07-24T17:40:00Z,25727257,Em Resolução/Conclusão,3103,Incêndio rural,0,12,0,38,2025-07-24T17:40:00Z,Cinfães,Viseu,Norte,-8.173138,41.025392,Resolução/Conclusão
25731955,Briteiros Santo Estêvão e Donim,Ave,309,2025-07-25T15:36:00Z,25731955,Em Resolução/Conclusão,3103,Incêndio rural,0,1,0,5,2025-07-25T15:36:00Z,Guimarães,Braga,Norte,-8.30805,41.521391,Resolução/Conclusão
25732314,Albernoa e Trindade,Baixo Alentejo,312,2025-07-25T16:38:00Z,25732314,Em Resolução/Conclusão,3105,Incêndio rural,0,0,0,0,2025-07-25T16:38:00Z,Beja,Beja,Alentejo,-7.869855,37.910075,Resolução/Conclusão
25712338,Cercal,Alentejo Litoral,312,2025-07-21T17:38:00Z,25712338,Em Resolução/Conclusão,3103,Incêndio rural,0,0,0,0,2025-07-21T17:38:00Z,Santiago Do Cacém,Setúbal,Alentejo,-8.682272,37.791582,Resolução/Conclusão
25729082,São Jorge e Ermelo,Alto Minho,309,2025-07-25T04:45:00Z,25729082,Em Resolução/Conclusão,3101,Incêndio rural,0,22,0,65,2025-07-25T04:45:00Z,Arcos De Valdevez,Viana Do Castelo,Norte,-8.356835,41.818005,Resolução/Conclusão
25733620,Muge,Lezíria do Tejo,311,2025-07-25T21:21:00Z,25733620,Em Resolução/Conclusão,3103,Incêndio rural,0,6,0,18,2025-07-25T21:21:00Z,Salvaterra De Magos,Santarém,Alentejo,-8.717905,39.084927,Resolução/Conclusão
25734056,Tarouquela,Tâmega e Sousa,309,2025-07-25T23:22:00Z,25734056,Em Resolução/Conclusão,3103,Incêndio rural,0,5,0,25,2025-07-25T23:22:00Z,Cinfães,Viseu,Norte,-8.179445,41.071533,Resolução/Conclusão
