id,address,subregion,neighborhood,date,id.1,state,nature,nature_description,aerial_means,terrestrial_means,aquatic_means,operational,date.1,Concelho,Distrito,NUTII_DSG,longitude,latitude,state_2
25951176,Sandomil,Beiras e Serra da Estrela,310,2025-09-06T10:29:00Z,25951176,Em Resolução/Conclusão,3103,Incêndio rural,0,2,0,10,2025-09-06T10:29:00Z,Seia,Guarda,Centro,-7.76001,40.351547,Resolução/Conclusão
26058970,Gosende,Viseu Dão Lafões,310,2025-09-28T18:06:00Z,26058970,Em Resolução/Conclusão,3103,Incêndio rural,0,1,0,5,2025-09-28T18:06:00Z,Castro Daire,Viseu,Centro,-7.923548,40.99951,Resolução/Conclusão
26022995,Bordeira,Algarve,313,2025-09-21T12:21:00Z,26022995,Em Resolução/Conclusão,3103,Incêndio rural,0,10,0,29,2025-09-21T12:21:00Z,Aljezur,Faro,Algarve,-8.825374,37.23495,Resolução/Conclusão
26053948,Arganil,Região de Coimbra,310,2025-09-27T16:47:00Z,26053948,Em Resolução/Conclusão,3103,Incêndio rural,0,2,0,8,2025-09-27T16:47:00Z,Arganil,Coimbra,Centro,-8.08478,40.204972,Resolução/Conclusão
26050704,Tortosendo,Beiras e Serra da Estrela,310,2025-09-26T23:04:00Z,26050704,Em Resolução/Conclusão,3103,Incêndio rural,0,1,0,4,2025-09-26T23:04:00Z,Covilhã,Castelo Branco,Centro,-7.521592,40.251592,Resolução/Conclusão
26058981,São Jorge e Ermelo,Alto Minho,309,2025-09-28T18:12:00Z,26058981,Em Resolução/Conclusão,3105,Incêndio rural,0,1,0,5,2025-09-28T18:12:00Z,Arcos De Valdevez,Viana Do Castelo,Norte,-8.369945,41.816165,Resolução/Conclusão
26052925,Maceira,Região de Leiria,310,2025-09-27T12:54:00Z,26052925,Em Resolução/Conclusão,3105,Incêndio rural,0,1,0,2,2025-09-27T12:54:00Z,Leiria,Leiria,Centro,-8.89598,39.651515,Resolução/Conclusão
26058907,Beja (Salvador e Santa Maria da Feira),Baixo Alentejo,312,2025-09-28T17:53:00Z,26058907,Em Resolução/Conclusão,3105,Incêndio rural,0,3,0,9,2025-09-28T17:53:00Z,Beja,Beja,Alentejo,-7.866393,38.025723,Resolução/Conclusão
26059127,Moçarria,Lezíria do Tejo,311,2025-09-28T18:55:00Z,26059127,Em Resolução/Conclusão,3103,Incêndio rural,1,5,0,25,2025-09-28T18:55:00Z,Santarém,Santarém,Alentejo,-8.774058,39.258013,Resolução/Conclusão
