id,address,subregion,neighborhood,date,id.1,state,nature,nature_description,aerial_means,terrestrial_means,aquatic_means,operational,date.1,Concelho,Distrito,NUTII_DSG,longitude,latitude
25464737,Braga (São Vítor),Cávado,309,2025-06-02T09:02:00Z,25464737,Em conclusão,2301,Incêndio em transporte rodoviário,0,2,0,8,2025-06-02T09:02:00Z,Braga,Braga,Norte,-8.41083,41.542898
25464773,Oliveira do Douro,Area M. Porto,309,2025-06-02T09:02:00Z,25464773,Em conclusão,3103,Incêndio rural,0,2,0,10,2025-06-02T09:02:00Z,Vila Nova De Gaia,Porto,Norte,-8.58327,41.127164
25464149,Cascais e Estoril,Grande Lisboa,311,2025-06-02T06:08:00Z,25464149,Em conclusão,2129,Incêndio em edifícios degradados ou devolutos,0,4,0,10,2025-06-02T06:08:00Z,Cascais,Lisboa,Área Metropolitana De Lisboa,-9.39923,38.71103
25464768,São João Baptista,Alto Alentejo,312,2025-06-02T09:07:00Z,25464768,Em conclusão,3101,Incêndio rural,0,6,0,20,2025-06-02T09:07:00Z,Castelo De Vide,Portalegre,Alentejo,-7.452308,39.404485
25464882,Ceivães e Badim,Alto Minho,309,2025-06-02T09:22:00Z,25464882,Em despacho,3107,Consolidação de rescaldo de incêndio rural,0,1,0,5,2025-06-02T09:22:00Z,Monção,Viana Do Castelo,Norte,-8.367111,42.06089
25457724,Santo André,Alentejo Litoral,312,2025-05-31T18:30:00Z,25457724,Em conclusão,2127,"Incêndio em edifícios e recintos industriais, oficinas e armazéns",0,1,0,2,2025-05-31T18:30:00Z,Santiago Do Cacém,Setúbal,Alentejo,-8.784407,38.048083
25464757,Parreira e Chouto,Lezíria do Tejo,311,2025-06-02T09:05:00Z,25464757,Em conclusão,3203,Detritos confinados,0,2,0,5,2025-06-02T09:05:00Z,Chamusca,Santarém,Alentejo,-8.327738,39.256475
25464547,Montijo e Afonsoeiro,Península de Setúbal,311,2025-06-02T08:27:00Z,25464547,Em conclusão,3203,Detritos confinados,0,2,0,10,2025-06-02T08:27:00Z,Montijo,Setúbal,Área Metropolitana De Lisboa,-8.975715,38.702323
