id,address,subregion,neighborhood,date,id.1,state,nature,nature_description,aerial_means,terrestrial_means,aquatic_means,operational,date.1,Concelho,Distrito,NUTII_DSG,longitude,latitude,state_2
25750701,Capela,Tâmega e Sousa,309,2025-07-29T09:26:00Z,25750701,Em Resolução/Conclusão,3103,Incêndio rural,0,0,0,0,2025-07-29T09:26:00Z,Penafiel,Porto,Norte,-8.345202,41.09353,Resolução/Conclusão
25773830,Andrães,Douro,309,2025-08-02T14:23:00Z,25773830,Em Resolução/Conclusão,3103,Incêndio rural,0,27,0,91,2025-08-02T14:23:00Z,Vila Real,Vila Real,Norte,-7.671293,41.267593,Resolução/Conclusão
25774883,Arnóia,Tâmega e Sousa,309,2025-08-02T18:20:00Z,25774883,Em Resolução/Conclusão,3103,Incêndio rural,0,55,0,164,2025-08-02T18:20:00Z,Celorico De Basto,Braga,Norte,-7.998983,41.348727,Resolução/Conclusão
25775734,Sequeiros e Gradiz,Viseu Dão Lafões,310,2025-08-02T21:35:00Z,25775734,Em Resolução/Conclusão,3103,Incêndio rural,0,1,0,2,2025-08-02T21:35:00Z,Aguiar Da Beira,Guarda,Centro,-7.564515,40.858278,Resolução/Conclusão
25781884,Graça,Região de Leiria,310,2025-08-04T04:33:00Z,25781884,Em Resolução/Conclusão,3101,Incêndio rural,0,1,0,2,2025-08-04T04:33:00Z,Pedrógão Grande,Leiria,Centro,-8.204434,39.895198,Resolução/Conclusão
25787854,Luz,Algarve,313,2025-08-05T05:59:00Z,25787854,Em Curso,3103,Incêndio rural,0,1,0,5,2025-08-05T05:59:00Z,Lagos,Faro,Algarve,-8.748483,37.11181,Curso
25738747,Lindoso,Alto Minho,309,2025-07-26T21:47:00Z,25738747,Em Resolução/Conclusão,3103,Incêndio rural,0,58,0,159,2025-07-26T21:47:00Z,Ponte Da Barca,Viana Do Castelo,Norte,-8.220528,41.865272,Resolução/Conclusão
25747773,Aranhas,Beira Baixa,310,2025-07-28T16:36:00Z,25747773,Em Resolução/Conclusão,3103,Incêndio rural,0,2,0,7,2025-07-28T16:36:00Z,Penamacor,Castelo Branco,Centro,-7.14438,40.117542,Resolução/Conclusão
25775263,Torgueda,Douro,309,2025-08-02T19:49:00Z,25775263,Em Resolução/Conclusão,3101,Incêndio rural,0,11,0,38,2025-08-02T19:49:00Z,Vila Real,Vila Real,Norte,-7.785983,41.274952,Resolução/Conclusão
25778337,Senhorim,Viseu Dão Lafões,310,2025-08-03T11:59:00Z,25778337,Em Resolução/Conclusão,3103,Incêndio rural,0,0,0,0,2025-08-03T11:59:00Z,Nelas,Viseu,Centro,-7.825723,40.54384,Resolução/Conclusão
25780604,Rio Frio,Alto Minho,309,2025-08-03T20:13:00Z,25780604,Em Resolução/Conclusão,3103,Incêndio rural,0,2,0,7,2025-08-03T20:13:00Z,Arcos De Valdevez,Viana Do Castelo,Norte,-8.492232,41.868325,Resolução/Conclusão
25781822,São Gens,Ave,309,2025-08-04T03:44:00Z,25781822,Em Resolução/Conclusão,3103,Incêndio rural,0,9,0,30,2025-08-04T03:44:00Z,Fafe,Braga,Norte,-8.101607,41.44259,Resolução/Conclusão
25785466,Caçarilhe e Infesta,Tâmega e Sousa,309,2025-08-04T16:48:00Z,25785466,Em Resolução/Conclusão,3103,Incêndio rural,0,12,0,38,2025-08-04T16:48:00Z,Celorico De Basto,Braga,Norte,-8.035342,41.42903,Resolução/Conclusão
25787856,São Pedro da Torre,Alto Minho,309,2025-08-05T06:00:00Z,25787856,Em Resolução/Conclusão,3103,Incêndio rural,0,1,0,5,2025-08-05T06:00:00Z,Valença,Viana Do Castelo,Norte,-8.660252,41.982487,Resolução/Conclusão
25763650,Milagres,Região de Leiria,310,2025-07-31T15:58:00Z,25763650,Em Resolução/Conclusão,3101,Incêndio rural,0,1,0,2,2025-07-31T15:58:00Z,Leiria,Leiria,Centro,-8.792217,39.793427,Resolução/Conclusão
25781305,Tamel (Santa Leocádia) e Vilar do Monte,Cávado,309,2025-08-03T23:17:00Z,25781305,Em Resolução/Conclusão,3103,Incêndio rural,0,1,0,5,2025-08-03T23:17:00Z,Barcelos,Braga,Norte,-8.66043,41.566023,Resolução/Conclusão
25785983,Caçarilhe e Infesta,Tâmega e Sousa,309,2025-08-04T18:22:00Z,25785983,Em Curso,3103,Incêndio rural,0,12,0,37,2025-08-04T18:22:00Z,Celorico De Basto,Braga,Norte,-8.04611,41.419858,Curso
25786312,Mões,Viseu Dão Lafões,310,2025-08-04T19:31:00Z,25786312,Em Resolução/Conclusão,3105,Incêndio rural,0,0,0,0,2025-08-04T19:31:00Z,Castro Daire,Viseu,Centro,-7.888317,40.866883,Resolução/Conclusão
25787805,Alvora e Loureda,Alto Minho,309,2025-08-05T05:12:00Z,25787805,Em Curso,3103,Incêndio rural,0,1,0,3,2025-08-05T05:12:00Z,Arcos De Valdevez,Viana Do Castelo,Norte,-8.43456,41.95147,Curso
25748118,Canelas e Espiunca,Area M. Porto,309,2025-07-28T17:16:00Z,25748118,Em Resolução/Conclusão,3101,Incêndio rural,0,8,0,30,2025-07-28T17:16:00Z,Arouca,Aveiro,Norte,-8.212231,40.969918,Resolução/Conclusão
25749320,Rebordões (Santa Maria),Alto Minho,309,2025-07-28T22:47:00Z,25749320,Em Resolução/Conclusão,3103,Incêndio rural,0,2,0,10,2025-07-28T22:47:00Z,Ponte De Lima,Viana Do Castelo,Norte,-8.588365,41.729993,Resolução/Conclusão
25756006,Pinhanços,Beiras e Serra da Estrela,310,2025-07-30T09:07:00Z,25756006,Em Resolução/Conclusão,3103,Incêndio rural,0,1,0,5,2025-07-30T09:07:00Z,Seia,Guarda,Centro,-7.708132,40.473517,Resolução/Conclusão
25776263,"Pena, Quintã e Vila Cova",Douro,309,2025-08-02T23:45:00Z,25776263,Em Curso,3103,Incêndio rural,0,211,0,624,2025-08-02T23:45:00Z,Vila Real,Vila Real,Norte,-7.811902,41.317355,Curso
25779639,Senhorim,Viseu Dão Lafões,310,2025-08-03T16:28:00Z,25779639,Em Resolução/Conclusão,3103,Incêndio rural,0,2,0,6,2025-08-03T16:28:00Z,Nelas,Viseu,Centro,-7.81226,40.511713,Resolução/Conclusão
25783717,Cunha Baixa,Viseu Dão Lafões,310,2025-08-04T11:48:00Z,25783717,Em Resolução/Conclusão,3101,Incêndio rural,0,1,0,2,2025-08-04T11:48:00Z,Mangualde,Viseu,Centro,-7.764411,40.559738,Resolução/Conclusão
25784751,"São Pedro do Sul, Várzea e Baiões",Viseu Dão Lafões,310,2025-08-04T14:36:00Z,25784751,Em Resolução/Conclusão,3103,Incêndio rural,0,1,0,1,2025-08-04T14:36:00Z,São Pedro Do Sul,Viseu,Centro,-8.098667,40.75791,Resolução/Conclusão
25784920,Castro Daire,Viseu Dão Lafões,310,2025-08-04T15:03:00Z,25784920,Em Resolução/Conclusão,3103,Incêndio rural,0,0,0,0,2025-08-04T15:03:00Z,Castro Daire,Viseu,Centro,-7.945405,40.912732,Resolução/Conclusão
25785204,Ribas,Tâmega e Sousa,309,2025-08-04T16:03:00Z,25785204,Em Resolução/Conclusão,3103,Incêndio rural,0,18,0,59,2025-08-04T16:03:00Z,Celorico De Basto,Braga,Norte,-8.022547,41.449583,Resolução/Conclusão
25786090,Eiras e Mei,Alto Minho,309,2025-08-04T18:46:00Z,25786090,Em Resolução/Conclusão,3103,Incêndio rural,0,1,0,5,2025-08-04T18:46:00Z,Arcos De Valdevez,Viana Do Castelo,Norte,-8.480077,41.922108,Resolução/Conclusão
25787377,Podence e Santa Combinha,Terras de Trás-os-Montes,309,2025-08-04T23:58:00Z,25787377,Em Resolução/Conclusão,3103,Incêndio rural,0,1,0,2,2025-08-04T23:58:00Z,Macedo De Cavaleiros,Bragança,Norte,-6.702448,41.525718,Resolução/Conclusão
25787728,Vila Boa de Quires e Maureles,Tâmega e Sousa,309,2025-08-05T03:53:00Z,25787728,Em Resolução/Conclusão,3103,Incêndio rural,0,2,0,7,2025-08-05T03:53:00Z,Marco De Canaveses,Porto,Norte,-8.213227,41.188147,Resolução/Conclusão
25787810,Grijó e Sermonde,Area M. Porto,309,2025-08-05T05:17:00Z,25787810,Em Resolução/Conclusão,3103,Incêndio rural,0,2,0,7,2025-08-05T05:17:00Z,Vila Nova De Gaia,Porto,Norte,-8.558789,41.018167,Resolução/Conclusão
25787860,Faíl e Vila Chã de Sá,Viseu Dão Lafões,310,2025-08-05T05:55:00Z,25787860,Em Resolução/Conclusão,3103,Incêndio rural,0,8,0,28,2025-08-05T05:55:00Z,Viseu,Viseu,Centro,-7.987877,40.601342,Resolução/Conclusão
