id,address,subregion,neighborhood,date,id.1,state,nature,nature_description,aerial_means,terrestrial_means,aquatic_means,operational,date.1,Concelho,Distrito,NUTII_DSG,longitude,latitude,state_2
25951176,Sandomil,Beiras e Serra da Estrela,310,2025-09-06T10:29:00Z,25951176,Em Resolução/Conclusão,3103,Incêndio rural,0,2,0,10,2025-09-06T10:29:00Z,Seia,Guarda,Centro,-7.76001,40.351547,Resolução/Conclusão
26064253,Ramalhal,Oeste,311,2025-09-29T18:57:00Z,26064253,Em Resolução/Conclusão,3105,Incêndio rural,0,2,0,7,2025-09-29T18:57:00Z,Torres Vedras,Lisboa,Centro,-9.220329,39.139866,Resolução/Conclusão
26050704,Tortosendo,Beiras e Serra da Estrela,310,2025-09-26T23:04:00Z,26050704,Em Resolução/Conclusão,3103,Incêndio rural,0,1,0,4,2025-09-26T23:04:00Z,Covilhã,Castelo Branco,Centro,-7.521592,40.251592,Resolução/Conclusão
26064179,Morgade,Alto Tâmega e Barroso,309,2025-09-29T18:38:00Z,26064179,Em Despacho,3103,Incêndio rural,0,1,0,5,2025-09-29T18:38:00Z,Montalegre,Vila Real,Norte,-7.747187,41.754073,Despacho
26022995,Bordeira,Algarve,313,2025-09-21T12:21:00Z,26022995,Em Resolução/Conclusão,3103,Incêndio rural,0,6,0,20,2025-09-21T12:21:00Z,Aljezur,Faro,Algarve,-8.825374,37.23495,Resolução/Conclusão
26064395,Estremoz (Santa Maria e Santo André),Alentejo Central,312,2025-09-29T19:27:00Z,26064395,Em Resolução/Conclusão,3105,Incêndio rural,0,3,0,11,2025-09-29T19:27:00Z,Estremoz,Évora,Alentejo,-7.591151,38.841452,Resolução/Conclusão
