id,address,subregion,neighborhood,date,id.1,state,nature,nature_description,aerial_means,terrestrial_means,aquatic_means,operational,date.1,Concelho,Distrito,NUTII_DSG,longitude,latitude
25521376,Campanhã,Area M. Porto,309,2025-06-13T18:39:00Z,25521376,Em curso,3103,Incêndio rural,0,2,0,7,2025-06-13T18:39:00Z,Porto,Porto,Norte,-8.57558,41.17631
25521065,Couto de Baixo e Couto de Cima,Viseu Dão Lafões,310,2025-06-13T17:18:00Z,25521065,Em conclusão,3101,Incêndio rural,0,1,0,5,2025-06-13T17:18:00Z,Viseu,Viseu,Centro,-8.004938,40.699787
25520907,Serpa (Salvador e Santa Maria),Baixo Alentejo,312,2025-06-13T16:44:00Z,25520907,Em conclusão,3105,Incêndio rural,0,10,0,32,2025-06-13T16:44:00Z,Serpa,Beja,Alentejo,-7.59766,37.935948
25522036,Loulé (São Clemente),Algarve,313,2025-06-13T21:19:00Z,25522036,Em conclusão,3201,Detritos não confinados,0,2,0,3,2025-06-13T21:19:00Z,Loulé,Faro,Algarve,-8.018267,37.137687
25521909,Falagueira-Venda Nova,Grande Lisboa,311,2025-06-13T20:45:00Z,25521909,Em conclusão,2101,Incêndio em edifícios habitacionais,0,2,0,8,2025-06-13T20:45:00Z,Amadora,Lisboa,Área Metropolitana De Lisboa,-9.224815,38.755208
