id,address,subregion,neighborhood,date,id.1,state,nature,nature_description,aerial_means,terrestrial_means,aquatic_means,operational,date.1,Concelho,Distrito,NUTII_DSG,longitude,latitude
25598814,Ferreira do Alentejo e Canhestros,Baixo Alentejo,312,2025-06-29T14:55:00Z,25598814,Em conclusão,3105,Incêndio rural,0,0,0,0,2025-06-29T14:55:00Z,Ferreira Do Alentejo,Beja,Alentejo,-8.266233,37.990429
25598889,Moita,Península de Setúbal,311,2025-06-29T15:08:00Z,25598889,Em conclusão,3103,Incêndio rural,0,1,0,2,2025-06-29T15:08:00Z,Moita,Setúbal,Área Metropolitana De Lisboa,-9.017832,38.654355
25599357,Alpalhão,Alto Alentejo,312,2025-06-29T16:55:00Z,25599357,Em resolução,3103,Incêndio rural,4,26,0,99,2025-06-29T16:55:00Z,Nisa,Portalegre,Alentejo,-7.63684,39.452513
25599382,Almaceda,Beira Baixa,310,2025-06-29T17:03:00Z,25599382,Em curso,3101,Incêndio rural,7,56,0,193,2025-06-29T17:03:00Z,Castelo Branco,Castelo Branco,Centro,-7.648714,39.941947
25599480,Santa Marinha,Alto Tâmega e Barroso,309,2025-06-29T17:25:00Z,25599480,Em conclusão,3103,Incêndio rural,0,4,0,13,2025-06-29T17:25:00Z,Ribeira De Pena,Vila Real,Norte,-7.774782,41.541882
25599491,Idães,Tâmega e Sousa,309,2025-06-29T17:28:00Z,25599491,Em conclusão,2201,Incêndio em equipamentos ou produtos,0,3,0,9,2025-06-29T17:28:00Z,Felgueiras,Porto,Norte,-8.25896,41.33016
25599616,Sobrosa,Area M. Porto,309,2025-06-29T17:44:00Z,25599616,Em despacho,3103,Incêndio rural,0,3,0,8,2025-06-29T17:44:00Z,Paredes,Porto,Norte,-8.359816,41.249381
25599659,Campanhã,Area M. Porto,309,2025-06-29T18:03:00Z,25599659,Em despacho,3201,Detritos não confinados,0,2,0,10,2025-06-29T18:03:00Z,Porto,Porto,Norte,-8.577662,41.17713
25593470,Duas Igrejas,Tâmega e Sousa,309,2025-06-28T14:16:00Z,25593470,Em conclusão,3103,Incêndio rural,0,3,0,10,2025-06-28T14:16:00Z,Penafiel,Porto,Norte,-8.278005,41.170128
25599237,"Ponte de Sor, Tramaga e Vale de Açor",Alto Alentejo,312,2025-06-29T16:19:00Z,25599237,Em conclusão,3103,Incêndio rural,0,6,0,12,2025-06-29T16:19:00Z,Avis,Portalegre,Alentejo,-8.047417,39.055125
25599270,Maceira,Região de Leiria,310,2025-06-29T16:39:00Z,25599270,Em conclusão,3105,Incêndio rural,0,2,0,4,2025-06-29T16:39:00Z,Leiria,Leiria,Centro,-8.911052,39.713852
25599284,Vila Boa de Quires e Maureles,Tâmega e Sousa,309,2025-06-29T16:43:00Z,25599284,Em conclusão,3101,Incêndio rural,0,4,0,17,2025-06-29T16:43:00Z,Marco De Canaveses,Porto,Norte,-8.212325,41.209832
25599551,Frazão Arreigada,Tâmega e Sousa,309,2025-06-29T17:40:00Z,25599551,Em curso,3103,Incêndio rural,1,4,0,25,2025-06-29T17:40:00Z,Paços De Ferreira,Porto,Norte,-8.385037,41.265922
25597502,Ermelo e Pardelhas,Ave,309,2025-06-29T10:09:00Z,25597502,Em conclusão,3107,Consolidação de rescaldo de incêndio rural,0,3,0,7,2025-06-29T10:09:00Z,Mondim De Basto,Vila Real,Norte,-7.835997,41.35894
25598647,Vila Chã (São João Baptista e Santiago),Alto Minho,309,2025-06-29T14:14:00Z,25598647,Em conclusão,3103,Incêndio rural,0,9,0,30,2025-06-29T14:14:00Z,Ponte Da Barca,Viana Do Castelo,Norte,-8.31774,41.809072
25598670,Guarda,Beiras e Serra da Estrela,310,2025-06-29T14:18:00Z,25598670,Em conclusão,3103,Incêndio rural,0,1,0,5,2025-06-29T14:18:00Z,Guarda,Guarda,Centro,-7.236113,40.528107
25598772,Campos e Louredo,Ave,309,2025-06-29T14:43:00Z,25598772,Em conclusão,3103,Incêndio rural,0,12,0,44,2025-06-29T14:43:00Z,Póvoa De Lanhoso,Braga,Norte,-8.294605,41.550835
25599104,Beirã,Alto Alentejo,312,2025-06-29T16:00:00Z,25599104,Em conclusão,3101,Incêndio rural,0,3,0,12,2025-06-29T16:00:00Z,Marvão,Portalegre,Alentejo,-7.363842,39.435042
25599188,"Ardegão, Freixo e Mato",Alto Minho,309,2025-06-29T16:15:00Z,25599188,Em conclusão,2201,Incêndio em equipamentos ou produtos,0,1,0,2,2025-06-29T16:15:00Z,Ponte De Lima,Viana Do Castelo,Norte,-8.58479,41.653347
25599197,Lomba,Area M. Porto,309,2025-06-29T16:17:00Z,25599197,Em resolução,3103,Incêndio rural,0,1,0,5,2025-06-29T16:17:00Z,Gondomar,Porto,Norte,-8.411494,41.057475
25599333,Santa Eufémia e Boa Vista,Região de Leiria,310,2025-06-29T16:52:00Z,25599333,Em conclusão,3105,Incêndio rural,0,6,0,22,2025-06-29T16:52:00Z,Leiria,Leiria,Centro,-8.769043,39.755973
25599367,Maceira,Região de Leiria,310,2025-06-29T16:54:00Z,25599367,Em conclusão,3101,Incêndio rural,0,1,0,2,2025-06-29T16:54:00Z,Leiria,Leiria,Centro,-8.9196,39.692925
25597086,Labruja,Alto Minho,309,2025-06-29T08:51:00Z,25597086,Em conclusão,3107,Consolidação de rescaldo de incêndio rural,0,1,0,5,2025-06-29T08:51:00Z,Ponte De Lima,Viana Do Castelo,Norte,-8.591233,41.835535
25598459,Maceira,Região de Leiria,310,2025-06-29T13:33:00Z,25598459,Em conclusão,3103,Incêndio rural,0,2,0,4,2025-06-29T13:33:00Z,Leiria,Leiria,Centro,-8.921728,39.668342
25598510,Cabreiro,Alto Minho,309,2025-06-29T13:41:00Z,25598510,Em conclusão,3103,Incêndio rural,0,1,0,4,2025-06-29T13:41:00Z,Arcos De Valdevez,Viana Do Castelo,Norte,-8.386745,41.945518
25598892,Salvaterra de Magos e Foros de Salvaterra,Lezíria do Tejo,311,2025-06-29T15:11:00Z,25598892,Em conclusão,3103,Incêndio rural,0,0,0,0,2025-06-29T15:11:00Z,Salvaterra De Magos,Santarém,Alentejo,-8.752445,39.009727
25599095,Nossa Senhora da Expectação,Alto Alentejo,312,2025-06-29T15:55:00Z,25599095,Em conclusão,3105,Incêndio rural,0,0,0,0,2025-06-29T15:55:00Z,Campo Maior,Portalegre,Alentejo,-7.070188,39.007673
25599111,Santa Marinha,Alto Tâmega e Barroso,309,2025-06-29T16:01:00Z,25599111,Em conclusão,3103,Incêndio rural,1,8,0,39,2025-06-29T16:01:00Z,Ribeira De Pena,Vila Real,Norte,-7.7715630000000004,41.56648
25599194,Sobral de Monte Agraço,Oeste,311,2025-06-29T16:10:00Z,25599194,Em conclusão,2201,Incêndio em equipamentos ou produtos,0,2,0,7,2025-06-29T16:10:00Z,Sobral De Monte Agraço,Lisboa,Centro,-9.148054,39.019821
25599361,Chancelaria,Médio Tejo,311,2025-06-29T16:59:00Z,25599361,Em curso,3101,Incêndio rural,3,29,0,107,2025-06-29T16:59:00Z,Torres Novas,Santarém,Centro,-8.54621,39.518782
25599512,Croca,Tâmega e Sousa,309,2025-06-29T17:32:00Z,25599512,Em curso,3101,Incêndio rural,1,4,0,23,2025-06-29T17:32:00Z,Penafiel,Porto,Norte,-8.254618,41.21005
25599546,Castelejo,Beiras e Serra da Estrela,310,2025-06-29T17:39:00Z,25599546,Em conclusão,3103,Incêndio rural,0,4,0,12,2025-06-29T17:39:00Z,Fundão,Castelo Branco,Centro,-7.577036,40.124448
25599619,Escalos de Cima e Lousa,Beira Baixa,310,2025-06-29T17:55:00Z,25599619,Em resolução,3103,Incêndio rural,0,7,0,26,2025-06-29T17:55:00Z,Castelo Branco,Castelo Branco,Centro,-7.40629,39.93727
25599635,Vilarinho Dos Freires,Douro,309,2025-06-29T17:58:00Z,25599635,Em curso,3103,Incêndio rural,1,5,0,31,2025-06-29T17:58:00Z,Peso Da Régua,Vila Real,Norte,-7.748211,41.175132
25599687,Chafé,Alto Minho,309,2025-06-29T18:01:00Z,25599687,Em conclusão,3105,Incêndio rural,0,1,0,5,2025-06-29T18:01:00Z,Viana Do Castelo,Viana Do Castelo,Norte,-8.816987,41.648128
25599702,Cedães,Terras de Trás-os-Montes,309,2025-06-29T18:13:00Z,25599702,Em despacho,3103,Incêndio rural,1,7,0,37,2025-06-29T18:13:00Z,Mirandela,Bragança,Norte,-7.111888,41.4607
25599736,Afife,Alto Minho,309,2025-06-29T18:08:00Z,25599736,Em despacho,3107,Consolidação de rescaldo de incêndio rural,0,1,0,2,2025-06-29T18:08:00Z,Viana Do Castelo,Viana Do Castelo,Norte,-8.858935,41.767363
25599677,Cantelães,Ave,309,2025-06-29T18:07:00Z,25599677,Em despacho,3103,Incêndio rural,2,4,0,31,2025-06-29T18:07:00Z,Vieira Do Minho,Braga,Norte,-8.127808,41.63868
25599542,Poiares e Canelas,Douro,309,2025-06-29T17:38:00Z,25599542,Em conclusão,3103,Incêndio rural,0,5,0,18,2025-06-29T17:38:00Z,Peso Da Régua,Vila Real,Norte,-7.732768,41.166976
25599558,São Miguel do Rio Torto e Rossio Ao Sul do Tejo,Médio Tejo,311,2025-06-29T17:42:00Z,25599558,Em conclusão,3103,Incêndio rural,1,9,0,42,2025-06-29T17:42:00Z,Abrantes,Santarém,Centro,-8.194592,39.430592
25599576,Sobreira Formosa e Alvito da Beira,Beira Baixa,310,2025-06-29T17:44:00Z,25599576,Em conclusão,3103,Incêndio rural,0,7,0,21,2025-06-29T17:44:00Z,Proença-a-Nova,Castelo Branco,Centro,-7.76818,39.73129
25599631,Cacém e São Marcos,Grande Lisboa,311,2025-06-29T17:58:00Z,25599631,Em conclusão,3103,Incêndio rural,0,4,0,17,2025-06-29T17:58:00Z,Sintra,Lisboa,Área Metropolitana De Lisboa,-9.302808,38.770937000000004
25599724,Resende,Tâmega e Sousa,309,2025-06-29T17:30:00Z,25599724,Em resolução,3103,Incêndio rural,0,2,0,10,2025-06-29T17:30:00Z,Resende,Viseu,Norte,-7.955755,41.105403
