id,address,subregion,neighborhood,date,id.1,state,nature,nature_description,aerial_means,terrestrial_means,aquatic_means,operational,date.1,Concelho,Distrito,NUTII_DSG,longitude,latitude,state_2
25696955,"Vilela, Seramil e Paredes Secas",Cávado,309,2025-07-18T13:36:00Z,25696955,Em Resolução/Conclusão,3101,Incêndio rural,0,2,0,10,2025-07-18T13:36:00Z,Amares,Braga,Norte,-8.309448,41.67517,Resolução/Conclusão
25701049,Tarouquela,Tâmega e Sousa,309,2025-07-19T10:12:00Z,25701049,Em Resolução/Conclusão,3103,Incêndio rural,0,0,0,0,2025-07-19T10:12:00Z,Cinfães,Viseu,Norte,-8.174778,41.075815,Resolução/Conclusão
25701934,Sobrado e Bairros,Tâmega e Sousa,309,2025-07-19T14:10:00Z,25701934,Em Resolução/Conclusão,3103,Incêndio rural,1,10,0,43,2025-07-19T14:10:00Z,Castelo De Paiva,Aveiro,Norte,-8.273795,41.057212,Resolução/Conclusão
25686799,Souto Maior,Douro,309,2025-07-16T13:19:00Z,25686799,Em Resolução/Conclusão,3101,Incêndio rural,0,14,0,44,2025-07-16T13:19:00Z,Sabrosa,Vila Real,Norte,-7.57839,41.287518,Resolução/Conclusão
25701876,Abrã,Lezíria do Tejo,311,2025-07-19T13:57:00Z,25701876,Em Resolução/Conclusão,3103,Incêndio rural,0,1,0,5,2025-07-19T13:57:00Z,Santarém,Santarém,Alentejo,-8.751613,39.448546,Resolução/Conclusão
25702141,Âncora,Alto Minho,309,2025-07-19T14:49:00Z,25702141,Em Resolução/Conclusão,3105,Incêndio rural,0,1,0,5,2025-07-19T14:49:00Z,Caminha,Viana Do Castelo,Norte,-8.85816,41.804512,Resolução/Conclusão
25702210,Mourão,Alentejo Central,312,2025-07-19T15:05:00Z,25702210,Em Resolução/Conclusão,3105,Incêndio rural,0,2,0,7,2025-07-19T15:05:00Z,Mourão,Évora,Alentejo,-7.350227,38.385667,Resolução/Conclusão
25701594,Santo Agostinho e São João Baptista e Santo Amador,Baixo Alentejo,312,2025-07-19T12:45:00Z,25701594,Em Resolução/Conclusão,3105,Incêndio rural,0,1,0,4,2025-07-19T12:45:00Z,Moura,Beja,Alentejo,-7.450812,38.143705,Resolução/Conclusão
25701864,Bordonhos,Viseu Dão Lafões,310,2025-07-19T13:53:00Z,25701864,Em Resolução/Conclusão,3103,Incêndio rural,0,3,0,9,2025-07-19T13:53:00Z,São Pedro Do Sul,Viseu,Centro,-8.088672,40.765902,Resolução/Conclusão
25701912,Galveias,Alto Alentejo,312,2025-07-19T14:05:00Z,25701912,Em Resolução/Conclusão,3103,Incêndio rural,0,14,0,46,2025-07-19T14:05:00Z,Ponte De Sor,Portalegre,Alentejo,-7.997225,39.163317,Resolução/Conclusão
25702187,Paredes,Area M. Porto,309,2025-07-19T14:59:00Z,25702187,Em Despacho,3103,Incêndio rural,1,2,0,16,2025-07-19T14:59:00Z,Paredes,Porto,Norte,-8.32628,41.205322,Despacho
25702190,"Marvila, Ribeira Santarém, S.salvador, S.nicolau",Lezíria do Tejo,311,2025-07-19T15:03:00Z,25702190,Em Despacho,3103,Incêndio rural,0,5,0,26,2025-07-19T15:03:00Z,Santarém,Santarém,Alentejo,-8.676235,39.236529,Despacho
25702224,Caparica e Trafaria,Península de Setúbal,311,2025-07-19T15:11:00Z,25702224,Em Despacho,3103,Incêndio rural,0,3,0,15,2025-07-19T15:11:00Z,Almada,Setúbal,Área Metropolitana De Lisboa,-9.185725,38.66821,Despacho
25702225,Almalaguês,Região de Coimbra,310,2025-07-19T15:11:00Z,25702225,Em Despacho,3101,Incêndio rural,1,3,0,21,2025-07-19T15:11:00Z,Coimbra,Coimbra,Centro,-8.388298,40.10955,Despacho
