id,address,subregion,neighborhood,date,id.1,state,nature,nature_description,aerial_means,terrestrial_means,aquatic_means,operational,date.1,Concelho,Distrito,NUTII_DSG,longitude,latitude
25544135,Toulões,Beira Baixa,310,2025-06-18T13:59:00Z,25544135,Em conclusão,3105,Incêndio rural,0,0,0,0,2025-06-18T13:59:00Z,Idanha-a-Nova,Castelo Branco,Centro,-7.056978,39.904387
25550386,Lomba,Area M. Porto,309,2025-06-19T20:17:00Z,25550386,Em conclusão,3103,Incêndio rural,0,5,0,20,2025-06-19T20:17:00Z,Gondomar,Porto,Norte,-8.404195,41.033718
25549454,Cabeça Boa,Douro,309,2025-06-19T16:08:00Z,25549454,Em conclusão,3103,Incêndio rural,0,3,0,14,2025-06-19T16:08:00Z,Torre De Moncorvo,Bragança,Norte,-7.15936,41.196307
25550622,Bravães,Alto Minho,309,2025-06-19T21:00:00Z,25550622,Em curso,3107,Consolidação de rescaldo de incêndio rural,0,1,0,3,2025-06-19T21:00:00Z,Ponte Da Barca,Viana Do Castelo,Norte,-8.446173,41.802465
25550808,Maceda,Região de Aveiro,310,2025-06-19T22:18:00Z,25550808,Em conclusão,3203,Detritos confinados,0,1,0,5,2025-06-19T22:18:00Z,Ovar,Aveiro,Centro,-8.614021,40.935245
25550847,"Ardegão, Arnozela e Seidões",Ave,309,2025-06-19T22:40:00Z,25550847,Em despacho,3103,Incêndio rural,0,3,0,16,2025-06-19T22:40:00Z,Fafe,Braga,Norte,-8.12115,41.38963
25550255,Lindoso,Alto Minho,309,2025-06-19T19:30:00Z,25550255,Em conclusão,3105,Incêndio rural,0,1,0,3,2025-06-19T19:30:00Z,Ponte Da Barca,Viana Do Castelo,Norte,-8.240723,41.860782
25550805,Tavira (Santa Maria e Santiago),Algarve,313,2025-06-19T22:00:00Z,25550805,Em conclusão,2101,Incêndio em edifícios habitacionais,0,0,0,0,2025-06-19T22:00:00Z,Tavira,Faro,Algarve,-7.64691,37.130442
25549425,Perre,Alto Minho,309,2025-06-19T16:04:00Z,25549425,Em conclusão,3103,Incêndio rural,0,3,0,6,2025-06-19T16:04:00Z,Viana Do Castelo,Viana Do Castelo,Norte,-8.781872,41.726893
