id,address,subregion,neighborhood,date,id.1,state,nature,nature_description,aerial_means,terrestrial_means,aquatic_means,operational,date.1,Concelho,Distrito,NUTII_DSG,longitude,latitude
25186055,Marinhais,Lezíria do Tejo,311,2025-04-02T16:26:00Z,25186055,Em resolução,3309,Desabamento de estruturas edificadas,0,2,0,3,2025-04-02T16:26:00Z,Salvaterra De Magos,Santarém,Alentejo,-8.704894,39.048061
25113184,Castanheira do Ribatejo e Cachoeiras,Grande Lisboa,311,2025-03-20T01:20:00Z,25113184,Em despacho,3301,Queda de árvore,0,0,0,0,2025-03-20T01:20:00Z,Vila Franca De Xira,Lisboa,Área Metropolitana De Lisboa,-8.979234,38.999552
25070044,Praia do Ribatejo,Médio Tejo,311,2025-03-10T19:30:00Z,25070044,Em curso,1101,Cheia,0,0,0,0,2025-03-10T19:30:00Z,Vila Nova Da Barquinha,Santarém,Centro,-8.357309,39.485638
25071496,São Manços e São Vicente do Pigeiro,Alentejo Central,312,2025-03-11T13:18:00Z,25071496,Em conclusão,1101,Cheia,0,0,0,0,2025-03-11T13:18:00Z,Évora,Évora,Alentejo,-7.713313,38.513673
25137544,Dois Portos e Runa,Oeste,311,2025-03-23T13:41:00Z,25137544,Em conclusão,3313,Deslizamento de terras,0,0,0,0,2025-03-23T13:41:00Z,Torres Vedras,Lisboa,Centro,-9.178343,39.036686
25068300,Almeirim,Lezíria do Tejo,311,2025-03-10T20:52:00Z,25068300,Em curso,1101,Cheia,0,0,0,0,2025-03-10T20:52:00Z,Almeirim,Santarém,Alentejo,-8.635002,39.187436
25185506,Luz de Tavira e Santo Estêvão,Algarve,313,2025-04-02T14:26:00Z,25185506,Em despacho,3301,Queda de árvore,0,1,0,4,2025-04-02T14:26:00Z,Tavira,Faro,Algarve,-7.714632,37.093757
25185940,Pessegueiro do Vouga,Região de Aveiro,310,2025-04-02T15:52:00Z,25185940,Em conclusão,3301,Queda de árvore,0,1,0,2,2025-04-02T15:52:00Z,Sever Do Vouga,Aveiro,Centro,-8.367434,40.709991
25185990,Queluz e Belas,Grande Lisboa,311,2025-04-02T16:12:00Z,25185990,Em conclusão,3329,Queda de estruturas temporárias ou móveis,0,2,0,6,2025-04-02T16:12:00Z,Sintra,Lisboa,Área Metropolitana De Lisboa,-9.271079,38.77098
