id,address,subregion,neighborhood,date,id.1,state,nature,nature_description,aerial_means,terrestrial_means,aquatic_means,operational,date.1,Concelho,Distrito,NUTII_DSG,longitude,latitude,state_2
25774883,Arnóia,Tâmega e Sousa,309,2025-08-02T18:20:00Z,25774883,Em Resolução/Conclusão,3103,Incêndio rural,0,1,0,1,2025-08-02T18:20:00Z,Celorico De Basto,Braga,Norte,-7.998983,41.348727,Resolução/Conclusão
25818455,Sobral de São Miguel,Beiras e Serra da Estrela,310,2025-08-10T15:02:00Z,25818455,Em Resolução/Conclusão,3103,Incêndio rural,0,11,0,29,2025-08-10T15:02:00Z,Covilhã,Castelo Branco,Centro,-7.77307,40.200173,Resolução/Conclusão
25846480,Sabugal e Aldeia de Santo António,Beiras e Serra da Estrela,310,2025-08-15T14:41:00Z,25846480,Em Curso,3103,Incêndio rural,0,50,0,166,2025-08-15T14:41:00Z,Sabugal,Guarda,Centro,-7.125037,40.34023,Curso
25851846,"Mamouros, Alva e Ribolhos",Viseu Dão Lafões,310,2025-08-16T14:44:00Z,25851846,Em Resolução/Conclusão,3103,Incêndio rural,0,1,0,2,2025-08-16T14:44:00Z,Castro Daire,Viseu,Centro,-7.965645,40.850267,Resolução/Conclusão
25851895,Sortelha,Beiras e Serra da Estrela,310,2025-08-16T14:53:00Z,25851895,Em Curso,3103,Incêndio rural,0,14,0,61,2025-08-16T14:53:00Z,Sabugal,Guarda,Centro,-7.254367,40.318488,Curso
25852047,Alcantarilha e Pêra,Algarve,313,2025-08-16T15:28:00Z,25852047,Em Resolução/Conclusão,3103,Incêndio rural,0,1,0,5,2025-08-16T15:28:00Z,Silves,Faro,Algarve,-8.357032,37.182738,Resolução/Conclusão
25852278,"Aldeia do Bispo, Águas e Aldeia de João Pires",Beira Baixa,310,2025-08-16T16:11:00Z,25852278,Em Resolução/Conclusão,3103,Incêndio rural,0,4,0,9,2025-08-16T16:11:00Z,Penamacor,Castelo Branco,Centro,-7.146285,40.11777,Resolução/Conclusão
25852580,São João de Tarouca,Douro,309,2025-08-16T17:00:00Z,25852580,Em Curso,3103,Incêndio rural,0,31,0,109,2025-08-16T17:00:00Z,Tarouca,Viseu,Norte,-7.760748,40.986773,Curso
25853865,"Tavares (Chãs, Várzea e Travanca)",Viseu Dão Lafões,310,2025-08-16T22:05:00Z,25853865,Em Resolução/Conclusão,3103,Incêndio rural,0,6,0,18,2025-08-16T22:05:00Z,Mangualde,Viseu,Centro,-7.639757,40.609112,Resolução/Conclusão
25775263,Torgueda,Douro,309,2025-08-02T19:49:00Z,25775263,Em Resolução/Conclusão,3101,Incêndio rural,0,4,0,15,2025-08-02T19:49:00Z,Vila Real,Vila Real,Norte,-7.785983,41.274952,Resolução/Conclusão
25807426,Alvite,Douro,309,2025-08-08T14:31:00Z,25807426,Em Resolução/Conclusão,3103,Incêndio rural,0,4,0,21,2025-08-08T14:31:00Z,Moimenta Da Beira,Viseu,Norte,-7.688727,40.96613,Resolução/Conclusão
25845171,Pêra do Moço,Beiras e Serra da Estrela,310,2025-08-15T10:44:00Z,25845171,Em Curso,3103,Incêndio rural,0,53,0,142,2025-08-15T10:44:00Z,Guarda,Guarda,Centro,-7.20956,40.61267,Curso
25846016,Poiares,Douro,309,2025-08-15T13:17:00Z,25846016,Em Curso,3105,Incêndio rural,0,88,0,238,2025-08-15T13:17:00Z,Freixo De Espada à Cinta,Bragança,Norte,-6.843393,41.075787,Curso
25847211,Campelo,Região de Leiria,310,2025-08-15T17:01:00Z,25847211,Em Resolução/Conclusão,3101,Incêndio rural,0,9,0,32,2025-08-15T17:01:00Z,Figueiró Dos Vinhos,Leiria,Centro,-8.258518,39.952923,Resolução/Conclusão
25847552,"Espírito Santo, Nossa Senhora da Graça e São Simão",Alto Alentejo,312,2025-08-15T18:13:00Z,25847552,Em Resolução/Conclusão,3101,Incêndio rural,0,5,0,15,2025-08-15T18:13:00Z,Nisa,Portalegre,Alentejo,-7.676539,39.448501,Resolução/Conclusão
25854681,Oldrões,Tâmega e Sousa,309,2025-08-17T02:40:00Z,25854681,Em Resolução/Conclusão,3103,Incêndio rural,0,2,0,6,2025-08-17T02:40:00Z,Penafiel,Porto,Norte,-8.313338,41.145463,Resolução/Conclusão
25776263,"Pena, Quintã e Vila Cova",Douro,309,2025-08-02T23:45:00Z,25776263,Em Resolução/Conclusão,3103,Incêndio rural,0,36,0,116,2025-08-02T23:45:00Z,Vila Real,Vila Real,Norte,-7.811902,41.317355,Resolução/Conclusão
25813482,Freches e Torres,Beiras e Serra da Estrela,310,2025-08-09T16:21:00Z,25813482,Em Curso,3103,Incêndio rural,0,140,0,423,2025-08-09T16:21:00Z,Trancoso,Guarda,Centro,-7.363745,40.709022,Curso
25830378,Ermidas-Sado,Alentejo Litoral,312,2025-08-12T16:42:00Z,25830378,Em Resolução/Conclusão,3101,Incêndio rural,0,1,0,1,2025-08-12T16:42:00Z,Santiago Do Cacém,Setúbal,Alentejo,-8.407646,38.059897,Resolução/Conclusão
25832250,Ferreira de Aves,Viseu Dão Lafões,310,2025-08-13T00:03:00Z,25832250,Em Curso,3103,Incêndio rural,0,236,0,710,2025-08-13T00:03:00Z,Sátão,Viseu,Centro,-7.647793,40.79568,Curso
25836309,Cinfães,Tâmega e Sousa,309,2025-08-13T18:17:00Z,25836309,Em Resolução/Conclusão,3103,Incêndio rural,0,12,0,37,2025-08-13T18:17:00Z,Cinfães,Viseu,Norte,-8.071502,41.049757,Resolução/Conclusão
25840505,Ribeira de Nisa e Carreiras,Alto Alentejo,312,2025-08-14T14:01:00Z,25840505,Em Resolução/Conclusão,3101,Incêndio rural,0,10,0,32,2025-08-14T14:01:00Z,Portalegre,Portalegre,Alentejo,-7.47009,39.374707,Resolução/Conclusão
25844050,"Pena, Quintã e Vila Cova",Douro,309,2025-08-15T04:16:00Z,25844050,Em Resolução/Conclusão,3103,Incêndio rural,0,2,0,7,2025-08-15T04:16:00Z,Vila Real,Vila Real,Norte,-7.861022,41.318705,Resolução/Conclusão
25844080,Vale de Espinho,Beiras e Serra da Estrela,310,2025-08-15T04:35:00Z,25844080,Em Resolução/Conclusão,3103,Incêndio rural,0,2,0,4,2025-08-15T04:35:00Z,Sabugal,Guarda,Centro,-6.937728,40.270523,Resolução/Conclusão
25845736,Travancas e Roriz,Alto Tâmega e Barroso,309,2025-08-15T12:20:00Z,25845736,Em Resolução/Conclusão,3103,Incêndio rural,0,1,0,4,2025-08-15T12:20:00Z,Chaves,Vila Real,Norte,-7.316357,41.775985,Resolução/Conclusão
25850200,Santo André,Alto Tâmega e Barroso,309,2025-08-16T09:22:00Z,25850200,Em Resolução/Conclusão,3103,Incêndio rural,0,2,0,10,2025-08-16T09:22:00Z,Montalegre,Vila Real,Norte,-7.68918,41.870293,Resolução/Conclusão
25792058,Cibões e Brufe,Cávado,309,2025-08-05T19:10:00Z,25792058,Em Resolução/Conclusão,3103,Incêndio rural,0,1,0,5,2025-08-05T19:10:00Z,Terras De Bouro,Braga,Norte,-8.293932,41.764918,Resolução/Conclusão
25820422,Távora e Pereiro,Douro,309,2025-08-10T22:27:00Z,25820422,Em Resolução/Conclusão,3103,Incêndio rural,0,30,0,94,2025-08-10T22:27:00Z,Tabuaço,Viseu,Norte,-7.55556,41.097602,Resolução/Conclusão
25832672,Piódão,Região de Coimbra,310,2025-08-13T05:08:00Z,25832672,Em Curso,3103,Incêndio rural,0,289,0,827,2025-08-13T05:08:00Z,Arganil,Coimbra,Centro,-7.81972,40.23083,Curso
25835176,Faíl e Vila Chã de Sá,Viseu Dão Lafões,310,2025-08-13T14:35:00Z,25835176,Em Resolução/Conclusão,3103,Incêndio rural,0,1,0,2,2025-08-13T14:35:00Z,Viseu,Viseu,Centro,-7.951177,40.594167,Resolução/Conclusão
25840417,Lousã e Vilarinho,Região de Coimbra,310,2025-08-14T13:46:00Z,25840417,Em Curso,3101,Incêndio rural,0,150,0,478,2025-08-14T13:46:00Z,Lousã,Coimbra,Centro,-8.201561,40.080016,Curso
25854875,Rans,Tâmega e Sousa,309,2025-08-17T04:53:00Z,25854875,Em Curso,3103,Incêndio rural,0,2,0,10,2025-08-17T04:53:00Z,Penafiel,Porto,Norte,-8.309507,41.171873,Curso
25854891,"Areias, Sequeiró, Lama e Palmeira",Area M. Porto,309,2025-08-17T05:05:00Z,25854891,Em Despacho,3103,Incêndio rural,0,1,0,5,2025-08-17T05:05:00Z,Santo Tirso,Porto,Norte,-8.48298,41.36187,Despacho
25851721,Arnóia,Tâmega e Sousa,309,2025-08-16T14:24:00Z,25851721,Em Curso,3103,Incêndio rural,0,28,0,88,2025-08-16T14:24:00Z,Celorico De Basto,Braga,Norte,-7.994469,41.369836,Curso
25852438,Campanhó e Paradança,Ave,309,2025-08-16T16:41:00Z,25852438,Em Resolução/Conclusão,3103,Incêndio rural,0,42,0,134,2025-08-16T16:41:00Z,Mondim De Basto,Vila Real,Norte,-7.965877,41.391997,Resolução/Conclusão
25853405,Candemil,Tâmega e Sousa,309,2025-08-16T20:22:00Z,25853405,Em Resolução/Conclusão,3103,Incêndio rural,0,4,0,13,2025-08-16T20:22:00Z,Amarante,Porto,Norte,-7.9731629999999996,41.248708,Resolução/Conclusão
25854913,Vidigueira,Baixo Alentejo,312,2025-08-17T05:25:00Z,25854913,Em Despacho,3105,Incêndio rural,0,0,0,0,2025-08-17T05:25:00Z,Vidigueira,Beja,Alentejo,-7.789869,38.20407,Despacho
