id,address,subregion,neighborhood,date,id.1,state,nature,nature_description,aerial_means,terrestrial_means,aquatic_means,operational,date.1,Concelho,Distrito,NUTII_DSG,longitude,latitude
25517290,Valadares,Tâmega e Sousa,309,2025-06-12T22:15:00Z,25517290,Em resolução,3103,Incêndio rural,0,1,0,5,2025-06-12T22:15:00Z,Baião,Porto,Norte,-8.000102,41.137258
25517381,Caminha (Matriz) e Vilarelho,Alto Minho,309,2025-06-12T22:49:00Z,25517381,Em curso,3103,Incêndio rural,0,1,0,5,2025-06-12T22:49:00Z,Caminha,Viana Do Castelo,Norte,-8.839419,41.867575
25517415,Algueirão-Mem Martins,Grande Lisboa,311,2025-06-12T23:00:00Z,25517415,Em despacho,2101,Incêndio em edifícios habitacionais,0,2,0,8,2025-06-12T23:00:00Z,Sintra,Lisboa,Área Metropolitana De Lisboa,-9.330827,38.796332
25517282,São João da Madeira,Area M. Porto,309,2025-06-12T22:05:00Z,25517282,Em conclusão,2101,Incêndio em edifícios habitacionais,0,3,0,10,2025-06-12T22:05:00Z,São João Da Madeira,Aveiro,Norte,-8.491788,40.892735
25516987,Ermelo e Pardelhas,Ave,309,2025-06-12T20:40:00Z,25516987,Em despacho,3107,Consolidação de rescaldo de incêndio rural,0,1,0,5,2025-06-12T20:40:00Z,Mondim De Basto,Vila Real,Norte,-7.842792,41.3582
25517388,Paranhos,Area M. Porto,309,2025-06-12T22:54:00Z,25517388,Em despacho,2101,Incêndio em edifícios habitacionais,0,4,0,17,2025-06-12T22:54:00Z,Porto,Porto,Norte,-8.60798,41.17031
