id,address,subregion,neighborhood,date,id.1,state,nature,nature_description,aerial_means,terrestrial_means,aquatic_means,operational,date.1,Concelho,Distrito,NUTII_DSG,longitude,latitude
25071496,São Manços e São Vicente do Pigeiro,Alentejo Central,312,2025-03-11T13:18:00Z,25071496,Em conclusão,1101,Cheia,0,0,0,0,2025-03-11T13:18:00Z,Évora,Évora,Alentejo,-7.713313,38.513673
25202441,Serpa (Salvador e Santa Maria),Baixo Alentejo,312,2025-04-06T10:25:00Z,25202441,Em conclusão,1101,Cheia,0,0,0,0,2025-04-06T10:25:00Z,Serpa,Beja,Alentejo,-7.555783,37.88592
25261966,Souselas e Botão,Região de Coimbra,310,2025-04-19T23:58:00Z,25261966,Em curso,3313,Deslizamento de terras,0,2,0,4,2025-04-19T23:58:00Z,Coimbra,Coimbra,Centro,-8.446077,40.291836000000004
25262276,Calvão,Região de Aveiro,310,2025-04-20T03:42:00Z,25262276,Em conclusão,3301,Queda de árvore,0,1,0,1,2025-04-20T03:42:00Z,Vagos,Aveiro,Centro,-8.687322,40.47943
25262308,Forno Telheiro,Beiras e Serra da Estrela,310,2025-04-20T04:18:00Z,25262308,Em conclusão,3301,Queda de árvore,0,1,0,3,2025-04-20T04:18:00Z,Celorico Da Beira,Guarda,Centro,-7.375667,40.68484
25262340,Pombal,Região de Leiria,310,2025-04-20T04:52:00Z,25262340,Em despacho,3315,Inundação de estruturas por precipitação intensa,0,1,0,2,2025-04-20T04:52:00Z,Pombal,Leiria,Centro,-8.62781,39.910371
