id,address,subregion,neighborhood,date,id.1,state,nature,nature_description,aerial_means,terrestrial_means,aquatic_means,operational,date.1,Concelho,Distrito,NUTII_DSG,longitude,latitude,state_2
25818455,Sobral de São Miguel,Beiras e Serra da Estrela,310,2025-08-10T15:02:00Z,25818455,Em Resolução/Conclusão,3103,Incêndio rural,0,1,0,1,2025-08-10T15:02:00Z,Covilhã,Castelo Branco,Centro,-7.77307,40.200173,Resolução/Conclusão
25846480,Sabugal e Aldeia de Santo António,Beiras e Serra da Estrela,310,2025-08-15T14:41:00Z,25846480,Em Curso,3103,Incêndio rural,4,121,0,462,2025-08-15T14:41:00Z,Sabugal,Guarda,Centro,-7.125037,40.34023,Curso
25851846,"Mamouros, Alva e Ribolhos",Viseu Dão Lafões,310,2025-08-16T14:44:00Z,25851846,Em Resolução/Conclusão,3103,Incêndio rural,0,1,0,2,2025-08-16T14:44:00Z,Castro Daire,Viseu,Centro,-7.965645,40.850267,Resolução/Conclusão
25852580,São João de Tarouca,Douro,309,2025-08-16T17:00:00Z,25852580,Em Resolução/Conclusão,3103,Incêndio rural,0,52,0,163,2025-08-16T17:00:00Z,Tarouca,Viseu,Norte,-7.760748,40.986773,Resolução/Conclusão
25866719,Nevogilde,Tâmega e Sousa,309,2025-08-19T12:24:00Z,25866719,Em Curso,3103,Incêndio rural,1,30,0,113,2025-08-19T12:24:00Z,Lousada,Porto,Norte,-8.332438,41.25728,Curso
25867021,Carrazeda de Ansiães,Douro,309,2025-08-19T13:27:00Z,25867021,Em Curso,3103,Incêndio rural,1,19,0,70,2025-08-19T13:27:00Z,Carrazeda De Ansiães,Bragança,Norte,-7.28399,41.211137,Curso
25867255,Santa Clara-a-Nova e Gomes Aires,Baixo Alentejo,312,2025-08-19T14:15:00Z,25867255,Em Resolução/Conclusão,3103,Incêndio rural,0,2,0,6,2025-08-19T14:15:00Z,Almodôvar,Beja,Alentejo,-8.24546,37.419670000000004,Resolução/Conclusão
25867336,São Pedro Fins,Area M. Porto,309,2025-08-19T14:25:00Z,25867336,Em Resolução/Conclusão,3103,Incêndio rural,0,2,0,7,2025-08-19T14:25:00Z,Maia,Porto,Norte,-8.560855,41.237682,Resolução/Conclusão
25867570,Queluz e Belas,Grande Lisboa,311,2025-08-19T15:05:00Z,25867570,Em Resolução/Conclusão,3103,Incêndio rural,0,3,0,12,2025-08-19T15:05:00Z,Sintra,Lisboa,Área Metropolitana De Lisboa,-9.252544,38.747968,Resolução/Conclusão
25867703,Paredes da Beira,Douro,309,2025-08-19T15:35:00Z,25867703,Em Curso,3103,Incêndio rural,1,2,0,16,2025-08-19T15:35:00Z,São João Da Pesqueira,Viseu,Norte,-7.47051,41.05687,Curso
25845171,Pêra do Moço,Beiras e Serra da Estrela,310,2025-08-15T10:44:00Z,25845171,Em Resolução/Conclusão,3103,Incêndio rural,0,7,0,28,2025-08-15T10:44:00Z,Guarda,Guarda,Centro,-7.20956,40.61267,Resolução/Conclusão
25846016,Poiares,Douro,309,2025-08-15T13:17:00Z,25846016,Em Resolução/Conclusão,3103,Incêndio rural,0,79,0,240,2025-08-15T13:17:00Z,Freixo De Espada à Cinta,Bragança,Norte,-6.843393,41.075787,Resolução/Conclusão
25847211,Campelo,Região de Leiria,310,2025-08-15T17:01:00Z,25847211,Em Resolução/Conclusão,3101,Incêndio rural,0,7,0,26,2025-08-15T17:01:00Z,Figueiró Dos Vinhos,Leiria,Centro,-8.258518,39.952923,Resolução/Conclusão
25859434,"Valbom (São Pedro), Passô e Valbom (São Martinho)",Cávado,309,2025-08-18T01:46:00Z,25859434,Em Resolução/Conclusão,3103,Incêndio rural,0,1,0,3,2025-08-18T01:46:00Z,Vila Verde,Braga,Norte,-8.356937,41.715582,Resolução/Conclusão
25860858,Valadares,Viseu Dão Lafões,310,2025-08-18T10:30:00Z,25860858,Em Resolução/Conclusão,3101,Incêndio rural,0,0,0,0,2025-08-18T10:30:00Z,São Pedro Do Sul,Viseu,Centro,-8.191795,40.74812,Resolução/Conclusão
25861685,Santa Catarina da Serra e Chainça,Região de Leiria,310,2025-08-18T13:03:00Z,25861685,Em Resolução/Conclusão,3103,Incêndio rural,0,3,0,6,2025-08-18T13:03:00Z,Leiria,Leiria,Centro,-8.698656,39.708305,Resolução/Conclusão
25862694,Mexilhoeira Grande,Algarve,313,2025-08-18T16:00:00Z,25862694,Em Resolução/Conclusão,3103,Incêndio rural,0,9,0,23,2025-08-18T16:00:00Z,Portimão,Faro,Algarve,-8.63954,37.193757,Resolução/Conclusão
25863430,Mioma,Viseu Dão Lafões,310,2025-08-18T18:33:00Z,25863430,Em Resolução/Conclusão,3103,Incêndio rural,0,1,0,3,2025-08-18T18:33:00Z,Sátão,Viseu,Centro,-7.719747,40.742767,Resolução/Conclusão
25866849,Duas Igrejas,Area M. Porto,309,2025-08-19T12:49:00Z,25866849,Em Resolução/Conclusão,3103,Incêndio rural,0,1,0,5,2025-08-19T12:49:00Z,Paredes,Porto,Norte,-8.370338,41.222637,Resolução/Conclusão
25866858,"Pena, Quintã e Vila Cova",Douro,309,2025-08-19T12:52:00Z,25866858,Em Resolução/Conclusão,3103,Incêndio rural,0,6,0,24,2025-08-19T12:52:00Z,Vila Real,Vila Real,Norte,-7.819168,41.2897,Resolução/Conclusão
25813482,Freches e Torres,Beiras e Serra da Estrela,310,2025-08-09T16:21:00Z,25813482,Em Resolução/Conclusão,3103,Incêndio rural,0,24,0,62,2025-08-09T16:21:00Z,Trancoso,Guarda,Centro,-7.363745,40.709022,Resolução/Conclusão
25830378,Ermidas-Sado,Alentejo Litoral,312,2025-08-12T16:42:00Z,25830378,Em Resolução/Conclusão,3101,Incêndio rural,0,0,0,0,2025-08-12T16:42:00Z,Santiago Do Cacém,Setúbal,Alentejo,-8.407646,38.059897,Resolução/Conclusão
25832250,Ferreira de Aves,Viseu Dão Lafões,310,2025-08-13T00:03:00Z,25832250,Em Resolução/Conclusão,3103,Incêndio rural,0,44,0,139,2025-08-13T00:03:00Z,Sátão,Viseu,Centro,-7.647793,40.79568,Resolução/Conclusão
25836309,Cinfães,Tâmega e Sousa,309,2025-08-13T18:17:00Z,25836309,Em Resolução/Conclusão,3103,Incêndio rural,0,1,0,2,2025-08-13T18:17:00Z,Cinfães,Viseu,Norte,-8.071502,41.049757,Resolução/Conclusão
25840505,Ribeira de Nisa e Carreiras,Alto Alentejo,312,2025-08-14T14:01:00Z,25840505,Em Resolução/Conclusão,3101,Incêndio rural,0,5,0,13,2025-08-14T14:01:00Z,Portalegre,Portalegre,Alentejo,-7.47009,39.374707,Resolução/Conclusão
25851721,Arnóia,Tâmega e Sousa,309,2025-08-16T14:24:00Z,25851721,Em Resolução/Conclusão,3103,Incêndio rural,0,9,0,33,2025-08-16T14:24:00Z,Celorico De Basto,Braga,Norte,-7.994469,41.369836,Resolução/Conclusão
25852438,Campanhó e Paradança,Ave,309,2025-08-16T16:41:00Z,25852438,Em Resolução/Conclusão,3103,Incêndio rural,0,1,0,5,2025-08-16T16:41:00Z,Mondim De Basto,Vila Real,Norte,-7.965877,41.391997,Resolução/Conclusão
25856549,"Oliveira de Frades, Souto de Lafões e Sejães",Viseu Dão Lafões,310,2025-08-17T13:08:00Z,25856549,Em Resolução/Conclusão,3103,Incêndio rural,0,1,0,2,2025-08-17T13:08:00Z,Oliveira De Frades,Viseu,Centro,-8.203795,40.74088,Resolução/Conclusão
25860828,Vilar de Perdizes e Meixide,Alto Tâmega e Barroso,309,2025-08-18T10:25:00Z,25860828,Em Curso,3103,Incêndio rural,1,71,0,228,2025-08-18T10:25:00Z,NA,NA,NA,-7.63634,41.880008,Curso
25867476,Rans,Tâmega e Sousa,309,2025-08-19T14:51:00Z,25867476,Em Resolução/Conclusão,3103,Incêndio rural,1,4,0,20,2025-08-19T14:51:00Z,Penafiel,Porto,Norte,-8.30937,41.17217,Resolução/Conclusão
25867590,"Chorente, Góios, Courel, Pedra Furada e Gueral",Cávado,309,2025-08-19T15:10:00Z,25867590,Em Resolução/Conclusão,3103,Incêndio rural,1,8,0,37,2025-08-19T15:10:00Z,Barcelos,Braga,Norte,-8.623077,41.478017,Resolução/Conclusão
25867708,Antas e Ourozinho,Douro,309,2025-08-19T15:36:00Z,25867708,Em Despacho,3103,Incêndio rural,1,1,0,8,2025-08-19T15:36:00Z,Penedono,Viseu,Norte,-7.3382,40.94124,Despacho
25866140,Pardilhó,Região de Aveiro,310,2025-08-19T10:32:00Z,25866140,Em Resolução/Conclusão,3103,Incêndio rural,0,8,0,23,2025-08-19T10:32:00Z,Estarreja,Aveiro,Centro,-8.607552,40.780293,Resolução/Conclusão
25867496,Lomar e Arcos,Cávado,309,2025-08-19T14:36:00Z,25867496,Em Resolução/Conclusão,3103,Incêndio rural,0,2,0,7,2025-08-19T14:36:00Z,Braga,Braga,Norte,-8.438705,41.514897,Resolução/Conclusão
25867581,Oleiros-Amieira,Beira Baixa,310,2025-08-19T15:06:00Z,25867581,Em Resolução/Conclusão,3103,Incêndio rural,0,2,0,7,2025-08-19T15:06:00Z,Oleiros,Castelo Branco,Centro,-7.911203,39.917378,Resolução/Conclusão
25867696,Fronteira,Alto Alentejo,312,2025-08-19T15:34:00Z,25867696,Em Despacho,3103,Incêndio rural,1,8,0,42,2025-08-19T15:34:00Z,Fronteira,Portalegre,Alentejo,-7.670435,39.04697,Despacho
25867765,Santa Marta de Portuzelo,Alto Minho,309,2025-08-19T15:48:00Z,25867765,Em Despacho,3103,Incêndio rural,1,0,0,6,2025-08-19T15:48:00Z,Viana Do Castelo,Viana Do Castelo,Norte,-8.770556,41.711614,Despacho
25820422,Távora e Pereiro,Douro,309,2025-08-10T22:27:00Z,25820422,Em Resolução/Conclusão,3103,Incêndio rural,0,0,0,0,2025-08-10T22:27:00Z,Tabuaço,Viseu,Norte,-7.55556,41.097602,Resolução/Conclusão
25832672,Piódão,Região de Coimbra,310,2025-08-13T05:08:00Z,25832672,Em Curso,3103,Incêndio rural,17,496,0,1510,2025-08-13T05:08:00Z,Arganil,Coimbra,Centro,-7.81972,40.23083,Curso
25835176,Faíl e Vila Chã de Sá,Viseu Dão Lafões,310,2025-08-13T14:35:00Z,25835176,Em Resolução/Conclusão,3103,Incêndio rural,0,1,0,5,2025-08-13T14:35:00Z,Viseu,Viseu,Centro,-7.951177,40.594167,Resolução/Conclusão
25840417,Lousã e Vilarinho,Região de Coimbra,310,2025-08-14T13:46:00Z,25840417,Em Resolução/Conclusão,3101,Incêndio rural,0,60,0,179,2025-08-14T13:46:00Z,Lousã,Coimbra,Centro,-8.201561,40.080016,Resolução/Conclusão
25857322,"Barcel, Marmelos e Valverde da Gestosa",Terras de Trás-os-Montes,309,2025-08-17T15:53:00Z,25857322,Em Curso,3103,Incêndio rural,5,112,0,338,2025-08-17T15:53:00Z,Mirandela,Bragança,Norte,-7.209414,41.409479,Curso
25859212,Moimenta,Cávado,309,2025-08-17T23:49:00Z,25859212,Em Resolução/Conclusão,3103,Incêndio rural,0,2,0,10,2025-08-17T23:49:00Z,Terras De Bouro,Braga,Norte,-8.303262,41.711533,Resolução/Conclusão
25865526,Valdreu,Cávado,309,2025-08-19T08:36:00Z,25865526,Em Resolução/Conclusão,3103,Incêndio rural,0,1,0,2,2025-08-19T08:36:00Z,Vila Verde,Braga,Norte,-8.332177,41.726137,Resolução/Conclusão
25866546,Chã,Alto Tâmega e Barroso,309,2025-08-19T11:47:00Z,25866546,Em Resolução/Conclusão,3105,Incêndio rural,0,1,0,5,2025-08-19T11:47:00Z,Montalegre,Vila Real,Norte,-7.741682,41.774342,Resolução/Conclusão
25866682,Vale de Anta,Alto Tâmega e Barroso,309,2025-08-19T12:19:00Z,25866682,Em Resolução/Conclusão,3103,Incêndio rural,0,3,0,6,2025-08-19T12:19:00Z,Chaves,Vila Real,Norte,-7.494862,41.744817,Resolução/Conclusão
25867175,Vila de Punhe,Alto Minho,309,2025-08-19T13:57:00Z,25867175,Em Resolução/Conclusão,3103,Incêndio rural,0,9,0,23,2025-08-19T13:57:00Z,Viana Do Castelo,Viana Do Castelo,Norte,-8.742027,41.665953,Resolução/Conclusão
25867359,São João de Lourosa,Viseu Dão Lafões,310,2025-08-19T14:28:00Z,25867359,Em Resolução/Conclusão,3103,Incêndio rural,0,5,0,9,2025-08-19T14:28:00Z,Viseu,Viseu,Centro,-7.922118,40.598827,Resolução/Conclusão
25867657,Campanhó e Paradança,Ave,309,2025-08-19T15:26:00Z,25867657,Em Despacho,3103,Incêndio rural,1,3,0,16,2025-08-19T15:26:00Z,Mondim De Basto,Vila Real,Norte,-7.934488,41.349928,Despacho
25867707,Pombal,Região de Leiria,310,2025-08-19T15:36:00Z,25867707,Em Curso,3101,Incêndio rural,1,6,0,25,2025-08-19T15:36:00Z,Pombal,Leiria,Centro,-8.62847,39.93222,Curso
