id,address,subregion,neighborhood,date,id.1,state,nature,nature_description,aerial_means,terrestrial_means,aquatic_means,operational,date.1,Concelho,Distrito,NUTII_DSG,longitude,latitude
25525290,Selmes,Baixo Alentejo,312,2025-06-14T16:14:00Z,25525290,Em conclusão,3105,Incêndio rural,0,2,0,10,2025-06-14T16:14:00Z,Vidigueira,Beja,Alentejo,-7.724372,38.135682
25527482,Faro (Sé e São Pedro),Algarve,313,2025-06-15T06:38:00Z,25527482,Em despacho,2129,Incêndio em edifícios degradados ou devolutos,0,0,0,0,2025-06-15T06:38:00Z,Faro,Faro,Algarve,-7.919022,37.01583
25527218,Monchique,Algarve,313,2025-06-15T02:28:00Z,25527218,Em conclusão,3103,Incêndio rural,0,6,0,12,2025-06-15T02:28:00Z,Monchique,Faro,Algarve,-8.551402,37.272837
25527291,Conceição e Estoi,Algarve,313,2025-06-15T03:30:00Z,25527291,Em conclusão,3103,Incêndio rural,0,5,0,12,2025-06-15T03:30:00Z,Faro,Faro,Algarve,-7.888693,37.071193
25527426,Panoias e Conceição,Baixo Alentejo,312,2025-06-15T05:44:00Z,25527426,Em conclusão,3103,Incêndio rural,0,6,0,19,2025-06-15T05:44:00Z,Ourique,Beja,Alentejo,-8.242588,37.788822
