id,address,subregion,neighborhood,date,id.1,state,nature,nature_description,aerial_means,terrestrial_means,aquatic_means,operational,date.1,Concelho,Distrito,NUTII_DSG,longitude,latitude
25488905,Samouco,Península de Setúbal,311,2025-06-07T01:25:00Z,25488905,Em resolução,3103,Incêndio rural,0,1,0,5,2025-06-07T01:25:00Z,Alcochete,Setúbal,Área Metropolitana De Lisboa,-9.00867,38.72787
25487371,São João Dos Caldeireiros,Baixo Alentejo,312,2025-06-06T18:02:00Z,25487371,Em conclusão,3105,Incêndio rural,0,5,0,12,2025-06-06T18:02:00Z,Mértola,Beja,Alentejo,-7.804608,37.600808
25488815,São Bartolomeu de Messines,Algarve,313,2025-06-07T00:32:00Z,25488815,Em conclusão,2301,Incêndio em transporte rodoviário,0,3,0,9,2025-06-07T00:32:00Z,Silves,Faro,Algarve,-8.2745,37.22839
25488493,Nogueira e Silva Escura,Area M. Porto,309,2025-06-06T22:15:00Z,25488493,Em conclusão,3105,Incêndio rural,0,3,0,8,2025-06-06T22:15:00Z,Maia,Porto,Norte,-8.59054,41.244857
25488863,Vila Chã,Cávado,309,2025-06-07T00:57:00Z,25488863,Em resolução,2301,Incêndio em transporte rodoviário,0,3,0,12,2025-06-07T00:57:00Z,Esposende,Braga,Norte,-8.767827,41.569373
