id,address,subregion,neighborhood,date,id.1,state,nature,nature_description,aerial_means,terrestrial_means,aquatic_means,operational,date.1,Concelho,Distrito,NUTII_DSG,longitude,latitude
25071496,São Manços e São Vicente do Pigeiro,Alentejo Central,312,2025-03-11T13:18:00Z,25071496,Em conclusão,1101,Cheia,0,0,0,0,2025-03-11T13:18:00Z,Évora,Évora,Alentejo,-7.713313,38.513673
25202441,Serpa (Salvador e Santa Maria),Baixo Alentejo,312,2025-04-06T10:25:00Z,25202441,Em conclusão,1101,Cheia,0,0,0,0,2025-04-06T10:25:00Z,Serpa,Beja,Alentejo,-7.555783,37.88592
25262703,Arnoso (Santa Maria e Santa Eulália) e Sezures,Ave,309,2025-04-20T09:17:00Z,25262703,Em curso,3321,Dano na rede de fornecimento de eletricidade ,0,1,0,2,2025-04-20T09:17:00Z,Vila Nova De Famalicão,Braga,Norte,-8.483753,41.472333
25262789,Reguengo do Fetal,Região de Leiria,310,2025-04-20T09:44:00Z,25262789,Em despacho,3301,Queda de árvore,0,1,0,2,2025-04-20T09:44:00Z,Batalha,Leiria,Centro,-8.746878,39.623398
25262974,Anais,Alto Minho,309,2025-04-20T10:44:00Z,25262974,Em despacho,3313,Deslizamento de terras,0,0,0,0,2025-04-20T10:44:00Z,Ponte De Lima,Viana Do Castelo,Norte,-8.529487,41.698911
25262510,Abiul,Região de Leiria,310,2025-04-20T07:50:00Z,25262510,Em resolução,1101,Cheia,0,1,0,4,2025-04-20T07:50:00Z,Pombal,Leiria,Centro,-8.513647,39.889437
25262964,Vila Real de Santo António,Algarve,313,2025-04-20T10:34:00Z,25262964,Em despacho,3329,Queda de estruturas temporárias ou móveis,0,1,0,2,2025-04-20T10:34:00Z,Vila Real De Santo António,Faro,Algarve,-7.413388,37.191428
25262961,Santa Maria Maior e Monserrate e Meadela,Alto Minho,309,2025-04-20T10:16:00Z,25262961,Em despacho,3301,Queda de árvore,0,1,0,2,2025-04-20T10:16:00Z,Viana Do Castelo,Viana Do Castelo,Norte,-8.81652,41.703882
