id,address,subregion,neighborhood,date,id.1,state,nature,nature_description,aerial_means,terrestrial_means,aquatic_means,operational,date.1,Concelho,Distrito,NUTII_DSG,longitude,latitude,state_2
25625983,Vilarinho,Area M. Porto,309,2025-07-04T13:45:00Z,25625983,Em Resolução/Conclusão,3103,Incêndio rural,0,1,0,5,2025-07-04T13:45:00Z,Santo Tirso,Porto,Norte,-8.325352,41.343782,Resolução/Conclusão
25630896,São Brás e São Lourenço,Alto Alentejo,312,2025-07-05T12:03:00Z,25630896,Em Resolução/Conclusão,3105,Incêndio rural,0,4,0,14,2025-07-05T12:03:00Z,Elvas,Portalegre,Alentejo,-7.20833,38.86972,Resolução/Conclusão
25631614,Antuzede e Vil de Matos,Região de Coimbra,310,2025-07-05T14:41:00Z,25631614,Em Resolução/Conclusão,3105,Incêndio rural,0,0,0,0,2025-07-05T14:41:00Z,Coimbra,Coimbra,Centro,-8.48722,40.22389,Resolução/Conclusão
25631218,Lomba,Area M. Porto,309,2025-07-05T13:18:00Z,25631218,Em Resolução/Conclusão,3103,Incêndio rural,0,1,0,5,2025-07-05T13:18:00Z,Gondomar,Porto,Norte,-8.418905,41.0309,Resolução/Conclusão
25631661,Loulé (São Clemente),Algarve,313,2025-07-05T14:56:00Z,25631661,Em Resolução/Conclusão,3103,Incêndio rural,0,5,0,19,2025-07-05T14:56:00Z,Loulé,Faro,Algarve,-8.024805,37.109672,Resolução/Conclusão
25631854,São Miguel de Vila Boa,Viseu Dão Lafões,310,2025-07-05T15:29:00Z,25631854,Em Resolução/Conclusão,3103,Incêndio rural,1,5,0,26,2025-07-05T15:29:00Z,Sátão,Viseu,Centro,-7.768758,40.688949,Resolução/Conclusão
25610143,Nossa Senhora Das Misericórdias,Médio Tejo,311,2025-07-01T15:32:00Z,25610143,Em Resolução/Conclusão,3103,Incêndio rural,0,0,0,0,2025-07-01T15:32:00Z,Ourém,Santarém,Centro,-8.600277,39.655883,Resolução/Conclusão
25620664,Côja e Barril de Alva,Região de Coimbra,310,2025-07-03T14:22:00Z,25620664,Em Resolução/Conclusão,3101,Incêndio rural,0,3,0,11,2025-07-03T14:22:00Z,Arganil,Coimbra,Centro,-7.95667,40.2725,Resolução/Conclusão
25631505,Penafiel,Tâmega e Sousa,309,2025-07-05T14:19:00Z,25631505,Em Curso,3103,Incêndio rural,3,16,0,66,2025-07-05T14:19:00Z,Penafiel,Porto,Norte,-8.26035,41.205925,Curso
25631687,Aião,Tâmega e Sousa,309,2025-07-05T14:58:00Z,25631687,Em Resolução/Conclusão,3101,Incêndio rural,0,1,0,5,2025-07-05T14:58:00Z,Felgueiras,Porto,Norte,-8.204758,41.305778,Resolução/Conclusão
25631764,Boivães,Alto Minho,309,2025-07-05T15:12:00Z,25631764,Em Resolução/Conclusão,3103,Incêndio rural,0,2,0,9,2025-07-05T15:12:00Z,Ponte Da Barca,Viana Do Castelo,Norte,-8.44941,41.763282,Resolução/Conclusão
25631780,Alvite,Douro,309,2025-07-05T15:17:00Z,25631780,Em Curso,3103,Incêndio rural,1,9,0,38,2025-07-05T15:17:00Z,Moimenta Da Beira,Viseu,Norte,-7.692007,40.96958,Curso
25630756,Salto,Alto Tâmega e Barroso,309,2025-07-05T11:37:00Z,25630756,Em Resolução/Conclusão,3103,Incêndio rural,0,5,0,19,2025-07-05T11:37:00Z,Montalegre,Vila Real,Norte,-7.982735,41.609423,Resolução/Conclusão
25631796,Caíde de Rei,Tâmega e Sousa,309,2025-07-05T15:02:00Z,25631796,Em Resolução/Conclusão,3103,Incêndio rural,0,1,0,5,2025-07-05T15:02:00Z,Lousada,Porto,Norte,-8.223831,41.266677,Resolução/Conclusão
