id,address,subregion,neighborhood,date,id.1,state,nature,nature_description,aerial_means,terrestrial_means,aquatic_means,operational,date.1,Concelho,Distrito,NUTII_DSG,longitude,latitude,state_2
25951176,Sandomil,Beiras e Serra da Estrela,310,2025-09-06T10:29:00Z,25951176,Em Resolução/Conclusão,3103,Incêndio rural,0,2,0,10,2025-09-06T10:29:00Z,Seia,Guarda,Centro,-7.76001,40.351547,Resolução/Conclusão
26020631,"Tavares (Chãs, Várzea e Travanca)",Viseu Dão Lafões,310,2025-09-20T21:15:00Z,26020631,Em Resolução/Conclusão,3103,Incêndio rural,0,1,0,5,2025-09-20T21:15:00Z,Mangualde,Viseu,Centro,-7.639468,40.609133,Resolução/Conclusão
26024276,Monte Redondo e Carreira,Região de Leiria,310,2025-09-21T17:24:00Z,26024276,Em Resolução/Conclusão,3105,Incêndio rural,0,1,0,2,2025-09-21T17:24:00Z,Leiria,Leiria,Centro,-8.786287,39.874758,Resolução/Conclusão
26024592,Monte Redondo e Carreira,Região de Leiria,310,2025-09-21T18:44:00Z,26024592,Em Resolução/Conclusão,3105,Incêndio rural,0,1,0,2,2025-09-21T18:44:00Z,Leiria,Leiria,Centro,-8.85119,39.877718,Resolução/Conclusão
26027819,Santo André,Alto Tâmega e Barroso,309,2025-09-22T12:42:00Z,26027819,Em Curso,3103,Incêndio rural,4,48,0,164,2025-09-22T12:42:00Z,Montalegre,Vila Real,Norte,-7.688477,41.868948,Curso
26028355,Venade e Azevedo,Alto Minho,309,2025-09-22T14:25:00Z,26028355,Em Resolução/Conclusão,3103,Incêndio rural,0,5,0,17,2025-09-22T14:25:00Z,Caminha,Viana Do Castelo,Norte,-8.804983,41.854578,Resolução/Conclusão
26028773,Glória e Vera Cruz,Região de Aveiro,310,2025-09-22T15:34:00Z,26028773,Em Resolução/Conclusão,3105,Incêndio rural,0,5,0,19,2025-09-22T15:34:00Z,Aveiro,Aveiro,Centro,-8.628543,40.647307,Resolução/Conclusão
26028837,Talhadas,Região de Aveiro,310,2025-09-22T15:51:00Z,26028837,Em Resolução/Conclusão,3103,Incêndio rural,0,4,0,13,2025-09-22T15:51:00Z,Sever Do Vouga,Aveiro,Centro,-8.362617,40.654452,Resolução/Conclusão
26029073,Covões e Camarneira,Região de Coimbra,310,2025-09-22T16:42:00Z,26029073,Em Resolução/Conclusão,3103,Incêndio rural,0,7,0,24,2025-09-22T16:42:00Z,Cantanhede,Coimbra,Centro,-8.585655,40.435762,Resolução/Conclusão
26029089,Luzim e Vila Cova,Tâmega e Sousa,309,2025-09-22T16:42:00Z,26029089,Em Resolução/Conclusão,3103,Incêndio rural,0,2,0,8,2025-09-22T16:42:00Z,Penafiel,Porto,Norte,-8.237288,41.166563,Resolução/Conclusão
25832672,Piódão,Região de Coimbra,310,2025-08-13T05:08:00Z,25832672,Em Resolução/Conclusão,3103,Incêndio rural,0,0,0,0,2025-08-13T05:08:00Z,Arganil,Coimbra,Centro,-7.81972,40.23083,Resolução/Conclusão
26013902,Penacova,Região de Coimbra,310,2025-09-19T13:28:00Z,26013902,Em Resolução/Conclusão,3103,Incêndio rural,0,1,0,4,2025-09-19T13:28:00Z,Penacova,Coimbra,Centro,-8.32583,40.32722,Resolução/Conclusão
26019877,Guardão,Viseu Dão Lafões,310,2025-09-20T17:50:00Z,26019877,Em Resolução/Conclusão,3103,Incêndio rural,0,2,0,9,2025-09-20T17:50:00Z,Tondela,Viseu,Centro,-8.148484,40.610274,Resolução/Conclusão
26025073,Fátima,Médio Tejo,311,2025-09-21T21:01:00Z,26025073,Em Resolução/Conclusão,3103,Incêndio rural,0,8,0,30,2025-09-21T21:01:00Z,Ourém,Santarém,Centro,-8.65072,39.578831,Resolução/Conclusão
26027999,Monforte,Alto Alentejo,312,2025-09-22T13:19:00Z,26027999,Em Resolução/Conclusão,3105,Incêndio rural,0,21,0,59,2025-09-22T13:19:00Z,Monforte,Portalegre,Alentejo,-7.497325,38.998348,Resolução/Conclusão
26028692,Vidigueira,Baixo Alentejo,312,2025-09-22T15:20:00Z,26028692,Em Resolução/Conclusão,3105,Incêndio rural,0,4,0,17,2025-09-22T15:20:00Z,Vidigueira,Beja,Alentejo,-7.799042,38.225407,Resolução/Conclusão
26028942,"Messegães, Valadares e Sá",Alto Minho,309,2025-09-22T16:14:00Z,26028942,Em Resolução/Conclusão,3103,Incêndio rural,0,2,0,8,2025-09-22T16:14:00Z,Monção,Viana Do Castelo,Norte,-8.352652,42.085077,Resolução/Conclusão
26029008,"Tamengos, Aguim e Óis do Bairro",Região de Aveiro,310,2025-09-22T16:25:00Z,26029008,Em Resolução/Conclusão,3103,Incêndio rural,0,1,0,5,2025-09-22T16:25:00Z,Anadia,Aveiro,Centro,-8.468588,40.428423,Resolução/Conclusão
26029053,Oliveira do Douro,Tâmega e Sousa,309,2025-09-22T16:35:00Z,26029053,Em Resolução/Conclusão,3103,Incêndio rural,0,1,0,5,2025-09-22T16:35:00Z,Cinfães,Viseu,Norte,-8.025917,41.0863,Resolução/Conclusão
26029142,Almancil,Algarve,313,2025-09-22T16:58:00Z,26029142,Em Despacho,3103,Incêndio rural,1,5,0,24,2025-09-22T16:58:00Z,Loulé,Faro,Algarve,-7.999194,37.06432,Despacho
26003298,Barreiros e Cepões,Viseu Dão Lafões,310,2025-09-17T12:05:00Z,26003298,Em Resolução/Conclusão,3101,Incêndio rural,0,1,0,2,2025-09-17T12:05:00Z,Viseu,Viseu,Centro,-7.825281,40.745844,Resolução/Conclusão
26013065,Mezio e Moura Morta,Viseu Dão Lafões,310,2025-09-19T11:05:00Z,26013065,Em Resolução/Conclusão,3103,Incêndio rural,0,10,0,71,2025-09-19T11:05:00Z,Castro Daire,Viseu,Centro,-7.878187,40.98632,Resolução/Conclusão
26013919,Ervedal e Vila Franca da Beira,Região de Coimbra,310,2025-09-19T13:25:00Z,26013919,Em Resolução/Conclusão,3103,Incêndio rural,0,11,0,38,2025-09-19T13:25:00Z,Oliveira Do Hospital,Coimbra,Centro,-7.90472,40.43917,Resolução/Conclusão
26028050,Santa Clara de Louredo,Baixo Alentejo,312,2025-09-22T13:23:00Z,26028050,Em Resolução/Conclusão,3105,Incêndio rural,0,2,0,10,2025-09-22T13:23:00Z,Beja,Beja,Alentejo,-7.86959,37.982397,Resolução/Conclusão
26028055,Telões,Alto Tâmega e Barroso,309,2025-09-22T13:28:00Z,26028055,Em Resolução/Conclusão,3103,Incêndio rural,0,1,0,5,2025-09-22T13:28:00Z,Vila Pouca De Aguiar,Vila Real,Norte,-7.653002,41.441152,Resolução/Conclusão
26028091,Pelmá,Região de Leiria,310,2025-09-22T13:35:00Z,26028091,Em Resolução/Conclusão,3103,Incêndio rural,1,12,0,47,2025-09-22T13:35:00Z,Alvaiázere,Leiria,Centro,-8.455905,39.771273,Resolução/Conclusão
26028225,Aldeias e Mangualde da Serra,Beiras e Serra da Estrela,310,2025-09-22T14:00:00Z,26028225,Em Curso,3103,Incêndio rural,10,57,0,221,2025-09-22T14:00:00Z,Gouveia,Guarda,Centro,-7.605367,40.459313,Curso
26028682,Sande e São Lourenço,Tâmega e Sousa,309,2025-09-22T15:23:00Z,26028682,Em Resolução/Conclusão,3103,Incêndio rural,0,3,0,15,2025-09-22T15:23:00Z,Marco De Canaveses,Porto,Norte,-8.188262,41.112052,Resolução/Conclusão
26028709,Malveira e São Miguel de Alcainça,Grande Lisboa,311,2025-09-22T15:19:00Z,26028709,Em Resolução/Conclusão,3103,Incêndio rural,0,8,0,28,2025-09-22T15:19:00Z,Mafra,Lisboa,Área Metropolitana De Lisboa,-9.255592,38.924742,Resolução/Conclusão
26029011,"Cernache do Bonjardim, Nesperal e Palhais",Beira Baixa,310,2025-09-22T16:26:00Z,26029011,Em Resolução/Conclusão,3105,Incêndio rural,0,2,0,7,2025-09-22T16:26:00Z,Sertã,Castelo Branco,Centro,-8.199468,39.795468,Resolução/Conclusão
26013405,Barreiros e Cepões,Viseu Dão Lafões,310,2025-09-19T11:56:00Z,26013405,Em Resolução/Conclusão,3103,Incêndio rural,0,9,0,32,2025-09-19T11:56:00Z,Viseu,Viseu,Centro,-7.786007,40.76602,Resolução/Conclusão
26022995,Bordeira,Algarve,313,2025-09-21T12:21:00Z,26022995,Em Curso,3103,Incêndio rural,9,182,0,505,2025-09-21T12:21:00Z,Aljezur,Faro,Algarve,-8.825374,37.23495,Curso
26028262,Quelfes,Algarve,313,2025-09-22T14:05:00Z,26028262,Em Resolução/Conclusão,3103,Incêndio rural,0,2,0,7,2025-09-22T14:05:00Z,Olhão,Faro,Algarve,-7.841743,37.040328,Resolução/Conclusão
26029064,Luzianes-Gare,Alentejo Litoral,312,2025-09-22T16:40:00Z,26029064,Em Curso,3103,Incêndio rural,1,26,0,99,2025-09-22T16:40:00Z,Odemira,Beja,Alentejo,-8.486433,37.59167,Curso
26029080,"S.maria, S.miguel, S.martinho, S.pedro Penaferrim",Grande Lisboa,311,2025-09-22T16:43:00Z,26029080,Em Curso,3103,Incêndio rural,1,18,0,63,2025-09-22T16:43:00Z,Sintra,Lisboa,Área Metropolitana De Lisboa,-9.35299,38.779773,Curso
26029131,Gandra,Area M. Porto,309,2025-09-22T16:56:00Z,26029131,Em Resolução/Conclusão,3103,Incêndio rural,1,2,0,16,2025-09-22T16:56:00Z,Paredes,Porto,Norte,-8.44702,41.19158,Resolução/Conclusão
