id,address,subregion,neighborhood,date,id.1,state,nature,nature_description,aerial_means,terrestrial_means,aquatic_means,operational,date.1,Concelho,Distrito,NUTII_DSG,longitude,latitude
25060571,Maiorga,Oeste,311,2025-03-09T07:32:00Z,25060571,Em resolução,3313,Deslizamento de terras,0,2,0,3,2025-03-09T07:32:00Z,Alcobaça,Leiria,Centro,-8.98044,39.56966
25060765,Ramada e Caneças,Grande Lisboa,311,2025-03-09T08:41:00Z,25060765,Em despacho,3301,Queda de árvore,0,0,0,0,2025-03-09T08:41:00Z,Odivelas,Lisboa,Área Metropolitana De Lisboa,-9.22736,38.8249
25057015,Santa Maria do Castelo e Santiago e Santa Susana,Alentejo Litoral,312,2025-03-08T10:20:00Z,25057015,Em curso,1101,Cheia,0,2,0,3,2025-03-08T10:20:00Z,Alcácer Do Sal,Setúbal,Alentejo,-8.432801,38.398147
25060452,Torrão,Alentejo Litoral,312,2025-03-09T06:05:00Z,25060452,Em resolução,3301,Queda de árvore,0,7,0,12,2025-03-09T06:05:00Z,Alcácer Do Sal,Setúbal,Alentejo,-8.220052,38.272115
25060750,Envendos,Médio Tejo,311,2025-03-09T08:35:00Z,25060750,Em despacho,3301,Queda de árvore,0,0,0,0,2025-03-09T08:35:00Z,Mação,Santarém,Centro,-7.86844,39.6028
