id,address,subregion,neighborhood,date,id.1,state,nature,nature_description,aerial_means,terrestrial_means,aquatic_means,operational,date.1,Concelho,Distrito,NUTII_DSG,longitude,latitude
25175061,Colmeias e Memória,Região de Leiria,310,2025-03-31T12:28:00Z,25175061,Em despacho,3321,Dano na rede de fornecimento de eletricidade ,0,1,0,1,2025-03-31T12:28:00Z,Leiria,Leiria,Centro,-8.671536,39.819213
25068300,Almeirim,Lezíria do Tejo,311,2025-03-10T20:52:00Z,25068300,Em curso,1101,Cheia,0,0,0,0,2025-03-10T20:52:00Z,Almeirim,Santarém,Alentejo,-8.635002,39.187436
25115378,Encarnação,Grande Lisboa,311,2025-03-20T01:15:00Z,25115378,Em despacho,3321,Dano na rede de fornecimento de eletricidade ,0,1,0,5,2025-03-20T01:15:00Z,Mafra,Lisboa,Área Metropolitana De Lisboa,-9.382674,39.035843
25174186,Sátão,Viseu Dão Lafões,310,2025-03-31T10:00:00Z,25174186,Em despacho,3301,Queda de árvore,0,1,0,1,2025-03-31T10:00:00Z,Sátão,Viseu,Centro,-7.74005,40.742885
25174506,Famalicão,Oeste,311,2025-03-31T10:52:00Z,25174506,Em conclusão,3301,Queda de árvore,0,2,0,4,2025-03-31T10:52:00Z,Nazaré,Leiria,Centro,-9.078055,39.568935
25070044,Praia do Ribatejo,Médio Tejo,311,2025-03-10T19:30:00Z,25070044,Em curso,1101,Cheia,0,0,0,0,2025-03-10T19:30:00Z,Vila Nova Da Barquinha,Santarém,Centro,-8.357309,39.485638
25071496,São Manços e São Vicente do Pigeiro,Alentejo Central,312,2025-03-11T13:18:00Z,25071496,Em conclusão,1101,Cheia,0,0,0,0,2025-03-11T13:18:00Z,Évora,Évora,Alentejo,-7.713313,38.513673
25137544,Dois Portos e Runa,Oeste,311,2025-03-23T13:41:00Z,25137544,Em conclusão,3313,Deslizamento de terras,0,0,0,0,2025-03-23T13:41:00Z,Torres Vedras,Lisboa,Centro,-9.178343,39.036686
