id,address,subregion,neighborhood,date,id.1,state,nature,nature_description,aerial_means,terrestrial_means,aquatic_means,operational,date.1,Concelho,Distrito,NUTII_DSG,longitude,latitude
24851780,"São Miguel, Santa Eufémia e Rabaçal",Região de Coimbra,310,2025-01-21T23:25:00Z,24851780,Em curso,3315,Inundação de estruturas por precipitação intensa,0,0,0,0,2025-01-21T23:25:00Z,Penela,Coimbra,Centro,-8.399036,40.025502
24886021,Lamas e Cercal,Oeste,311,2025-01-29T09:39:00Z,24886021,Em resolução,3321,Dano na rede de fornecimento de eletricidade ,0,2,0,4,2025-01-29T09:39:00Z,Cadaval,Lisboa,Centro,-8.99533,39.21899
24886140,Castanheira de Pêra e Coentral,Região de Leiria,310,2025-01-29T09:54:00Z,24886140,Em despacho,3301,Queda de árvore,0,1,0,2,2025-01-29T09:54:00Z,Castanheira De Pêra,Leiria,Centro,-8.196364,40.017687
24886258,Barcarena,Grande Lisboa,311,2025-01-29T10:13:00Z,24886258,Em curso,3311,Queda de elementos de estruturas edificados,0,2,0,4,2025-01-29T10:13:00Z,Oeiras,Lisboa,Área Metropolitana De Lisboa,-9.277392,38.733987
24886275,Canidelo,Area M. Porto,309,2025-01-29T10:00:00Z,24886275,Em despacho,3301,Queda de árvore,0,1,0,5,2025-01-29T10:00:00Z,Vila Nova De Gaia,Porto,Norte,-8.647622,41.133197
24886373,Arganil,Região de Coimbra,310,2025-01-29T10:27:00Z,24886373,Em despacho,3301,Queda de árvore,0,1,0,3,2025-01-29T10:27:00Z,Arganil,Coimbra,Centro,-8.069689,40.205912
24886506,"Nossa Senhora da Conceição, São Pedro e São Dinis",Douro,309,2025-01-29T10:45:00Z,24886506,Em despacho,3311,Queda de elementos de estruturas edificados,0,1,0,1,2025-01-29T10:45:00Z,Vila Real,Vila Real,Norte,-7.744039,41.314067
24886509,Louredo e Fornelos,Douro,309,2025-01-29T10:54:00Z,24886509,Em despacho,3301,Queda de árvore,0,1,0,2,2025-01-29T10:54:00Z,Santa Marta De Penaguião,Vila Real,Norte,-7.812212,41.247361
24886523,Sesimbra (Castelo),Península de Setúbal,311,2025-01-29T10:48:00Z,24886523,Em despacho,3321,Dano na rede de fornecimento de eletricidade ,0,1,0,4,2025-01-29T10:48:00Z,Sesimbra,Setúbal,Área Metropolitana De Lisboa,-9.179861,38.512406
24886624,"Póvoa de Varzim, Beiriz e Argivai",Area M. Porto,309,2025-01-29T11:06:00Z,24886624,Em despacho,3301,Queda de árvore,0,1,0,2,2025-01-29T11:06:00Z,Póvoa De Varzim,Porto,Norte,-8.741711,41.385553
24877003,Malagueira e Horta Das Figueiras,Alentejo Central,312,2025-01-27T11:41:00Z,24877003,Em conclusão,3315,Inundação de estruturas por precipitação intensa,0,0,0,0,2025-01-27T11:41:00Z,Évora,Évora,Alentejo,-7.924277,38.57285
24885816,Paranhos,Area M. Porto,309,2025-01-29T08:54:00Z,24885816,Em despacho,3311,Queda de elementos de estruturas edificados,0,1,0,3,2025-01-29T08:54:00Z,Porto,Porto,Norte,-8.607437,41.17569
24886059,Santo André,Alentejo Litoral,312,2025-01-29T09:39:00Z,24886059,Em curso,3301,Queda de árvore,0,2,0,5,2025-01-29T09:39:00Z,Santiago Do Cacém,Setúbal,Alentejo,-8.751748,38.054211
24886261,Rio Tinto,Area M. Porto,309,2025-01-29T10:17:00Z,24886261,Em despacho,3321,Dano na rede de fornecimento de eletricidade ,0,1,0,1,2025-01-29T10:17:00Z,Gondomar,Porto,Norte,-8.55251,41.17102
24886361,Lourinhã e Atalaia,Oeste,311,2025-01-29T10:32:00Z,24886361,Em despacho,3315,Inundação de estruturas por precipitação intensa,0,2,0,4,2025-01-29T10:32:00Z,Lourinhã,Lisboa,Centro,-9.281329,39.263577
24886386,Buarcos,Região de Coimbra,310,2025-01-29T10:33:00Z,24886386,Em despacho,3315,Inundação de estruturas por precipitação intensa,0,1,0,5,2025-01-29T10:33:00Z,Figueira Da Foz,Coimbra,Centro,-8.880897,40.168384
24886404,Poiares (Santo André),Região de Coimbra,310,2025-01-29T10:26:00Z,24886404,Em despacho,3315,Inundação de estruturas por precipitação intensa,0,1,0,2,2025-01-29T10:26:00Z,Vila Nova De Poiares,Coimbra,Centro,-8.256455,40.211265
24885596,Matosinhos e Leça da Palmeira,Area M. Porto,309,2025-01-29T08:18:00Z,24885596,Em conclusão,3311,Queda de elementos de estruturas edificados,0,2,0,5,2025-01-29T08:18:00Z,Matosinhos,Porto,Norte,-8.67979,41.17901
24886181,Rendufinho,Ave,309,2025-01-29T09:55:00Z,24886181,Em despacho,3315,Inundação de estruturas por precipitação intensa,0,1,0,2,2025-01-29T09:55:00Z,Póvoa De Lanhoso,Braga,Norte,-8.264356,41.616025
24886183,Buarcos,Região de Coimbra,310,2025-01-29T09:58:00Z,24886183,Em despacho,3315,Inundação de estruturas por precipitação intensa,0,1,0,2,2025-01-29T09:58:00Z,Figueira Da Foz,Coimbra,Centro,-8.880897,40.168384
24886263,"O. Azeméis, Riba-Ul, Ul, Macinhata Seixa, Madail",Area M. Porto,309,2025-01-29T10:17:00Z,24886263,Em despacho,3329,Queda de estruturas temporárias ou móveis,0,1,0,2,2025-01-29T10:17:00Z,Oliveira De Azeméis,Aveiro,Norte,-8.481537,40.83287
24886300,"Sé, Santa Maria e Meixedo",Terras de Trás-os-Montes,309,2025-01-29T10:22:00Z,24886300,Em despacho,3315,Inundação de estruturas por precipitação intensa,0,1,0,2,2025-01-29T10:22:00Z,Bragança,Bragança,Norte,-6.76349,41.81617
24886350,Junqueira,Area M. Porto,309,2025-01-29T10:20:00Z,24886350,Em resolução,3301,Queda de árvore,0,1,0,2,2025-01-29T10:20:00Z,Vale De Cambra,Aveiro,Norte,-8.335001,40.802871
24886364,Peso da Régua e Godim,Douro,309,2025-01-29T10:27:00Z,24886364,Em despacho,3315,Inundação de estruturas por precipitação intensa,0,1,0,2,2025-01-29T10:27:00Z,Peso Da Régua,Vila Real,Norte,-7.799499,41.166288
24885494,Vila Cova e Feitos,Cávado,309,2025-01-29T07:44:00Z,24885494,Em conclusão,3301,Queda de árvore,0,1,0,2,2025-01-29T07:44:00Z,Barcelos,Braga,Norte,-8.688002,41.573305
24885769,Gulpilhares e Valadares,Area M. Porto,309,2025-01-29T08:29:00Z,24885769,Em despacho,3315,Inundação de estruturas por precipitação intensa,0,1,0,2,2025-01-29T08:29:00Z,Vila Nova De Gaia,Porto,Norte,-8.637978,41.084091
24885810,Mozelos,Area M. Porto,309,2025-01-29T08:54:00Z,24885810,Em resolução,3301,Queda de árvore,0,1,0,2,2025-01-29T08:54:00Z,Santa Maria Da Feira,Aveiro,Norte,-8.56526,40.997101
24886201,Lourinhã e Atalaia,Oeste,311,2025-01-29T09:30:00Z,24886201,Em conclusão,3315,Inundação de estruturas por precipitação intensa,0,1,0,1,2025-01-29T09:30:00Z,Lourinhã,Lisboa,Centro,-9.311131,39.244365
24886287,Cardigos,Médio Tejo,311,2025-01-29T10:21:00Z,24886287,Em despacho,3301,Queda de árvore,0,2,0,3,2025-01-29T10:21:00Z,Mação,Santarém,Centro,-7.976818,39.723094
24886419,Santa Clara e Castelo Viegas,Região de Coimbra,310,2025-01-29T10:33:00Z,24886419,Em conclusão,3315,Inundação de estruturas por precipitação intensa,0,1,0,2,2025-01-29T10:33:00Z,Coimbra,Coimbra,Centro,-8.437323,40.204625
24886572,Santo António Dos Olivais,Região de Coimbra,310,2025-01-29T10:40:00Z,24886572,Em despacho,3329,Queda de estruturas temporárias ou móveis,0,2,0,7,2025-01-29T10:40:00Z,Coimbra,Coimbra,Centro,-8.403315,40.218219
24886577,Alhadas,Região de Coimbra,310,2025-01-29T11:04:00Z,24886577,Em despacho,3315,Inundação de estruturas por precipitação intensa,0,1,0,3,2025-01-29T11:04:00Z,Figueira Da Foz,Coimbra,Centro,-8.791713,40.171628
24886622,Roliça,Oeste,311,2025-01-29T11:09:00Z,24886622,Em curso,3311,Queda de elementos de estruturas edificados,0,3,0,5,2025-01-29T11:09:00Z,Bombarral,Leiria,Centro,-9.19011,39.284257
24886645,"São Miguel, Santa Eufémia e Rabaçal",Região de Coimbra,310,2025-01-29T11:00:00Z,24886645,Em despacho,3315,Inundação de estruturas por precipitação intensa,0,1,0,2,2025-01-29T11:00:00Z,Penela,Coimbra,Centro,-8.343999,40.032821
24886686,Barcos e Santa Leocádia,Douro,309,2025-01-29T11:14:00Z,24886686,Em despacho,3301,Queda de árvore,0,1,0,2,2025-01-29T11:14:00Z,Tabuaço,Viseu,Norte,-7.627048,41.124241
24886400,"Sandim, Olival, Lever e Crestuma",Area M. Porto,309,2025-01-29T10:29:00Z,24886400,Em despacho,3329,Queda de estruturas temporárias ou móveis,0,1,0,2,2025-01-29T10:29:00Z,Vila Nova De Gaia,Porto,Norte,-8.485122,41.033861
24886416,Lamas,Região de Coimbra,310,2025-01-29T10:35:00Z,24886416,Em curso,3315,Inundação de estruturas por precipitação intensa,0,0,0,0,2025-01-29T10:35:00Z,Miranda Do Corvo,Coimbra,Centro,-8.38289,40.094885
24886417,Abitureiras,Lezíria do Tejo,311,2025-01-29T10:40:00Z,24886417,Em conclusão,3313,Deslizamento de terras,0,1,0,1,2025-01-29T10:40:00Z,Santarém,Santarém,Alentejo,-8.767135,39.323093
24886466,Fazendas de Almeirim,Lezíria do Tejo,311,2025-01-29T10:48:00Z,24886466,Em conclusão,3301,Queda de árvore,0,1,0,3,2025-01-29T10:48:00Z,Almeirim,Santarém,Alentejo,-8.515938,39.13801
24886498,"Oeiras e S. Julião da Barra, Paço de Arcos e Caxias",Grande Lisboa,311,2025-01-29T10:39:00Z,24886498,Em despacho,3301,Queda de árvore,0,1,0,4,2025-01-29T10:39:00Z,Oeiras,Lisboa,Área Metropolitana De Lisboa,-9.310159,38.698531
24886633,Lamas,Região de Coimbra,310,2025-01-29T11:00:00Z,24886633,Em despacho,3313,Deslizamento de terras,0,1,0,2,2025-01-29T11:00:00Z,Miranda Do Corvo,Coimbra,Centro,-8.365291,40.09222
24886668,Viseu,Viseu Dão Lafões,310,2025-01-29T11:17:00Z,24886668,Em despacho,3313,Deslizamento de terras,0,1,0,2,2025-01-29T11:17:00Z,Viseu,Viseu,Centro,-7.908451,40.659587
24886682,Quiaios,Região de Coimbra,310,2025-01-29T11:19:00Z,24886682,Em despacho,3315,Inundação de estruturas por precipitação intensa,0,1,0,3,2025-01-29T11:19:00Z,Figueira Da Foz,Coimbra,Centro,-8.853222,40.215389
24886476,Valongo,Area M. Porto,309,2025-01-29T10:51:00Z,24886476,Em despacho,3301,Queda de árvore,0,1,0,4,2025-01-29T10:51:00Z,Valongo,Porto,Norte,-8.485,41.18446
24886562,Cunha,Douro,309,2025-01-29T11:00:00Z,24886562,Em despacho,3301,Queda de árvore,0,1,0,3,2025-01-29T11:00:00Z,Sernancelhe,Viseu,Norte,-7.453734,40.83971
24886635,Buarcos,Região de Coimbra,310,2025-01-29T11:08:00Z,24886635,Em despacho,3315,Inundação de estruturas por precipitação intensa,0,1,0,2,2025-01-29T11:08:00Z,Figueira Da Foz,Coimbra,Centro,-8.880897,40.168384
