id,address,subregion,neighborhood,date,id.1,state,nature,nature_description,aerial_means,terrestrial_means,aquatic_means,operational,date.1,Concelho,Distrito,NUTII_DSG,longitude,latitude,state_2
25938822,Alcabideche,Grande Lisboa,311,2025-09-03T16:20:00Z,25938822,Em Resolução/Conclusão,3103,Incêndio rural,0,11,0,35,2025-09-03T16:20:00Z,Cascais,Lisboa,Área Metropolitana De Lisboa,-9.40105,38.723943,Resolução/Conclusão
25939181,Vandoma,Area M. Porto,309,2025-09-03T17:44:00Z,25939181,Em Resolução/Conclusão,3103,Incêndio rural,0,1,0,5,2025-09-03T17:44:00Z,Paredes,Porto,Norte,-8.387109,41.211506,Resolução/Conclusão
25939213,"Sandim, Olival, Lever e Crestuma",Area M. Porto,309,2025-09-03T17:47:00Z,25939213,Em Resolução/Conclusão,3103,Incêndio rural,0,1,0,5,2025-09-03T17:47:00Z,Vila Nova De Gaia,Porto,Norte,-8.502382,41.048753,Resolução/Conclusão
25938415,Lagares,Região de Coimbra,310,2025-09-03T14:57:00Z,25938415,Em Resolução/Conclusão,3101,Incêndio rural,0,21,0,88,2025-09-03T14:57:00Z,Oliveira Do Hospital,Coimbra,Centro,-7.84333,40.39694,Resolução/Conclusão
25938614,Santo Quintino,Oeste,311,2025-09-03T15:29:00Z,25938614,Em Resolução/Conclusão,3101,Incêndio rural,0,18,0,66,2025-09-03T15:29:00Z,Sobral De Monte Agraço,Lisboa,Centro,-9.14746,39.002633,Resolução/Conclusão
25939301,Amedo e Zedes,Douro,309,2025-09-03T18:11:00Z,25939301,Em Despacho,3103,Incêndio rural,1,2,0,13,2025-09-03T18:11:00Z,Carrazeda De Ansiães,Bragança,Norte,-7.31402,41.24752,Despacho
25939302,Amedo e Zedes,Douro,309,2025-09-03T18:11:00Z,25939302,Em Despacho,3103,Incêndio rural,0,0,0,0,2025-09-03T18:11:00Z,Carrazeda De Ansiães,Bragança,Norte,-7.315651,41.24918,Despacho
25938856,"Lebução, Fiães e Nozelos",Alto Tâmega e Barroso,309,2025-09-03T16:26:00Z,25938856,Em Resolução/Conclusão,3103,Incêndio rural,4,12,0,59,2025-09-03T16:26:00Z,Valpaços,Vila Real,Norte,-7.231003,41.763182,Resolução/Conclusão
25939224,Alhos Vedros,Península de Setúbal,311,2025-09-03T17:49:00Z,25939224,Em Resolução/Conclusão,3103,Incêndio rural,0,6,0,22,2025-09-03T17:49:00Z,Moita,Setúbal,Área Metropolitana De Lisboa,-9.02711,38.650328,Resolução/Conclusão
25832672,Piódão,Região de Coimbra,310,2025-08-13T05:08:00Z,25832672,Em Resolução/Conclusão,3103,Incêndio rural,0,17,0,47,2025-08-13T05:08:00Z,Arganil,Coimbra,Centro,-7.81972,40.23083,Resolução/Conclusão
25840417,Lousã e Vilarinho,Região de Coimbra,310,2025-08-14T13:46:00Z,25840417,Em Resolução/Conclusão,3101,Incêndio rural,0,2,0,6,2025-08-14T13:46:00Z,Lousã,Coimbra,Centro,-8.201561,40.080016,Resolução/Conclusão
25935529,Vermoil,Região de Leiria,310,2025-09-02T22:56:00Z,25935529,Em Resolução/Conclusão,3101,Incêndio rural,0,3,0,7,2025-09-02T22:56:00Z,Pombal,Leiria,Centro,-8.673463,39.83745,Resolução/Conclusão
25938058,Agrochão,Terras de Trás-os-Montes,309,2025-09-03T13:54:00Z,25938058,Em Resolução/Conclusão,3103,Incêndio rural,0,19,0,60,2025-09-03T13:54:00Z,Vinhais,Bragança,Norte,-7.004555,41.71601,Resolução/Conclusão
25939087,Alfundão e Peroguarda,Baixo Alentejo,312,2025-09-03T17:22:00Z,25939087,Em Resolução/Conclusão,3105,Incêndio rural,0,9,0,26,2025-09-03T17:22:00Z,Ferreira Do Alentejo,Beja,Alentejo,-8.057928,38.060773,Resolução/Conclusão
