id,address,subregion,neighborhood,date,id.1,state,nature,nature_description,aerial_means,terrestrial_means,aquatic_means,operational,date.1,Concelho,Distrito,NUTII_DSG,longitude,latitude,state_2
26234973,Porto Covo,Alentejo Litoral,312,2025-11-04T13:36:00Z,26234973,Em Resolução/Conclusão,3103,Incêndio rural,0,9,0,21,2025-11-04T13:36:00Z,Sines,Setúbal,Alentejo,-8.785338,37.854615,Resolução/Conclusão
26235659,Aljustrel e Rio de Moinhos,Baixo Alentejo,312,2025-11-04T15:45:00Z,26235659,Em Resolução/Conclusão,3105,Incêndio rural,0,7,0,18,2025-11-04T15:45:00Z,Aljustrel,Beja,Alentejo,-8.101735,37.842255,Resolução/Conclusão
26236142,Brinches,Baixo Alentejo,312,2025-11-04T17:24:00Z,26236142,Em Despacho,3105,Incêndio rural,0,2,0,7,2025-11-04T17:24:00Z,Serpa,Beja,Alentejo,-7.604525,38.039347,Despacho
26235205,Vila Nova de São Bento e Vale de Vargo,Baixo Alentejo,312,2025-11-04T14:21:00Z,26235205,Em Resolução/Conclusão,3103,Incêndio rural,0,13,0,39,2025-11-04T14:21:00Z,Serpa,Beja,Alentejo,-7.46429,37.905592,Resolução/Conclusão
26236165,Avanca,Região de Aveiro,310,2025-11-04T17:34:00Z,26236165,Em Despacho,3111,Queima,0,1,0,2,2025-11-04T17:34:00Z,Estarreja,Aveiro,Centro,-8.575154,40.804832,Despacho
