id,address,subregion,neighborhood,date,id.1,state,nature,nature_description,aerial_means,terrestrial_means,aquatic_means,operational,date.1,Concelho,Distrito,NUTII_DSG,longitude,latitude
25327123,Peniche,Oeste,311,2025-05-04T12:52:00Z,25327123,Em despacho,3321,Dano na rede de fornecimento de eletricidade ,0,1,0,5,2025-05-04T12:52:00Z,Peniche,Leiria,Centro,-9.38316,39.3547
25071496,São Manços e São Vicente do Pigeiro,Alentejo Central,312,2025-03-11T13:18:00Z,25071496,Em conclusão,1101,Cheia,0,0,0,0,2025-03-11T13:18:00Z,Évora,Évora,Alentejo,-7.713313,38.513673
25318424,Nossa Senhora da Graça Dos Degolados,Alto Alentejo,312,2025-05-02T13:10:00Z,25318424,Em conclusão,1103,Vento forte,0,0,0,0,2025-05-02T13:10:00Z,Campo Maior,Portalegre,Alentejo,-7.12147,39.062622
25326344,"Ovar, São João, Arada e São Vicente de Pereira Jusã",Região de Aveiro,310,2025-05-04T09:44:00Z,25326344,Em despacho,3315,Inundação de estruturas por precipitação intensa,0,1,0,3,2025-05-04T09:44:00Z,Ovar,Aveiro,Centro,-8.632482,40.864029
25316776,Guarda,Beiras e Serra da Estrela,310,2025-05-02T07:17:00Z,25316776,Em conclusão,3311,Queda de elementos de estruturas edificados,0,0,0,0,2025-05-02T07:17:00Z,Guarda,Guarda,Centro,-7.269039,40.539292
25326207,Monte Redondo e Carreira,Região de Leiria,310,2025-05-04T09:15:00Z,25326207,Em resolução,3315,Inundação de estruturas por precipitação intensa,0,2,0,4,2025-05-04T09:15:00Z,Leiria,Leiria,Centro,-8.837307,39.893268
25326760,Mafamude e Vilar do Paraíso,Area M. Porto,309,2025-05-04T11:21:00Z,25326760,Em despacho,3315,Inundação de estruturas por precipitação intensa,0,1,0,4,2025-05-04T11:21:00Z,Vila Nova De Gaia,Porto,Norte,-8.611105,41.107184
