id,address,subregion,neighborhood,date,id.1,state,nature,nature_description,aerial_means,terrestrial_means,aquatic_means,operational,date.1,Concelho,Distrito,NUTII_DSG,longitude,latitude
24699387,Garfe,Ave,309,2024-12-18T23:57:00Z,24699387,Em despacho,3313,Deslizamento de terras,0,2,0,4,2024-12-18T23:57:00Z,Póvoa De Lanhoso,Braga,Norte,-8.24488,41.534461
24699389,Azurém,Ave,309,2024-12-18T23:49:00Z,24699389,Em despacho,3315,Inundação de estruturas por precipitação intensa,0,1,0,2,2024-12-18T23:49:00Z,Guimarães,Braga,Norte,-8.291869,41.454999
24699277,Lomar e Arcos,Cávado,309,2024-12-18T23:06:00Z,24699277,Em despacho,3313,Deslizamento de terras,0,2,0,5,2024-12-18T23:06:00Z,Braga,Braga,Norte,-8.426325,41.532399
24699326,Joane,Ave,309,2024-12-18T23:27:00Z,24699326,Em despacho,3315,Inundação de estruturas por precipitação intensa,0,1,0,2,2024-12-18T23:27:00Z,Vila Nova De Famalicão,Braga,Norte,-8.42359,41.44215
24699362,Arões (São Romão),Ave,309,2024-12-18T23:48:00Z,24699362,Em despacho,3315,Inundação de estruturas por precipitação intensa,0,1,0,3,2024-12-18T23:48:00Z,Fafe,Braga,Norte,-8.2205,41.46587
