id,address,subregion,neighborhood,date,id.1,state,nature,nature_description,aerial_means,terrestrial_means,aquatic_means,operational,date.1,Concelho,Distrito,NUTII_DSG,longitude,latitude
25064774,Aljezur,Algarve,313,2025-03-10T08:41:00Z,25064774,Em curso,3301,Queda de árvore,0,1,0,4,2025-03-10T08:41:00Z,Aljezur,Faro,Algarve,-8.803144,37.313343
25064801,Mira,Região de Coimbra,310,2025-03-10T08:34:00Z,25064801,Em despacho,3315,Inundação de estruturas por precipitação intensa,0,1,0,1,2025-03-10T08:34:00Z,Mira,Coimbra,Centro,-8.734102,40.4268
25065403,Marmelete,Algarve,313,2025-03-10T10:26:00Z,25065403,Em despacho,3313,Deslizamento de terras,0,1,0,2,2025-03-10T10:26:00Z,Monchique,Faro,Algarve,-8.697881,37.26614
25065460,Sado,Península de Setúbal,311,2025-03-10T10:41:00Z,25065460,Em despacho,3301,Queda de árvore,0,1,0,5,2025-03-10T10:41:00Z,Setúbal,Setúbal,Área Metropolitana De Lisboa,-8.830049,38.498799
25065880,"Almargem do Bispo, Pêro Pinheiro e Montelavar",Grande Lisboa,311,2025-03-10T11:31:00Z,25065880,Em resolução,3315,Inundação de estruturas por precipitação intensa,0,1,0,2,2025-03-10T11:31:00Z,Sintra,Lisboa,Área Metropolitana De Lisboa,-9.335912,38.863107
25065928,Sé e São Lourenço,Alto Alentejo,312,2025-03-10T12:15:00Z,25065928,Em curso,3309,Desabamento de estruturas edificadas,0,2,0,7,2025-03-10T12:15:00Z,Portalegre,Portalegre,Alentejo,-7.4066090000000004,39.288378
25065953,Sé e São Lourenço,Alto Alentejo,312,2025-03-10T12:21:00Z,25065953,Em curso,3301,Queda de árvore,0,3,0,5,2025-03-10T12:21:00Z,Portalegre,Portalegre,Alentejo,-7.405434,39.281244
25066387,Salvaterra de Magos e Foros de Salvaterra,Lezíria do Tejo,311,2025-03-10T13:53:00Z,25066387,Em despacho,3315,Inundação de estruturas por precipitação intensa,0,1,0,5,2025-03-10T13:53:00Z,Salvaterra De Magos,Santarém,Alentejo,-8.73342,39.006483
25059714,Torrão,Alentejo Litoral,312,2025-03-08T22:10:00Z,25059714,Em curso,1101,Cheia,0,1,0,2,2025-03-08T22:10:00Z,Alcácer Do Sal,Setúbal,Alentejo,-8.359133,38.252053
25065700,São Salvador e Santa Maria,Alentejo Litoral,312,2025-03-10T09:00:00Z,25065700,Em curso,3313,Deslizamento de terras,0,2,0,3,2025-03-10T09:00:00Z,Odemira,Beja,Alentejo,-8.643495,37.596661
25066100,Carvoeira,Grande Lisboa,311,2025-03-10T12:45:00Z,25066100,Em despacho,3315,Inundação de estruturas por precipitação intensa,0,1,0,3,2025-03-10T12:45:00Z,Mafra,Lisboa,Área Metropolitana De Lisboa,-9.39494,38.94355
25066234,Raposa,Lezíria do Tejo,311,2025-03-10T13:18:00Z,25066234,Em resolução,3309,Desabamento de estruturas edificadas,0,2,0,6,2025-03-10T13:18:00Z,Almeirim,Santarém,Alentejo,-8.578105,39.109608
25066266,Alpalhão,Alto Alentejo,312,2025-03-10T13:23:00Z,25066266,Em resolução,3315,Inundação de estruturas por precipitação intensa,0,2,0,6,2025-03-10T13:23:00Z,Nisa,Portalegre,Alentejo,-7.620867,39.416727
25066332,Sé e São Lourenço,Alto Alentejo,312,2025-03-10T12:15:00Z,25066332,Em curso,1103,Vento forte,0,0,0,0,2025-03-10T12:15:00Z,Portalegre,Portalegre,Alentejo,-7.405184,39.288527
25066334,Azeitão (São Lourenço e São Simão),Península de Setúbal,311,2025-03-10T13:39:00Z,25066334,Em despacho,3301,Queda de árvore,0,1,0,5,2025-03-10T13:39:00Z,Setúbal,Setúbal,Área Metropolitana De Lisboa,-9.04265,38.541479
25063232,Santa Maria do Castelo e Santiago e Santa Susana,Alentejo Litoral,312,2025-03-09T19:02:00Z,25063232,Em curso,1101,Cheia,0,1,0,1,2025-03-09T19:02:00Z,Alcácer Do Sal,Setúbal,Alentejo,-8.48167,38.29806
25064922,Arruda Dos Vinhos,Oeste,311,2025-03-10T09:03:00Z,25064922,Em curso,3315,Inundação de estruturas por precipitação intensa,0,1,0,1,2025-03-10T09:03:00Z,Arruda Dos Vinhos,Lisboa,Centro,-9.098654,39.001645
25065657,Gavião e Atalaia,Alto Alentejo,312,2025-03-10T11:23:00Z,25065657,Em curso,3309,Desabamento de estruturas edificadas,0,3,0,5,2025-03-10T11:23:00Z,Gavião,Portalegre,Alentejo,-7.950913,39.428242
25065842,Almeirim,Lezíria do Tejo,311,2025-03-10T11:57:00Z,25065842,Em resolução,3315,Inundação de estruturas por precipitação intensa,0,0,0,0,2025-03-10T11:57:00Z,Almeirim,Santarém,Alentejo,-8.588832,39.142251
25065874,Maceira,Região de Leiria,310,2025-03-10T11:57:00Z,25065874,Em curso,3315,Inundação de estruturas por precipitação intensa,0,2,0,4,2025-03-10T11:57:00Z,Leiria,Leiria,Centro,-8.916737,39.710638
25066057,Agualva e Mira-Sintra,Grande Lisboa,311,2025-03-10T12:22:00Z,25066057,Em despacho,3301,Queda de árvore,0,1,0,5,2025-03-10T12:22:00Z,Sintra,Lisboa,Área Metropolitana De Lisboa,-9.297451,38.765315
25066125,Amora,Península de Setúbal,311,2025-03-10T11:40:00Z,25066125,Em despacho,3301,Queda de árvore,0,1,0,3,2025-03-10T11:40:00Z,Seixal,Setúbal,Área Metropolitana De Lisboa,-9.137467,38.596552
25063971,Salir,Algarve,313,2025-03-09T23:45:00Z,25063971,Em resolução,3313,Deslizamento de terras,0,3,0,3,2025-03-09T23:45:00Z,Loulé,Faro,Algarve,-7.945758,37.230723
25065325,Odeceixe,Algarve,313,2025-03-10T10:09:00Z,25065325,Em curso,3301,Queda de árvore,0,1,0,4,2025-03-10T10:09:00Z,Aljezur,Faro,Algarve,-8.742576,37.399882
25065720,Gavião e Atalaia,Alto Alentejo,312,2025-03-10T11:35:00Z,25065720,Em despacho,3313,Deslizamento de terras,0,0,0,0,2025-03-10T11:35:00Z,Gavião,Portalegre,Alentejo,-7.960047,39.430351
25066004,Salvaterra de Magos e Foros de Salvaterra,Lezíria do Tejo,311,2025-03-10T12:31:00Z,25066004,Em curso,3315,Inundação de estruturas por precipitação intensa,0,2,0,3,2025-03-10T12:31:00Z,Salvaterra De Magos,Santarém,Alentejo,-8.790194,39.028695
25066104,Guarda,Beiras e Serra da Estrela,310,2025-03-10T12:54:00Z,25066104,Em despacho,3315,Inundação de estruturas por precipitação intensa,0,1,0,3,2025-03-10T12:54:00Z,Guarda,Guarda,Centro,-7.260869,40.536751
25066213,Venda do Pinheiro e Santo Estêvão Das Galés,Grande Lisboa,311,2025-03-10T13:02:00Z,25066213,Em conclusão,3311,Queda de elementos de estruturas edificados,0,2,0,6,2025-03-10T13:02:00Z,Mafra,Lisboa,Área Metropolitana De Lisboa,-9.208921,38.921996
25066351,"Almargem do Bispo, Pêro Pinheiro e Montelavar",Grande Lisboa,311,2025-03-10T13:44:00Z,25066351,Em despacho,3301,Queda de árvore,0,1,0,4,2025-03-10T13:44:00Z,Sintra,Lisboa,Área Metropolitana De Lisboa,-9.335912,38.863107
25066365,Reguengo e São Julião,Alto Alentejo,312,2025-03-10T13:47:00Z,25066365,Em resolução,3301,Queda de árvore,0,2,0,7,2025-03-10T13:47:00Z,Portalegre,Portalegre,Alentejo,-7.40139,39.30139
25066126,Sé e São Lourenço,Alto Alentejo,312,2025-03-10T12:30:00Z,25066126,Em conclusão,3301,Queda de árvore,0,3,0,10,2025-03-10T12:30:00Z,Portalegre,Portalegre,Alentejo,-7.4259829999999996,39.295933
25066158,Alcabideche,Grande Lisboa,311,2025-03-10T13:02:00Z,25066158,Em despacho,3301,Queda de árvore,0,1,0,4,2025-03-10T13:02:00Z,Cascais,Lisboa,Área Metropolitana De Lisboa,-9.418781,38.730714
25066191,Marinhais,Lezíria do Tejo,311,2025-03-10T13:10:00Z,25066191,Em resolução,3315,Inundação de estruturas por precipitação intensa,0,1,0,5,2025-03-10T13:10:00Z,Salvaterra De Magos,Santarém,Alentejo,-8.704894,39.048061
25066192,Figueira Dos Cavaleiros,Baixo Alentejo,312,2025-03-10T13:08:00Z,25066192,Em conclusão,3301,Queda de árvore,0,1,0,2,2025-03-10T13:08:00Z,Ferreira Do Alentejo,Beja,Alentejo,-8.355429,38.111489
25066258,Marrazes e Barosa,Região de Leiria,310,2025-03-10T13:24:00Z,25066258,Em despacho,3309,Desabamento de estruturas edificadas,0,1,0,4,2025-03-10T13:24:00Z,Leiria,Leiria,Centro,-8.8143,39.7707
25066273,Sé e São Lourenço,Alto Alentejo,312,2025-03-10T13:02:00Z,25066273,Em conclusão,3309,Desabamento de estruturas edificadas,0,0,0,0,2025-03-10T13:02:00Z,Portalegre,Portalegre,Alentejo,-7.4259829999999996,39.295933
25066276,Amora,Península de Setúbal,311,2025-03-10T13:23:00Z,25066276,Em despacho,3301,Queda de árvore,0,1,0,3,2025-03-10T13:23:00Z,Seixal,Setúbal,Área Metropolitana De Lisboa,-9.14758,38.581152
25066293,São Salvador e Santa Maria,Alentejo Litoral,312,2025-03-10T13:26:00Z,25066293,Em despacho,3301,Queda de árvore,0,1,0,2,2025-03-10T13:26:00Z,Odemira,Beja,Alentejo,-8.650536,37.594321
25066245,São Salvador e Santa Maria,Alentejo Litoral,312,2025-03-10T12:29:00Z,25066245,Em despacho,3321,Dano na rede de fornecimento de eletricidade ,0,1,0,1,2025-03-10T12:29:00Z,Odemira,Beja,Alentejo,-8.650536,37.594321
25066286,Albufeira e Olhos de Água,Algarve,313,2025-03-10T13:33:00Z,25066286,Em despacho,3301,Queda de árvore,0,1,0,2,2025-03-10T13:33:00Z,Albufeira,Faro,Algarve,-8.20753,37.0925
25066304,Pinhal Novo,Península de Setúbal,311,2025-03-10T13:35:00Z,25066304,Em despacho,3329,Queda de estruturas temporárias ou móveis,0,0,0,0,2025-03-10T13:35:00Z,Palmela,Setúbal,Área Metropolitana De Lisboa,-8.88941,38.63002
25066357,Sé e São Lourenço,Alto Alentejo,312,2025-03-10T13:27:00Z,25066357,Em curso,3309,Desabamento de estruturas edificadas,0,1,0,1,2025-03-10T13:27:00Z,Portalegre,Portalegre,Alentejo,-7.4259829999999996,39.295933
