id,address,subregion,neighborhood,date,id.1,state,nature,nature_description,aerial_means,terrestrial_means,aquatic_means,operational,date.1,Concelho,Distrito,NUTII_DSG,longitude,latitude
24905846,"Oliveira de Frades, Souto de Lafões e Sejães",Viseu Dão Lafões,310,2025-02-02T14:56:00Z,24905846,Em despacho,3315,Inundação de estruturas por precipitação intensa,0,1,0,2,2025-02-02T14:56:00Z,Oliveira De Frades,Viseu,Centro,-8.185214,40.736334
24877003,Malagueira e Horta Das Figueiras,Alentejo Central,312,2025-01-27T11:41:00Z,24877003,Em conclusão,3315,Inundação de estruturas por precipitação intensa,0,0,0,0,2025-01-27T11:41:00Z,Évora,Évora,Alentejo,-7.924277,38.57285
24905713,Laranjeiro e Feijó,Península de Setúbal,311,2025-02-02T14:22:00Z,24905713,Em despacho,3329,Queda de estruturas temporárias ou móveis,0,1,0,2,2025-02-02T14:22:00Z,Almada,Setúbal,Área Metropolitana De Lisboa,-9.161283,38.656699
24905831,Gafanha da Boa Hora,Região de Aveiro,310,2025-02-02T14:50:00Z,24905831,Em despacho,3301,Queda de árvore,0,1,0,3,2025-02-02T14:50:00Z,Vagos,Aveiro,Centro,-8.76944,40.549982
24905865,Marmelete,Algarve,313,2025-02-02T14:50:00Z,24905865,Em despacho,3301,Queda de árvore,0,1,0,2,2025-02-02T14:50:00Z,Monchique,Faro,Algarve,-8.691157,37.271578
24851780,"São Miguel, Santa Eufémia e Rabaçal",Região de Coimbra,310,2025-01-21T23:25:00Z,24851780,Em curso,3315,Inundação de estruturas por precipitação intensa,0,0,0,0,2025-01-21T23:25:00Z,Penela,Coimbra,Centro,-8.399036,40.025502
24905745,Atouguia da Baleia,Oeste,311,2025-02-02T14:34:00Z,24905745,Em conclusão,3321,Dano na rede de fornecimento de eletricidade ,0,2,0,6,2025-02-02T14:34:00Z,Peniche,Leiria,Centro,-9.31676,39.33894
24905877,Rio de Couros e Casal Dos Bernardos,Médio Tejo,311,2025-02-02T15:06:00Z,24905877,Em despacho,3301,Queda de árvore,0,1,0,3,2025-02-02T15:06:00Z,Ourém,Santarém,Centro,-8.553175,39.753956
