id,address,subregion,neighborhood,date,id.1,state,nature,nature_description,aerial_means,terrestrial_means,aquatic_means,operational,date.1,Concelho,Distrito,NUTII_DSG,longitude,latitude
25087162,Pedrógão,Baixo Alentejo,312,2025-03-14T17:00:00Z,25087162,Em curso,1101,Cheia,0,0,0,0,2025-03-14T17:00:00Z,Vidigueira,Beja,Alentejo,-7.630327,38.110775
25126336,Manteigas (Santa Maria),Beiras e Serra da Estrela,310,2025-03-21T10:00:00Z,25126336,Em despacho,3301,Queda de árvore,0,2,0,4,2025-03-21T10:00:00Z,Manteigas,Guarda,Centro,-7.537826,40.403513
25126795,Sarzedas,Beira Baixa,310,2025-03-21T11:17:00Z,25126795,Em conclusão,3313,Deslizamento de terras,0,3,0,5,2025-03-21T11:17:00Z,Castelo Branco,Castelo Branco,Centro,-7.61616,39.847017
25126986,São Pedro e Santa Maria e Vila Boa do Mondego,Beiras e Serra da Estrela,310,2025-03-21T11:40:00Z,25126986,Em despacho,3301,Queda de árvore,0,1,0,2,2025-03-21T11:40:00Z,Celorico Da Beira,Guarda,Centro,-7.39057,40.639156
25127322,Caldas da Rainha - Santo Onofre e Serra do Bouro,Oeste,311,2025-03-21T12:44:00Z,25127322,Em conclusão,3301,Queda de árvore,0,1,0,5,2025-03-21T12:44:00Z,Caldas Da Rainha,Leiria,Centro,-9.173623,39.439262
25128033,"S.maria, S.miguel, S.martinho, S.pedro Penaferrim",Grande Lisboa,311,2025-03-21T14:46:00Z,25128033,Em despacho,3301,Queda de árvore,0,2,0,6,2025-03-21T14:46:00Z,Sintra,Lisboa,Área Metropolitana De Lisboa,-9.366763,38.781718
25128056,Santa Maria do Castelo e Santiago e Santa Susana,Alentejo Litoral,312,2025-03-21T14:41:00Z,25128056,Em curso,1101,Cheia,0,0,0,0,2025-03-21T14:41:00Z,Alcácer Do Sal,Setúbal,Alentejo,-8.434671,38.401157
25128276,"Belazaima do Chão, Castanheira do Vouga e Agadão",Região de Aveiro,310,2025-03-21T15:19:00Z,25128276,Em despacho,3301,Queda de árvore,0,2,0,5,2025-03-21T15:19:00Z,Águeda,Aveiro,Centro,-8.380975,40.532562
25128324,São João Das Lampas e Terrugem,Grande Lisboa,311,2025-03-21T15:19:00Z,25128324,Em despacho,3301,Queda de árvore,0,1,0,3,2025-03-21T15:19:00Z,Sintra,Lisboa,Área Metropolitana De Lisboa,-9.442718,38.844843
25128456,Silvares (São Martinho),Ave,309,2025-03-21T15:50:00Z,25128456,Em despacho,3301,Queda de árvore,0,1,0,2,2025-03-21T15:50:00Z,Fafe,Braga,Norte,-8.166149,41.410835
25128576,Batalha,Região de Leiria,310,2025-03-21T16:10:00Z,25128576,Em curso,3301,Queda de árvore,0,1,0,2,2025-03-21T16:10:00Z,Batalha,Leiria,Centro,-8.833621,39.678747
25128835,Arrifana,Região de Coimbra,310,2025-03-21T16:41:00Z,25128835,Em despacho,3301,Queda de árvore,0,1,0,2,2025-03-21T16:41:00Z,Vila Nova De Poiares,Coimbra,Centro,-8.27412,40.232859
25128944,Charneca de Caparica e Sobreda,Península de Setúbal,311,2025-03-21T17:17:00Z,25128944,Em despacho,3301,Queda de árvore,0,1,0,3,2025-03-21T17:17:00Z,Almada,Setúbal,Área Metropolitana De Lisboa,-9.186078,38.611365
25128949,Santa Clara e Castelo Viegas,Região de Coimbra,310,2025-03-21T17:15:00Z,25128949,Em despacho,3313,Deslizamento de terras,0,1,0,2,2025-03-21T17:15:00Z,Coimbra,Coimbra,Centro,-8.405437,40.161477
25128960,Barcarena,Grande Lisboa,311,2025-03-21T17:13:00Z,25128960,Em despacho,3301,Queda de árvore,0,2,0,7,2025-03-21T17:13:00Z,Oeiras,Lisboa,Área Metropolitana De Lisboa,-9.268179,38.733176
25128974,Gaeiras,Oeste,311,2025-03-21T17:18:00Z,25128974,Em despacho,3301,Queda de árvore,0,1,0,5,2025-03-21T17:18:00Z,Óbidos,Leiria,Centro,-9.113589,39.365089
25129042,Miranda do Corvo,Região de Coimbra,310,2025-03-21T17:33:00Z,25129042,Em despacho,3301,Queda de árvore,0,2,0,4,2025-03-21T17:33:00Z,Miranda Do Corvo,Coimbra,Centro,-8.339499,40.09407
25129076,Barcarena,Grande Lisboa,311,2025-03-21T17:37:00Z,25129076,Em despacho,3321,Dano na rede de fornecimento de eletricidade ,0,1,0,2,2025-03-21T17:37:00Z,Oeiras,Lisboa,Área Metropolitana De Lisboa,-9.277392,38.733987
25129094,Alcabideche,Grande Lisboa,311,2025-03-21T17:38:00Z,25129094,Em despacho,3301,Queda de árvore,0,1,0,2,2025-03-21T17:38:00Z,Cascais,Lisboa,Área Metropolitana De Lisboa,-9.402781,38.736294
25129103,Rio de Mouro,Grande Lisboa,311,2025-03-21T15:49:00Z,25129103,Em despacho,3311,Queda de elementos de estruturas edificados,0,1,0,2,2025-03-21T15:49:00Z,Sintra,Lisboa,Área Metropolitana De Lisboa,-9.335789,38.787445
25129167,Vilar e Viveiro,Alto Tâmega e Barroso,309,2025-03-21T17:48:00Z,25129167,Em conclusão,3301,Queda de árvore,0,1,0,5,2025-03-21T17:48:00Z,Boticas,Vila Real,Norte,-7.731835,41.662162
25129183,Porto Salvo,Grande Lisboa,311,2025-03-21T17:31:00Z,25129183,Em despacho,3311,Queda de elementos de estruturas edificados,0,1,0,6,2025-03-21T17:31:00Z,Oeiras,Lisboa,Área Metropolitana De Lisboa,-9.305901,38.719291
25068300,Almeirim,Lezíria do Tejo,311,2025-03-10T20:52:00Z,25068300,Em curso,1101,Cheia,0,0,0,0,2025-03-10T20:52:00Z,Almeirim,Santarém,Alentejo,-8.635002,39.187436
25121298,Gafanhoeira (São Pedro) e Sabugueiro,Alentejo Central,312,2025-03-20T14:26:00Z,25121298,Em resolução,3301,Queda de árvore,0,0,0,0,2025-03-20T14:26:00Z,Arraiolos,Évora,Alentejo,-8.088754,38.754507
25127153,Algueirão-Mem Martins,Grande Lisboa,311,2025-03-21T09:48:00Z,25127153,Em conclusão,3301,Queda de árvore,0,1,0,4,2025-03-21T09:48:00Z,Sintra,Lisboa,Área Metropolitana De Lisboa,-9.340934,38.801232
25127562,Sabóia,Alentejo Litoral,312,2025-03-21T13:20:00Z,25127562,Em despacho,3301,Queda de árvore,0,1,0,2,2025-03-21T13:20:00Z,Odemira,Beja,Alentejo,-8.502858,37.49757
25128284,Canha,Península de Setúbal,311,2025-03-21T15:28:00Z,25128284,Em conclusão,3301,Queda de árvore,0,2,0,4,2025-03-21T15:28:00Z,Montijo,Setúbal,Área Metropolitana De Lisboa,-8.657477,38.74015
25128341,Caparica e Trafaria,Península de Setúbal,311,2025-03-21T15:19:00Z,25128341,Em despacho,3301,Queda de árvore,0,2,0,7,2025-03-21T15:19:00Z,Almada,Setúbal,Área Metropolitana De Lisboa,-9.234918,38.664134
25128389,Ramada e Caneças,Grande Lisboa,311,2025-03-21T15:30:00Z,25128389,Em despacho,3301,Queda de árvore,0,1,0,4,2025-03-21T15:30:00Z,Odivelas,Lisboa,Área Metropolitana De Lisboa,-9.224517,38.811058
25059714,Torrão,Alentejo Litoral,312,2025-03-08T22:10:00Z,25059714,Em curso,1101,Cheia,0,1,0,2,2025-03-08T22:10:00Z,Alcácer Do Sal,Setúbal,Alentejo,-8.359133,38.252053
25070044,Praia do Ribatejo,Médio Tejo,311,2025-03-10T19:30:00Z,25070044,Em curso,1101,Cheia,0,0,0,0,2025-03-10T19:30:00Z,Vila Nova Da Barquinha,Santarém,Centro,-8.357309,39.485638
25071496,São Manços e São Vicente do Pigeiro,Alentejo Central,312,2025-03-11T13:18:00Z,25071496,Em curso,1101,Cheia,0,2,0,4,2025-03-11T13:18:00Z,Évora,Évora,Alentejo,-7.713313,38.513673
25126246,Corval,Alentejo Central,312,2025-03-21T09:54:00Z,25126246,Em despacho,3311,Queda de elementos de estruturas edificados,0,1,0,2,2025-03-21T09:54:00Z,Reguengos De Monsaraz,Évora,Alentejo,-7.465278,38.444932
25126933,Azeitão (São Lourenço e São Simão),Península de Setúbal,311,2025-03-21T11:20:00Z,25126933,Em curso,3301,Queda de árvore,0,0,0,0,2025-03-21T11:20:00Z,Setúbal,Setúbal,Área Metropolitana De Lisboa,-9.04265,38.541479
25126998,Arruda Dos Vinhos,Oeste,311,2025-03-21T11:45:00Z,25126998,Em despacho,3301,Queda de árvore,0,1,0,1,2025-03-21T11:45:00Z,Arruda Dos Vinhos,Lisboa,Centro,-9.074841,38.984407
25127133,"S.julião, N.s. da Anunciada e S. Maria da Graça",Península de Setúbal,311,2025-03-21T12:04:00Z,25127133,Em despacho,3301,Queda de árvore,0,1,0,5,2025-03-21T12:04:00Z,Setúbal,Setúbal,Área Metropolitana De Lisboa,-8.889983,38.529955
25128188,Carregal do Sal,Viseu Dão Lafões,310,2025-03-21T15:09:00Z,25128188,Em curso,3311,Queda de elementos de estruturas edificados,0,3,0,8,2025-03-21T15:09:00Z,Carregal Do Sal,Viseu,Centro,-8.005868,40.418393
25063232,Santa Maria do Castelo e Santiago e Santa Susana,Alentejo Litoral,312,2025-03-09T19:02:00Z,25063232,Em conclusão,1101,Cheia,0,0,0,0,2025-03-09T19:02:00Z,Alcácer Do Sal,Setúbal,Alentejo,-8.48167,38.29806
25113469,Arruda Dos Vinhos,Oeste,311,2025-03-20T01:39:00Z,25113469,Em resolução,3301,Queda de árvore,0,3,0,3,2025-03-20T01:39:00Z,Arruda Dos Vinhos,Lisboa,Centro,-9.074841,38.984407
25126874,Santana da Azinha,Beiras e Serra da Estrela,310,2025-03-21T11:27:00Z,25126874,Em despacho,3311,Queda de elementos de estruturas edificados,0,1,0,2,2025-03-21T11:27:00Z,Guarda,Guarda,Centro,-7.226578,40.45364
25127575,Cela,Oeste,311,2025-03-21T13:33:00Z,25127575,Em despacho,3301,Queda de árvore,0,1,0,3,2025-03-21T13:33:00Z,Alcobaça,Leiria,Centro,-9.062135,39.50962
25127595,Quinta do Anjo,Península de Setúbal,311,2025-03-21T13:39:00Z,25127595,Em curso,3329,Queda de estruturas temporárias ou móveis,0,1,0,3,2025-03-21T13:39:00Z,Palmela,Setúbal,Área Metropolitana De Lisboa,-8.990988,38.58003
25127944,Colares,Grande Lisboa,311,2025-03-21T14:29:00Z,25127944,Em despacho,3301,Queda de árvore,0,5,0,22,2025-03-21T14:29:00Z,Sintra,Lisboa,Área Metropolitana De Lisboa,-9.432326,38.780106
25127978,Azeitão (São Lourenço e São Simão),Península de Setúbal,311,2025-03-21T14:21:00Z,25127978,Em curso,3301,Queda de árvore,0,0,0,0,2025-03-21T14:21:00Z,Setúbal,Setúbal,Área Metropolitana De Lisboa,-9.04265,38.541479
25128127,Azeitão (São Lourenço e São Simão),Península de Setúbal,311,2025-03-21T14:59:00Z,25128127,Em curso,3301,Queda de árvore,0,1,0,2,2025-03-21T14:59:00Z,Setúbal,Setúbal,Área Metropolitana De Lisboa,-9.004314,38.501234
25128310,Cascais e Estoril,Grande Lisboa,311,2025-03-21T15:24:00Z,25128310,Em curso,3301,Queda de árvore,0,3,0,9,2025-03-21T15:24:00Z,Cascais,Lisboa,Área Metropolitana De Lisboa,-9.398759,38.70391
25128577,Almaceda,Beira Baixa,310,2025-03-21T15:59:00Z,25128577,Em despacho,3313,Deslizamento de terras,0,2,0,4,2025-03-21T15:59:00Z,Castelo Branco,Castelo Branco,Centro,-7.664371,39.972402
25129185,Vila Nova do Ceira,Região de Coimbra,310,2025-03-21T17:57:00Z,25129185,Em despacho,3301,Queda de árvore,0,1,0,4,2025-03-21T17:57:00Z,Góis,Coimbra,Centro,-8.147205,40.181612
25129212,Laranjeiro e Feijó,Península de Setúbal,311,2025-03-21T17:30:00Z,25129212,Em despacho,3329,Queda de estruturas temporárias ou móveis,0,1,0,5,2025-03-21T17:30:00Z,Almada,Setúbal,Área Metropolitana De Lisboa,-9.161283,38.656699
25129219,"Seixal, Arrentela e Aldeia de Paio Pires",Península de Setúbal,311,2025-03-21T18:01:00Z,25129219,Em despacho,3329,Queda de estruturas temporárias ou móveis,0,1,0,3,2025-03-21T18:01:00Z,Seixal,Setúbal,Área Metropolitana De Lisboa,-9.104804,38.642769
25129235,Barreiro e Lavradio,Península de Setúbal,311,2025-03-21T18:00:00Z,25129235,Em despacho,3329,Queda de estruturas temporárias ou móveis,0,1,0,5,2025-03-21T18:00:00Z,Barreiro,Setúbal,Área Metropolitana De Lisboa,-9.075181,38.661028
25129251,Souto da Carpalhosa e Ortigosa,Região de Leiria,310,2025-03-21T18:06:00Z,25129251,Em despacho,3301,Queda de árvore,0,1,0,3,2025-03-21T18:06:00Z,Leiria,Leiria,Centro,-8.782731,39.844761
25129253,"S.maria, S.miguel, S.martinho, S.pedro Penaferrim",Grande Lisboa,311,2025-03-21T17:52:00Z,25129253,Em despacho,3301,Queda de árvore,0,2,0,4,2025-03-21T17:52:00Z,Sintra,Lisboa,Área Metropolitana De Lisboa,-9.414924,38.772191
25129258,Póvoa de Rio de Moinhos e Cafede,Beira Baixa,310,2025-03-21T18:11:00Z,25129258,Em despacho,3301,Queda de árvore,0,0,0,0,2025-03-21T18:11:00Z,Castelo Branco,Castelo Branco,Centro,-7.489858,39.926669
25129260,Tropeço,Area M. Porto,309,2025-03-21T18:06:00Z,25129260,Em despacho,3301,Queda de árvore,0,1,0,2,2025-03-21T18:06:00Z,Arouca,Aveiro,Norte,-8.300565,40.940632
25129276,São Bartolomeu de Messines,Algarve,313,2025-03-21T18:01:00Z,25129276,Em despacho,3301,Queda de árvore,0,1,0,3,2025-03-21T18:01:00Z,Silves,Faro,Algarve,-8.263888,37.291747
25128578,Azeitão (São Lourenço e São Simão),Península de Setúbal,311,2025-03-21T15:52:00Z,25128578,Em despacho,3301,Queda de árvore,0,1,0,4,2025-03-21T15:52:00Z,Setúbal,Setúbal,Área Metropolitana De Lisboa,-9.04265,38.541479
25128580,"Cedofeita, Ildefonso, Sé, Miragaia, Nicolau e Vitória",Area M. Porto,309,2025-03-21T16:10:00Z,25128580,Em despacho,3311,Queda de elementos de estruturas edificados,0,1,0,5,2025-03-21T16:10:00Z,Porto,Porto,Norte,-8.615939,41.15359
25128681,Queluz e Belas,Grande Lisboa,311,2025-03-21T16:25:00Z,25128681,Em despacho,3301,Queda de árvore,0,1,0,3,2025-03-21T16:25:00Z,Sintra,Lisboa,Área Metropolitana De Lisboa,-9.270072,38.779997
25128731,Santo António Dos Cavaleiros e Frielas,Grande Lisboa,311,2025-03-21T15:54:00Z,25128731,Em despacho,3311,Queda de elementos de estruturas edificados,0,1,0,1,2025-03-21T15:54:00Z,Loures,Lisboa,Área Metropolitana De Lisboa,-9.171619,38.815144
25128829,Poiares (Santo André),Região de Coimbra,310,2025-03-21T16:40:00Z,25128829,Em despacho,3315,Inundação de estruturas por precipitação intensa,0,1,0,3,2025-03-21T16:40:00Z,Vila Nova De Poiares,Coimbra,Centro,-8.257628,40.210364
25128864,"Cedofeita, Ildefonso, Sé, Miragaia, Nicolau e Vitória",Area M. Porto,309,2025-03-21T16:57:00Z,25128864,Em despacho,3311,Queda de elementos de estruturas edificados,0,1,0,5,2025-03-21T16:57:00Z,Porto,Porto,Norte,-8.615939,41.15359
25128898,Queluz e Belas,Grande Lisboa,311,2025-03-21T16:53:00Z,25128898,Em despacho,3301,Queda de árvore,0,2,0,5,2025-03-21T16:53:00Z,Sintra,Lisboa,Área Metropolitana De Lisboa,-9.282171,38.81681
25128948,Vila Boa do Bispo,Tâmega e Sousa,309,2025-03-21T17:08:00Z,25128948,Em despacho,3301,Queda de árvore,0,1,0,2,2025-03-21T17:08:00Z,Marco De Canaveses,Porto,Norte,-8.220067,41.129816
25128965,Beijós,Viseu Dão Lafões,310,2025-03-21T17:15:00Z,25128965,Em despacho,3301,Queda de árvore,0,1,0,2,2025-03-21T17:15:00Z,Carregal Do Sal,Viseu,Centro,-7.957266,40.531798
25128388,Bombarral e Vale Covo,Oeste,311,2025-03-21T15:39:00Z,25128388,Em despacho,3301,Queda de árvore,0,1,0,5,2025-03-21T15:39:00Z,Bombarral,Leiria,Centro,-9.142029,39.245053
25128489,Benfica do Ribatejo,Lezíria do Tejo,311,2025-03-21T15:59:00Z,25128489,Em conclusão,3301,Queda de árvore,0,6,0,12,2025-03-21T15:59:00Z,Almeirim,Santarém,Alentejo,-8.67144,39.150233
25128670,Condeixa-a-Velha e Condeixa-a-Nova,Região de Coimbra,310,2025-03-21T16:25:00Z,25128670,Em curso,3315,Inundação de estruturas por precipitação intensa,0,2,0,4,2025-03-21T16:25:00Z,Condeixa-a-Nova,Coimbra,Centro,-8.482693,40.119842
25128739,Santo António Dos Olivais,Região de Coimbra,310,2025-03-21T16:21:00Z,25128739,Em despacho,3315,Inundação de estruturas por precipitação intensa,0,1,0,3,2025-03-21T16:21:00Z,Coimbra,Coimbra,Centro,-8.408011,40.217307
25128887,Guarda,Beiras e Serra da Estrela,310,2025-03-21T16:56:00Z,25128887,Em curso,3311,Queda de elementos de estruturas edificados,0,4,0,7,2025-03-21T16:56:00Z,Guarda,Guarda,Centro,-7.230708,40.553562
25128939,Silva Escura e Dornelas,Região de Aveiro,310,2025-03-21T17:05:00Z,25128939,Em conclusão,3313,Deslizamento de terras,0,3,0,5,2025-03-21T17:05:00Z,Sever Do Vouga,Aveiro,Centro,-8.393772,40.787377
25128957,Ferreira do Alentejo e Canhestros,Baixo Alentejo,312,2025-03-21T17:17:00Z,25128957,Em conclusão,3321,Dano na rede de fornecimento de eletricidade ,0,0,0,0,2025-03-21T17:17:00Z,Ferreira Do Alentejo,Beja,Alentejo,-8.114742,38.060822
25128988,Quinta do Conde,Península de Setúbal,311,2025-03-21T16:55:00Z,25128988,Em curso,3301,Queda de árvore,0,0,0,0,2025-03-21T16:55:00Z,Sesimbra,Setúbal,Área Metropolitana De Lisboa,-9.03613,38.570355
25128989,Campo,Viseu Dão Lafões,310,2025-03-21T17:09:00Z,25128989,Em despacho,3301,Queda de árvore,0,1,0,3,2025-03-21T17:09:00Z,Viseu,Viseu,Centro,-7.942623,40.701972
25128425,Bombarral e Vale Covo,Oeste,311,2025-03-21T15:39:00Z,25128425,Em despacho,3313,Deslizamento de terras,0,2,0,2,2025-03-21T15:39:00Z,Bombarral,Leiria,Centro,-9.184976,39.250978
25128600,Alferce,Algarve,313,2025-03-21T16:03:00Z,25128600,Em despacho,3313,Deslizamento de terras,0,1,0,2,2025-03-21T16:03:00Z,Monchique,Faro,Algarve,-8.493023,37.333617
25128816,Igreja Nova do Sobral,Médio Tejo,311,2025-03-21T16:51:00Z,25128816,Em despacho,3313,Deslizamento de terras,0,1,0,2,2025-03-21T16:51:00Z,Ferreira Do Zêzere,Santarém,Centro,-8.334746,39.676186
25128834,"S.maria, S.miguel, S.martinho, S.pedro Penaferrim",Grande Lisboa,311,2025-03-21T16:49:00Z,25128834,Em despacho,3301,Queda de árvore,0,1,0,4,2025-03-21T16:49:00Z,Sintra,Lisboa,Área Metropolitana De Lisboa,-9.372641,38.788861
25128868,Cedrim e Paradela,Região de Aveiro,310,2025-03-21T17:03:00Z,25128868,Em conclusão,3313,Deslizamento de terras,0,2,0,4,2025-03-21T17:03:00Z,Sever Do Vouga,Aveiro,Centro,-8.347322,40.711831
25128902,Alvor,Algarve,313,2025-03-21T16:59:00Z,25128902,Em despacho,3301,Queda de árvore,0,3,0,8,2025-03-21T16:59:00Z,Portimão,Faro,Algarve,-8.5944680000000009,37.131433
25128911,Cacém e São Marcos,Grande Lisboa,311,2025-03-21T16:58:00Z,25128911,Em despacho,3315,Inundação de estruturas por precipitação intensa,0,1,0,5,2025-03-21T16:58:00Z,Sintra,Lisboa,Área Metropolitana De Lisboa,-9.296125,38.754519
25129062,Venda do Pinheiro e Santo Estêvão Das Galés,Grande Lisboa,311,2025-03-21T17:21:00Z,25129062,Em despacho,3301,Queda de árvore,0,1,0,5,2025-03-21T17:21:00Z,Mafra,Lisboa,Área Metropolitana De Lisboa,-9.228575,38.925416
25129099,Caldas da Rainha - Santo Onofre e Serra do Bouro,Oeste,311,2025-03-21T17:38:00Z,25129099,Em despacho,3329,Queda de estruturas temporárias ou móveis,0,1,0,2,2025-03-21T17:38:00Z,Caldas Da Rainha,Leiria,Centro,-9.148929,39.401713
25129165,Costa da Caparica,Península de Setúbal,311,2025-03-21T15:47:00Z,25129165,Em curso,3301,Queda de árvore,0,1,0,3,2025-03-21T15:47:00Z,Almada,Setúbal,Área Metropolitana De Lisboa,-9.227696,38.642583
25129180,"Algés, Linda-a-Velha e Cruz Quebrada-Dafundo",Grande Lisboa,311,2025-03-21T17:55:00Z,25129180,Em despacho,3311,Queda de elementos de estruturas edificados,0,1,0,3,2025-03-21T17:55:00Z,Oeiras,Lisboa,Área Metropolitana De Lisboa,-9.244903,38.715384
25129181,Lourinhã e Atalaia,Oeste,311,2025-03-21T17:50:00Z,25129181,Em resolução,3321,Dano na rede de fornecimento de eletricidade ,0,1,0,5,2025-03-21T17:50:00Z,Lourinhã,Lisboa,Centro,-9.335545,39.241358
25129216,Nelas,Viseu Dão Lafões,310,2025-03-21T18:01:00Z,25129216,Em despacho,3311,Queda de elementos de estruturas edificados,0,1,0,3,2025-03-21T18:01:00Z,Nelas,Viseu,Centro,-7.848666,40.536085
25129005,São Brás de Alportel,Algarve,313,2025-03-21T17:23:00Z,25129005,Em despacho,3315,Inundação de estruturas por precipitação intensa,0,1,0,5,2025-03-21T17:23:00Z,São Brás De Alportel,Faro,Algarve,-7.892178,37.149213
25129021,Meirinhas,Região de Leiria,310,2025-03-21T17:20:00Z,25129021,Em despacho,3311,Queda de elementos de estruturas edificados,0,2,0,4,2025-03-21T17:20:00Z,Pombal,Leiria,Centro,-8.69978,39.845196
25129056,Quinta do Conde,Península de Setúbal,311,2025-03-21T17:14:00Z,25129056,Em despacho,3301,Queda de árvore,0,2,0,6,2025-03-21T17:14:00Z,Sesimbra,Setúbal,Área Metropolitana De Lisboa,-9.03613,38.570355
25129073,Sardoal,Médio Tejo,311,2025-03-21T17:38:00Z,25129073,Em despacho,3313,Deslizamento de terras,0,2,0,5,2025-03-21T17:38:00Z,Sardoal,Santarém,Centro,-8.15551,39.542479
25129104,"S.maria, S.miguel, S.martinho, S.pedro Penaferrim",Grande Lisboa,311,2025-03-21T17:34:00Z,25129104,Em despacho,3301,Queda de árvore,0,1,0,4,2025-03-21T17:34:00Z,Sintra,Lisboa,Área Metropolitana De Lisboa,-9.387899,38.805813
25129124,Colares,Grande Lisboa,311,2025-03-21T17:43:00Z,25129124,Em despacho,3301,Queda de árvore,0,1,0,2,2025-03-21T17:43:00Z,Sintra,Lisboa,Área Metropolitana De Lisboa,-9.486381,38.778591
25129137,Fronteira,Alto Alentejo,312,2025-03-21T17:45:00Z,25129137,Em conclusão,3301,Queda de árvore,0,1,0,3,2025-03-21T17:45:00Z,Fronteira,Portalegre,Alentejo,-7.59241,39.038917
25129154,São Teotónio,Alentejo Litoral,312,2025-03-21T17:50:00Z,25129154,Em despacho,3301,Queda de árvore,0,1,0,2,2025-03-21T17:50:00Z,Odemira,Beja,Alentejo,-8.730952,37.478171
25129173,Alcabideche,Grande Lisboa,311,2025-03-21T17:52:00Z,25129173,Em despacho,3315,Inundação de estruturas por precipitação intensa,0,1,0,5,2025-03-21T17:52:00Z,Cascais,Lisboa,Área Metropolitana De Lisboa,-9.377282,38.724858
25129189,Lourinhã e Atalaia,Oeste,311,2025-03-21T17:35:00Z,25129189,Em curso,3301,Queda de árvore,0,3,0,8,2025-03-21T17:35:00Z,Lourinhã,Lisboa,Centro,-9.311131,39.244365
25129027,Arranhó,Oeste,311,2025-03-21T14:36:00Z,25129027,Em despacho,3321,Dano na rede de fornecimento de eletricidade ,0,1,0,2,2025-03-21T14:36:00Z,Arruda Dos Vinhos,Lisboa,Centro,-9.132157,38.956907
25129052,São Bartolomeu de Messines,Algarve,313,2025-03-21T17:28:00Z,25129052,Em despacho,3315,Inundação de estruturas por precipitação intensa,0,1,0,2,2025-03-21T17:28:00Z,Silves,Faro,Algarve,-8.323586,37.262832
25129077,Sesimbra (Castelo),Península de Setúbal,311,2025-03-21T17:35:00Z,25129077,Em despacho,3329,Queda de estruturas temporárias ou móveis,0,1,0,5,2025-03-21T17:35:00Z,Sesimbra,Setúbal,Área Metropolitana De Lisboa,-9.103501,38.460817
25129093,"Mealhada, Ventosa do Bairro e Antes",Região de Coimbra,310,2025-03-21T17:33:00Z,25129093,Em despacho,3301,Queda de árvore,0,1,0,2,2025-03-21T17:33:00Z,Mealhada,Aveiro,Centro,-8.458111,40.375676
25129127,Canha,Península de Setúbal,311,2025-03-21T17:32:00Z,25129127,Em despacho,3315,Inundação de estruturas por precipitação intensa,0,1,0,5,2025-03-21T17:32:00Z,Montijo,Setúbal,Área Metropolitana De Lisboa,-8.632345,38.75606
25129136,Vila de Cucujães,Area M. Porto,309,2025-03-21T17:30:00Z,25129136,Em despacho,3301,Queda de árvore,0,1,0,2,2025-03-21T17:30:00Z,Oliveira De Azeméis,Aveiro,Norte,-8.504405,40.868116
25129143,Escalos de Cima e Lousa,Beira Baixa,310,2025-03-21T17:50:00Z,25129143,Em despacho,3301,Queda de árvore,0,2,0,4,2025-03-21T17:50:00Z,Castelo Branco,Castelo Branco,Centro,-7.391425,39.93993
25129150,Semide e Rio Vide,Região de Coimbra,310,2025-03-21T17:52:00Z,25129150,Em despacho,3313,Deslizamento de terras,0,1,0,2,2025-03-21T17:52:00Z,Miranda Do Corvo,Coimbra,Centro,-8.30836,40.17357
25129177,Salvaterra de Magos e Foros de Salvaterra,Lezíria do Tejo,311,2025-03-21T17:57:00Z,25129177,Em despacho,3315,Inundação de estruturas por precipitação intensa,0,2,0,5,2025-03-21T17:57:00Z,Salvaterra De Magos,Santarém,Alentejo,-8.73342,39.006483
25129186,Tavarede,Região de Coimbra,310,2025-03-21T18:00:00Z,25129186,Em despacho,3329,Queda de estruturas temporárias ou móveis,0,2,0,4,2025-03-21T18:00:00Z,Figueira Da Foz,Coimbra,Centro,-8.83772,40.16122
25129200,Rio Tinto,Area M. Porto,309,2025-03-21T17:53:00Z,25129200,Em despacho,3311,Queda de elementos de estruturas edificados,0,1,0,5,2025-03-21T17:53:00Z,Gondomar,Porto,Norte,-8.560102,41.179302
25129220,"Gondomar (São Cosme), Valbom e Jovim",Area M. Porto,309,2025-03-21T17:55:00Z,25129220,Em conclusão,3301,Queda de árvore,0,1,0,4,2025-03-21T17:55:00Z,Gondomar,Porto,Norte,-8.535295,41.129255
25129250,"S.pedro e Santiago, S.maria e S.miguel e Matacães",Oeste,311,2025-03-21T18:05:00Z,25129250,Em despacho,3311,Queda de elementos de estruturas edificados,0,1,0,4,2025-03-21T18:05:00Z,Torres Vedras,Lisboa,Centro,-9.251952,39.091829
25129191,Alcanede,Lezíria do Tejo,311,2025-03-21T17:59:00Z,25129191,Em despacho,3301,Queda de árvore,0,1,0,2,2025-03-21T17:59:00Z,Santarém,Santarém,Alentejo,-8.793268,39.357442
25129221,Fonte de Angeão e Covão do Lobo,Região de Aveiro,310,2025-03-21T17:45:00Z,25129221,Em despacho,3301,Queda de árvore,0,1,0,2,2025-03-21T17:45:00Z,Vagos,Aveiro,Centro,-8.687258,40.462155
25129255,Monchique,Algarve,313,2025-03-21T17:29:00Z,25129255,Em despacho,3301,Queda de árvore,0,1,0,3,2025-03-21T17:29:00Z,Monchique,Faro,Algarve,-8.571835,37.303617
25129274,Anta e Guetim,Area M. Porto,309,2025-03-21T18:10:00Z,25129274,Em despacho,3321,Dano na rede de fornecimento de eletricidade ,0,1,0,3,2025-03-21T18:10:00Z,Espinho,Aveiro,Norte,-8.614155,41.008103
25129288,Montijo e Afonsoeiro,Península de Setúbal,311,2025-03-21T18:10:00Z,25129288,Em despacho,3311,Queda de elementos de estruturas edificados,0,1,0,4,2025-03-21T18:10:00Z,Montijo,Setúbal,Área Metropolitana De Lisboa,-8.975715,38.702323
25129277,Montoito,Alentejo Central,312,2025-03-21T18:12:00Z,25129277,Em despacho,3301,Queda de árvore,0,1,0,3,2025-03-21T18:12:00Z,Redondo,Évora,Alentejo,-7.583984,38.513082
