id,address,subregion,neighborhood,date,id.1,state,nature,nature_description,aerial_means,terrestrial_means,aquatic_means,operational,date.1,Concelho,Distrito,NUTII_DSG,longitude,latitude,state_2
25707621,Vilar de Perdizes e Meixide,Alto Tâmega e Barroso,309,2025-07-20T18:24:00Z,25707621,Em Resolução/Conclusão,3103,Incêndio rural,0,1,0,5,2025-07-20T18:24:00Z,Montalegre,Vila Real,Norte,-7.58974,41.872305,Resolução/Conclusão
25707862,São Miguel do Outeiro e Sabugosa,Viseu Dão Lafões,310,2025-07-20T19:40:00Z,25707862,Em Resolução/Conclusão,3103,Incêndio rural,1,8,0,32,2025-07-20T19:40:00Z,Tondela,Viseu,Centro,-8.019315,40.581608,Resolução/Conclusão
25708103,Caldas de São Jorge e Pigeiros,Area M. Porto,309,2025-07-20T20:41:00Z,25708103,Em Despacho,3103,Incêndio rural,0,0,0,0,2025-07-20T20:41:00Z,Santa Maria Da Feira,Aveiro,Norte,-8.48706,40.951914,Despacho
25686799,Souto Maior,Douro,309,2025-07-16T13:19:00Z,25686799,Em Resolução/Conclusão,3101,Incêndio rural,0,3,0,12,2025-07-16T13:19:00Z,Sabrosa,Vila Real,Norte,-7.57839,41.287518,Resolução/Conclusão
25706620,Forno Telheiro,Beiras e Serra da Estrela,310,2025-07-20T14:06:00Z,25706620,Em Resolução/Conclusão,3103,Incêndio rural,0,3,0,12,2025-07-20T14:06:00Z,Celorico Da Beira,Guarda,Centro,-7.400468,40.6775,Resolução/Conclusão
25708016,Ramalhal,Oeste,311,2025-07-20T20:20:00Z,25708016,Em Resolução/Conclusão,3105,Incêndio rural,0,2,0,7,2025-07-20T20:20:00Z,Torres Vedras,Lisboa,Centro,-9.2424,39.145963,Resolução/Conclusão
25707797,Albufeira e Olhos de Água,Algarve,313,2025-07-20T19:22:00Z,25707797,Em Resolução/Conclusão,3103,Incêndio rural,0,1,0,2,2025-07-20T19:22:00Z,Albufeira,Faro,Algarve,-8.24512,37.08619,Resolução/Conclusão
25707895,São Miguel do Outeiro e Sabugosa,Viseu Dão Lafões,310,2025-07-20T19:49:00Z,25707895,Em Resolução/Conclusão,3103,Incêndio rural,0,5,0,22,2025-07-20T19:49:00Z,Tondela,Viseu,Centro,-8.014705,40.588325,Resolução/Conclusão
25707972,Glória do Ribatejo e Granho,Lezíria do Tejo,311,2025-07-20T20:14:00Z,25707972,Em Resolução/Conclusão,3103,Incêndio rural,0,6,0,20,2025-07-20T20:14:00Z,Salvaterra De Magos,Santarém,Alentejo,-8.65192,39.047572,Resolução/Conclusão
