id,address,subregion,neighborhood,date,id.1,state,nature,nature_description,aerial_means,terrestrial_means,aquatic_means,operational,date.1,Concelho,Distrito,NUTII_DSG,longitude,latitude,state_2
26198512,Covas do Douro,Douro,309,2025-10-27T17:56:00Z,26198512,Em Despacho,3103,Incêndio rural,0,2,0,9,2025-10-27T17:56:00Z,Sabrosa,Vila Real,Norte,-7.60088,41.165415,Despacho
26198613,São João Das Lampas e Terrugem,Grande Lisboa,311,2025-10-27T18:18:00Z,26198613,Em Despacho,3111,Queima,0,1,0,3,2025-10-27T18:18:00Z,Sintra,Lisboa,Área Metropolitana De Lisboa,-9.35027,38.890860000000004,Despacho
26198662,Vila Verde Dos Francos,Oeste,311,2025-10-27T18:25:00Z,26198662,Em Resolução/Conclusão,3103,Incêndio rural,0,2,0,7,2025-10-27T18:25:00Z,Alenquer,Lisboa,Centro,-9.129415,39.172205,Resolução/Conclusão
26198454,Santa Clara e Castelo Viegas,Região de Coimbra,310,2025-10-27T17:32:00Z,26198454,Em Resolução/Conclusão,3111,Queima,0,1,0,5,2025-10-27T17:32:00Z,Coimbra,Coimbra,Centro,-8.430244,40.197439,Resolução/Conclusão
26198503,Rio Meão,Area M. Porto,309,2025-10-27T17:47:00Z,26198503,Em Resolução/Conclusão,3111,Queima,0,2,0,6,2025-10-27T17:47:00Z,Santa Maria Da Feira,Aveiro,Norte,-8.586854,40.956066,Resolução/Conclusão
26198619,Tavira (Santa Maria e Santiago),Algarve,313,2025-10-27T18:05:00Z,26198619,Em Despacho,3111,Queima,0,2,0,5,2025-10-27T18:05:00Z,Tavira,Faro,Algarve,-7.665155,37.195225,Despacho
26198668,Santo António Dos Olivais,Região de Coimbra,310,2025-10-27T18:33:00Z,26198668,Em Resolução/Conclusão,3111,Queima,0,1,0,2,2025-10-27T18:33:00Z,Coimbra,Coimbra,Centro,-8.412758,40.229003,Resolução/Conclusão
26198718,Aveiras de Cima,Lezíria do Tejo,311,2025-10-27T18:46:00Z,26198718,Em Despacho,3103,Incêndio rural,0,1,0,5,2025-10-27T18:46:00Z,Azambuja,Lisboa,Alentejo,-8.897102,39.12643,Despacho
26197979,São Vicente do Paul e Vale de Figueira,Lezíria do Tejo,311,2025-10-27T16:08:00Z,26197979,Em Resolução/Conclusão,3103,Incêndio rural,0,1,0,2,2025-10-27T16:08:00Z,Santarém,Santarém,Alentejo,-8.61305,39.378283,Resolução/Conclusão
26198467,Sabóia,Alentejo Litoral,312,2025-10-27T17:32:00Z,26198467,Em Despacho,3103,Incêndio rural,0,4,0,12,2025-10-27T17:32:00Z,Odemira,Beja,Alentejo,-8.558232,37.478268,Despacho
26198046,Sarzedas,Beira Baixa,310,2025-10-27T16:18:00Z,26198046,Em Resolução/Conclusão,3105,Incêndio rural,0,4,0,12,2025-10-27T16:18:00Z,Castelo Branco,Castelo Branco,Centro,-7.63941,39.871043,Resolução/Conclusão
26198539,Luso,Região de Coimbra,310,2025-10-27T18:01:00Z,26198539,Em Resolução/Conclusão,3111,Queima,0,1,0,3,2025-10-27T18:01:00Z,Mealhada,Aveiro,Centro,-8.37952,40.38731,Resolução/Conclusão
26198557,Ardãos e Bobadela,Alto Tâmega e Barroso,309,2025-10-27T18:00:00Z,26198557,Em Curso,3103,Incêndio rural,0,1,0,4,2025-10-27T18:00:00Z,Boticas,Vila Real,Norte,-7.60698,41.775777,Curso
