id,address,subregion,neighborhood,date,id.1,state,nature,nature_description,aerial_means,terrestrial_means,aquatic_means,operational,date.1,Concelho,Distrito,NUTII_DSG,longitude,latitude,state_2
26320918,São João Baptista e Santa Maria Dos Olivais,Médio Tejo,311,2025-11-21T14:47:00Z,26320918,Em Resolução/Conclusão,3111,Queima,0,2,0,5,2025-11-21T14:47:00Z,Tomar,Santarém,Centro,-8.422118,39.603233,Resolução/Conclusão
26321218,Alverca do Ribatejo e Sobralinho,Grande Lisboa,311,2025-11-21T15:37:00Z,26321218,Em Despacho,3103,Incêndio rural,0,1,0,5,2025-11-21T15:37:00Z,Vila Franca De Xira,Lisboa,Área Metropolitana De Lisboa,-9.034909,38.929777,Despacho
26320329,Santa Clara de Louredo,Baixo Alentejo,312,2025-11-21T13:02:00Z,26320329,Em Resolução/Conclusão,3105,Incêndio rural,0,8,0,22,2025-11-21T13:02:00Z,Beja,Beja,Alentejo,-7.882298,37.958553,Resolução/Conclusão
26320897,Nossa Senhora do Pranto,Médio Tejo,311,2025-11-21T14:46:00Z,26320897,Em Resolução/Conclusão,3111,Queima,0,2,0,6,2025-11-21T14:46:00Z,Ferreira Do Zêzere,Santarém,Centro,-8.249274,39.77332,Resolução/Conclusão
26320303,Bornes e Burga,Terras de Trás-os-Montes,309,2025-11-21T12:59:00Z,26320303,Em Despacho,3111,Queima,0,1,0,3,2025-11-21T12:59:00Z,Macedo De Cavaleiros,Bragança,Norte,-7.043329,41.426337,Despacho
26321070,"Geraz do Lima (S.maria, S.leocádia, Moreira), Deão",Alto Minho,309,2025-11-21T15:13:00Z,26321070,Em Curso,3105,Incêndio rural,0,2,0,8,2025-11-21T15:13:00Z,Viana Do Castelo,Viana Do Castelo,Norte,-8.68862,41.70688,Curso
26320942,São Martinho,Alentejo Litoral,312,2025-11-21T14:53:00Z,26320942,Em Despacho,3103,Incêndio rural,0,1,0,2,2025-11-21T14:53:00Z,Alcácer Do Sal,Setúbal,Alentejo,-8.500502,38.49647,Despacho
26320999,Campanhã,Area M. Porto,309,2025-11-21T15:00:00Z,26320999,Em Despacho,3103,Incêndio rural,0,2,0,10,2025-11-21T15:00:00Z,Porto,Porto,Norte,-8.58631,41.14676,Despacho
