id,address,subregion,neighborhood,date,id.1,state,nature,nature_description,aerial_means,terrestrial_means,aquatic_means,operational,date.1,Concelho,Distrito,NUTII_DSG,longitude,latitude,state_2
25647385,Castelo Novo,Beiras e Serra da Estrela,310,2025-07-08T15:11:00Z,25647385,Em Resolução/Conclusão,3103,Incêndio rural,0,0,0,0,2025-07-08T15:11:00Z,Fundão,Castelo Branco,Centro,-7.447838,40.023465,Resolução/Conclusão
25665133,Lindoso,Alto Minho,309,2025-07-12T02:50:00Z,25665133,Em Curso,3103,Incêndio rural,0,4,0,12,2025-07-12T02:50:00Z,Ponte Da Barca,Viana Do Castelo,Norte,-8.24756,41.860898,Curso
25665285,Canelas,Area M. Porto,309,2025-07-12T05:12:00Z,25665285,Em Resolução/Conclusão,3103,Incêndio rural,0,1,0,4,2025-07-12T05:12:00Z,Vila Nova De Gaia,Porto,Norte,-8.604179,41.08789,Resolução/Conclusão
25657801,Santana da Azinha,Beiras e Serra da Estrela,310,2025-07-10T15:19:00Z,25657801,Em Resolução/Conclusão,3103,Incêndio rural,0,2,0,6,2025-07-10T15:19:00Z,Guarda,Guarda,Centro,-7.208863,40.479537,Resolução/Conclusão
25663324,"Leiria, Pousos, Barreira e Cortes",Região de Leiria,310,2025-07-11T17:04:00Z,25663324,Em Resolução/Conclusão,3103,Incêndio rural,0,1,0,2,2025-07-11T17:04:00Z,Leiria,Leiria,Centro,-8.781488,39.733495,Resolução/Conclusão
25662814,Soajo,Alto Minho,309,2025-07-11T15:16:00Z,25662814,Em Resolução/Conclusão,3103,Incêndio rural,0,5,0,15,2025-07-11T15:16:00Z,Arcos De Valdevez,Viana Do Castelo,Norte,-8.22891,41.87654,Resolução/Conclusão
25664502,São Manços e São Vicente do Pigeiro,Alentejo Central,312,2025-07-11T21:55:00Z,25664502,Em Resolução/Conclusão,3105,Incêndio rural,0,10,0,27,2025-07-11T21:55:00Z,Évora,Évora,Alentejo,-7.71717,38.446537,Resolução/Conclusão
25665179,Sesimbra (Castelo),Península de Setúbal,311,2025-07-12T03:30:00Z,25665179,Em Despacho,3103,Incêndio rural,0,1,0,5,2025-07-12T03:30:00Z,Sesimbra,Setúbal,Área Metropolitana De Lisboa,-9.106828,38.452682,Despacho
