id,address,subregion,neighborhood,date,id.1,state,nature,nature_description,aerial_means,terrestrial_means,aquatic_means,operational,date.1,Concelho,Distrito,NUTII_DSG,longitude,latitude
25225978,Queluz e Belas,Grande Lisboa,311,2025-04-11T11:15:00Z,25225978,Em curso,3301,Queda de árvore,0,1,0,2,2025-04-11T11:15:00Z,Sintra,Lisboa,Área Metropolitana De Lisboa,-9.280687,38.796107
25068300,Almeirim,Lezíria do Tejo,311,2025-03-10T20:52:00Z,25068300,Em curso,1101,Cheia,0,0,0,0,2025-03-10T20:52:00Z,Almeirim,Santarém,Alentejo,-8.635002,39.187436
25224889,Lousã e Vilarinho,Região de Coimbra,310,2025-04-11T07:12:00Z,25224889,Em despacho,3301,Queda de árvore,0,1,0,1,2025-04-11T07:12:00Z,Lousã,Coimbra,Centro,-8.243385,40.12032
25070044,Praia do Ribatejo,Médio Tejo,311,2025-03-10T19:30:00Z,25070044,Em curso,1101,Cheia,0,0,0,0,2025-03-10T19:30:00Z,Vila Nova Da Barquinha,Santarém,Centro,-8.357309,39.485638
25071496,São Manços e São Vicente do Pigeiro,Alentejo Central,312,2025-03-11T13:18:00Z,25071496,Em conclusão,1101,Cheia,0,0,0,0,2025-03-11T13:18:00Z,Évora,Évora,Alentejo,-7.713313,38.513673
25202441,Serpa (Salvador e Santa Maria),Baixo Alentejo,312,2025-04-06T10:25:00Z,25202441,Em conclusão,1101,Cheia,0,0,0,0,2025-04-06T10:25:00Z,Serpa,Beja,Alentejo,-7.555783,37.88592
25226272,"Caia, São Pedro e Alcáçova",Alto Alentejo,312,2025-04-11T12:11:00Z,25226272,Em conclusão,3301,Queda de árvore,0,1,0,2,2025-04-11T12:11:00Z,Elvas,Portalegre,Alentejo,-7.062235,38.900432
25226676,Duas Igrejas,Terras de Trás-os-Montes,309,2025-04-11T13:52:00Z,25226676,Em despacho,3301,Queda de árvore,0,3,0,5,2025-04-11T13:52:00Z,Miranda Do Douro,Bragança,Norte,-6.311914,41.488216
