id,address,subregion,neighborhood,date,id.1,state,nature,nature_description,aerial_means,terrestrial_means,aquatic_means,operational,date.1,Concelho,Distrito,NUTII_DSG,longitude,latitude,state_2
25641335,"Crato e Mártires, Flor da Rosa e Vale do Peso",Alto Alentejo,312,2025-07-07T13:08:00Z,25641335,Em Resolução/Conclusão,3103,Incêndio rural,0,1,0,2,2025-07-07T13:08:00Z,Crato,Portalegre,Alentejo,-7.605477,39.258982,Resolução/Conclusão
25641383,Mafra,Grande Lisboa,311,2025-07-07T13:13:00Z,25641383,Em Resolução/Conclusão,3101,Incêndio rural,0,11,0,30,2025-07-07T13:13:00Z,Mafra,Lisboa,Área Metropolitana De Lisboa,-9.325207,38.929228,Resolução/Conclusão
25641484,Serpa (Salvador e Santa Maria),Baixo Alentejo,312,2025-07-07T13:29:00Z,25641484,Em Resolução/Conclusão,3105,Incêndio rural,0,0,0,0,2025-07-07T13:29:00Z,Serpa,Beja,Alentejo,-7.53462,37.895487,Resolução/Conclusão
25641687,Cidade da Maia,Area M. Porto,309,2025-07-07T14:12:00Z,25641687,Em Resolução/Conclusão,3103,Incêndio rural,0,1,0,3,2025-07-07T14:12:00Z,Maia,Porto,Norte,-8.633167,41.233675,Resolução/Conclusão
25641870,"Crato e Mártires, Flor da Rosa e Vale do Peso",Alto Alentejo,312,2025-07-07T14:40:00Z,25641870,Em Resolução/Conclusão,3105,Incêndio rural,0,7,0,25,2025-07-07T14:40:00Z,Crato,Portalegre,Alentejo,-7.57582,39.248888,Resolução/Conclusão
25641968,Cervães,Cávado,309,2025-07-07T15:01:00Z,25641968,Em Resolução/Conclusão,3103,Incêndio rural,0,3,0,9,2025-07-07T15:01:00Z,Vila Verde,Braga,Norte,-8.513801,41.595037,Resolução/Conclusão
25642088,Castêlo da Maia,Area M. Porto,309,2025-07-07T15:14:00Z,25642088,Em Curso,3101,Incêndio rural,0,18,0,65,2025-07-07T15:14:00Z,Maia,Porto,Norte,-8.637555,41.27565,Curso
25642235,Campos e Vila Meã,Alto Minho,309,2025-07-07T15:43:00Z,25642235,Em Resolução/Conclusão,3103,Incêndio rural,0,5,0,18,2025-07-07T15:43:00Z,Vila Nova De Cerveira,Viana Do Castelo,Norte,-8.700982,41.965258,Resolução/Conclusão
25642369,Folgosa,Area M. Porto,309,2025-07-07T16:16:00Z,25642369,Em Resolução/Conclusão,3103,Incêndio rural,0,1,0,3,2025-07-07T16:16:00Z,Maia,Porto,Norte,-8.54748,41.23558,Resolução/Conclusão
25642454,Quintela de Azurara,Viseu Dão Lafões,310,2025-07-07T16:33:00Z,25642454,Em Resolução/Conclusão,3103,Incêndio rural,0,5,0,14,2025-07-07T16:33:00Z,Mangualde,Viseu,Centro,-7.707205,40.619258,Resolução/Conclusão
25642539,Vilarinho,Area M. Porto,309,2025-07-07T16:50:00Z,25642539,Em Resolução/Conclusão,3103,Incêndio rural,0,1,0,5,2025-07-07T16:50:00Z,Santo Tirso,Porto,Norte,-8.332396,41.361273,Resolução/Conclusão
25642606,Pedralva,Cávado,309,2025-07-07T17:08:00Z,25642606,Em Curso,3103,Incêndio rural,1,9,0,39,2025-07-07T17:08:00Z,Póvoa De Lanhoso,Braga,Norte,-8.29598,41.560155,Curso
25640258,Andrães,Douro,309,2025-07-07T10:02:00Z,25640258,Em Resolução/Conclusão,3103,Incêndio rural,0,6,0,17,2025-07-07T10:02:00Z,Vila Real,Vila Real,Norte,-7.719448,41.248428,Resolução/Conclusão
25641261,"Crato e Mártires, Flor da Rosa e Vale do Peso",Alto Alentejo,312,2025-07-07T12:51:00Z,25641261,Em Resolução/Conclusão,3105,Incêndio rural,0,5,0,22,2025-07-07T12:51:00Z,Crato,Portalegre,Alentejo,-7.558015,39.310169,Resolução/Conclusão
25642195,"St.tirso, Couto (S.cristina e S.miguel) e Burgães",Area M. Porto,309,2025-07-07T15:41:00Z,25642195,Em Resolução/Conclusão,3103,Incêndio rural,0,1,0,5,2025-07-07T15:41:00Z,Santo Tirso,Porto,Norte,-8.49903,41.350597,Resolução/Conclusão
25642611,Santa Maria do Castelo e Santiago e Santa Susana,Alentejo Litoral,312,2025-07-07T16:58:00Z,25642611,Em Curso,3103,Incêndio rural,0,5,0,18,2025-07-07T16:58:00Z,Alcácer Do Sal,Setúbal,Alentejo,-8.5926380000000009,38.479254,Curso
25640886,Póvoa do Concelho,Beiras e Serra da Estrela,310,2025-07-07T11:39:00Z,25640886,Em Resolução/Conclusão,3103,Incêndio rural,0,4,0,14,2025-07-07T11:39:00Z,Trancoso,Guarda,Centro,-7.265382,40.770737,Resolução/Conclusão
25641081,"Crato e Mártires, Flor da Rosa e Vale do Peso",Alto Alentejo,312,2025-07-07T12:10:00Z,25641081,Em Resolução/Conclusão,3103,Incêndio rural,0,3,0,12,2025-07-07T12:10:00Z,Crato,Portalegre,Alentejo,-7.651358,39.265818,Resolução/Conclusão
25641154,Urra,Alto Alentejo,312,2025-07-07T12:29:00Z,25641154,Em Resolução/Conclusão,3105,Incêndio rural,0,23,0,68,2025-07-07T12:29:00Z,Portalegre,Portalegre,Alentejo,-7.46314,39.23684,Resolução/Conclusão
25641624,Figueiró da Serra e Freixo da Serra,Beiras e Serra da Estrela,310,2025-07-07T13:59:00Z,25641624,Em Resolução/Conclusão,3103,Incêndio rural,0,3,0,8,2025-07-07T13:59:00Z,Gouveia,Guarda,Centro,-7.501097,40.53297,Resolução/Conclusão
25642015,Lomba,Area M. Porto,309,2025-07-07T15:09:00Z,25642015,Em Resolução/Conclusão,3103,Incêndio rural,0,3,0,15,2025-07-07T15:09:00Z,Gondomar,Porto,Norte,-8.42681,41.03273,Resolução/Conclusão
25636341,Navió e Vitorino Dos Piães,Alto Minho,309,2025-07-06T13:36:00Z,25636341,Em Resolução/Conclusão,3103,Incêndio rural,0,12,0,34,2025-07-06T13:36:00Z,Ponte De Lima,Viana Do Castelo,Norte,-8.636015,41.674557,Resolução/Conclusão
25636995,Graça,Região de Leiria,310,2025-07-06T16:00:00Z,25636995,Em Resolução/Conclusão,3101,Incêndio rural,0,2,0,7,2025-07-06T16:00:00Z,Pedrógão Grande,Leiria,Centro,-8.220789,39.883478,Resolução/Conclusão
25637334,São Miguel de Acha,Beira Baixa,310,2025-07-06T17:22:00Z,25637334,Em Resolução/Conclusão,3105,Incêndio rural,0,3,0,11,2025-07-06T17:22:00Z,Idanha-a-Nova,Castelo Branco,Centro,-7.277732,39.997078,Resolução/Conclusão
25640880,Loureira,Cávado,309,2025-07-07T11:39:00Z,25640880,Em Resolução/Conclusão,3103,Incêndio rural,0,5,0,18,2025-07-07T11:39:00Z,Vila Verde,Braga,Norte,-8.42475,41.626072,Resolução/Conclusão
25641948,Figueira Dos Cavaleiros,Baixo Alentejo,312,2025-07-07T14:53:00Z,25641948,Em Curso,3105,Incêndio rural,0,2,0,4,2025-07-07T14:53:00Z,Ferreira Do Alentejo,Beja,Alentejo,-8.234905,38.078518,Curso
25642207,Forjães,Cávado,309,2025-07-07T15:47:00Z,25642207,Em Resolução/Conclusão,3103,Incêndio rural,0,2,0,7,2025-07-07T15:47:00Z,Esposende,Braga,Norte,-8.741043,41.605267,Resolução/Conclusão
25642600,NA,NA,0,2025-07-07T17:06:00Z,25642600,Em Curso,3103,Incêndio rural,0,7,0,26,2025-07-07T17:06:00Z,Mourão,Évora,Alentejo,-7.335373,38.429489,Curso
25642652,São Teotónio,Alentejo Litoral,312,2025-07-07T17:18:00Z,25642652,Em Despacho,3103,Incêndio rural,1,14,0,56,2025-07-07T17:18:00Z,Odemira,Beja,Alentejo,-8.64573,37.43982,Despacho
25642781,Viana do Alentejo,Alentejo Central,312,2025-07-07T17:44:00Z,25642781,Em Despacho,3103,Incêndio rural,0,1,0,5,2025-07-07T17:44:00Z,Viana Do Alentejo,Évora,Alentejo,-7.999946,38.34021,Despacho
25642675,Carvalhosa,Tâmega e Sousa,309,2025-07-07T17:12:00Z,25642675,Em Resolução/Conclusão,3103,Incêndio rural,0,1,0,5,2025-07-07T17:12:00Z,Paços De Ferreira,Porto,Norte,-8.354,41.287965,Resolução/Conclusão
25642682,Modivas,Area M. Porto,309,2025-07-07T17:26:00Z,25642682,Em Despacho,3103,Incêndio rural,0,1,0,3,2025-07-07T17:26:00Z,Vila Do Conde,Porto,Norte,-8.69697,41.29449,Despacho
