id,address,subregion,neighborhood,date,id.1,state,nature,nature_description,aerial_means,terrestrial_means,aquatic_means,operational,date.1,Concelho,Distrito,NUTII_DSG,longitude,latitude
25068300,Almeirim,Lezíria do Tejo,311,2025-03-10T20:52:00Z,25068300,Em curso,1101,Cheia,0,0,0,0,2025-03-10T20:52:00Z,Almeirim,Santarém,Alentejo,-8.635002,39.187436
25258505,Moledo e Cristelo,Alto Minho,309,2025-04-19T04:57:00Z,25258505,Em curso,3301,Queda de árvore,0,1,0,3,2025-04-19T04:57:00Z,Caminha,Viana Do Castelo,Norte,-8.84999,41.84776
25070044,Praia do Ribatejo,Médio Tejo,311,2025-03-10T19:30:00Z,25070044,Em curso,1101,Cheia,0,0,0,0,2025-03-10T19:30:00Z,Vila Nova Da Barquinha,Santarém,Centro,-8.357309,39.485638
25071496,São Manços e São Vicente do Pigeiro,Alentejo Central,312,2025-03-11T13:18:00Z,25071496,Em conclusão,1101,Cheia,0,0,0,0,2025-03-11T13:18:00Z,Évora,Évora,Alentejo,-7.713313,38.513673
25202441,Serpa (Salvador e Santa Maria),Baixo Alentejo,312,2025-04-06T10:25:00Z,25202441,Em conclusão,1101,Cheia,0,0,0,0,2025-04-06T10:25:00Z,Serpa,Beja,Alentejo,-7.555783,37.88592
25258500,Santa Maria do Castelo e Santiago e Santa Susana,Alentejo Litoral,312,2025-04-19T04:45:00Z,25258500,Em conclusão,3301,Queda de árvore,0,0,0,0,2025-04-19T04:45:00Z,Alcácer Do Sal,Setúbal,Alentejo,-8.57258,38.45964
