id,address,subregion,neighborhood,date,id.1,state,nature,nature_description,aerial_means,terrestrial_means,aquatic_means,operational,date.1,Concelho,Distrito,NUTII_DSG,longitude,latitude
24873550,"Sé, Santa Maria e Meixedo",Terras de Trás-os-Montes,309,2025-01-26T17:46:00Z,24873550,Em curso,3315,Inundação de estruturas por precipitação intensa,0,1,0,2,2025-01-26T17:46:00Z,Bragança,Bragança,Norte,-6.761223,41.813164
24874227,Leomil,Douro,309,2025-01-26T20:35:00Z,24874227,Em curso,3313,Deslizamento de terras,0,5,0,12,2025-01-26T20:35:00Z,Moimenta Da Beira,Viseu,Norte,-7.738242,40.958563
24874277,Fornelo e Vairão,Area M. Porto,309,2025-01-26T20:50:00Z,24874277,Em curso,3309,Desabamento de estruturas edificadas,0,2,0,4,2025-01-26T20:50:00Z,Vila Do Conde,Porto,Norte,-8.645789,41.33489
24874313,Parreira e Chouto,Lezíria do Tejo,311,2025-01-26T20:59:00Z,24874313,Em despacho,3301,Queda de árvore,0,2,0,4,2025-01-26T20:59:00Z,Chamusca,Santarém,Alentejo,-8.356501,39.193372
24874354,Sabadim,Alto Minho,309,2025-01-26T21:05:00Z,24874354,Em conclusão,3301,Queda de árvore,0,1,0,2,2025-01-26T21:05:00Z,Arcos De Valdevez,Viana Do Castelo,Norte,-8.46914,41.908255
24874370,Joane,Ave,309,2025-01-26T21:17:00Z,24874370,Em conclusão,3313,Deslizamento de terras,0,1,0,2,2025-01-26T21:17:00Z,Vila Nova De Famalicão,Braga,Norte,-8.42449,41.44321
24874418,Rubiães,Alto Minho,309,2025-01-26T21:20:00Z,24874418,Em conclusão,3301,Queda de árvore,0,1,0,3,2025-01-26T21:20:00Z,Paredes De Coura,Viana Do Castelo,Norte,-8.624635,41.897165
24874436,Nine,Ave,309,2025-01-26T21:32:00Z,24874436,Em despacho,3311,Queda de elementos de estruturas edificados,0,1,0,3,2025-01-26T21:32:00Z,Vila Nova De Famalicão,Braga,Norte,-8.5396,41.47495
24874488,Salvador e Santo Aleixo de Além-Tâmega,Alto Tâmega e Barroso,309,2025-01-26T21:32:00Z,24874488,Em despacho,3301,Queda de árvore,0,1,0,2,2025-01-26T21:32:00Z,Ribeira De Pena,Vila Real,Norte,-7.810868,41.521077
24874497,Salto,Alto Tâmega e Barroso,309,2025-01-26T21:40:00Z,24874497,Em despacho,3315,Inundação de estruturas por precipitação intensa,0,1,0,5,2025-01-26T21:40:00Z,Montalegre,Vila Real,Norte,-7.979477,41.654678
24874504,"Campo, S.salvador Campo, Negrelos",Area M. Porto,309,2025-01-26T21:40:00Z,24874504,Em curso,3301,Queda de árvore,0,1,0,4,2025-01-26T21:40:00Z,Santo Tirso,Porto,Norte,-8.353195,41.351182
24874513,Loivos do Monte,Tâmega e Sousa,309,2025-01-26T21:45:00Z,24874513,Em despacho,3301,Queda de árvore,0,1,0,4,2025-01-26T21:45:00Z,Baião,Porto,Norte,-7.978119,41.214387
24873598,Rebordosa,Area M. Porto,309,2025-01-26T18:01:00Z,24873598,Em despacho,3313,Deslizamento de terras,0,0,0,0,2025-01-26T18:01:00Z,Paredes,Porto,Norte,-8.40324,41.22908
24874066,Andrães,Douro,309,2025-01-26T19:51:00Z,24874066,Em curso,3301,Queda de árvore,0,1,0,2,2025-01-26T19:51:00Z,Vila Real,Vila Real,Norte,-7.68558,41.25616
24874113,Alvito (São Pedro e São Martinho) e Couto,Cávado,309,2025-01-26T20:07:00Z,24874113,Em curso,3301,Queda de árvore,0,3,0,6,2025-01-26T20:07:00Z,Barcelos,Braga,Norte,-8.59501,41.61108
24874348,"Vilela, Seramil e Paredes Secas",Cávado,309,2025-01-26T21:10:00Z,24874348,Em despacho,3301,Queda de árvore,0,1,0,2,2025-01-26T21:10:00Z,Amares,Braga,Norte,-8.32667,41.66218
24874351,Pinheiro,Viseu Dão Lafões,310,2025-01-26T21:00:00Z,24874351,Em despacho,3301,Queda de árvore,0,1,0,3,2025-01-26T21:00:00Z,Aguiar Da Beira,Guarda,Centro,-7.601045,40.803562
24874449,"Bustelo, Carneiro e Carvalho de Rei",Tâmega e Sousa,309,2025-01-26T21:36:00Z,24874449,Em despacho,3301,Queda de árvore,0,2,0,5,2025-01-26T21:36:00Z,Amarante,Porto,Norte,-7.99533,41.22446
24874466,Encosta do Sol,Grande Lisboa,311,2025-01-26T20:40:00Z,24874466,Em despacho,3315,Inundação de estruturas por precipitação intensa,0,1,0,2,2025-01-26T20:40:00Z,Amadora,Lisboa,Área Metropolitana De Lisboa,-9.214086,38.769383
24874103,Mateus,Douro,309,2025-01-26T20:03:00Z,24874103,Em despacho,3315,Inundação de estruturas por precipitação intensa,0,1,0,3,2025-01-26T20:03:00Z,Vila Real,Vila Real,Norte,-7.718755,41.310993
24874319,Cruz,Ave,309,2025-01-26T21:03:00Z,24874319,Em resolução,3301,Queda de árvore,0,1,0,2,2025-01-26T21:03:00Z,Vila Nova De Famalicão,Braga,Norte,-8.501798,41.43575
24874428,Donai,Terras de Trás-os-Montes,309,2025-01-26T21:18:00Z,24874428,Em despacho,3315,Inundação de estruturas por precipitação intensa,0,1,0,2,2025-01-26T21:18:00Z,Bragança,Bragança,Norte,-6.805385,41.830788
24874435,"Espadanedo, Edroso, Murçós e Soutelo Mourisco",Terras de Trás-os-Montes,309,2025-01-26T21:30:00Z,24874435,Em despacho,3301,Queda de árvore,0,1,0,2,2025-01-26T21:30:00Z,Macedo De Cavaleiros,Bragança,Norte,-6.905937,41.670749
24874437,Valdreu,Cávado,309,2025-01-26T21:30:00Z,24874437,Em curso,3301,Queda de árvore,0,1,0,2,2025-01-26T21:30:00Z,Vila Verde,Braga,Norte,-8.322745,41.724617
24874444,Boivães,Alto Minho,309,2025-01-26T21:27:00Z,24874444,Em curso,3313,Deslizamento de terras,0,1,0,2,2025-01-26T21:27:00Z,Ponte Da Barca,Viana Do Castelo,Norte,-8.46146,41.757233
24874446,"Sé, Santa Maria e Meixedo",Terras de Trás-os-Montes,309,2025-01-26T21:33:00Z,24874446,Em despacho,3315,Inundação de estruturas por precipitação intensa,0,0,0,0,2025-01-26T21:33:00Z,Bragança,Bragança,Norte,-6.761223,41.813164
24851780,"São Miguel, Santa Eufémia e Rabaçal",Região de Coimbra,310,2025-01-21T23:25:00Z,24851780,Em curso,3315,Inundação de estruturas por precipitação intensa,0,0,0,0,2025-01-21T23:25:00Z,Penela,Coimbra,Centro,-8.399036,40.025502
24873573,"Nossa Senhora da Conceição, São Pedro e São Dinis",Douro,309,2025-01-26T17:56:00Z,24873573,Em despacho,3329,Queda de estruturas temporárias ou móveis,0,1,0,1,2025-01-26T17:56:00Z,Vila Real,Vila Real,Norte,-7.739745,41.30403
24873687,"Nossa Senhora da Conceição, São Pedro e São Dinis",Douro,309,2025-01-26T18:21:00Z,24873687,Em despacho,3309,Desabamento de estruturas edificadas,0,1,0,1,2025-01-26T18:21:00Z,Vila Real,Vila Real,Norte,-7.74444,41.29637
24874106,Queluz e Belas,Grande Lisboa,311,2025-01-26T20:03:00Z,24874106,Em conclusão,3321,Dano na rede de fornecimento de eletricidade ,0,1,0,4,2025-01-26T20:03:00Z,Sintra,Lisboa,Área Metropolitana De Lisboa,-9.271079,38.77098
24874257,Eixo e Eirol,Região de Aveiro,310,2025-01-26T20:45:00Z,24874257,Em curso,3301,Queda de árvore,0,3,0,9,2025-01-26T20:45:00Z,Aveiro,Aveiro,Centro,-8.594152,40.639067
24874291,Vade,Cávado,309,2025-01-26T20:50:00Z,24874291,Em despacho,3301,Queda de árvore,0,1,0,2,2025-01-26T20:50:00Z,Vila Verde,Braga,Norte,-8.428804,41.733615
24874306,"Esposende, Marinhas e Gandra",Cávado,309,2025-01-26T20:55:00Z,24874306,Em despacho,3315,Inundação de estruturas por precipitação intensa,0,1,0,1,2025-01-26T20:55:00Z,Esposende,Braga,Norte,-8.77323,41.541808
24874372,Vila Nova de Famalicão e Calendário,Ave,309,2025-01-26T21:15:00Z,24874372,Em despacho,3329,Queda de estruturas temporárias ou móveis,0,1,0,3,2025-01-26T21:15:00Z,Vila Nova De Famalicão,Braga,Norte,-8.524961,41.40026
24874567,Cerdal,Alto Minho,309,2025-01-26T22:00:00Z,24874567,Em curso,3301,Queda de árvore,0,1,0,2,2025-01-26T22:00:00Z,Valença,Viana Do Castelo,Norte,-8.624259,41.983243
24874453,Rabal,Terras de Trás-os-Montes,309,2025-01-26T21:09:00Z,24874453,Em despacho,3301,Queda de árvore,0,1,0,2,2025-01-26T21:09:00Z,Bragança,Bragança,Norte,-6.760012,41.869868
24874519,"Areias, Sequeiró, Lama e Palmeira",Area M. Porto,309,2025-01-26T21:45:00Z,24874519,Em despacho,3329,Queda de estruturas temporárias ou móveis,0,1,0,2,2025-01-26T21:45:00Z,Santo Tirso,Porto,Norte,-8.475731,41.362274
24874528,Serzedo e Perosinho,Area M. Porto,309,2025-01-26T21:49:00Z,24874528,Em despacho,3301,Queda de árvore,0,1,0,4,2025-01-26T21:49:00Z,Vila Nova De Gaia,Porto,Norte,-8.600642,41.053381
24874544,Arnóia,Tâmega e Sousa,309,2025-01-26T21:56:00Z,24874544,Em despacho,3301,Queda de árvore,0,1,0,2,2025-01-26T21:56:00Z,Celorico De Basto,Braga,Norte,-8.015378,41.373849
24874546,Pedroso e Seixezelo,Area M. Porto,309,2025-01-26T21:50:00Z,24874546,Em despacho,3301,Queda de árvore,0,1,0,3,2025-01-26T21:50:00Z,Vila Nova De Gaia,Porto,Norte,-8.55785,41.06333
24874562,"Barcelos, V. Boa e V. Frescainha",Cávado,309,2025-01-26T22:00:00Z,24874562,Em despacho,3321,Dano na rede de fornecimento de eletricidade ,0,1,0,2,2025-01-26T22:00:00Z,Barcelos,Braga,Norte,-8.631632,41.537528
24874564,"Sé, Santa Maria e Meixedo",Terras de Trás-os-Montes,309,2025-01-26T21:55:00Z,24874564,Em despacho,3315,Inundação de estruturas por precipitação intensa,0,1,0,2,2025-01-26T21:55:00Z,Bragança,Bragança,Norte,-6.761223,41.813164
24874578,Ligares,Douro,309,2025-01-26T22:10:00Z,24874578,Em despacho,3301,Queda de árvore,0,1,0,4,2025-01-26T22:10:00Z,Freixo De Espada à Cinta,Bragança,Norte,-6.945158,41.072146
24874580,"Caia, São Pedro e Alcáçova",Alto Alentejo,312,2025-01-26T22:03:00Z,24874580,Em despacho,3301,Queda de árvore,0,2,0,4,2025-01-26T22:03:00Z,Elvas,Portalegre,Alentejo,-7.113609,38.912756
24874587,"Santa Maria da Feira, Travanca, Sanfins e Espargo",Area M. Porto,309,2025-01-26T22:13:00Z,24874587,Em despacho,3301,Queda de árvore,0,0,0,0,2025-01-26T22:13:00Z,Santa Maria Da Feira,Aveiro,Norte,-8.53551,40.92716
24874392,Refóios do Lima,Alto Minho,309,2025-01-26T21:19:00Z,24874392,Em despacho,3301,Queda de árvore,0,1,0,3,2025-01-26T21:19:00Z,Ponte De Lima,Viana Do Castelo,Norte,-8.555431,41.793551
24874458,Cuide de Vila Verde,Alto Minho,309,2025-01-26T21:37:00Z,24874458,Em curso,3301,Queda de árvore,0,1,0,4,2025-01-26T21:37:00Z,Ponte Da Barca,Viana Do Castelo,Norte,-8.418445,41.7797
24874489,Salto,Alto Tâmega e Barroso,309,2025-01-26T21:38:00Z,24874489,Em despacho,3301,Queda de árvore,0,1,0,5,2025-01-26T21:38:00Z,Montalegre,Vila Real,Norte,-7.937576,41.615899
24874508,Moreira do Rei e Várzea Cova,Ave,309,2025-01-26T21:42:00Z,24874508,Em despacho,3301,Queda de árvore,0,1,0,3,2025-01-26T21:42:00Z,Fafe,Braga,Norte,-8.070524,41.507022
24874523,"Refojos de Basto, Outeiro e Painzela",Ave,309,2025-01-26T21:46:00Z,24874523,Em despacho,3313,Deslizamento de terras,0,1,0,2,2025-01-26T21:46:00Z,Cabeceiras De Basto,Braga,Norte,-8.010408,41.514146
24874543,Pessegueiro do Vouga,Região de Aveiro,310,2025-01-26T21:47:00Z,24874543,Em despacho,3301,Queda de árvore,0,1,0,3,2025-01-26T21:47:00Z,Sever Do Vouga,Aveiro,Centro,-8.367434,40.709991
24874573,Bustelo,Tâmega e Sousa,309,2025-01-26T22:09:00Z,24874573,Em despacho,3301,Queda de árvore,0,0,0,0,2025-01-26T22:09:00Z,Penafiel,Porto,Norte,-8.26453,41.23055
24874574,Touvedo (São Lourenço e Salvador),Alto Minho,309,2025-01-26T22:01:00Z,24874574,Em despacho,3301,Queda de árvore,0,1,0,2,2025-01-26T22:01:00Z,Ponte Da Barca,Viana Do Castelo,Norte,-8.360314,41.799475
