id,address,subregion,neighborhood,date,id.1,state,nature,nature_description,aerial_means,terrestrial_means,aquatic_means,operational,date.1,Concelho,Distrito,NUTII_DSG,longitude,latitude
25261372,Canidelo,Area M. Porto,309,2025-04-19T19:34:00Z,25261372,Em despacho,3301,Queda de árvore,0,1,0,3,2025-04-19T19:34:00Z,Vila Nova De Gaia,Porto,Norte,-8.652723,41.127681
25261399,Vila do Conde,Area M. Porto,309,2025-04-19T20:18:00Z,25261399,Em despacho,3311,Queda de elementos de estruturas edificados,0,1,0,2,2025-04-19T20:18:00Z,Vila Do Conde,Porto,Norte,-8.735384,41.352471
25261294,Azurara,Area M. Porto,309,2025-04-19T19:55:00Z,25261294,Em despacho,3301,Queda de árvore,0,1,0,3,2025-04-19T19:55:00Z,Vila Do Conde,Porto,Norte,-8.736698,41.344207
25070044,Praia do Ribatejo,Médio Tejo,311,2025-03-10T19:30:00Z,25070044,Em curso,1101,Cheia,0,0,0,0,2025-03-10T19:30:00Z,Vila Nova Da Barquinha,Santarém,Centro,-8.357309,39.485638
25071496,São Manços e São Vicente do Pigeiro,Alentejo Central,312,2025-03-11T13:18:00Z,25071496,Em conclusão,1101,Cheia,0,0,0,0,2025-03-11T13:18:00Z,Évora,Évora,Alentejo,-7.713313,38.513673
25202441,Serpa (Salvador e Santa Maria),Baixo Alentejo,312,2025-04-06T10:25:00Z,25202441,Em conclusão,1101,Cheia,0,0,0,0,2025-04-06T10:25:00Z,Serpa,Beja,Alentejo,-7.555783,37.88592
25261166,Braga (São José de São Lázaro e São João do Souto),Cávado,309,2025-04-19T19:15:00Z,25261166,Em despacho,3329,Queda de estruturas temporárias ou móveis,0,1,0,2,2025-04-19T19:15:00Z,Braga,Braga,Norte,-8.41699,41.54414
25261185,Arcos de Valdevez (São Paio) e Giela,Alto Minho,309,2025-04-19T19:18:00Z,25261185,Em despacho,3301,Queda de árvore,0,1,0,2,2025-04-19T19:18:00Z,Arcos De Valdevez,Viana Do Castelo,Norte,-8.407297,41.847054
25261301,"Geraz do Lima (S.maria, S.leocádia, Moreira), Deão",Alto Minho,309,2025-04-19T19:57:00Z,25261301,Em despacho,3301,Queda de árvore,0,1,0,2,2025-04-19T19:57:00Z,Viana Do Castelo,Viana Do Castelo,Norte,-8.67105,41.70328
25068300,Almeirim,Lezíria do Tejo,311,2025-03-10T20:52:00Z,25068300,Em curso,1101,Cheia,0,0,0,0,2025-03-10T20:52:00Z,Almeirim,Santarém,Alentejo,-8.635002,39.187436
25261337,Santa Maria Maior e Monserrate e Meadela,Alto Minho,309,2025-04-19T19:41:00Z,25261337,Em despacho,3311,Queda de elementos de estruturas edificados,0,1,0,2,2025-04-19T19:41:00Z,Viana Do Castelo,Viana Do Castelo,Norte,-8.81652,41.703882
25261432,Préstimo e Macieira de Alcoba,Região de Aveiro,310,2025-04-19T20:35:00Z,25261432,Em despacho,3301,Queda de árvore,0,1,0,4,2025-04-19T20:35:00Z,Águeda,Aveiro,Centro,-8.354136,40.62537
25261351,Santo António Dos Olivais,Região de Coimbra,310,2025-04-19T20:05:00Z,25261351,Em despacho,3317,Inundação de estruturas por água canalizada,0,1,0,3,2025-04-19T20:05:00Z,Coimbra,Coimbra,Centro,-8.426807,40.217261
25261450,Viseu,Viseu Dão Lafões,310,2025-04-19T20:34:00Z,25261450,Em despacho,3311,Queda de elementos de estruturas edificados,0,1,0,2,2025-04-19T20:34:00Z,Viseu,Viseu,Centro,-7.908451,40.659587
