id,address,subregion,neighborhood,date,id.1,state,nature,nature_description,aerial_means,terrestrial_means,aquatic_means,operational,date.1,Concelho,Distrito,NUTII_DSG,longitude,latitude
25587679,Vandoma,Area M. Porto,309,2025-06-27T12:15:00Z,25587679,Em conclusão,3101,Incêndio rural,0,4,0,9,2025-06-27T12:15:00Z,Paredes,Porto,Norte,-8.380961,41.20623
25588915,Figueira Dos Cavaleiros,Baixo Alentejo,312,2025-06-27T16:17:00Z,25588915,Em conclusão,3105,Incêndio rural,0,7,0,24,2025-06-27T16:17:00Z,Ferreira Do Alentejo,Beja,Alentejo,-8.226778,38.078578
25588967,"Marvila, Ribeira Santarém, S.salvador, S.nicolau",Lezíria do Tejo,311,2025-06-27T16:19:00Z,25588967,Em conclusão,3103,Incêndio rural,0,1,0,5,2025-06-27T16:19:00Z,Santarém,Santarém,Alentejo,-8.70415,39.227962
25589000,Beja (Salvador e Santa Maria da Feira),Baixo Alentejo,312,2025-06-27T16:34:00Z,25589000,Em resolução,3105,Incêndio rural,0,2,0,7,2025-06-27T16:34:00Z,Beja,Beja,Alentejo,-7.84884,38.02549
25589084,São Gens,Ave,309,2025-06-27T16:52:00Z,25589084,Em despacho,3107,Consolidação de rescaldo de incêndio rural,0,1,0,4,2025-06-27T16:52:00Z,Fafe,Braga,Norte,-8.112268,41.444087
25588510,Foz do Sousa e Covelo,Area M. Porto,309,2025-06-27T14:47:00Z,25588510,Em conclusão,3103,Incêndio rural,0,1,0,5,2025-06-27T14:47:00Z,Gondomar,Porto,Norte,-8.49927,41.113928
25588810,"Marvila, Ribeira Santarém, S.salvador, S.nicolau",Lezíria do Tejo,311,2025-06-27T15:55:00Z,25588810,Em conclusão,2301,Incêndio em transporte rodoviário,0,7,0,20,2025-06-27T15:55:00Z,Santarém,Santarém,Alentejo,-8.70415,39.227962
25589080,Castêlo da Maia,Area M. Porto,309,2025-06-27T16:51:00Z,25589080,Em despacho,3103,Incêndio rural,0,0,0,0,2025-06-27T16:51:00Z,Maia,Porto,Norte,-8.61093,41.2705
25588493,Ribeirão,Ave,309,2025-06-27T14:58:00Z,25588493,Em conclusão,3103,Incêndio rural,0,6,0,27,2025-06-27T14:58:00Z,Vila Nova De Famalicão,Braga,Norte,-8.558043,41.368877
25588511,Poceirão e Marateca,Península de Setúbal,311,2025-06-27T14:58:00Z,25588511,Em conclusão,3103,Incêndio rural,0,6,0,15,2025-06-27T14:58:00Z,Palmela,Setúbal,Área Metropolitana De Lisboa,-8.655762,38.561263
25588661,Termas de São Vicente,Tâmega e Sousa,309,2025-06-27T15:29:00Z,25588661,Em conclusão,3103,Incêndio rural,0,1,0,5,2025-06-27T15:29:00Z,Penafiel,Porto,Norte,-8.302562,41.125227
25588743,Perre,Alto Minho,309,2025-06-27T15:37:00Z,25588743,Em curso,3107,Consolidação de rescaldo de incêndio rural,0,0,0,0,2025-06-27T15:37:00Z,Viana Do Castelo,Viana Do Castelo,Norte,-8.781872,41.726893
25588879,Quinchães,Ave,309,2025-06-27T16:11:00Z,25588879,Em resolução,3103,Incêndio rural,2,6,0,31,2025-06-27T16:11:00Z,Fafe,Braga,Norte,-8.135626,41.431551
25588936,Ruivães e Novais,Ave,309,2025-06-27T16:22:00Z,25588936,Em resolução,3103,Incêndio rural,0,1,0,4,2025-06-27T16:22:00Z,Vila Nova De Famalicão,Braga,Norte,-8.428263,41.394618
25588005,Carregosa,Area M. Porto,309,2025-06-27T13:21:00Z,25588005,Em conclusão,3103,Incêndio rural,0,0,0,0,2025-06-27T13:21:00Z,Oliveira De Azeméis,Aveiro,Norte,-8.403377,40.874262
25588307,Sobrosa,Area M. Porto,309,2025-06-27T14:24:00Z,25588307,Em conclusão,3103,Incêndio rural,0,2,0,6,2025-06-27T14:24:00Z,Paredes,Porto,Norte,-8.359266,41.25526
25588792,Cidade da Maia,Area M. Porto,309,2025-06-27T15:54:00Z,25588792,Em conclusão,3103,Incêndio rural,0,2,0,8,2025-06-27T15:54:00Z,Maia,Porto,Norte,-8.59993,41.23342
25589006,Algueirão-Mem Martins,Grande Lisboa,311,2025-06-27T16:35:00Z,25589006,Em curso,2101,Incêndio em edifícios habitacionais,0,4,0,10,2025-06-27T16:35:00Z,Sintra,Lisboa,Área Metropolitana De Lisboa,-9.34887,38.78727
25589004,Ourique,Baixo Alentejo,312,2025-06-27T16:35:00Z,25589004,Em curso,3105,Incêndio rural,0,6,0,19,2025-06-27T16:35:00Z,Ourique,Beja,Alentejo,-8.1645,37.68458
25589045,Carapeços,Cávado,309,2025-06-27T16:44:00Z,25589045,Em despacho,3103,Incêndio rural,1,5,0,25,2025-06-27T16:44:00Z,Barcelos,Braga,Norte,-8.625898,41.583204
