id,address,subregion,neighborhood,date,id.1,state,nature,nature_description,aerial_means,terrestrial_means,aquatic_means,operational,date.1,Concelho,Distrito,NUTII_DSG,longitude,latitude,state_2
25950515,Eixo e Eirol,Região de Aveiro,310,2025-09-06T07:59:00Z,25950515,Em Resolução/Conclusão,3105,Incêndio rural,0,0,0,0,2025-09-06T07:59:00Z,Aveiro,Aveiro,Centro,-8.58422,40.61063,Resolução/Conclusão
25948144,Valongo de Milhais,Douro,309,2025-09-05T16:25:00Z,25948144,Em Resolução/Conclusão,3103,Incêndio rural,0,0,0,0,2025-09-05T16:25:00Z,Murça,Vila Real,Norte,-7.412273,41.457142,Resolução/Conclusão
25950318,Pegões,Península de Setúbal,311,2025-09-06T06:37:00Z,25950318,Em Resolução/Conclusão,3103,Incêndio rural,0,3,0,11,2025-09-06T06:37:00Z,Montijo,Setúbal,Área Metropolitana De Lisboa,-8.712513,38.70753,Resolução/Conclusão
25950561,Bensafrim e Barão de São João,Algarve,313,2025-09-06T08:17:00Z,25950561,Em Resolução/Conclusão,3103,Incêndio rural,1,5,0,28,2025-09-06T08:17:00Z,Lagos,Faro,Algarve,-8.740241,37.206462,Resolução/Conclusão
25832672,Piódão,Região de Coimbra,310,2025-08-13T05:08:00Z,25832672,Em Resolução/Conclusão,3103,Incêndio rural,0,14,0,40,2025-08-13T05:08:00Z,Arganil,Coimbra,Centro,-7.81972,40.23083,Resolução/Conclusão
25840417,Lousã e Vilarinho,Região de Coimbra,310,2025-08-14T13:46:00Z,25840417,Em Resolução/Conclusão,3101,Incêndio rural,0,0,0,0,2025-08-14T13:46:00Z,Lousã,Coimbra,Centro,-8.201561,40.080016,Resolução/Conclusão
