id,address,subregion,neighborhood,date,id.1,state,nature,nature_description,aerial_means,terrestrial_means,aquatic_means,operational,date.1,Concelho,Distrito,NUTII_DSG,longitude,latitude
25486174,Monsanto e Idanha-a-Velha,Beira Baixa,310,2025-06-06T14:09:00Z,25486174,Em conclusão,3103,Incêndio rural,0,5,0,16,2025-06-06T14:09:00Z,Idanha-a-Nova,Castelo Branco,Centro,-7.109505,40.022182
25486979,Caparica e Trafaria,Península de Setúbal,311,2025-06-06T16:34:00Z,25486979,Em resolução,2127,"Incêndio em edifícios e recintos industriais, oficinas e armazéns",0,4,0,12,2025-06-06T16:34:00Z,Almada,Setúbal,Área Metropolitana De Lisboa,-9.198172,38.665376
25486449,Faro (Sé e São Pedro),Algarve,313,2025-06-06T14:56:00Z,25486449,Em conclusão,2129,Incêndio em edifícios degradados ou devolutos,0,4,0,10,2025-06-06T14:56:00Z,Faro,Faro,Algarve,-7.91773,37.01212
25486787,Barreiro e Lavradio,Península de Setúbal,311,2025-06-06T16:06:00Z,25486787,Em conclusão,3103,Incêndio rural,0,0,0,0,2025-06-06T16:06:00Z,Barreiro,Setúbal,Área Metropolitana De Lisboa,-9.062184,38.667355
25486969,Samora Correia,Lezíria do Tejo,311,2025-06-06T16:41:00Z,25486969,Em conclusão,3103,Incêndio rural,0,3,0,12,2025-06-06T16:41:00Z,Benavente,Santarém,Alentejo,-8.881105,38.855113
25486988,Minde,Médio Tejo,311,2025-06-06T16:45:00Z,25486988,Em conclusão,3105,Incêndio rural,0,2,0,10,2025-06-06T16:45:00Z,Alcanena,Santarém,Centro,-8.6842,39.51588
25487120,Anha,Alto Minho,309,2025-06-06T17:15:00Z,25487120,Em despacho,2301,Incêndio em transporte rodoviário,0,1,0,1,2025-06-06T17:15:00Z,Viana Do Castelo,Viana Do Castelo,Norte,-8.77798,41.66245
25486557,Montemor-o-Velho e Gatões,Região de Coimbra,310,2025-06-06T15:19:00Z,25486557,Em resolução,2101,Incêndio em edifícios habitacionais,0,5,0,14,2025-06-06T15:19:00Z,Montemor-o-Velho,Coimbra,Centro,-8.696843,40.198246
