id,address,subregion,neighborhood,date,id.1,state,nature,nature_description,aerial_means,terrestrial_means,aquatic_means,operational,date.1,Concelho,Distrito,NUTII_DSG,longitude,latitude,state_2
25952858,Figueira de Castelo Rodrigo,Beiras e Serra da Estrela,310,2025-09-06T16:22:00Z,25952858,Em Resolução/Conclusão,3103,Incêndio rural,0,2,0,7,2025-09-06T16:22:00Z,Figueira De Castelo Rodrigo,Guarda,Centro,-6.934648,40.906778,Resolução/Conclusão
25980034,Medelim,Beira Baixa,310,2025-09-12T14:12:00Z,25980034,Em Resolução/Conclusão,3105,Incêndio rural,0,0,0,0,2025-09-12T14:12:00Z,Idanha-a-Nova,Castelo Branco,Centro,-7.18952,40.048882,Resolução/Conclusão
25981018,Foz do Arelho,Oeste,311,2025-09-12T17:27:00Z,25981018,Em Resolução/Conclusão,3103,Incêndio rural,0,2,0,10,2025-09-12T17:27:00Z,Caldas Da Rainha,Leiria,Centro,-9.206552,39.449831,Resolução/Conclusão
25951176,Sandomil,Beiras e Serra da Estrela,310,2025-09-06T10:29:00Z,25951176,Em Resolução/Conclusão,3103,Incêndio rural,0,17,0,59,2025-09-06T10:29:00Z,Seia,Guarda,Centro,-7.76001,40.351547,Resolução/Conclusão
25980003,Chavães,Douro,309,2025-09-12T14:05:00Z,25980003,Em Resolução/Conclusão,3103,Incêndio rural,0,6,0,20,2025-09-12T14:05:00Z,Tabuaço,Viseu,Norte,-7.553368,41.096233,Resolução/Conclusão
25980588,Pinheiro,Viseu Dão Lafões,310,2025-09-12T15:56:00Z,25980588,Em Resolução/Conclusão,3103,Incêndio rural,0,6,0,19,2025-09-12T15:56:00Z,Oliveira De Frades,Viseu,Centro,-8.20497,40.704268,Resolução/Conclusão
25981226,Alhadas,Região de Coimbra,310,2025-09-12T18:15:00Z,25981226,Em Resolução/Conclusão,3103,Incêndio rural,1,0,0,6,2025-09-12T18:15:00Z,Figueira Da Foz,Coimbra,Centro,-8.813095,40.19672,Resolução/Conclusão
25832672,Piódão,Região de Coimbra,310,2025-08-13T05:08:00Z,25832672,Em Resolução/Conclusão,3103,Incêndio rural,0,14,0,41,2025-08-13T05:08:00Z,Arganil,Coimbra,Centro,-7.81972,40.23083,Resolução/Conclusão
25980583,Outeiro,Alto Tâmega e Barroso,309,2025-09-12T15:57:00Z,25980583,Em Despacho,3103,Incêndio rural,0,2,0,10,2025-09-12T15:57:00Z,Montalegre,Vila Real,Norte,-7.969581,41.770809,Despacho
25980131,Carva e Vilares,Douro,309,2025-09-12T14:27:00Z,25980131,Em Curso,3103,Incêndio rural,11,49,0,195,2025-09-12T14:27:00Z,Murça,Vila Real,Norte,-7.55901,41.401343,Curso
25980930,Santo André Das Tojeiras,Beira Baixa,310,2025-09-12T17:08:00Z,25980930,Em Curso,3101,Incêndio rural,12,46,0,170,2025-09-12T17:08:00Z,Castelo Branco,Castelo Branco,Centro,-7.73386,39.80928,Curso
25980963,Casa Branca,Alto Alentejo,312,2025-09-12T17:08:00Z,25980963,Em Resolução/Conclusão,3103,Incêndio rural,0,4,0,10,2025-09-12T17:08:00Z,Sousel,Portalegre,Alentejo,-7.865707,38.963825,Resolução/Conclusão
