id,address,subregion,neighborhood,date,id.1,state,nature,nature_description,aerial_means,terrestrial_means,aquatic_means,operational,date.1,Concelho,Distrito,NUTII_DSG,longitude,latitude
25575868,"Gondomar (São Cosme), Valbom e Jovim",Area M. Porto,309,2025-06-25T01:43:00Z,25575868,Em conclusão,3103,Incêndio rural,0,1,0,4,2025-06-25T01:43:00Z,Gondomar,Porto,Norte,-8.505587,41.112837
25575960,Ermesinde,Area M. Porto,309,2025-06-25T03:19:00Z,25575960,Em despacho,2301,Incêndio em transporte rodoviário,0,0,0,0,2025-06-25T03:19:00Z,Valongo,Porto,Norte,-8.548324,41.20528
25575722,Asseiceira,Médio Tejo,311,2025-06-25T00:14:00Z,25575722,Em conclusão,2301,Incêndio em transporte rodoviário,0,4,0,10,2025-06-25T00:14:00Z,Tomar,Santarém,Centro,-8.38863,39.54108
25575856,Nossa Senhora Das Neves,Baixo Alentejo,312,2025-06-25T01:32:00Z,25575856,Em conclusão,3103,Incêndio rural,0,1,0,5,2025-06-25T01:32:00Z,Beja,Beja,Alentejo,-7.80618,38.010457
25575870,Eja,Tâmega e Sousa,309,2025-06-25T01:46:00Z,25575870,Em conclusão,3103,Incêndio rural,0,3,0,15,2025-06-25T01:46:00Z,Penafiel,Porto,Norte,-8.300588,41.088347
