id,address,subregion,neighborhood,date,id.1,state,nature,nature_description,aerial_means,terrestrial_means,aquatic_means,operational,date.1,Concelho,Distrito,NUTII_DSG,longitude,latitude
25492380,Lustosa e Barrosas (Santo Estêvão),Tâmega e Sousa,309,2025-06-07T18:10:00Z,25492380,Em conclusão,3103,Incêndio rural,0,2,0,10,2025-06-07T18:10:00Z,Lousada,Porto,Norte,-8.326605,41.325122
25492068,Charneca de Caparica e Sobreda,Península de Setúbal,311,2025-06-07T17:21:00Z,25492068,Em conclusão,3103,Incêndio rural,0,16,0,49,2025-06-07T17:21:00Z,Almada,Setúbal,Área Metropolitana De Lisboa,-9.19733,38.584712
25492208,Poiares (Santo André),Região de Coimbra,310,2025-06-07T17:59:00Z,25492208,Em conclusão,3105,Incêndio rural,0,1,0,3,2025-06-07T17:59:00Z,Vila Nova De Poiares,Coimbra,Centro,-8.256485,40.227476
25491204,São João de Rei,Ave,309,2025-06-07T14:03:00Z,25491204,Em conclusão,3101,Incêndio rural,0,2,0,10,2025-06-07T14:03:00Z,Póvoa De Lanhoso,Braga,Norte,-8.286837,41.616893
25491602,Torre de Moncorvo,Douro,309,2025-06-07T15:40:00Z,25491602,Em conclusão,3103,Incêndio rural,0,8,0,26,2025-06-07T15:40:00Z,Torre De Moncorvo,Bragança,Norte,-7.096635,41.162693
25492440,Vila Caiz,Tâmega e Sousa,309,2025-06-07T18:58:00Z,25492440,Em conclusão,3105,Incêndio rural,0,3,0,9,2025-06-07T18:58:00Z,Amarante,Porto,Norte,-8.133468,41.232695
25492474,Marinha Grande,Região de Leiria,310,2025-06-07T19:04:00Z,25492474,Em resolução,3103,Incêndio rural,0,4,0,17,2025-06-07T19:04:00Z,Marinha Grande,Leiria,Centro,-8.900148,39.729212
25492504,Vilar da Veiga,Cávado,309,2025-06-07T19:10:00Z,25492504,Em despacho,2201,Incêndio em equipamentos ou produtos,0,1,0,5,2025-06-07T19:10:00Z,Terras De Bouro,Braga,Norte,-8.16406,41.72886
25492590,Castro Marim,Algarve,313,2025-06-07T19:35:00Z,25492590,Em despacho,3201,Detritos não confinados,0,2,0,7,2025-06-07T19:35:00Z,Castro Marim,Faro,Algarve,-7.494223,37.221625
