id,address,subregion,neighborhood,date,id.1,state,nature,nature_description,aerial_means,terrestrial_means,aquatic_means,operational,date.1,Concelho,Distrito,NUTII_DSG,longitude,latitude
25591359,Labruja,Alto Minho,309,2025-06-28T05:31:00Z,25591359,Em resolução,3103,Incêndio rural,0,4,0,9,2025-06-28T05:31:00Z,Ponte De Lima,Viana Do Castelo,Norte,-8.591233,41.835535
25591375,Penacova,Tâmega e Sousa,309,2025-06-28T06:01:00Z,25591375,Em resolução,3103,Incêndio rural,0,1,0,5,2025-06-28T06:01:00Z,Felgueiras,Porto,Norte,-8.257942,41.3727
25591436,"Mação, Penhascoso e Aboboreira",Médio Tejo,311,2025-06-28T06:55:00Z,25591436,Em despacho,2301,Incêndio em transporte rodoviário,0,0,0,0,2025-06-28T06:55:00Z,Mação,Santarém,Centro,-8.00848,39.56957
25591299,Santa Maria do Castelo e Santiago e Santa Susana,Alentejo Litoral,312,2025-06-28T04:22:00Z,25591299,Em resolução,3103,Incêndio rural,0,3,0,6,2025-06-28T04:22:00Z,Alcácer Do Sal,Setúbal,Alentejo,-8.488497,38.305077
25591429,Tamel (Santa Leocádia) e Vilar do Monte,Cávado,309,2025-06-28T06:50:00Z,25591429,Em despacho,3107,Consolidação de rescaldo de incêndio rural,0,1,0,5,2025-06-28T06:50:00Z,Barcelos,Braga,Norte,-8.66478,41.569249
25588493,Ribeirão,Ave,309,2025-06-27T14:58:00Z,25588493,Em conclusão,3103,Incêndio rural,0,1,0,5,2025-06-27T14:58:00Z,Vila Nova De Famalicão,Braga,Norte,-8.558043,41.368877
25591403,Portimão,Algarve,313,2025-06-28T06:24:00Z,25591403,Em conclusão,2111,Incêndio em edifícios hospitalares e lares de idosos,0,3,0,8,2025-06-28T06:24:00Z,Portimão,Faro,Algarve,-8.532608,37.137966
