id,address,subregion,neighborhood,date,id.1,state,nature,nature_description,aerial_means,terrestrial_means,aquatic_means,operational,date.1,Concelho,Distrito,NUTII_DSG,longitude,latitude,state_2
25984495,São Salvador da Aramenha,Alto Alentejo,312,2025-09-13T13:28:00Z,25984495,Em Resolução/Conclusão,3101,Incêndio rural,0,17,0,59,2025-09-13T13:28:00Z,Marvão,Portalegre,Alentejo,-7.39094,39.36988,Resolução/Conclusão
25985138,Malagueira e Horta Das Figueiras,Alentejo Central,312,2025-09-13T16:01:00Z,25985138,Em Resolução/Conclusão,3103,Incêndio rural,0,5,0,17,2025-09-13T16:01:00Z,Évora,Évora,Alentejo,-7.92772,38.573887,Resolução/Conclusão
25985140,Nossa Senhora da Graça Dos Degolados,Alto Alentejo,312,2025-09-13T16:01:00Z,25985140,Em Resolução/Conclusão,3103,Incêndio rural,0,6,0,21,2025-09-13T16:01:00Z,Campo Maior,Portalegre,Alentejo,-7.115105,39.052805,Resolução/Conclusão
25985247,Mexilhoeira Grande,Algarve,313,2025-09-13T16:26:00Z,25985247,Em Curso,3103,Incêndio rural,1,6,0,22,2025-09-13T16:26:00Z,Portimão,Faro,Algarve,-8.638,37.16902,Curso
25985039,Silva e Águas Vivas,Terras de Trás-os-Montes,309,2025-09-13T15:35:00Z,25985039,Em Resolução/Conclusão,3105,Incêndio rural,0,3,0,12,2025-09-13T15:35:00Z,Miranda Do Douro,Bragança,Norte,-6.450178,41.508812,Resolução/Conclusão
25951176,Sandomil,Beiras e Serra da Estrela,310,2025-09-06T10:29:00Z,25951176,Em Resolução/Conclusão,3103,Incêndio rural,0,15,0,52,2025-09-06T10:29:00Z,Seia,Guarda,Centro,-7.76001,40.351547,Resolução/Conclusão
25981808,"Avidagos, Navalho e Pereira",Terras de Trás-os-Montes,309,2025-09-12T20:38:00Z,25981808,Em Resolução/Conclusão,3103,Incêndio rural,0,2,0,7,2025-09-12T20:38:00Z,Mirandela,Bragança,Norte,-7.264448,41.359912,Resolução/Conclusão
25985285,Carnota,Oeste,311,2025-09-13T16:32:00Z,25985285,Em Despacho,3103,Incêndio rural,1,5,0,25,2025-09-13T16:32:00Z,Alenquer,Lisboa,Centro,-9.063301,39.024,Despacho
25985319,Fronteira,Alto Alentejo,312,2025-09-13T16:34:00Z,25985319,Em Resolução/Conclusão,3105,Incêndio rural,0,3,0,8,2025-09-13T16:34:00Z,Fronteira,Portalegre,Alentejo,-7.653542,39.054093,Resolução/Conclusão
25980131,Carva e Vilares,Douro,309,2025-09-12T14:27:00Z,25980131,Em Curso,3103,Incêndio rural,9,107,0,354,2025-09-12T14:27:00Z,Murça,Vila Real,Norte,-7.55901,41.401343,Curso
25980930,Santo André Das Tojeiras,Beira Baixa,310,2025-09-12T17:08:00Z,25980930,Em Resolução/Conclusão,3101,Incêndio rural,0,21,0,67,2025-09-12T17:08:00Z,Castelo Branco,Castelo Branco,Centro,-7.72701,39.809058,Resolução/Conclusão
25984607,Vascoveiro,Beiras e Serra da Estrela,310,2025-09-13T13:54:00Z,25984607,Em Resolução/Conclusão,3103,Incêndio rural,0,1,0,4,2025-09-13T13:54:00Z,Pinhel,Guarda,Centro,-7.080513,40.72261,Resolução/Conclusão
25984909,Arrimal e Mendiga,Região de Leiria,310,2025-09-13T14:53:00Z,25984909,Em Resolução/Conclusão,3105,Incêndio rural,0,0,0,0,2025-09-13T14:53:00Z,Porto De Mós,Leiria,Centro,-8.841853,39.513672,Resolução/Conclusão
