id,address,subregion,neighborhood,date,id.1,state,nature,nature_description,aerial_means,terrestrial_means,aquatic_means,operational,date.1,Concelho,Distrito,NUTII_DSG,longitude,latitude
25059714,Torrão,Alentejo Litoral,312,2025-03-08T22:10:00Z,25059714,Em curso,1101,Cheia,0,1,0,2,2025-03-08T22:10:00Z,Alcácer Do Sal,Setúbal,Alentejo,-8.359133,38.252053
25070044,Praia do Ribatejo,Médio Tejo,311,2025-03-10T19:30:00Z,25070044,Em curso,1101,Cheia,0,0,0,0,2025-03-10T19:30:00Z,Vila Nova Da Barquinha,Santarém,Centro,-8.357309,39.485638
25071496,São Manços e São Vicente do Pigeiro,Alentejo Central,312,2025-03-11T13:18:00Z,25071496,Em curso,1101,Cheia,0,2,0,4,2025-03-11T13:18:00Z,Évora,Évora,Alentejo,-7.713313,38.513673
25112595,Maiorca,Região de Coimbra,310,2025-03-20T00:16:00Z,25112595,Em despacho,3301,Queda de árvore,0,0,0,0,2025-03-20T00:16:00Z,Figueira Da Foz,Coimbra,Centro,-8.749227,40.16851
25112628,"Sé Nova, Santa Cruz, Almedina e São Bartolomeu",Região de Coimbra,310,2025-03-20T00:10:00Z,25112628,Em despacho,3311,Queda de elementos de estruturas edificados,0,0,0,0,2025-03-20T00:10:00Z,Coimbra,Coimbra,Centro,-8.425582,40.205556
25112662,Setúbal (São Sebastião),Península de Setúbal,311,2025-03-20T00:27:00Z,25112662,Em curso,3329,Queda de estruturas temporárias ou móveis,0,0,0,0,2025-03-20T00:27:00Z,Setúbal,Setúbal,Área Metropolitana De Lisboa,-8.86899,38.52164
25112796,"S.julião, N.s. da Anunciada e S. Maria da Graça",Península de Setúbal,311,2025-03-20T00:42:00Z,25112796,Em curso,3311,Queda de elementos de estruturas edificados,0,0,0,0,2025-03-20T00:42:00Z,Setúbal,Setúbal,Área Metropolitana De Lisboa,-8.890614,38.52599
25112876,Corroios,Península de Setúbal,311,2025-03-20T00:52:00Z,25112876,Em curso,3301,Queda de árvore,0,0,0,0,2025-03-20T00:52:00Z,Seixal,Setúbal,Área Metropolitana De Lisboa,-9.157211,38.5818
25112944,Longueira/Almograve,Alentejo Litoral,312,2025-03-20T00:20:00Z,25112944,Em conclusão,3301,Queda de árvore,0,4,0,9,2025-03-20T00:20:00Z,Odemira,Beja,Alentejo,-8.752532,37.635323
25063232,Santa Maria do Castelo e Santiago e Santa Susana,Alentejo Litoral,312,2025-03-09T19:02:00Z,25063232,Em curso,1101,Cheia,0,0,0,0,2025-03-09T19:02:00Z,Alcácer Do Sal,Setúbal,Alentejo,-8.48167,38.29806
25112569,São Salvador e Santa Maria,Alentejo Litoral,312,2025-03-20T00:01:00Z,25112569,Em despacho,3301,Queda de árvore,0,1,0,4,2025-03-20T00:01:00Z,Odemira,Beja,Alentejo,-8.681094,37.59238
25112704,Fernão Ferro,Península de Setúbal,311,2025-03-20T00:32:00Z,25112704,Em curso,3321,Dano na rede de fornecimento de eletricidade ,0,0,0,0,2025-03-20T00:32:00Z,Seixal,Setúbal,Área Metropolitana De Lisboa,-9.08671,38.56536
25112718,Alhos Vedros,Península de Setúbal,311,2025-03-20T00:33:00Z,25112718,Em curso,3329,Queda de estruturas temporárias ou móveis,0,0,0,0,2025-03-20T00:33:00Z,Moita,Setúbal,Área Metropolitana De Lisboa,-9.023435,38.65349
25112736,Seixo de Gatões,Região de Coimbra,310,2025-03-20T00:26:00Z,25112736,Em despacho,3309,Desabamento de estruturas edificadas,0,0,0,0,2025-03-20T00:26:00Z,Montemor-o-Velho,Coimbra,Centro,-8.690129,40.238805
25112821,Queluz e Belas,Grande Lisboa,311,2025-03-20T00:05:00Z,25112821,Em curso,3301,Queda de árvore,0,1,0,2,2025-03-20T00:05:00Z,Sintra,Lisboa,Área Metropolitana De Lisboa,-9.270072,38.779997
25112835,"Almada, Cova da Piedade, Pragal e Cacilhas",Península de Setúbal,311,2025-03-20T00:47:00Z,25112835,Em curso,3301,Queda de árvore,0,0,0,0,2025-03-20T00:47:00Z,Almada,Setúbal,Área Metropolitana De Lisboa,-9.15992,38.67447
25112887,Sesimbra (Castelo),Península de Setúbal,311,2025-03-20T00:53:00Z,25112887,Em curso,3301,Queda de árvore,0,0,0,0,2025-03-20T00:53:00Z,Sesimbra,Setúbal,Área Metropolitana De Lisboa,-9.093273,38.47523
25113011,Cascais e Estoril,Grande Lisboa,311,2025-03-20T01:09:00Z,25113011,Em despacho,3301,Queda de árvore,0,0,0,0,2025-03-20T01:09:00Z,Cascais,Lisboa,Área Metropolitana De Lisboa,-9.398759,38.70391
25113012,Cacém e São Marcos,Grande Lisboa,311,2025-03-20T01:09:00Z,25113012,Em despacho,3311,Queda de elementos de estruturas edificados,0,0,0,0,2025-03-20T01:09:00Z,Sintra,Lisboa,Área Metropolitana De Lisboa,-9.3115,38.76819
25113160,Corroios,Península de Setúbal,311,2025-03-20T01:24:00Z,25113160,Em curso,3311,Queda de elementos de estruturas edificados,0,0,0,0,2025-03-20T01:24:00Z,Seixal,Setúbal,Área Metropolitana De Lisboa,-9.14678,38.62745
25113162,São Domingos de Rana,Grande Lisboa,311,2025-03-20T01:24:00Z,25113162,Em despacho,3301,Queda de árvore,0,0,0,0,2025-03-20T01:24:00Z,Cascais,Lisboa,Área Metropolitana De Lisboa,-9.3553,38.70397
25113163,São Domingos de Rana,Grande Lisboa,311,2025-03-20T01:18:00Z,25113163,Em despacho,3311,Queda de elementos de estruturas edificados,0,0,0,0,2025-03-20T01:18:00Z,Cascais,Lisboa,Área Metropolitana De Lisboa,-9.341509,38.701875
25113194,Alverca do Ribatejo e Sobralinho,Grande Lisboa,311,2025-03-20T01:27:00Z,25113194,Em despacho,3311,Queda de elementos de estruturas edificados,0,0,0,0,2025-03-20T01:27:00Z,Vila Franca De Xira,Lisboa,Área Metropolitana De Lisboa,-9.0484000000000009,38.90376
25113227,Charneca de Caparica e Sobreda,Península de Setúbal,311,2025-03-20T01:31:00Z,25113227,Em curso,3301,Queda de árvore,0,0,0,0,2025-03-20T01:31:00Z,Almada,Setúbal,Área Metropolitana De Lisboa,-9.176084,38.58879
25113229,Charneca de Caparica e Sobreda,Península de Setúbal,311,2025-03-20T01:31:00Z,25113229,Em curso,3301,Queda de árvore,0,0,0,0,2025-03-20T01:31:00Z,Almada,Setúbal,Área Metropolitana De Lisboa,-9.182356,38.58913
25112936,Pinhal Novo,Península de Setúbal,311,2025-03-20T00:59:00Z,25112936,Em curso,3329,Queda de estruturas temporárias ou móveis,0,0,0,0,2025-03-20T00:59:00Z,Palmela,Setúbal,Área Metropolitana De Lisboa,-8.93024,38.60548
25112987,Quinta do Anjo,Península de Setúbal,311,2025-03-20T01:06:00Z,25112987,Em curso,3301,Queda de árvore,0,0,0,0,2025-03-20T01:06:00Z,Palmela,Setúbal,Área Metropolitana De Lisboa,-8.94361,38.60282
25113018,Alcochete,Península de Setúbal,311,2025-03-20T01:10:00Z,25113018,Em curso,3321,Dano na rede de fornecimento de eletricidade ,0,0,0,0,2025-03-20T01:10:00Z,Alcochete,Setúbal,Área Metropolitana De Lisboa,-8.93938,38.73429
25113052,São Domingos de Rana,Grande Lisboa,311,2025-03-20T01:13:00Z,25113052,Em despacho,3311,Queda de elementos de estruturas edificados,0,0,0,0,2025-03-20T01:13:00Z,Cascais,Lisboa,Área Metropolitana De Lisboa,-9.32533,38.72599
25113069,Amora,Península de Setúbal,311,2025-03-20T01:15:00Z,25113069,Em curso,3311,Queda de elementos de estruturas edificados,0,0,0,0,2025-03-20T01:15:00Z,Seixal,Setúbal,Área Metropolitana De Lisboa,-9.11034,38.62046
25113085,Santo António Dos Cavaleiros e Frielas,Grande Lisboa,311,2025-03-20T01:14:00Z,25113085,Em despacho,3311,Queda de elementos de estruturas edificados,0,0,0,0,2025-03-20T01:14:00Z,Loures,Lisboa,Área Metropolitana De Lisboa,-9.171619,38.815144
25113086,Quinta do Conde,Península de Setúbal,311,2025-03-20T01:16:00Z,25113086,Em curso,3321,Dano na rede de fornecimento de eletricidade ,0,0,0,0,2025-03-20T01:16:00Z,Sesimbra,Setúbal,Área Metropolitana De Lisboa,-9.04645,38.56296
25113088,Venteira,Grande Lisboa,311,2025-03-20T01:16:00Z,25113088,Em despacho,3311,Queda de elementos de estruturas edificados,0,0,0,0,2025-03-20T01:16:00Z,Amadora,Lisboa,Área Metropolitana De Lisboa,-9.23452,38.75815
25113102,Charneca de Caparica e Sobreda,Península de Setúbal,311,2025-03-20T01:18:00Z,25113102,Em curso,3301,Queda de árvore,0,0,0,0,2025-03-20T01:18:00Z,Almada,Setúbal,Área Metropolitana De Lisboa,-9.17228,38.58738
25113294,Algueirão-Mem Martins,Grande Lisboa,311,2025-03-20T01:37:00Z,25113294,Em despacho,3311,Queda de elementos de estruturas edificados,0,0,0,0,2025-03-20T01:37:00Z,Sintra,Lisboa,Área Metropolitana De Lisboa,-9.324166,38.79472
25113313,Alverca do Ribatejo e Sobralinho,Grande Lisboa,311,2025-03-20T01:39:00Z,25113313,Em despacho,3311,Queda de elementos de estruturas edificados,0,0,0,0,2025-03-20T01:39:00Z,Vila Franca De Xira,Lisboa,Área Metropolitana De Lisboa,-9.05384,38.90527
25113329,Falagueira-Venda Nova,Grande Lisboa,311,2025-03-20T01:40:00Z,25113329,Em despacho,3301,Queda de árvore,0,0,0,0,2025-03-20T01:40:00Z,Amadora,Lisboa,Área Metropolitana De Lisboa,-9.223747,38.760622
25113330,Cascais e Estoril,Grande Lisboa,311,2025-03-20T01:40:00Z,25113330,Em despacho,3301,Queda de árvore,0,0,0,0,2025-03-20T01:40:00Z,Cascais,Lisboa,Área Metropolitana De Lisboa,-9.398759,38.70391
25113430,Charneca de Caparica e Sobreda,Península de Setúbal,311,2025-03-20T01:50:00Z,25113430,Em curso,3301,Queda de árvore,0,1,0,4,2025-03-20T01:50:00Z,Almada,Setúbal,Área Metropolitana De Lisboa,-9.1789,38.60783
25113461,Beja (Santiago Maior e São João Baptista),Baixo Alentejo,312,2025-03-20T01:54:00Z,25113461,Em despacho,3301,Queda de árvore,0,0,0,0,2025-03-20T01:54:00Z,Beja,Beja,Alentejo,-7.86754,38.00967
25113462,Carregal do Sal,Viseu Dão Lafões,310,2025-03-20T01:52:00Z,25113462,Em despacho,3301,Queda de árvore,0,2,0,5,2025-03-20T01:52:00Z,Carregal Do Sal,Viseu,Centro,-7.999939,40.437298
25113463,"Almada, Cova da Piedade, Pragal e Cacilhas",Península de Setúbal,311,2025-03-20T01:54:00Z,25113463,Em conclusão,3311,Queda de elementos de estruturas edificados,0,0,0,0,2025-03-20T01:54:00Z,Almada,Setúbal,Área Metropolitana De Lisboa,-9.1648,38.67804
25113480,São Domingos de Rana,Grande Lisboa,311,2025-03-20T01:55:00Z,25113480,Em despacho,3301,Queda de árvore,0,0,0,0,2025-03-20T01:55:00Z,Cascais,Lisboa,Área Metropolitana De Lisboa,-9.34564,38.69702
25113135,Rio de Mouro,Grande Lisboa,311,2025-03-20T01:20:00Z,25113135,Em despacho,3321,Dano na rede de fornecimento de eletricidade ,0,0,0,0,2025-03-20T01:20:00Z,Sintra,Lisboa,Área Metropolitana De Lisboa,-9.317364,38.786733
25113170,Corroios,Península de Setúbal,311,2025-03-20T01:24:00Z,25113170,Em curso,3301,Queda de árvore,0,0,0,0,2025-03-20T01:24:00Z,Seixal,Setúbal,Área Metropolitana De Lisboa,-9.15464,38.58128
25113171,São João Das Lampas e Terrugem,Grande Lisboa,311,2025-03-20T01:24:00Z,25113171,Em despacho,3301,Queda de árvore,0,0,0,0,2025-03-20T01:24:00Z,Sintra,Lisboa,Área Metropolitana De Lisboa,-9.38058,38.91877
25113236,"Almada, Cova da Piedade, Pragal e Cacilhas",Península de Setúbal,311,2025-03-20T01:32:00Z,25113236,Em curso,3311,Queda de elementos de estruturas edificados,0,0,0,0,2025-03-20T01:32:00Z,Almada,Setúbal,Área Metropolitana De Lisboa,-9.15908,38.67736
25113237,Costa da Caparica,Península de Setúbal,311,2025-03-20T01:32:00Z,25113237,Em curso,3311,Queda de elementos de estruturas edificados,0,0,0,0,2025-03-20T01:32:00Z,Almada,Setúbal,Área Metropolitana De Lisboa,-9.23149,38.63755
25113252,Venteira,Grande Lisboa,311,2025-03-20T01:33:00Z,25113252,Em despacho,3311,Queda de elementos de estruturas edificados,0,0,0,0,2025-03-20T01:33:00Z,Amadora,Lisboa,Área Metropolitana De Lisboa,-9.23969,38.75664
25113270,Charneca de Caparica e Sobreda,Península de Setúbal,311,2025-03-20T01:34:00Z,25113270,Em curso,3301,Queda de árvore,0,0,0,0,2025-03-20T01:34:00Z,Almada,Setúbal,Área Metropolitana De Lisboa,-9.17811,38.58586
25113288,"N. S. da Vila, N. S. do Bispo e Silveiras",Alentejo Central,312,2025-03-20T01:20:00Z,25113288,Em despacho,3301,Queda de árvore,0,0,0,0,2025-03-20T01:20:00Z,Montemor-o-Novo,Évora,Alentejo,-8.21652,38.662575
25113304,São Domingos de Rana,Grande Lisboa,311,2025-03-20T01:38:00Z,25113304,Em despacho,3321,Dano na rede de fornecimento de eletricidade ,0,0,0,0,2025-03-20T01:38:00Z,Cascais,Lisboa,Área Metropolitana De Lisboa,-9.32923,38.71493
25068300,Almeirim,Lezíria do Tejo,311,2025-03-10T20:52:00Z,25068300,Em curso,1101,Cheia,0,0,0,0,2025-03-10T20:52:00Z,Almeirim,Santarém,Alentejo,-8.635002,39.187436
25112472,Caparica e Trafaria,Península de Setúbal,311,2025-03-19T23:57:00Z,25112472,Em curso,3301,Queda de árvore,0,0,0,0,2025-03-19T23:57:00Z,Almada,Setúbal,Área Metropolitana De Lisboa,-9.242559,38.66221
25112524,Pereira,Região de Coimbra,310,2025-03-19T23:55:00Z,25112524,Em despacho,3301,Queda de árvore,0,1,0,2,2025-03-19T23:55:00Z,Montemor-o-Velho,Coimbra,Centro,-8.585186,40.185229
25112658,Quinta do Anjo,Península de Setúbal,311,2025-03-20T00:26:00Z,25112658,Em curso,3301,Queda de árvore,0,0,0,0,2025-03-20T00:26:00Z,Palmela,Setúbal,Área Metropolitana De Lisboa,-9.02329,38.58032
25112672,Alhos Vedros,Península de Setúbal,311,2025-03-20T00:28:00Z,25112672,Em curso,3311,Queda de elementos de estruturas edificados,0,0,0,0,2025-03-20T00:28:00Z,Moita,Setúbal,Área Metropolitana De Lisboa,-9.02548,38.65708
25112722,Azeitão (São Lourenço e São Simão),Península de Setúbal,311,2025-03-20T00:34:00Z,25112722,Em curso,3321,Dano na rede de fornecimento de eletricidade ,0,1,0,3,2025-03-20T00:34:00Z,Setúbal,Setúbal,Área Metropolitana De Lisboa,-9.01777,38.55323
25112781,Moita,Península de Setúbal,311,2025-03-20T00:35:00Z,25112781,Em curso,3301,Queda de árvore,0,0,0,0,2025-03-20T00:35:00Z,Moita,Setúbal,Área Metropolitana De Lisboa,-8.985364,38.643702
25112838,"Almada, Cova da Piedade, Pragal e Cacilhas",Península de Setúbal,311,2025-03-20T00:47:00Z,25112838,Em curso,3301,Queda de árvore,0,0,0,0,2025-03-20T00:47:00Z,Almada,Setúbal,Área Metropolitana De Lisboa,-9.15927,38.6747
25113498,Charneca de Caparica e Sobreda,Península de Setúbal,311,2025-03-20T01:58:00Z,25113498,Em curso,3301,Queda de árvore,0,0,0,0,2025-03-20T01:58:00Z,Almada,Setúbal,Área Metropolitana De Lisboa,-9.18074,38.58747
25113512,Cascais e Estoril,Grande Lisboa,311,2025-03-20T01:59:00Z,25113512,Em despacho,3301,Queda de árvore,0,0,0,0,2025-03-20T01:59:00Z,Cascais,Lisboa,Área Metropolitana De Lisboa,-9.40005,38.71162
25113513,Cascais e Estoril,Grande Lisboa,311,2025-03-20T01:59:00Z,25113513,Em despacho,3329,Queda de estruturas temporárias ou móveis,0,0,0,0,2025-03-20T01:59:00Z,Cascais,Lisboa,Área Metropolitana De Lisboa,-9.38034,38.70228
25113545,Loures,Grande Lisboa,311,2025-03-20T02:02:00Z,25113545,Em despacho,3311,Queda de elementos de estruturas edificados,0,0,0,0,2025-03-20T02:02:00Z,Loures,Lisboa,Área Metropolitana De Lisboa,-9.19531,38.81873
25113548,Charneca de Caparica e Sobreda,Península de Setúbal,311,2025-03-20T02:03:00Z,25113548,Em curso,3301,Queda de árvore,0,0,0,0,2025-03-20T02:03:00Z,Almada,Setúbal,Área Metropolitana De Lisboa,-9.16587,38.58978
25113579,Alfragide,Grande Lisboa,311,2025-03-20T02:05:00Z,25113579,Em despacho,3329,Queda de estruturas temporárias ou móveis,0,0,0,0,2025-03-20T02:05:00Z,Amadora,Lisboa,Área Metropolitana De Lisboa,-9.225704,38.738085
25113645,Rio de Mouro,Grande Lisboa,311,2025-03-20T02:13:00Z,25113645,Em despacho,3311,Queda de elementos de estruturas edificados,0,0,0,0,2025-03-20T02:13:00Z,Sintra,Lisboa,Área Metropolitana De Lisboa,-9.31947,38.78611
25113679,Cascais e Estoril,Grande Lisboa,311,2025-03-20T02:16:00Z,25113679,Em despacho,3301,Queda de árvore,0,0,0,0,2025-03-20T02:16:00Z,Cascais,Lisboa,Área Metropolitana De Lisboa,-9.39155,38.70828
25113746,Falagueira-Venda Nova,Grande Lisboa,311,2025-03-20T02:23:00Z,25113746,Em despacho,3301,Queda de árvore,0,0,0,0,2025-03-20T02:23:00Z,Amadora,Lisboa,Área Metropolitana De Lisboa,-9.22883,38.76062
25087162,Pedrógão,Baixo Alentejo,312,2025-03-14T17:00:00Z,25087162,Em curso,1101,Cheia,0,0,0,0,2025-03-14T17:00:00Z,Vidigueira,Beja,Alentejo,-7.630327,38.110775
25112462,Costa da Caparica,Península de Setúbal,311,2025-03-19T23:45:00Z,25112462,Em curso,3301,Queda de árvore,0,0,0,0,2025-03-19T23:45:00Z,Almada,Setúbal,Área Metropolitana De Lisboa,-9.227696,38.642583
25112466,Colares,Grande Lisboa,311,2025-03-19T23:50:00Z,25112466,Em curso,3321,Dano na rede de fornecimento de eletricidade ,0,2,0,7,2025-03-19T23:50:00Z,Sintra,Lisboa,Área Metropolitana De Lisboa,-9.470171,38.782676
25112539,"Almargem do Bispo, Pêro Pinheiro e Montelavar",Grande Lisboa,311,2025-03-20T00:02:00Z,25112539,Em curso,3321,Dano na rede de fornecimento de eletricidade ,0,1,0,2,2025-03-20T00:02:00Z,Sintra,Lisboa,Área Metropolitana De Lisboa,-9.297507,38.825783
25112675,Alhos Vedros,Península de Setúbal,311,2025-03-20T00:28:00Z,25112675,Em curso,3301,Queda de árvore,0,0,0,0,2025-03-20T00:28:00Z,Moita,Setúbal,Área Metropolitana De Lisboa,-9.010387,38.63902
25112721,Quinta do Anjo,Península de Setúbal,311,2025-03-20T00:34:00Z,25112721,Em curso,3301,Queda de árvore,0,0,0,0,2025-03-20T00:34:00Z,Palmela,Setúbal,Área Metropolitana De Lisboa,-8.950333,38.56405
25112773,Poceirão e Marateca,Península de Setúbal,311,2025-03-20T00:40:00Z,25112773,Em curso,3301,Queda de árvore,0,0,0,0,2025-03-20T00:40:00Z,Palmela,Setúbal,Área Metropolitana De Lisboa,-8.76661,38.69349
25112875,Palmela,Península de Setúbal,311,2025-03-20T00:52:00Z,25112875,Em curso,3321,Dano na rede de fornecimento de eletricidade ,0,0,0,0,2025-03-20T00:52:00Z,Palmela,Setúbal,Área Metropolitana De Lisboa,-8.87707,38.60478
25113762,Miragaia e Marteleira,Oeste,311,2025-03-20T02:00:00Z,25113762,Em conclusão,3311,Queda de elementos de estruturas edificados,0,0,0,0,2025-03-20T02:00:00Z,Lourinhã,Lisboa,Centro,-9.262811,39.23688
25113765,Queluz e Belas,Grande Lisboa,311,2025-03-20T02:25:00Z,25113765,Em despacho,3301,Queda de árvore,0,0,0,0,2025-03-20T02:25:00Z,Sintra,Lisboa,Área Metropolitana De Lisboa,-9.27879,38.77766
25113781,Ramada e Caneças,Grande Lisboa,311,2025-03-20T02:26:00Z,25113781,Em despacho,3301,Queda de árvore,0,0,0,0,2025-03-20T02:26:00Z,Odivelas,Lisboa,Área Metropolitana De Lisboa,-9.194441,38.801427
25113879,Vila Nova de Tazem,Beiras e Serra da Estrela,310,2025-03-20T02:33:00Z,25113879,Em despacho,3301,Queda de árvore,0,1,0,2,2025-03-20T02:33:00Z,Gouveia,Guarda,Centro,-7.716662,40.505068
25113963,Charneca de Caparica e Sobreda,Península de Setúbal,311,2025-03-20T02:42:00Z,25113963,Em curso,3301,Queda de árvore,0,0,0,0,2025-03-20T02:42:00Z,Almada,Setúbal,Área Metropolitana De Lisboa,-9.19674,38.63034
25113998,Cascais e Estoril,Grande Lisboa,311,2025-03-20T02:44:00Z,25113998,Em curso,3301,Queda de árvore,0,0,0,0,2025-03-20T02:44:00Z,Cascais,Lisboa,Área Metropolitana De Lisboa,-9.419397,38.700982
25114013,"Camarate, Unhos e Apelação",Grande Lisboa,311,2025-03-20T02:46:00Z,25114013,Em curso,3321,Dano na rede de fornecimento de eletricidade ,0,1,0,1,2025-03-20T02:46:00Z,Loures,Lisboa,Área Metropolitana De Lisboa,-9.128836,38.809705
25114015,"S.pedro e Santiago, S.maria e S.miguel e Matacães",Oeste,311,2025-03-20T02:47:00Z,25114015,Em despacho,3329,Queda de estruturas temporárias ou móveis,0,0,0,0,2025-03-20T02:47:00Z,Torres Vedras,Lisboa,Centro,-9.25368,39.0773
25114199,Mafra,Grande Lisboa,311,2025-03-20T03:04:00Z,25114199,Em despacho,3311,Queda de elementos de estruturas edificados,0,0,0,0,2025-03-20T03:04:00Z,Mafra,Lisboa,Área Metropolitana De Lisboa,-9.351689,38.95828
25114283,Sernancelhe e Sarzeda,Douro,309,2025-03-20T03:09:00Z,25114283,Em despacho,3301,Queda de árvore,0,3,0,9,2025-03-20T03:09:00Z,Sernancelhe,Viseu,Norte,-7.511299,40.896763
25112933,Febres,Região de Coimbra,310,2025-03-20T00:45:00Z,25112933,Em despacho,3311,Queda de elementos de estruturas edificados,0,0,0,0,2025-03-20T00:45:00Z,Cantanhede,Coimbra,Centro,-8.63492,40.400257
25113022,São Domingos de Rana,Grande Lisboa,311,2025-03-20T01:10:00Z,25113022,Em despacho,3311,Queda de elementos de estruturas edificados,0,0,0,0,2025-03-20T01:10:00Z,Cascais,Lisboa,Área Metropolitana De Lisboa,-9.3408,38.73652
25113076,Cascais e Estoril,Grande Lisboa,311,2025-03-20T01:15:00Z,25113076,Em despacho,3311,Queda de elementos de estruturas edificados,0,0,0,0,2025-03-20T01:15:00Z,Cascais,Lisboa,Área Metropolitana De Lisboa,-9.40634,38.72382
25113090,"Alhandra, São João Dos Montes e Calhandriz",Grande Lisboa,311,2025-03-20T01:16:00Z,25113090,Em despacho,3301,Queda de árvore,0,0,0,0,2025-03-20T01:16:00Z,Vila Franca De Xira,Lisboa,Área Metropolitana De Lisboa,-9.02855,38.9405
25113101,Charneca de Caparica e Sobreda,Península de Setúbal,311,2025-03-20T01:18:00Z,25113101,Em curso,3301,Queda de árvore,0,0,0,0,2025-03-20T01:18:00Z,Almada,Setúbal,Área Metropolitana De Lisboa,-9.17264,38.5926
25113117,Charneca de Caparica e Sobreda,Península de Setúbal,311,2025-03-20T01:19:00Z,25113117,Em curso,3301,Queda de árvore,0,0,0,0,2025-03-20T01:19:00Z,Almada,Setúbal,Área Metropolitana De Lisboa,-9.18066,38.59207
25113124,Carnaxide e Queijas,Grande Lisboa,311,2025-03-20T01:20:00Z,25113124,Em despacho,3311,Queda de elementos de estruturas edificados,0,0,0,0,2025-03-20T01:20:00Z,Oeiras,Lisboa,Área Metropolitana De Lisboa,-9.24609,38.72263
25114381,Carvalhal Redondo e Aguieira,Viseu Dão Lafões,310,2025-03-20T03:19:00Z,25114381,Em curso,3301,Queda de árvore,0,3,0,5,2025-03-20T03:19:00Z,Nelas,Viseu,Centro,-7.900593,40.538002
25114414,Cela,Oeste,311,2025-03-20T03:20:00Z,25114414,Em curso,3301,Queda de árvore,0,1,0,2,2025-03-20T03:20:00Z,Alcobaça,Leiria,Centro,-9.051565,39.501598
25114548,Queluz e Belas,Grande Lisboa,311,2025-03-20T03:20:00Z,25114548,Em despacho,3301,Queda de árvore,0,1,0,2,2025-03-20T03:20:00Z,Sintra,Lisboa,Área Metropolitana De Lisboa,-9.271667,38.786881
25114565,Vila Franca Das Naves e Feital,Beiras e Serra da Estrela,310,2025-03-20T03:33:00Z,25114565,Em despacho,3301,Queda de árvore,0,2,0,6,2025-03-20T03:33:00Z,Trancoso,Guarda,Centro,-7.258443,40.723136
25114617,Lousa,Grande Lisboa,311,2025-03-20T03:45:00Z,25114617,Em despacho,3301,Queda de árvore,0,0,0,0,2025-03-20T03:45:00Z,Loures,Lisboa,Área Metropolitana De Lisboa,-9.209783,38.88899
25114701,Fornos de Algodres,Beiras e Serra da Estrela,310,2025-03-20T03:53:00Z,25114701,Em despacho,3301,Queda de árvore,0,2,0,6,2025-03-20T03:53:00Z,Fornos De Algodres,Guarda,Centro,-7.525771,40.610486
25114835,Cacém e São Marcos,Grande Lisboa,311,2025-03-20T04:07:00Z,25114835,Em despacho,3301,Queda de árvore,0,0,0,0,2025-03-20T04:07:00Z,Sintra,Lisboa,Área Metropolitana De Lisboa,-9.30124,38.75068
25114867,Casal de Cambra,Grande Lisboa,311,2025-03-20T04:00:00Z,25114867,Em curso,3311,Queda de elementos de estruturas edificados,0,1,0,2,2025-03-20T04:00:00Z,Sintra,Lisboa,Área Metropolitana De Lisboa,-9.232552,38.801888
25114985,Moita,Península de Setúbal,311,2025-03-20T04:05:00Z,25114985,Em curso,3311,Queda de elementos de estruturas edificados,0,1,0,3,2025-03-20T04:05:00Z,Moita,Setúbal,Área Metropolitana De Lisboa,-8.985364,38.643702
25115150,Torrão,Alentejo Litoral,312,2025-03-20T04:45:00Z,25115150,Em resolução,3301,Queda de árvore,0,3,0,4,2025-03-20T04:45:00Z,Alcácer Do Sal,Setúbal,Alentejo,-8.367086,38.190745
25113126,Águas Livres,Grande Lisboa,311,2025-03-20T01:20:00Z,25113126,Em despacho,3311,Queda de elementos de estruturas edificados,0,0,0,0,2025-03-20T01:20:00Z,Amadora,Lisboa,Área Metropolitana De Lisboa,-9.20581,38.74231
25113140,"Almada, Cova da Piedade, Pragal e Cacilhas",Península de Setúbal,311,2025-03-20T01:21:00Z,25113140,Em curso,3311,Queda de elementos de estruturas edificados,0,0,0,0,2025-03-20T01:21:00Z,Almada,Setúbal,Área Metropolitana De Lisboa,-9.16207,38.6795
25113156,Baixa da Banheira e Vale da Amoreira,Península de Setúbal,311,2025-03-20T01:23:00Z,25113156,Em curso,3311,Queda de elementos de estruturas edificados,0,0,0,0,2025-03-20T01:23:00Z,Moita,Setúbal,Área Metropolitana De Lisboa,-9.04162,38.65316
25113158,Santo Antão e São Julião do Tojal,Grande Lisboa,311,2025-03-20T01:23:00Z,25113158,Em despacho,3329,Queda de estruturas temporárias ou móveis,0,0,0,0,2025-03-20T01:23:00Z,Loures,Lisboa,Área Metropolitana De Lisboa,-9.122308,38.86943
25113215,Charneca de Caparica e Sobreda,Península de Setúbal,311,2025-03-20T01:29:00Z,25113215,Em curso,3301,Queda de árvore,0,0,0,0,2025-03-20T01:29:00Z,Almada,Setúbal,Área Metropolitana De Lisboa,-9.16891,38.57109
25113256,"Almada, Cova da Piedade, Pragal e Cacilhas",Península de Setúbal,311,2025-03-20T01:33:00Z,25113256,Em curso,3321,Dano na rede de fornecimento de eletricidade ,0,0,0,0,2025-03-20T01:33:00Z,Almada,Setúbal,Área Metropolitana De Lisboa,-9.16659,38.67428
25113281,"Almargem do Bispo, Pêro Pinheiro e Montelavar",Grande Lisboa,311,2025-03-20T01:36:00Z,25113281,Em despacho,3311,Queda de elementos de estruturas edificados,0,0,0,0,2025-03-20T01:36:00Z,Sintra,Lisboa,Área Metropolitana De Lisboa,-9.286858,38.81957
25112900,Queluz e Belas,Grande Lisboa,311,2025-03-20T00:50:00Z,25112900,Em despacho,3301,Queda de árvore,0,1,0,4,2025-03-20T00:50:00Z,Sintra,Lisboa,Área Metropolitana De Lisboa,-9.270072,38.779997
25112984,"Oeiras e S. Julião da Barra, Paço de Arcos e Caxias",Grande Lisboa,311,2025-03-20T01:06:00Z,25112984,Em despacho,3311,Queda de elementos de estruturas edificados,0,0,0,0,2025-03-20T01:06:00Z,Oeiras,Lisboa,Área Metropolitana De Lisboa,-9.303858,38.70432
25112998,Charneca de Caparica e Sobreda,Península de Setúbal,311,2025-03-20T01:07:00Z,25112998,Em curso,3309,Desabamento de estruturas edificadas,0,0,0,0,2025-03-20T01:07:00Z,Almada,Setúbal,Área Metropolitana De Lisboa,-9.19436,38.64644
25113023,Póvoa de Santa Iria e Forte da Casa,Grande Lisboa,311,2025-03-20T01:10:00Z,25113023,Em despacho,3329,Queda de estruturas temporárias ou móveis,0,0,0,0,2025-03-20T01:10:00Z,Vila Franca De Xira,Lisboa,Área Metropolitana De Lisboa,-9.055658,38.87217
25113041,Alcabideche,Grande Lisboa,311,2025-03-20T01:12:00Z,25113041,Em despacho,3311,Queda de elementos de estruturas edificados,0,0,0,0,2025-03-20T01:12:00Z,Cascais,Lisboa,Área Metropolitana De Lisboa,-9.422703,38.72363
25113064,"Alhandra, São João Dos Montes e Calhandriz",Grande Lisboa,311,2025-03-20T01:14:00Z,25113064,Em despacho,3301,Queda de árvore,0,0,0,0,2025-03-20T01:14:00Z,Vila Franca De Xira,Lisboa,Área Metropolitana De Lisboa,-9.03587,38.95457
25113073,Corroios,Península de Setúbal,311,2025-03-20T01:15:00Z,25113073,Em curso,3329,Queda de estruturas temporárias ou móveis,0,0,0,0,2025-03-20T01:15:00Z,Seixal,Setúbal,Área Metropolitana De Lisboa,-9.15315,38.64089
25113089,"Almargem do Bispo, Pêro Pinheiro e Montelavar",Grande Lisboa,311,2025-03-20T01:16:00Z,25113089,Em despacho,3311,Queda de elementos de estruturas edificados,0,0,0,0,2025-03-20T01:16:00Z,Sintra,Lisboa,Área Metropolitana De Lisboa,-9.24059,38.80967
25115302,"Almargem do Bispo, Pêro Pinheiro e Montelavar",Grande Lisboa,311,2025-03-20T05:07:00Z,25115302,Em despacho,3301,Queda de árvore,0,0,0,0,2025-03-20T05:07:00Z,Sintra,Lisboa,Área Metropolitana De Lisboa,-9.30988,38.83504
25115450,Fontes,Douro,309,2025-03-20T05:24:00Z,25115450,Em curso,3301,Queda de árvore,0,1,0,2,2025-03-20T05:24:00Z,Santa Marta De Penaguião,Vila Real,Norte,-7.823046,41.226681
25115484,Santo Isidoro,Grande Lisboa,311,2025-03-20T05:31:00Z,25115484,Em despacho,3301,Queda de árvore,0,0,0,0,2025-03-20T05:31:00Z,Mafra,Lisboa,Área Metropolitana De Lisboa,-9.35978,38.99009
25115519,Palhais e Coina,Península de Setúbal,311,2025-03-20T05:35:00Z,25115519,Em curso,3301,Queda de árvore,0,0,0,0,2025-03-20T05:35:00Z,Barreiro,Setúbal,Área Metropolitana De Lisboa,-9.04503,38.59544
25115553,Cascais e Estoril,Grande Lisboa,311,2025-03-20T05:40:00Z,25115553,Em despacho,3301,Queda de árvore,0,0,0,0,2025-03-20T05:40:00Z,Cascais,Lisboa,Área Metropolitana De Lisboa,-9.387946,38.71141
25115567,Carvalhal Benfeito,Oeste,311,2025-03-20T05:40:00Z,25115567,Em despacho,3301,Queda de árvore,0,0,0,0,2025-03-20T05:40:00Z,Caldas Da Rainha,Leiria,Centro,-9.038958,39.42604
25115637,Espinho,Região de Coimbra,310,2025-03-20T05:50:00Z,25115637,Em despacho,3311,Queda de elementos de estruturas edificados,0,1,0,2,2025-03-20T05:50:00Z,Mortágua,Viseu,Centro,-8.309869,40.422828
25115685,Fanhões,Grande Lisboa,311,2025-03-20T05:55:00Z,25115685,Em despacho,3301,Queda de árvore,0,0,0,0,2025-03-20T05:55:00Z,Loures,Lisboa,Área Metropolitana De Lisboa,-9.189041,38.903262
25115702,Cascais e Estoril,Grande Lisboa,311,2025-03-20T05:59:00Z,25115702,Em despacho,3301,Queda de árvore,0,0,0,0,2025-03-20T05:59:00Z,Cascais,Lisboa,Área Metropolitana De Lisboa,-9.40372,38.7131
25115735,Palmela,Península de Setúbal,311,2025-03-20T06:03:00Z,25115735,Em curso,3301,Queda de árvore,0,0,0,0,2025-03-20T06:03:00Z,Palmela,Setúbal,Área Metropolitana De Lisboa,-8.92673,38.57614
25113100,Sesimbra (Castelo),Península de Setúbal,311,2025-03-20T01:17:00Z,25113100,Em curso,3311,Queda de elementos de estruturas edificados,0,0,0,0,2025-03-20T01:17:00Z,Sesimbra,Setúbal,Área Metropolitana De Lisboa,-9.17306,38.47686
25113107,Charneca de Caparica e Sobreda,Península de Setúbal,311,2025-03-20T01:18:00Z,25113107,Em curso,3301,Queda de árvore,0,0,0,0,2025-03-20T01:18:00Z,Almada,Setúbal,Área Metropolitana De Lisboa,-9.177058,38.60883
25113125,Alverca do Ribatejo e Sobralinho,Grande Lisboa,311,2025-03-20T01:20:00Z,25113125,Em despacho,3311,Queda de elementos de estruturas edificados,0,0,0,0,2025-03-20T01:20:00Z,Vila Franca De Xira,Lisboa,Área Metropolitana De Lisboa,-9.03425,38.91567
25113173,Charneca de Caparica e Sobreda,Península de Setúbal,311,2025-03-20T01:25:00Z,25113173,Em curso,3301,Queda de árvore,0,0,0,0,2025-03-20T01:25:00Z,Almada,Setúbal,Área Metropolitana De Lisboa,-9.18059,38.59585
25113198,Charneca de Caparica e Sobreda,Península de Setúbal,311,2025-03-20T01:27:00Z,25113198,Em curso,3301,Queda de árvore,0,0,0,0,2025-03-20T01:27:00Z,Almada,Setúbal,Área Metropolitana De Lisboa,-9.18368,38.58977
25113218,Sapataria,Oeste,311,2025-03-20T01:23:00Z,25113218,Em curso,3301,Queda de árvore,0,2,0,4,2025-03-20T01:23:00Z,Sobral De Monte Agraço,Lisboa,Centro,-9.198053,38.966232
25113241,Odivelas,Grande Lisboa,311,2025-03-20T01:32:00Z,25113241,Em despacho,3311,Queda de elementos de estruturas edificados,0,0,0,0,2025-03-20T01:32:00Z,Odivelas,Lisboa,Área Metropolitana De Lisboa,-9.17906,38.78882
25113243,Odivelas,Grande Lisboa,311,2025-03-20T01:32:00Z,25113243,Em despacho,3311,Queda de elementos de estruturas edificados,0,0,0,0,2025-03-20T01:32:00Z,Odivelas,Lisboa,Área Metropolitana De Lisboa,-9.17332,38.79666
25115752,Forno Telheiro,Beiras e Serra da Estrela,310,2025-03-20T06:06:00Z,25115752,Em curso,3301,Queda de árvore,0,1,0,2,2025-03-20T06:06:00Z,Celorico Da Beira,Guarda,Centro,-7.389122,40.677411
25115754,Muxagata,Beiras e Serra da Estrela,310,2025-03-20T06:07:00Z,25115754,Em despacho,3301,Queda de árvore,0,1,0,2,2025-03-20T06:07:00Z,Fornos De Algodres,Guarda,Centro,-7.471552,40.647
25115770,Aldeia Galega da Merceana e Aldeia Gavinha,Oeste,311,2025-03-20T05:39:00Z,25115770,Em curso,3301,Queda de árvore,0,1,0,2,2025-03-20T05:39:00Z,Alenquer,Lisboa,Centro,-9.123435,39.075879
25115771,Mafra,Grande Lisboa,311,2025-03-20T06:09:00Z,25115771,Em despacho,3301,Queda de árvore,0,0,0,0,2025-03-20T06:09:00Z,Mafra,Lisboa,Área Metropolitana De Lisboa,-9.33189,38.9307
25115784,São Cosmado,Douro,309,2025-03-20T06:10:00Z,25115784,Em conclusão,3301,Queda de árvore,0,0,0,0,2025-03-20T06:10:00Z,Armamar,Viseu,Norte,-7.62187,41.05919
25115818,Santiago Dos Velhos,Oeste,311,2025-03-20T06:13:00Z,25115818,Em despacho,3301,Queda de árvore,0,0,0,0,2025-03-20T06:13:00Z,Arruda Dos Vinhos,Lisboa,Centro,-9.118066,38.939012
25115853,Moimenta da Serra e Vinhó,Beiras e Serra da Estrela,310,2025-03-20T06:10:00Z,25115853,Em despacho,3301,Queda de árvore,0,1,0,3,2025-03-20T06:10:00Z,Gouveia,Guarda,Centro,-7.635836,40.485517
25115869,"Abrunheira, Verride e Vila Nova da Barca",Região de Coimbra,310,2025-03-20T06:20:00Z,25115869,Em despacho,3301,Queda de árvore,0,0,0,0,2025-03-20T06:20:00Z,Montemor-o-Velho,Coimbra,Centro,-8.703398,40.139677
25115903,Caparica e Trafaria,Península de Setúbal,311,2025-03-20T06:24:00Z,25115903,Em curso,3311,Queda de elementos de estruturas edificados,0,0,0,0,2025-03-20T06:24:00Z,Almada,Setúbal,Área Metropolitana De Lisboa,-9.255474,38.66401
25113332,Charneca de Caparica e Sobreda,Península de Setúbal,311,2025-03-20T01:41:00Z,25113332,Em curso,3301,Queda de árvore,0,0,0,0,2025-03-20T01:41:00Z,Almada,Setúbal,Área Metropolitana De Lisboa,-9.18218,38.59689
25113382,Santo Antão e São Julião do Tojal,Grande Lisboa,311,2025-03-20T01:46:00Z,25113382,Em despacho,3321,Dano na rede de fornecimento de eletricidade ,0,0,0,0,2025-03-20T01:46:00Z,Loures,Lisboa,Área Metropolitana De Lisboa,-9.12403,38.86915
25113393,Alfragide,Grande Lisboa,311,2025-03-20T01:46:00Z,25113393,Em despacho,3311,Queda de elementos de estruturas edificados,0,0,0,0,2025-03-20T01:46:00Z,Amadora,Lisboa,Área Metropolitana De Lisboa,-9.225704,38.738085
25113416,Vila Franca de Xira,Grande Lisboa,311,2025-03-20T01:49:00Z,25113416,Em despacho,3321,Dano na rede de fornecimento de eletricidade ,0,0,0,0,2025-03-20T01:49:00Z,Vila Franca De Xira,Lisboa,Área Metropolitana De Lisboa,-8.99117,38.95186
25113425,Carcavelos e Parede,Grande Lisboa,311,2025-03-20T01:49:00Z,25113425,Em despacho,3301,Queda de árvore,0,0,0,0,2025-03-20T01:49:00Z,Cascais,Lisboa,Área Metropolitana De Lisboa,-9.337574,38.688343
25113434,"Seixal, Arrentela e Aldeia de Paio Pires",Península de Setúbal,311,2025-03-20T01:50:00Z,25113434,Em curso,3311,Queda de elementos de estruturas edificados,0,0,0,0,2025-03-20T01:50:00Z,Seixal,Setúbal,Área Metropolitana De Lisboa,-9.08101,38.61963
25113441,Casal de Cambra,Grande Lisboa,311,2025-03-20T01:51:00Z,25113441,Em despacho,3311,Queda de elementos de estruturas edificados,0,0,0,0,2025-03-20T01:51:00Z,Sintra,Lisboa,Área Metropolitana De Lisboa,-9.22849,38.801
25113466,Azeitão (São Lourenço e São Simão),Península de Setúbal,311,2025-03-20T01:54:00Z,25113466,Em curso,3301,Queda de árvore,0,0,0,0,2025-03-20T01:54:00Z,Setúbal,Setúbal,Área Metropolitana De Lisboa,-9.01947,38.5205
25113354,Mina de Água,Grande Lisboa,311,2025-03-20T01:43:00Z,25113354,Em despacho,3311,Queda de elementos de estruturas edificados,0,0,0,0,2025-03-20T01:43:00Z,Amadora,Lisboa,Área Metropolitana De Lisboa,-9.243611,38.76194
25113421,Igreja Nova e Cheleiros,Grande Lisboa,311,2025-03-20T01:49:00Z,25113421,Em despacho,3301,Queda de árvore,0,0,0,0,2025-03-20T01:49:00Z,Mafra,Lisboa,Área Metropolitana De Lisboa,-9.310799,38.93288
25113436,Fernão Ferro,Península de Setúbal,311,2025-03-20T01:51:00Z,25113436,Em curso,3301,Queda de árvore,0,0,0,0,2025-03-20T01:51:00Z,Seixal,Setúbal,Área Metropolitana De Lisboa,-9.09578,38.55292
25113437,Covões e Camarneira,Região de Coimbra,310,2025-03-20T01:48:00Z,25113437,Em despacho,3301,Queda de árvore,0,0,0,0,2025-03-20T01:48:00Z,Cantanhede,Coimbra,Centro,-8.602074,40.443399
25113455,Charneca de Caparica e Sobreda,Península de Setúbal,311,2025-03-20T01:53:00Z,25113455,Em curso,3301,Queda de árvore,0,0,0,0,2025-03-20T01:53:00Z,Almada,Setúbal,Área Metropolitana De Lisboa,-9.17021,38.57797
25113470,Cascais e Estoril,Grande Lisboa,311,2025-03-20T01:54:00Z,25113470,Em despacho,3301,Queda de árvore,0,0,0,0,2025-03-20T01:54:00Z,Cascais,Lisboa,Área Metropolitana De Lisboa,-9.434008,38.71018
25113572,Cascais e Estoril,Grande Lisboa,311,2025-03-20T02:05:00Z,25113572,Em despacho,3301,Queda de árvore,0,0,0,0,2025-03-20T02:05:00Z,Cascais,Lisboa,Área Metropolitana De Lisboa,-9.43971,38.72218
25113606,"N. S. da Vila, N. S. do Bispo e Silveiras",Alentejo Central,312,2025-03-20T01:45:00Z,25113606,Em despacho,3301,Queda de árvore,0,1,0,2,2025-03-20T01:45:00Z,Montemor-o-Novo,Évora,Alentejo,-8.21652,38.662575
25113653,"Oeiras e S. Julião da Barra, Paço de Arcos e Caxias",Grande Lisboa,311,2025-03-20T02:12:00Z,25113653,Em despacho,3301,Queda de árvore,0,0,0,0,2025-03-20T02:12:00Z,Oeiras,Lisboa,Área Metropolitana De Lisboa,-9.275682,38.698873
25113722,Carcavelos e Parede,Grande Lisboa,311,2025-03-20T02:21:00Z,25113722,Em despacho,3311,Queda de elementos de estruturas edificados,0,0,0,0,2025-03-20T02:21:00Z,Cascais,Lisboa,Área Metropolitana De Lisboa,-9.367864,38.69675
25115951,Freixieiro de Soutelo,Alto Minho,309,2025-03-20T06:30:00Z,25115951,Em despacho,3301,Queda de árvore,0,0,0,0,2025-03-20T06:30:00Z,Viana Do Castelo,Viana Do Castelo,Norte,-8.791324,41.79232
25115969,Cartaxo e Vale da Pinta,Lezíria do Tejo,311,2025-03-20T06:32:00Z,25115969,Em resolução,3301,Queda de árvore,0,2,0,9,2025-03-20T06:32:00Z,Cartaxo,Santarém,Alentejo,-8.830043,39.181272
25115971,Carvalhal Benfeito,Oeste,311,2025-03-20T06:32:00Z,25115971,Em despacho,3301,Queda de árvore,0,2,0,10,2025-03-20T06:32:00Z,Caldas Da Rainha,Leiria,Centro,-9.044987,39.443106
25116001,Caparica e Trafaria,Península de Setúbal,311,2025-03-20T06:37:00Z,25116001,Em curso,3301,Queda de árvore,0,0,0,0,2025-03-20T06:37:00Z,Almada,Setúbal,Área Metropolitana De Lisboa,-9.2308,38.66493
25116003,Adaúfe,Cávado,309,2025-03-20T05:42:00Z,25116003,Em despacho,3301,Queda de árvore,0,1,0,3,2025-03-20T05:42:00Z,Braga,Braga,Norte,-8.398076,41.589984
25116018,"Braga (Maximinos, Sé e Cividade)",Cávado,309,2025-03-20T05:11:00Z,25116018,Em despacho,3329,Queda de estruturas temporárias ou móveis,0,1,0,2,2025-03-20T05:11:00Z,Braga,Braga,Norte,-8.435962,41.546004
25116020,São José da Lamarosa,Lezíria do Tejo,311,2025-03-20T06:38:00Z,25116020,Em curso,3301,Queda de árvore,0,0,0,0,2025-03-20T06:38:00Z,Coruche,Santarém,Alentejo,-8.528322,38.96189
25116038,"Algodres, Vale de Afonsinho e Vilar de Amargo",Beiras e Serra da Estrela,310,2025-03-20T06:40:00Z,25116038,Em curso,3301,Queda de árvore,0,1,0,2,2025-03-20T06:40:00Z,Figueira De Castelo Rodrigo,Guarda,Centro,-7.013253,40.946134
25116055,Quinta do Conde,Península de Setúbal,311,2025-03-20T06:36:00Z,25116055,Em curso,3301,Queda de árvore,0,1,0,5,2025-03-20T06:36:00Z,Sesimbra,Setúbal,Área Metropolitana De Lisboa,-9.03613,38.570355
25116069,São João Das Lampas e Terrugem,Grande Lisboa,311,2025-03-20T06:44:00Z,25116069,Em despacho,3301,Queda de árvore,0,0,0,0,2025-03-20T06:44:00Z,Sintra,Lisboa,Área Metropolitana De Lisboa,-9.412176,38.875807
25113737,Charneca de Caparica e Sobreda,Península de Setúbal,311,2025-03-20T02:22:00Z,25113737,Em curso,3301,Queda de árvore,0,0,0,0,2025-03-20T02:22:00Z,Almada,Setúbal,Área Metropolitana De Lisboa,-9.17331,38.58715
25113740,"Oeiras e S. Julião da Barra, Paço de Arcos e Caxias",Grande Lisboa,311,2025-03-20T02:22:00Z,25113740,Em despacho,3301,Queda de árvore,0,0,0,0,2025-03-20T02:22:00Z,Oeiras,Lisboa,Área Metropolitana De Lisboa,-9.275682,38.698873
25113874,Ramada e Caneças,Grande Lisboa,311,2025-03-20T02:35:00Z,25113874,Em despacho,3321,Dano na rede de fornecimento de eletricidade ,0,0,0,0,2025-03-20T02:35:00Z,Odivelas,Lisboa,Área Metropolitana De Lisboa,-9.21026,38.82131
25113888,Odivelas,Grande Lisboa,311,2025-03-20T02:36:00Z,25113888,Em despacho,3311,Queda de elementos de estruturas edificados,0,0,0,0,2025-03-20T02:36:00Z,Odivelas,Lisboa,Área Metropolitana De Lisboa,-9.19047,38.79637
25114056,Azeitão (São Lourenço e São Simão),Península de Setúbal,311,2025-03-20T02:51:00Z,25114056,Em curso,3321,Dano na rede de fornecimento de eletricidade ,0,0,0,0,2025-03-20T02:51:00Z,Setúbal,Setúbal,Área Metropolitana De Lisboa,-9.024796,38.53981
25114074,Charneca de Caparica e Sobreda,Península de Setúbal,311,2025-03-20T02:52:00Z,25114074,Em curso,3301,Queda de árvore,0,0,0,0,2025-03-20T02:52:00Z,Almada,Setúbal,Área Metropolitana De Lisboa,-9.18666,38.59386
25114222,"S.maria, S.miguel, S.martinho, S.pedro Penaferrim",Grande Lisboa,311,2025-03-20T03:05:00Z,25114222,Em despacho,3301,Queda de árvore,0,0,0,0,2025-03-20T03:05:00Z,Sintra,Lisboa,Área Metropolitana De Lisboa,-9.395193,38.762498
25114240,Teixeira e Teixeiró,Tâmega e Sousa,309,2025-03-20T03:08:00Z,25114240,Em conclusão,3311,Queda de elementos de estruturas edificados,0,1,0,1,2025-03-20T03:08:00Z,Baião,Porto,Norte,-7.90901,41.18203
25116071,Cascais e Estoril,Grande Lisboa,311,2025-03-20T01:02:00Z,25116071,Em curso,3301,Queda de árvore,0,0,0,0,2025-03-20T01:02:00Z,Cascais,Lisboa,Área Metropolitana De Lisboa,-9.431354,38.711316
25116088,Sines,Alentejo Litoral,312,2025-03-20T06:48:00Z,25116088,Em resolução,3301,Queda de árvore,0,5,0,13,2025-03-20T06:48:00Z,Sines,Setúbal,Alentejo,-8.862668,37.95764
25116104,Corroios,Península de Setúbal,311,2025-03-20T06:50:00Z,25116104,Em curso,3301,Queda de árvore,0,0,0,0,2025-03-20T06:50:00Z,Seixal,Setúbal,Área Metropolitana De Lisboa,-9.15159,38.58357
25116118,Ramada e Caneças,Grande Lisboa,311,2025-03-20T06:51:00Z,25116118,Em despacho,3301,Queda de árvore,0,0,0,0,2025-03-20T06:51:00Z,Odivelas,Lisboa,Área Metropolitana De Lisboa,-9.18996,38.80133
25116135,"Algés, Linda-a-Velha e Cruz Quebrada-Dafundo",Grande Lisboa,311,2025-03-20T06:53:00Z,25116135,Em despacho,3301,Queda de árvore,0,1,0,4,2025-03-20T06:53:00Z,Oeiras,Lisboa,Área Metropolitana De Lisboa,-9.25053,38.70079
25116169,Parceiros e Azoia,Região de Leiria,310,2025-03-20T06:54:00Z,25116169,Em despacho,3301,Queda de árvore,0,1,0,5,2025-03-20T06:54:00Z,Leiria,Leiria,Centro,-8.831599,39.709381
25116172,Serra e Junceira,Médio Tejo,311,2025-03-20T06:54:00Z,25116172,Em conclusão,3301,Queda de árvore,0,1,0,4,2025-03-20T06:54:00Z,Tomar,Santarém,Centro,-8.313777,39.6063
25116185,Sesimbra (Castelo),Península de Setúbal,311,2025-03-20T06:58:00Z,25116185,Em curso,3301,Queda de árvore,0,0,0,0,2025-03-20T06:58:00Z,Sesimbra,Setúbal,Área Metropolitana De Lisboa,-9.107945,38.48849
25116203,Pinhal Novo,Península de Setúbal,311,2025-03-20T07:00:00Z,25116203,Em curso,3301,Queda de árvore,0,1,0,3,2025-03-20T07:00:00Z,Palmela,Setúbal,Área Metropolitana De Lisboa,-8.88395,38.62085
25116205,Charneca de Caparica e Sobreda,Península de Setúbal,311,2025-03-20T07:00:00Z,25116205,Em curso,3301,Queda de árvore,0,0,0,0,2025-03-20T07:00:00Z,Almada,Setúbal,Área Metropolitana De Lisboa,-9.17532,38.61999
25114257,Cativelos,Beiras e Serra da Estrela,310,2025-03-20T03:09:00Z,25114257,Em despacho,3301,Queda de árvore,0,2,0,3,2025-03-20T03:09:00Z,Gouveia,Guarda,Centro,-7.694037,40.537404
25114389,Palhais e Coina,Península de Setúbal,311,2025-03-20T01:50:00Z,25114389,Em curso,3301,Queda de árvore,0,0,0,0,2025-03-20T01:50:00Z,Barreiro,Setúbal,Área Metropolitana De Lisboa,-9.043332,38.595522
25114390,São Martinho Das Amoreiras,Alentejo Litoral,312,2025-03-20T03:20:00Z,25114390,Em despacho,3301,Queda de árvore,0,1,0,1,2025-03-20T03:20:00Z,Odemira,Beja,Alentejo,-8.423175,37.653664
25114405,Mujães,Alto Minho,309,2025-03-20T03:24:00Z,25114405,Em curso,3311,Queda de elementos de estruturas edificados,0,1,0,2,2025-03-20T03:24:00Z,Viana Do Castelo,Viana Do Castelo,Norte,-8.708787,41.67049
25114424,Vila Nova de Tazem,Beiras e Serra da Estrela,310,2025-03-20T03:25:00Z,25114424,Em despacho,3301,Queda de árvore,0,1,0,2,2025-03-20T03:25:00Z,Gouveia,Guarda,Centro,-7.716662,40.505068
25114525,Malveira e São Miguel de Alcainça,Grande Lisboa,311,2025-03-20T03:36:00Z,25114525,Em despacho,3321,Dano na rede de fornecimento de eletricidade ,0,0,0,0,2025-03-20T03:36:00Z,Mafra,Lisboa,Área Metropolitana De Lisboa,-9.279616,38.92011
25114573,Quinta do Conde,Península de Setúbal,311,2025-03-20T03:41:00Z,25114573,Em curso,3301,Queda de árvore,0,0,0,0,2025-03-20T03:41:00Z,Sesimbra,Setúbal,Área Metropolitana De Lisboa,-9.041492,38.55076
25114656,Guarda,Beiras e Serra da Estrela,310,2025-03-20T03:39:00Z,25114656,Em despacho,3301,Queda de árvore,0,2,0,3,2025-03-20T03:39:00Z,Guarda,Guarda,Centro,-7.260869,40.536751
25114673,Vilarinho Dos Freires,Douro,309,2025-03-20T03:44:00Z,25114673,Em despacho,3301,Queda de árvore,0,3,0,6,2025-03-20T03:44:00Z,Peso Da Régua,Vila Real,Norte,-7.748211,41.175132
25113482,São João Das Lampas e Terrugem,Grande Lisboa,311,2025-03-20T01:54:00Z,25113482,Em despacho,3301,Queda de árvore,0,0,0,0,2025-03-20T01:54:00Z,Sintra,Lisboa,Área Metropolitana De Lisboa,-9.436253,38.869236
25113527,Fernão Ferro,Península de Setúbal,311,2025-03-20T02:01:00Z,25113527,Em curso,3301,Queda de árvore,0,0,0,0,2025-03-20T02:01:00Z,Seixal,Setúbal,Área Metropolitana De Lisboa,-9.09935,38.56798
25113616,"Enxara do Bispo, Gradil e Vila Franca do Rosário",Grande Lisboa,311,2025-03-20T01:30:00Z,25113616,Em curso,3321,Dano na rede de fornecimento de eletricidade ,0,0,0,0,2025-03-20T01:30:00Z,Mafra,Lisboa,Área Metropolitana De Lisboa,-9.260847,38.962848
25113650,Carcavelos e Parede,Grande Lisboa,311,2025-03-20T02:12:00Z,25113650,Em despacho,3301,Queda de árvore,0,0,0,0,2025-03-20T02:12:00Z,Cascais,Lisboa,Área Metropolitana De Lisboa,-9.325114,38.69928
25113686,Alpiarça,Lezíria do Tejo,311,2025-03-20T02:17:00Z,25113686,Em despacho,3321,Dano na rede de fornecimento de eletricidade ,0,1,0,1,2025-03-20T02:17:00Z,Alpiarça,Santarém,Alentejo,-8.57695,39.25462
25113700,São João Das Lampas e Terrugem,Grande Lisboa,311,2025-03-20T02:19:00Z,25113700,Em despacho,3321,Dano na rede de fornecimento de eletricidade ,0,0,0,0,2025-03-20T02:19:00Z,Sintra,Lisboa,Área Metropolitana De Lisboa,-9.39833,38.92588
25113741,Carregal do Sal,Viseu Dão Lafões,310,2025-03-20T02:17:00Z,25113741,Em despacho,3329,Queda de estruturas temporárias ou móveis,0,2,0,4,2025-03-20T02:17:00Z,Carregal Do Sal,Viseu,Centro,-7.999939,40.437298
25113768,São João Das Lampas e Terrugem,Grande Lisboa,311,2025-03-20T02:26:00Z,25113768,Em despacho,3301,Queda de árvore,0,0,0,0,2025-03-20T02:26:00Z,Sintra,Lisboa,Área Metropolitana De Lisboa,-9.41128,38.85702
25113866,Bensafrim e Barão de São João,Algarve,313,2025-03-20T01:30:00Z,25113866,Em despacho,3301,Queda de árvore,0,1,0,3,2025-03-20T01:30:00Z,Lagos,Faro,Algarve,-8.733104,37.158743
25116219,"Oeiras e S. Julião da Barra, Paço de Arcos e Caxias",Grande Lisboa,311,2025-03-20T07:01:00Z,25116219,Em despacho,3301,Queda de árvore,0,0,0,0,2025-03-20T07:01:00Z,Oeiras,Lisboa,Área Metropolitana De Lisboa,-9.290593,38.696925
25116220,Ameixial,Algarve,313,2025-03-20T07:02:00Z,25116220,Em despacho,3301,Queda de árvore,0,1,0,4,2025-03-20T07:02:00Z,Loulé,Faro,Algarve,-8.034868,37.33531
25116235,Sanfins Lamoso Codessos,Tâmega e Sousa,309,2025-03-20T06:57:00Z,25116235,Em curso,3311,Queda de elementos de estruturas edificados,0,2,0,3,2025-03-20T06:57:00Z,Paços De Ferreira,Porto,Norte,-8.365787,41.324646
25116236,Laranjeiro e Feijó,Península de Setúbal,311,2025-03-20T07:04:00Z,25116236,Em curso,3311,Queda de elementos de estruturas edificados,0,0,0,0,2025-03-20T07:04:00Z,Almada,Setúbal,Área Metropolitana De Lisboa,-9.15521,38.65175
25116304,Vila Franca de Xira,Grande Lisboa,311,2025-03-20T07:10:00Z,25116304,Em despacho,3301,Queda de árvore,0,2,0,5,2025-03-20T07:10:00Z,Vila Franca De Xira,Lisboa,Área Metropolitana De Lisboa,-8.99273,38.97299
25116337,"Manique do Intendente, V. N. de São Pedro e Maçussa",Lezíria do Tejo,311,2025-03-20T07:14:00Z,25116337,Em despacho,3301,Queda de árvore,0,0,0,0,2025-03-20T07:14:00Z,Azambuja,Lisboa,Alentejo,-8.866807,39.19454
25116355,Charneca de Caparica e Sobreda,Península de Setúbal,311,2025-03-20T07:16:00Z,25116355,Em curso,3301,Queda de árvore,0,0,0,0,2025-03-20T07:16:00Z,Almada,Setúbal,Área Metropolitana De Lisboa,-9.16489,38.57347
25116404,Souto,Douro,309,2025-03-20T07:19:00Z,25116404,Em despacho,3301,Queda de árvore,0,1,0,2,2025-03-20T07:19:00Z,Penedono,Viseu,Norte,-7.369697,41.033683
25116437,Marinha Das Ondas,Região de Coimbra,310,2025-03-20T07:23:00Z,25116437,Em despacho,3301,Queda de árvore,0,1,0,3,2025-03-20T07:23:00Z,Figueira Da Foz,Coimbra,Centro,-8.826709,40.034534
25113875,Charneca de Caparica e Sobreda,Península de Setúbal,311,2025-03-20T02:35:00Z,25113875,Em curso,3321,Dano na rede de fornecimento de eletricidade ,0,0,0,0,2025-03-20T02:35:00Z,Almada,Setúbal,Área Metropolitana De Lisboa,-9.17345,38.58643
25113911,Sapataria,Oeste,311,2025-03-20T02:15:00Z,25113911,Em despacho,3301,Queda de árvore,0,1,0,3,2025-03-20T02:15:00Z,Sobral De Monte Agraço,Lisboa,Centro,-9.198053,38.966232
25113927,"Almada, Cova da Piedade, Pragal e Cacilhas",Península de Setúbal,311,2025-03-20T02:38:00Z,25113927,Em curso,3301,Queda de árvore,0,0,0,0,2025-03-20T02:38:00Z,Almada,Setúbal,Área Metropolitana De Lisboa,-9.16689,38.67327
25113968,Beja (Santiago Maior e São João Baptista),Baixo Alentejo,312,2025-03-20T01:55:00Z,25113968,Em conclusão,3301,Queda de árvore,0,0,0,0,2025-03-20T01:55:00Z,Beja,Beja,Alentejo,-7.87003,38.014111
25113970,Pontinha e Famões,Grande Lisboa,311,2025-03-20T02:43:00Z,25113970,Em curso,3315,Inundação de estruturas por precipitação intensa,0,0,0,0,2025-03-20T02:43:00Z,Odivelas,Lisboa,Área Metropolitana De Lisboa,-9.19871,38.76359
25113993,Corroios,Península de Setúbal,311,2025-03-20T02:45:00Z,25113993,Em curso,3301,Queda de árvore,0,0,0,0,2025-03-20T02:45:00Z,Seixal,Setúbal,Área Metropolitana De Lisboa,-9.1512,38.58007
25113995,"Oeiras e S. Julião da Barra, Paço de Arcos e Caxias",Grande Lisboa,311,2025-03-20T02:45:00Z,25113995,Em despacho,3301,Queda de árvore,0,0,0,0,2025-03-20T02:45:00Z,Oeiras,Lisboa,Área Metropolitana De Lisboa,-9.272,38.70125
25114000,Aguiar da Beira e Coruche,Viseu Dão Lafões,310,2025-03-20T02:42:00Z,25114000,Em curso,3301,Queda de árvore,0,1,0,2,2025-03-20T02:42:00Z,Aguiar Da Beira,Guarda,Centro,-7.565847,40.766682
25114095,Pinhal Novo,Península de Setúbal,311,2025-03-20T02:30:00Z,25114095,Em curso,3301,Queda de árvore,0,2,0,3,2025-03-20T02:30:00Z,Palmela,Setúbal,Área Metropolitana De Lisboa,-8.91294,38.637902
25116438,Alenquer (Santo Estêvão e Triana),Oeste,311,2025-03-20T07:23:00Z,25116438,Em despacho,3301,Queda de árvore,0,1,0,2,2025-03-20T07:23:00Z,Alenquer,Lisboa,Centro,-8.995652,39.061319
25116489,Cascais e Estoril,Grande Lisboa,311,2025-03-20T07:31:00Z,25116489,Em despacho,3321,Dano na rede de fornecimento de eletricidade ,0,0,0,0,2025-03-20T07:31:00Z,Cascais,Lisboa,Área Metropolitana De Lisboa,-9.423598,38.69581
25116520,Charneca de Caparica e Sobreda,Península de Setúbal,311,2025-03-20T07:31:00Z,25116520,Em curso,3301,Queda de árvore,0,0,0,0,2025-03-20T07:31:00Z,Almada,Setúbal,Área Metropolitana De Lisboa,-9.190193,38.591584
25116521,Rebordosa,Area M. Porto,309,2025-03-20T07:25:00Z,25116521,Em despacho,3311,Queda de elementos de estruturas edificados,0,1,0,2,2025-03-20T07:25:00Z,Paredes,Porto,Norte,-8.413867,41.217556
25116522,Charneca de Caparica e Sobreda,Península de Setúbal,311,2025-03-20T07:34:00Z,25116522,Em curso,3301,Queda de árvore,0,0,0,0,2025-03-20T07:34:00Z,Almada,Setúbal,Área Metropolitana De Lisboa,-9.18201,38.59065
25116537,Monchique,Algarve,313,2025-03-20T07:30:00Z,25116537,Em despacho,3301,Queda de árvore,0,1,0,2,2025-03-20T07:30:00Z,Monchique,Faro,Algarve,-8.601698,37.39
25116555,Corroios,Península de Setúbal,311,2025-03-20T07:37:00Z,25116555,Em curso,3301,Queda de árvore,0,0,0,0,2025-03-20T07:37:00Z,Seixal,Setúbal,Área Metropolitana De Lisboa,-9.14265,38.65118
25116603,"Pinheiro da Bemposta, Travanca e Palmaz",Area M. Porto,309,2025-03-20T07:43:00Z,25116603,Em despacho,3301,Queda de árvore,0,0,0,0,2025-03-20T07:43:00Z,Oliveira De Azeméis,Aveiro,Norte,-8.45001,40.80893
25114136,Azambuja,Lezíria do Tejo,311,2025-03-20T02:57:00Z,25114136,Em despacho,3301,Queda de árvore,0,1,0,1,2025-03-20T02:57:00Z,Azambuja,Lisboa,Alentejo,-8.864506,39.067885
25114159,"Oeiras e S. Julião da Barra, Paço de Arcos e Caxias",Grande Lisboa,311,2025-03-20T03:00:00Z,25114159,Em despacho,3301,Queda de árvore,0,0,0,0,2025-03-20T03:00:00Z,Oeiras,Lisboa,Área Metropolitana De Lisboa,-9.29439,38.70243
25114184,Ramada e Caneças,Grande Lisboa,311,2025-03-20T03:03:00Z,25114184,Em despacho,3311,Queda de elementos de estruturas edificados,0,0,0,0,2025-03-20T03:03:00Z,Odivelas,Lisboa,Área Metropolitana De Lisboa,-9.18865,38.81316
25114234,Carvalhal,Oeste,311,2025-03-20T03:08:00Z,25114234,Em despacho,3311,Queda de elementos de estruturas edificados,0,0,0,0,2025-03-20T03:08:00Z,Bombarral,Leiria,Centro,-9.12731,39.28677
25114236,Ronfe,Ave,309,2025-03-20T03:08:00Z,25114236,Em despacho,3311,Queda de elementos de estruturas edificados,0,1,0,2,2025-03-20T03:08:00Z,Guimarães,Braga,Norte,-8.38642,41.44113
25114284,Serpa (Salvador e Santa Maria),Baixo Alentejo,312,2025-03-20T03:05:00Z,25114284,Em despacho,3301,Queda de árvore,0,0,0,0,2025-03-20T03:05:00Z,Serpa,Beja,Alentejo,-7.497192,37.804577
25114293,Lousa,Grande Lisboa,311,2025-03-20T03:13:00Z,25114293,Em despacho,3311,Queda de elementos de estruturas edificados,0,0,0,0,2025-03-20T03:13:00Z,Loures,Lisboa,Área Metropolitana De Lisboa,-9.20461,38.88559
25114345,Charneca de Caparica e Sobreda,Península de Setúbal,311,2025-03-20T03:17:00Z,25114345,Em curso,3301,Queda de árvore,0,0,0,0,2025-03-20T03:17:00Z,Almada,Setúbal,Área Metropolitana De Lisboa,-9.17936,38.61397
25114370,Charneca de Caparica e Sobreda,Península de Setúbal,311,2025-03-20T03:20:00Z,25114370,Em curso,3301,Queda de árvore,0,0,0,0,2025-03-20T03:20:00Z,Almada,Setúbal,Área Metropolitana De Lisboa,-9.17923,38.60275
25114395,Corroios,Península de Setúbal,311,2025-03-20T03:23:00Z,25114395,Em curso,3301,Queda de árvore,0,0,0,0,2025-03-20T03:23:00Z,Seixal,Setúbal,Área Metropolitana De Lisboa,-9.156315,38.57963
25114443,Ericeira,Grande Lisboa,311,2025-03-20T03:27:00Z,25114443,Em despacho,3311,Queda de elementos de estruturas edificados,0,0,0,0,2025-03-20T03:27:00Z,Mafra,Lisboa,Área Metropolitana De Lisboa,-9.41106,38.95243
25114688,Casal de Cinza,Beiras e Serra da Estrela,310,2025-03-20T03:39:00Z,25114688,Em curso,3301,Queda de árvore,0,1,0,2,2025-03-20T03:39:00Z,Guarda,Guarda,Centro,-7.216219,40.521998
25114736,Águas Livres,Grande Lisboa,311,2025-03-20T03:58:00Z,25114736,Em despacho,3301,Queda de árvore,0,0,0,0,2025-03-20T03:58:00Z,Amadora,Lisboa,Área Metropolitana De Lisboa,-9.23008,38.74993
25114863,Arazede,Região de Coimbra,310,2025-03-20T04:09:00Z,25114863,Em despacho,3301,Queda de árvore,0,1,0,2,2025-03-20T04:09:00Z,Montemor-o-Velho,Coimbra,Centro,-8.631626,40.273294
25114881,Sesimbra (Castelo),Península de Setúbal,311,2025-03-20T04:05:00Z,25114881,Em despacho,3301,Queda de árvore,0,1,0,3,2025-03-20T04:05:00Z,Sesimbra,Setúbal,Área Metropolitana De Lisboa,-9.126293,38.535393
25114895,Fazendas de Almeirim,Lezíria do Tejo,311,2025-03-20T03:35:00Z,25114895,Em conclusão,3329,Queda de estruturas temporárias ou móveis,0,0,0,0,2025-03-20T03:35:00Z,Alpiarça,Santarém,Alentejo,-8.564325,39.191508
25114913,Barcarena,Grande Lisboa,311,2025-03-20T04:15:00Z,25114913,Em curso,3329,Queda de estruturas temporárias ou móveis,0,3,0,9,2025-03-20T04:15:00Z,Oeiras,Lisboa,Área Metropolitana De Lisboa,-9.27601,38.72112
25115011,Cascais e Estoril,Grande Lisboa,311,2025-03-20T04:27:00Z,25115011,Em despacho,3301,Queda de árvore,0,0,0,0,2025-03-20T04:27:00Z,Cascais,Lisboa,Área Metropolitana De Lisboa,-9.4475,38.73306
25113308,"Seixal, Arrentela e Aldeia de Paio Pires",Península de Setúbal,311,2025-03-20T01:38:00Z,25113308,Em curso,3311,Queda de elementos de estruturas edificados,0,0,0,0,2025-03-20T01:38:00Z,Seixal,Setúbal,Área Metropolitana De Lisboa,-9.0728,38.58636
25113333,Mina de Água,Grande Lisboa,311,2025-03-20T01:41:00Z,25113333,Em despacho,3311,Queda de elementos de estruturas edificados,0,0,0,0,2025-03-20T01:41:00Z,Amadora,Lisboa,Área Metropolitana De Lisboa,-9.24209,38.77874
25113367,Charneca de Caparica e Sobreda,Península de Setúbal,311,2025-03-20T01:45:00Z,25113367,Em curso,3301,Queda de árvore,0,0,0,0,2025-03-20T01:45:00Z,Almada,Setúbal,Área Metropolitana De Lisboa,-9.17951,38.59582
25113376,"Santa Iria de Azoia, São João da Talha e Bobadela",Grande Lisboa,311,2025-03-20T01:45:00Z,25113376,Em despacho,3311,Queda de elementos de estruturas edificados,0,0,0,0,2025-03-20T01:45:00Z,Loures,Lisboa,Área Metropolitana De Lisboa,-9.098026,38.83377
25113399,"Oeiras e S. Julião da Barra, Paço de Arcos e Caxias",Grande Lisboa,311,2025-03-20T01:47:00Z,25113399,Em despacho,3301,Queda de árvore,0,0,0,0,2025-03-20T01:47:00Z,Oeiras,Lisboa,Área Metropolitana De Lisboa,-9.275682,38.698873
25113426,Queluz e Belas,Grande Lisboa,311,2025-03-20T01:49:00Z,25113426,Em despacho,3311,Queda de elementos de estruturas edificados,0,0,0,0,2025-03-20T01:49:00Z,Sintra,Lisboa,Área Metropolitana De Lisboa,-9.27789,38.76549
25113510,Fernão Ferro,Península de Setúbal,311,2025-03-20T01:59:00Z,25113510,Em curso,3301,Queda de árvore,0,0,0,0,2025-03-20T01:59:00Z,Seixal,Setúbal,Área Metropolitana De Lisboa,-9.10545,38.57734
25113515,Rio de Mouro,Grande Lisboa,311,2025-03-20T01:59:00Z,25113515,Em despacho,3311,Queda de elementos de estruturas edificados,0,0,0,0,2025-03-20T01:59:00Z,Sintra,Lisboa,Área Metropolitana De Lisboa,-9.314418,38.78093
25116690,Paços,Douro,309,2025-03-20T07:48:00Z,25116690,Em despacho,3301,Queda de árvore,0,1,0,2,2025-03-20T07:48:00Z,Sabrosa,Vila Real,Norte,-7.595957,41.260135
25116705,Barcarena,Grande Lisboa,311,2025-03-20T07:52:00Z,25116705,Em despacho,3321,Dano na rede de fornecimento de eletricidade ,0,0,0,0,2025-03-20T07:52:00Z,Oeiras,Lisboa,Área Metropolitana De Lisboa,-9.26642,38.74477
25116720,Oliveirinha,Região de Aveiro,310,2025-03-20T07:50:00Z,25116720,Em despacho,3301,Queda de árvore,0,1,0,3,2025-03-20T07:50:00Z,Aveiro,Aveiro,Centro,-8.595116,40.607545
25116722,Ranhados,Beiras e Serra da Estrela,310,2025-03-20T07:53:00Z,25116722,Em despacho,3301,Queda de árvore,0,1,0,2,2025-03-20T07:53:00Z,Mêda,Guarda,Centro,-7.327385,40.992876
25116737,Gulpilhares e Valadares,Area M. Porto,309,2025-03-20T07:56:00Z,25116737,Em despacho,3321,Dano na rede de fornecimento de eletricidade ,0,1,0,3,2025-03-20T07:56:00Z,Vila Nova De Gaia,Porto,Norte,-8.63011,41.0751
25116740,Cascais e Estoril,Grande Lisboa,311,2025-03-20T07:56:00Z,25116740,Em despacho,3301,Queda de árvore,0,0,0,0,2025-03-20T07:56:00Z,Cascais,Lisboa,Área Metropolitana De Lisboa,-9.4369980000000009,38.71302
25116753,Seixo de Gatões,Região de Coimbra,310,2025-03-20T07:57:00Z,25116753,Em despacho,3301,Queda de árvore,0,0,0,0,2025-03-20T07:57:00Z,Montemor-o-Velho,Coimbra,Centro,-8.69356,40.24128
25116770,Alcabideche,Grande Lisboa,311,2025-03-20T07:54:00Z,25116770,Em despacho,3301,Queda de árvore,0,1,0,4,2025-03-20T07:54:00Z,Cascais,Lisboa,Área Metropolitana De Lisboa,-9.438785,38.755713
25116773,Mões,Viseu Dão Lafões,310,2025-03-20T07:57:00Z,25116773,Em despacho,3301,Queda de árvore,0,1,0,2,2025-03-20T07:57:00Z,Castro Daire,Viseu,Centro,-7.893519,40.867571
25116790,Mata de Lobos,Beiras e Serra da Estrela,310,2025-03-20T07:59:00Z,25116790,Em despacho,3301,Queda de árvore,0,1,0,5,2025-03-20T07:59:00Z,Figueira De Castelo Rodrigo,Guarda,Centro,-6.913027,40.9073
25116804,Pontével,Lezíria do Tejo,311,2025-03-20T08:03:00Z,25116804,Em despacho,3301,Queda de árvore,0,0,0,0,2025-03-20T08:03:00Z,Cartaxo,Santarém,Alentejo,-8.85602,39.13166
25115111,Louredo e Fornelos,Douro,309,2025-03-20T04:40:00Z,25115111,Em despacho,3301,Queda de árvore,0,1,0,2,2025-03-20T04:40:00Z,Santa Marta De Penaguião,Vila Real,Norte,-7.827533,41.228123
25115156,Charneca de Caparica e Sobreda,Península de Setúbal,311,2025-03-20T04:46:00Z,25115156,Em curso,3301,Queda de árvore,0,0,0,0,2025-03-20T04:46:00Z,Almada,Setúbal,Área Metropolitana De Lisboa,-9.199091,38.62959
25115288,Algueirão-Mem Martins,Grande Lisboa,311,2025-03-20T05:05:00Z,25115288,Em despacho,3301,Queda de árvore,0,0,0,0,2025-03-20T05:05:00Z,Sintra,Lisboa,Área Metropolitana De Lisboa,-9.340934,38.801232
25115313,Azeitão (São Lourenço e São Simão),Península de Setúbal,311,2025-03-20T05:09:00Z,25115313,Em curso,3301,Queda de árvore,0,0,0,0,2025-03-20T05:09:00Z,Setúbal,Setúbal,Área Metropolitana De Lisboa,-9.006082,38.51156
25115365,São Cosmado,Douro,309,2025-03-20T05:15:00Z,25115365,Em despacho,3301,Queda de árvore,0,2,0,6,2025-03-20T05:15:00Z,Armamar,Viseu,Norte,-7.642505,41.025197
25115372,Sobral de Monte Agraço,Oeste,311,2025-03-20T05:10:00Z,25115372,Em curso,3301,Queda de árvore,0,3,0,4,2025-03-20T05:10:00Z,Sobral De Monte Agraço,Lisboa,Centro,-9.191789,39.010425
25115506,Corroios,Península de Setúbal,311,2025-03-20T05:33:00Z,25115506,Em curso,3301,Queda de árvore,0,0,0,0,2025-03-20T05:33:00Z,Seixal,Setúbal,Área Metropolitana De Lisboa,-9.159299,38.58192
25115538,Alfeizerão,Oeste,311,2025-03-20T05:35:00Z,25115538,Em curso,3301,Queda de árvore,0,2,0,4,2025-03-20T05:35:00Z,Alcobaça,Leiria,Centro,-9.076635,39.505098
25115574,Azeitão (São Lourenço e São Simão),Península de Setúbal,311,2025-03-20T05:42:00Z,25115574,Em curso,3301,Queda de árvore,0,0,0,0,2025-03-20T05:42:00Z,Setúbal,Setúbal,Área Metropolitana De Lisboa,-9.049025,38.49842
25116805,Almeirim,Lezíria do Tejo,311,2025-03-20T08:00:00Z,25116805,Em despacho,3301,Queda de árvore,0,2,0,5,2025-03-20T08:00:00Z,Almeirim,Santarém,Alentejo,-8.588832,39.142251
25116822,"Ovar, São João, Arada e São Vicente de Pereira Jusã",Região de Aveiro,310,2025-03-20T07:59:00Z,25116822,Em curso,3301,Queda de árvore,0,1,0,4,2025-03-20T07:59:00Z,Ovar,Aveiro,Centro,-8.632482,40.864029
25116823,Louredo,Area M. Porto,309,2025-03-20T08:03:00Z,25116823,Em despacho,3321,Dano na rede de fornecimento de eletricidade ,0,1,0,3,2025-03-20T08:03:00Z,Paredes,Porto,Norte,-8.33535,41.24264
25116871,Alcabideche,Grande Lisboa,311,2025-03-20T07:59:00Z,25116871,Em despacho,3301,Queda de árvore,0,1,0,4,2025-03-20T07:59:00Z,Cascais,Lisboa,Área Metropolitana De Lisboa,-9.417389,38.717218
25116872,Póvoa de Lanhoso (Nossa Senhora do Amparo),Ave,309,2025-03-20T08:00:00Z,25116872,Em despacho,3301,Queda de árvore,0,1,0,2,2025-03-20T08:00:00Z,Póvoa De Lanhoso,Braga,Norte,-8.26784,41.577971
25116887,"Manique do Intendente, V. N. de São Pedro e Maçussa",Lezíria do Tejo,311,2025-03-20T08:08:00Z,25116887,Em resolução,3301,Queda de árvore,0,2,0,5,2025-03-20T08:08:00Z,Azambuja,Lisboa,Alentejo,-8.866368,39.194732
25116890,Baguim do Monte (Rio Tinto),Area M. Porto,309,2025-03-20T07:50:00Z,25116890,Em despacho,3301,Queda de árvore,0,1,0,2,2025-03-20T07:50:00Z,Gondomar,Porto,Norte,-8.535889,41.192197
25116904,Paranhos,Beiras e Serra da Estrela,310,2025-03-20T07:40:00Z,25116904,Em despacho,3301,Queda de árvore,0,1,0,2,2025-03-20T07:40:00Z,Seia,Guarda,Centro,-7.786411,40.477381
25116905,Alcafache,Viseu Dão Lafões,310,2025-03-20T08:09:00Z,25116905,Em despacho,3301,Queda de árvore,0,1,0,2,2025-03-20T08:09:00Z,Mangualde,Viseu,Centro,-7.860298,40.595453
25116907,Azeitão (São Lourenço e São Simão),Península de Setúbal,311,2025-03-20T08:10:00Z,25116907,Em curso,3301,Queda de árvore,0,0,0,0,2025-03-20T08:10:00Z,Setúbal,Setúbal,Área Metropolitana De Lisboa,-9.03793,38.49461
25114691,Mafra,Grande Lisboa,311,2025-03-20T03:53:00Z,25114691,Em despacho,3321,Dano na rede de fornecimento de eletricidade ,0,0,0,0,2025-03-20T03:53:00Z,Mafra,Lisboa,Área Metropolitana De Lisboa,-9.34026,38.9585
25114708,Cascais e Estoril,Grande Lisboa,311,2025-03-20T03:55:00Z,25114708,Em despacho,3301,Queda de árvore,0,0,0,0,2025-03-20T03:55:00Z,Cascais,Lisboa,Área Metropolitana De Lisboa,-9.43077,38.70064
25114759,São João Das Lampas e Terrugem,Grande Lisboa,311,2025-03-20T02:33:00Z,25114759,Em despacho,3301,Queda de árvore,0,0,0,0,2025-03-20T02:33:00Z,Sintra,Lisboa,Área Metropolitana De Lisboa,-9.394403,38.872548
25114924,Roliça,Oeste,311,2025-03-20T04:16:00Z,25114924,Em despacho,3301,Queda de árvore,0,0,0,0,2025-03-20T04:16:00Z,Bombarral,Leiria,Centro,-9.18013,39.28817
25114927,"São Miguel, Santa Eufémia e Rabaçal",Região de Coimbra,310,2025-03-20T04:15:00Z,25114927,Em despacho,3301,Queda de árvore,0,1,0,1,2025-03-20T04:15:00Z,Penela,Coimbra,Centro,-8.373242,40.019255
25114960,Castelo Novo,Beiras e Serra da Estrela,310,2025-03-20T04:01:00Z,25114960,Em curso,3301,Queda de árvore,0,1,0,2,2025-03-20T04:01:00Z,Fundão,Castelo Branco,Centro,-7.475218,40.126525
25114990,Alcanede,Lezíria do Tejo,311,2025-03-20T04:24:00Z,25114990,Em conclusão,3301,Queda de árvore,0,0,0,0,2025-03-20T04:24:00Z,Santarém,Santarém,Alentejo,-8.769388,39.400825
25115060,São Paio,Beiras e Serra da Estrela,310,2025-03-20T04:03:00Z,25115060,Em curso,3301,Queda de árvore,0,1,0,2,2025-03-20T04:03:00Z,Gouveia,Guarda,Centro,-7.578576,40.511694
25115076,Biscainho,Lezíria do Tejo,311,2025-03-20T04:36:00Z,25115076,Em resolução,3301,Queda de árvore,0,0,0,0,2025-03-20T04:36:00Z,Coruche,Santarém,Alentejo,-8.535927,38.953887
25115159,Vila Franca de Xira,Grande Lisboa,311,2025-03-20T03:56:00Z,25115159,Em curso,3301,Queda de árvore,0,1,0,2,2025-03-20T03:56:00Z,Vila Franca De Xira,Lisboa,Área Metropolitana De Lisboa,-9.011273,38.953274
25115175,Teixoso e Sarzedo,Beiras e Serra da Estrela,310,2025-03-20T04:35:00Z,25115175,Em curso,3301,Queda de árvore,0,0,0,0,2025-03-20T04:35:00Z,Covilhã,Castelo Branco,Centro,-7.455476,40.315622
25113769,Quinta do Anjo,Península de Setúbal,311,2025-03-20T02:26:00Z,25113769,Em curso,3301,Queda de árvore,0,0,0,0,2025-03-20T02:26:00Z,Palmela,Setúbal,Área Metropolitana De Lisboa,-8.9956,38.59028
25113776,Algueirão-Mem Martins,Grande Lisboa,311,2025-03-20T02:26:00Z,25113776,Em despacho,3311,Queda de elementos de estruturas edificados,0,0,0,0,2025-03-20T02:26:00Z,Sintra,Lisboa,Área Metropolitana De Lisboa,-9.342778,38.79861
25113794,Ramada e Caneças,Grande Lisboa,311,2025-03-20T02:28:00Z,25113794,Em despacho,3311,Queda de elementos de estruturas edificados,0,0,0,0,2025-03-20T02:28:00Z,Odivelas,Lisboa,Área Metropolitana De Lisboa,-9.209321,38.80893
25113844,Venda do Pinheiro e Santo Estêvão Das Galés,Grande Lisboa,311,2025-03-20T02:32:00Z,25113844,Em despacho,3301,Queda de árvore,0,0,0,0,2025-03-20T02:32:00Z,Mafra,Lisboa,Área Metropolitana De Lisboa,-9.220361,38.92791
25113851,Mina de Água,Grande Lisboa,311,2025-03-20T02:31:00Z,25113851,Em despacho,3311,Queda de elementos de estruturas edificados,0,0,0,0,2025-03-20T02:31:00Z,Amadora,Lisboa,Área Metropolitana De Lisboa,-9.236908,38.777438
25113908,"Seixal, Arrentela e Aldeia de Paio Pires",Península de Setúbal,311,2025-03-20T02:37:00Z,25113908,Em curso,3321,Dano na rede de fornecimento de eletricidade ,0,0,0,0,2025-03-20T02:37:00Z,Seixal,Setúbal,Área Metropolitana De Lisboa,-9.0987,38.62593
25113910,Pó,Oeste,311,2025-03-20T02:27:00Z,25113910,Em curso,3301,Queda de árvore,0,2,0,3,2025-03-20T02:27:00Z,Bombarral,Leiria,Centro,-9.214362,39.309208
25113953,Colares,Grande Lisboa,311,2025-03-20T02:30:00Z,25113953,Em curso,3301,Queda de árvore,0,4,0,9,2025-03-20T02:30:00Z,Sintra,Lisboa,Área Metropolitana De Lisboa,-9.47026,38.772895
25114001,Azeitão (São Lourenço e São Simão),Península de Setúbal,311,2025-03-20T02:46:00Z,25114001,Em curso,3301,Queda de árvore,0,0,0,0,2025-03-20T02:46:00Z,Setúbal,Setúbal,Área Metropolitana De Lisboa,-9.021503,38.53171
25116920,Beja (Santiago Maior e São João Baptista),Baixo Alentejo,312,2025-03-20T06:57:00Z,25116920,Em curso,3301,Queda de árvore,0,0,0,0,2025-03-20T06:57:00Z,Beja,Beja,Alentejo,-7.87003,38.014111
25116921,Quinta do Anjo,Península de Setúbal,311,2025-03-20T08:11:00Z,25116921,Em curso,3301,Queda de árvore,0,0,0,0,2025-03-20T08:11:00Z,Palmela,Setúbal,Área Metropolitana De Lisboa,-8.957607,38.61941
25116956,Odeceixe,Algarve,313,2025-03-20T08:04:00Z,25116956,Em despacho,3301,Queda de árvore,0,3,0,10,2025-03-20T08:04:00Z,Aljezur,Faro,Algarve,-8.774846,37.434235
25116957,Azeitão (São Lourenço e São Simão),Península de Setúbal,311,2025-03-20T08:14:00Z,25116957,Em curso,3301,Queda de árvore,0,0,0,0,2025-03-20T08:14:00Z,Setúbal,Setúbal,Área Metropolitana De Lisboa,-8.98916,38.53221
25116991,Angeja,Região de Aveiro,310,2025-03-20T08:15:00Z,25116991,Em conclusão,3301,Queda de árvore,0,1,0,2,2025-03-20T08:15:00Z,Albergaria-a-Velha,Aveiro,Centro,-8.56369,40.681509
25117004,Lagares e Figueira,Tâmega e Sousa,309,2025-03-20T07:50:00Z,25117004,Em curso,3301,Queda de árvore,0,2,0,6,2025-03-20T07:50:00Z,Penafiel,Porto,Norte,-8.378362,41.134113
25117024,Rio de Mouro,Grande Lisboa,311,2025-03-20T08:16:00Z,25117024,Em despacho,3329,Queda de estruturas temporárias ou móveis,0,0,0,0,2025-03-20T08:16:00Z,Sintra,Lisboa,Área Metropolitana De Lisboa,-9.321906,38.783084
25117054,Aldeia Viçosa,Beiras e Serra da Estrela,310,2025-03-20T07:49:00Z,25117054,Em despacho,3301,Queda de árvore,0,1,0,2,2025-03-20T07:49:00Z,Guarda,Guarda,Centro,-7.31605,40.580356
25114069,Alcabideche,Grande Lisboa,311,2025-03-20T02:52:00Z,25114069,Em despacho,3315,Inundação de estruturas por precipitação intensa,0,0,0,0,2025-03-20T02:52:00Z,Cascais,Lisboa,Área Metropolitana De Lisboa,-9.45321,38.75341
25114126,"Oeiras e S. Julião da Barra, Paço de Arcos e Caxias",Grande Lisboa,311,2025-03-20T02:57:00Z,25114126,Em despacho,3301,Queda de árvore,0,0,0,0,2025-03-20T02:57:00Z,Oeiras,Lisboa,Área Metropolitana De Lisboa,-9.27078,38.71533
25114219,Corroios,Península de Setúbal,311,2025-03-20T03:06:00Z,25114219,Em curso,3301,Queda de árvore,0,0,0,0,2025-03-20T03:06:00Z,Seixal,Setúbal,Área Metropolitana De Lisboa,-9.15172,38.57536
25114401,Mértola,Baixo Alentejo,312,2025-03-20T03:17:00Z,25114401,Em curso,3301,Queda de árvore,0,0,0,0,2025-03-20T03:17:00Z,Mértola,Beja,Alentejo,-7.720218,37.719977
25114403,Alvaiázere,Região de Leiria,310,2025-03-20T03:18:00Z,25114403,Em despacho,3301,Queda de árvore,0,1,0,2,2025-03-20T03:18:00Z,Alvaiázere,Leiria,Centro,-8.400663,39.842672
25114412,Rio de Mouro,Grande Lisboa,311,2025-03-20T03:24:00Z,25114412,Em despacho,3311,Queda de elementos de estruturas edificados,0,0,0,0,2025-03-20T03:24:00Z,Sintra,Lisboa,Área Metropolitana De Lisboa,-9.3418,38.78651
25114444,Charneca de Caparica e Sobreda,Península de Setúbal,311,2025-03-20T03:27:00Z,25114444,Em curso,3301,Queda de árvore,0,0,0,0,2025-03-20T03:27:00Z,Almada,Setúbal,Área Metropolitana De Lisboa,-9.183841,38.59734
25114712,Penacova,Tâmega e Sousa,309,2025-03-20T03:40:00Z,25114712,Em despacho,3301,Queda de árvore,0,1,0,2,2025-03-20T03:40:00Z,Felgueiras,Porto,Norte,-8.255061,41.373796
25114721,Vialonga,Grande Lisboa,311,2025-03-20T03:34:00Z,25114721,Em conclusão,3301,Queda de árvore,0,0,0,0,2025-03-20T03:34:00Z,Vila Franca De Xira,Lisboa,Área Metropolitana De Lisboa,-9.088265,38.876186
25114771,Queluz e Belas,Grande Lisboa,311,2025-03-20T04:01:00Z,25114771,Em despacho,3301,Queda de árvore,0,0,0,0,2025-03-20T04:01:00Z,Sintra,Lisboa,Área Metropolitana De Lisboa,-9.277519,38.80015
25115191,"Canedo, Vale e Vila Maior",Area M. Porto,309,2025-03-20T04:35:00Z,25115191,Em curso,3301,Queda de árvore,0,1,0,3,2025-03-20T04:35:00Z,Santa Maria Da Feira,Aveiro,Norte,-8.448673,41.011004
25115260,Casével e Vaqueiros,Lezíria do Tejo,311,2025-03-20T05:01:00Z,25115260,Em conclusão,3301,Queda de árvore,0,0,0,0,2025-03-20T05:01:00Z,Santarém,Santarém,Alentejo,-8.613992,39.370617
25115292,Corujeira e Trinta,Beiras e Serra da Estrela,310,2025-03-20T05:05:00Z,25115292,Em despacho,3301,Queda de árvore,0,1,0,2,2025-03-20T05:05:00Z,Guarda,Guarda,Centro,-7.354479,40.505
25115394,Branca,Lezíria do Tejo,311,2025-03-20T05:19:00Z,25115394,Em curso,3301,Queda de árvore,0,0,0,0,2025-03-20T05:19:00Z,Coruche,Santarém,Alentejo,-8.586492,38.879952
25115628,Beja (Santiago Maior e São João Baptista),Baixo Alentejo,312,2025-03-20T04:30:00Z,25115628,Em curso,3301,Queda de árvore,0,0,0,0,2025-03-20T04:30:00Z,Beja,Beja,Alentejo,-7.87003,38.014111
25115675,Baraçal,Beiras e Serra da Estrela,310,2025-03-20T05:55:00Z,25115675,Em despacho,3301,Queda de árvore,0,0,0,0,2025-03-20T05:55:00Z,Sabugal,Guarda,Centro,-7.064427,40.39398
25115727,Sesimbra (Castelo),Península de Setúbal,311,2025-03-20T06:03:00Z,25115727,Em curso,3301,Queda de árvore,0,0,0,0,2025-03-20T06:03:00Z,Sesimbra,Setúbal,Área Metropolitana De Lisboa,-9.08172,38.47355
25115827,Quinta do Anjo,Península de Setúbal,311,2025-03-20T06:15:00Z,25115827,Em curso,3301,Queda de árvore,0,0,0,0,2025-03-20T06:15:00Z,Palmela,Setúbal,Área Metropolitana De Lisboa,-8.99287,38.58382
25115828,Girabolhos,Beiras e Serra da Estrela,310,2025-03-20T05:00:00Z,25115828,Em curso,3301,Queda de árvore,0,0,0,0,2025-03-20T05:00:00Z,Seia,Guarda,Centro,-7.738184,40.507902
25115829,Mata de Lobos,Beiras e Serra da Estrela,310,2025-03-20T06:14:00Z,25115829,Em despacho,3321,Dano na rede de fornecimento de eletricidade ,0,1,0,2,2025-03-20T06:14:00Z,Figueira De Castelo Rodrigo,Guarda,Centro,-6.913027,40.9073
25115843,Rio de Mouro,Grande Lisboa,311,2025-03-20T06:17:00Z,25115843,Em despacho,3301,Queda de árvore,0,0,0,0,2025-03-20T06:17:00Z,Sintra,Lisboa,Área Metropolitana De Lisboa,-9.35274,38.75745
25117073,Semide e Rio Vide,Região de Coimbra,310,2025-03-20T08:15:00Z,25117073,Em despacho,3301,Queda de árvore,0,1,0,3,2025-03-20T08:15:00Z,Miranda Do Corvo,Coimbra,Centro,-8.314965,40.128334
25117091,Aljubarrota,Oeste,311,2025-03-20T08:10:00Z,25117091,Em despacho,3301,Queda de árvore,0,1,0,2,2025-03-20T08:10:00Z,Alcobaça,Leiria,Centro,-8.941861,39.565461
25117106,São Mamede,Região de Leiria,310,2025-03-20T08:25:00Z,25117106,Em despacho,3301,Queda de árvore,0,1,0,2,2025-03-20T08:25:00Z,Batalha,Leiria,Centro,-8.729456,39.628893
25117140,Charneca de Caparica e Sobreda,Península de Setúbal,311,2025-03-20T01:20:00Z,25117140,Em despacho,3301,Queda de árvore,0,1,0,4,2025-03-20T01:20:00Z,Almada,Setúbal,Área Metropolitana De Lisboa,-9.190193,38.591584
25117171,"Lobão, Gião, Louredo e Guisande",Area M. Porto,309,2025-03-20T08:20:00Z,25117171,Em despacho,3301,Queda de árvore,0,1,0,4,2025-03-20T08:20:00Z,Santa Maria Da Feira,Aveiro,Norte,-8.490794,40.983419
25117172,Quelfes,Algarve,313,2025-03-20T08:30:00Z,25117172,Em curso,3321,Dano na rede de fornecimento de eletricidade ,0,2,0,5,2025-03-20T08:30:00Z,Olhão,Faro,Algarve,-7.84678,37.03661
25117190,Nazaré,Oeste,311,2025-03-20T08:24:00Z,25117190,Em despacho,3301,Queda de árvore,0,1,0,3,2025-03-20T08:24:00Z,Nazaré,Leiria,Centro,-9.062127,39.596083
25117208,Samora Correia,Lezíria do Tejo,311,2025-03-20T08:31:00Z,25117208,Em despacho,3301,Queda de árvore,0,1,0,4,2025-03-20T08:31:00Z,Benavente,Santarém,Alentejo,-8.890675,38.921796
25117221,Bajouca,Região de Leiria,310,2025-03-20T08:32:00Z,25117221,Em despacho,3301,Queda de árvore,0,1,0,3,2025-03-20T08:32:00Z,Leiria,Leiria,Centro,-8.769086,39.885365
25117223,Valhelhas,Beiras e Serra da Estrela,310,2025-03-20T08:30:00Z,25117223,Em despacho,3301,Queda de árvore,0,1,0,2,2025-03-20T08:30:00Z,Guarda,Guarda,Centro,-7.405093,40.406271
25117224,Beja (Santiago Maior e São João Baptista),Baixo Alentejo,312,2025-03-20T07:58:00Z,25117224,Em curso,3301,Queda de árvore,0,0,0,0,2025-03-20T07:58:00Z,Beja,Beja,Alentejo,-7.87003,38.014111
25117241,Barreiro e Lavradio,Península de Setúbal,311,2025-03-20T08:34:00Z,25117241,Em curso,3301,Queda de árvore,0,0,0,0,2025-03-20T08:34:00Z,Barreiro,Setúbal,Área Metropolitana De Lisboa,-9.051674,38.66369
25117273,"S.pedro e Santiago, S.maria e S.miguel e Matacães",Oeste,311,2025-03-20T07:40:00Z,25117273,Em despacho,3301,Queda de árvore,0,1,0,5,2025-03-20T07:40:00Z,Torres Vedras,Lisboa,Centro,-9.191792,39.087888
25117275,"Santa Maria, São Pedro e Sobral da Lagoa",Oeste,311,2025-03-20T08:35:00Z,25117275,Em despacho,3301,Queda de árvore,0,1,0,5,2025-03-20T08:35:00Z,Óbidos,Leiria,Centro,-9.161155,39.364678
25117305,Fragosela,Viseu Dão Lafões,310,2025-03-20T08:36:00Z,25117305,Em despacho,3311,Queda de elementos de estruturas edificados,0,1,0,3,2025-03-20T08:36:00Z,Viseu,Viseu,Centro,-7.869531,40.63339
25117322,Freiria,Oeste,311,2025-03-20T08:41:00Z,25117322,Em despacho,3301,Queda de árvore,0,0,0,0,2025-03-20T08:41:00Z,Torres Vedras,Lisboa,Centro,-9.325071,39.03896
25117340,"Oeiras e S. Julião da Barra, Paço de Arcos e Caxias",Grande Lisboa,311,2025-03-20T08:43:00Z,25117340,Em despacho,3301,Queda de árvore,0,0,0,0,2025-03-20T08:43:00Z,Oeiras,Lisboa,Área Metropolitana De Lisboa,-9.27065,38.70019
25115860,Santiago,Beiras e Serra da Estrela,310,2025-03-20T06:05:00Z,25115860,Em curso,3301,Queda de árvore,0,0,0,0,2025-03-20T06:05:00Z,Seia,Guarda,Centro,-7.744237,40.428618
25115877,Ericeira,Grande Lisboa,311,2025-03-20T06:21:00Z,25115877,Em despacho,3301,Queda de árvore,0,0,0,0,2025-03-20T06:21:00Z,Mafra,Lisboa,Área Metropolitana De Lisboa,-9.37994,38.97266
25115879,Arcos,Alentejo Central,312,2025-03-20T05:58:00Z,25115879,Em conclusão,3301,Queda de árvore,0,4,0,9,2025-03-20T05:58:00Z,Estremoz,Évora,Alentejo,-7.513653,38.840358
25115896,Anhões e Luzio,Alto Minho,309,2025-03-20T06:24:00Z,25115896,Em despacho,3301,Queda de árvore,0,0,0,0,2025-03-20T06:24:00Z,Monção,Viana Do Castelo,Norte,-8.447783,41.99057
25115928,Carlão e Amieiro,Douro,309,2025-03-20T05:55:00Z,25115928,Em despacho,3301,Queda de árvore,0,2,0,5,2025-03-20T05:55:00Z,Alijó,Vila Real,Norte,-7.446135,41.359763
25115976,Setúbal (São Sebastião),Península de Setúbal,311,2025-03-20T06:33:00Z,25115976,Em curso,3301,Queda de árvore,0,1,0,1,2025-03-20T06:33:00Z,Setúbal,Setúbal,Área Metropolitana De Lisboa,-8.85357,38.51031
25116010,"S.pedro e Santiago, S.maria e S.miguel e Matacães",Oeste,311,2025-03-20T06:38:00Z,25116010,Em despacho,3301,Queda de árvore,0,0,0,0,2025-03-20T06:38:00Z,Torres Vedras,Lisboa,Centro,-9.21202,39.08951
25116043,Pala,Região de Coimbra,310,2025-03-20T06:30:00Z,25116043,Em despacho,3301,Queda de árvore,0,1,0,3,2025-03-20T06:30:00Z,Mortágua,Viseu,Centro,-8.270972,40.416577
25116044,"Oeiras e S. Julião da Barra, Paço de Arcos e Caxias",Grande Lisboa,311,2025-03-20T06:40:00Z,25116044,Em despacho,3301,Queda de árvore,0,0,0,0,2025-03-20T06:40:00Z,Oeiras,Lisboa,Área Metropolitana De Lisboa,-9.275682,38.698873
25116045,Areosa,Alto Minho,309,2025-03-20T06:42:00Z,25116045,Em curso,3311,Queda de elementos de estruturas edificados,0,0,0,0,2025-03-20T06:42:00Z,Viana Do Castelo,Viana Do Castelo,Norte,-8.846168,41.702522
25116111,Azeitão (São Lourenço e São Simão),Península de Setúbal,311,2025-03-20T02:50:00Z,25116111,Em despacho,3301,Queda de árvore,0,1,0,4,2025-03-20T02:50:00Z,Setúbal,Setúbal,Área Metropolitana De Lisboa,-9.008871,38.513402
25114780,Lousa,Grande Lisboa,311,2025-03-20T04:02:00Z,25114780,Em despacho,3301,Queda de árvore,0,0,0,0,2025-03-20T04:02:00Z,Loures,Lisboa,Área Metropolitana De Lisboa,-9.20789,38.88816
25114889,Espírito Santo,Baixo Alentejo,312,2025-03-20T04:11:00Z,25114889,Em conclusão,3301,Queda de árvore,0,0,0,0,2025-03-20T04:11:00Z,Mértola,Beja,Alentejo,-7.636103,37.551114
25114944,Adeganha e Cardanha,Douro,309,2025-03-20T04:19:00Z,25114944,Em despacho,3301,Queda de árvore,0,3,0,8,2025-03-20T04:19:00Z,Torre De Moncorvo,Bragança,Norte,-7.09195,41.21715
25115030,Azueira e Sobral da Abelheira,Grande Lisboa,311,2025-03-20T04:31:00Z,25115030,Em despacho,3301,Queda de árvore,0,0,0,0,2025-03-20T04:31:00Z,Mafra,Lisboa,Área Metropolitana De Lisboa,-9.291996,39.00547
25115080,Carnaxide e Queijas,Grande Lisboa,311,2025-03-20T04:37:00Z,25115080,Em despacho,3329,Queda de estruturas temporárias ou móveis,0,0,0,0,2025-03-20T04:37:00Z,Oeiras,Lisboa,Área Metropolitana De Lisboa,-9.21979,38.72683
25115130,Rio de Mouro,Grande Lisboa,311,2025-03-20T04:42:00Z,25115130,Em despacho,3301,Queda de árvore,0,0,0,0,2025-03-20T04:42:00Z,Sintra,Lisboa,Área Metropolitana De Lisboa,-9.35842,38.75712
25115162,Moita,Região de Leiria,310,2025-03-20T04:39:00Z,25115162,Em despacho,3301,Queda de árvore,0,1,0,3,2025-03-20T04:39:00Z,Marinha Grande,Leiria,Centro,-8.94346,39.702349
25115178,Palhais e Coina,Península de Setúbal,311,2025-03-20T04:14:00Z,25115178,Em curso,3301,Queda de árvore,0,0,0,0,2025-03-20T04:14:00Z,Barreiro,Setúbal,Área Metropolitana De Lisboa,-9.043332,38.595522
25115198,Macieira da Lixa e Caramos,Tâmega e Sousa,309,2025-03-20T04:47:00Z,25115198,Em curso,3301,Queda de árvore,0,2,0,3,2025-03-20T04:47:00Z,Felgueiras,Porto,Norte,-8.154645,41.35135
25115212,Arcos,Douro,309,2025-03-20T04:55:00Z,25115212,Em despacho,3301,Queda de árvore,0,4,0,8,2025-03-20T04:55:00Z,Tabuaço,Viseu,Norte,-7.571136,41.04228
25115255,Amora,Península de Setúbal,311,2025-03-20T05:01:00Z,25115255,Em curso,3301,Queda de árvore,0,2,0,7,2025-03-20T05:01:00Z,Seixal,Setúbal,Área Metropolitana De Lisboa,-9.13591,38.60274
25116113,Silgueiros,Viseu Dão Lafões,310,2025-03-20T06:50:00Z,25116113,Em despacho,3301,Queda de árvore,0,1,0,2,2025-03-20T06:50:00Z,Viseu,Viseu,Centro,-7.984364,40.553448
25116160,"Seixal, Arrentela e Aldeia de Paio Pires",Península de Setúbal,311,2025-03-20T06:55:00Z,25116160,Em curso,3301,Queda de árvore,0,0,0,0,2025-03-20T06:55:00Z,Seixal,Setúbal,Área Metropolitana De Lisboa,-9.103477,38.60829
25116211,Salvaterra de Magos e Foros de Salvaterra,Lezíria do Tejo,311,2025-03-20T07:00:00Z,25116211,Em conclusão,3301,Queda de árvore,0,0,0,0,2025-03-20T07:00:00Z,Salvaterra De Magos,Santarém,Alentejo,-8.783177,39.013823
25116212,Cascais e Estoril,Grande Lisboa,311,2025-03-20T07:01:00Z,25116212,Em despacho,3301,Queda de árvore,0,0,0,0,2025-03-20T07:01:00Z,Cascais,Lisboa,Área Metropolitana De Lisboa,-9.406153,38.70785
25116229,"Algés, Linda-a-Velha e Cruz Quebrada-Dafundo",Grande Lisboa,311,2025-03-20T07:00:00Z,25116229,Em curso,3301,Queda de árvore,0,2,0,4,2025-03-20T07:00:00Z,Oeiras,Lisboa,Área Metropolitana De Lisboa,-9.242274,38.708161
25116244,"Amoreira, Parada e Cabreira",Beiras e Serra da Estrela,310,2025-03-20T07:00:00Z,25116244,Em curso,3301,Queda de árvore,0,0,0,0,2025-03-20T07:00:00Z,Almeida,Guarda,Centro,-7.0460140000000004,40.539434
25116246,Caparica e Trafaria,Península de Setúbal,311,2025-03-20T07:05:00Z,25116246,Em curso,3301,Queda de árvore,0,0,0,0,2025-03-20T07:05:00Z,Almada,Setúbal,Área Metropolitana De Lisboa,-9.201023,38.64098
25116264,Cascais e Estoril,Grande Lisboa,311,2025-03-20T07:06:00Z,25116264,Em despacho,3301,Queda de árvore,0,0,0,0,2025-03-20T07:06:00Z,Cascais,Lisboa,Área Metropolitana De Lisboa,-9.42337,38.69626
25116277,"O. Azeméis, Riba-Ul, Ul, Macinhata Seixa, Madail",Area M. Porto,309,2025-03-20T07:07:00Z,25116277,Em despacho,3311,Queda de elementos de estruturas edificados,0,0,0,0,2025-03-20T07:07:00Z,Oliveira De Azeméis,Aveiro,Norte,-8.485056,40.8467
25117356,"Vale Flor, Carvalhal e Pai Penela",Beiras e Serra da Estrela,310,2025-03-20T08:40:00Z,25117356,Em despacho,3301,Queda de árvore,0,1,0,2,2025-03-20T08:40:00Z,Mêda,Guarda,Centro,-7.291564,40.91248
25117357,"Marvila, Ribeira Santarém, S.salvador, S.nicolau",Lezíria do Tejo,311,2025-03-20T08:42:00Z,25117357,Em despacho,3321,Dano na rede de fornecimento de eletricidade ,0,1,0,1,2025-03-20T08:42:00Z,Santarém,Santarém,Alentejo,-8.678591,39.231938
25117358,São Bartolomeu de Messines,Algarve,313,2025-03-20T08:31:00Z,25117358,Em curso,3313,Deslizamento de terras,0,1,0,5,2025-03-20T08:31:00Z,Silves,Faro,Algarve,-8.287502,37.25838
25117372,Cela,Oeste,311,2025-03-20T07:10:00Z,25117372,Em despacho,3301,Queda de árvore,0,1,0,2,2025-03-20T07:10:00Z,Alcobaça,Leiria,Centro,-9.062135,39.50962
25117375,Paião,Região de Coimbra,310,2025-03-20T08:45:00Z,25117375,Em despacho,3321,Dano na rede de fornecimento de eletricidade ,0,2,0,3,2025-03-20T08:45:00Z,Figueira Da Foz,Coimbra,Centro,-8.78683,40.07951
25117390,Mesão Frio (Santo André),Douro,309,2025-03-20T08:44:00Z,25117390,Em despacho,3311,Queda de elementos de estruturas edificados,0,1,0,4,2025-03-20T08:44:00Z,Mesão Frio,Vila Real,Norte,-7.886501,41.161103
25117391,Vau,Oeste,311,2025-03-20T08:40:00Z,25117391,Em despacho,3301,Queda de árvore,0,0,0,0,2025-03-20T08:40:00Z,Óbidos,Leiria,Centro,-9.254195,39.378229
25117406,Beringel,Baixo Alentejo,312,2025-03-20T08:20:00Z,25117406,Em despacho,3301,Queda de árvore,0,1,0,2,2025-03-20T08:20:00Z,Beja,Beja,Alentejo,-7.99521,38.057567
25117425,Condeixa-a-Velha e Condeixa-a-Nova,Região de Coimbra,310,2025-03-20T08:45:00Z,25117425,Em despacho,3301,Queda de árvore,0,1,0,3,2025-03-20T08:45:00Z,Condeixa-a-Nova,Coimbra,Centro,-8.492045,40.113509
25117441,Oliveira do Douro,Area M. Porto,309,2025-03-20T07:51:00Z,25117441,Em despacho,3329,Queda de estruturas temporárias ou móveis,0,1,0,3,2025-03-20T07:51:00Z,Vila Nova De Gaia,Porto,Norte,-8.585272,41.125484
25115414,São João Das Lampas e Terrugem,Grande Lisboa,311,2025-03-20T02:46:00Z,25115414,Em curso,3301,Queda de árvore,0,2,0,4,2025-03-20T02:46:00Z,Sintra,Lisboa,Área Metropolitana De Lisboa,-9.383123,38.911462
25115421,Malveira e São Miguel de Alcainça,Grande Lisboa,311,2025-03-20T05:22:00Z,25115421,Em despacho,3321,Dano na rede de fornecimento de eletricidade ,0,0,0,0,2025-03-20T05:22:00Z,Mafra,Lisboa,Área Metropolitana De Lisboa,-9.29796,38.9259
25115448,Vilar,Oeste,311,2025-03-20T05:26:00Z,25115448,Em despacho,3301,Queda de árvore,0,1,0,4,2025-03-20T05:26:00Z,Cadaval,Lisboa,Centro,-9.12176,39.17837
25115473,Arazede,Região de Coimbra,310,2025-03-20T05:29:00Z,25115473,Em despacho,3301,Queda de árvore,0,0,0,0,2025-03-20T05:29:00Z,Montemor-o-Velho,Coimbra,Centro,-8.67425,40.25773
25115482,Venda do Pinheiro e Santo Estêvão Das Galés,Grande Lisboa,311,2025-03-20T05:31:00Z,25115482,Em despacho,3301,Queda de árvore,0,0,0,0,2025-03-20T05:31:00Z,Mafra,Lisboa,Área Metropolitana De Lisboa,-9.22384,38.91728
25115623,"Algés, Linda-a-Velha e Cruz Quebrada-Dafundo",Grande Lisboa,311,2025-03-20T05:48:00Z,25115623,Em despacho,3301,Queda de árvore,0,0,0,0,2025-03-20T05:48:00Z,Oeiras,Lisboa,Área Metropolitana De Lisboa,-9.257597,38.706696
25115664,Vimeiro,Oeste,311,2025-03-20T05:43:00Z,25115664,Em despacho,3301,Queda de árvore,0,2,0,5,2025-03-20T05:43:00Z,Alcobaça,Leiria,Centro,-9.022205,39.478409
25115671,Torrão,Alentejo Litoral,312,2025-03-20T05:54:00Z,25115671,Em resolução,3301,Queda de árvore,0,3,0,7,2025-03-20T05:54:00Z,Alcácer Do Sal,Setúbal,Alentejo,-8.32764,38.216
25115696,Parreira e Chouto,Lezíria do Tejo,311,2025-03-20T05:58:00Z,25115696,Em despacho,3301,Queda de árvore,0,1,0,1,2025-03-20T05:58:00Z,Chamusca,Santarém,Alentejo,-8.327738,39.256475
25115857,Quinta do Anjo,Península de Setúbal,311,2025-03-20T06:19:00Z,25115857,Em curso,3301,Queda de árvore,0,0,0,0,2025-03-20T06:19:00Z,Palmela,Setúbal,Área Metropolitana De Lisboa,-8.97895,38.55886
25115613,Cascais e Estoril,Grande Lisboa,311,2025-03-20T05:47:00Z,25115613,Em despacho,3301,Queda de árvore,0,0,0,0,2025-03-20T05:47:00Z,Cascais,Lisboa,Área Metropolitana De Lisboa,-9.390639,38.70786
25115631,Conde e Gandarela,Ave,309,2025-03-20T05:49:00Z,25115631,Em despacho,3311,Queda de elementos de estruturas edificados,0,2,0,4,2025-03-20T05:49:00Z,Guimarães,Braga,Norte,-8.34949,41.39653
25115683,Campeã,Douro,309,2025-03-20T05:45:00Z,25115683,Em curso,3301,Queda de árvore,0,1,0,2,2025-03-20T05:45:00Z,Vila Real,Vila Real,Norte,-7.886237,41.295876
25115731,Sado,Península de Setúbal,311,2025-03-20T06:03:00Z,25115731,Em curso,3321,Dano na rede de fornecimento de eletricidade ,0,0,0,0,2025-03-20T06:03:00Z,Setúbal,Setúbal,Área Metropolitana De Lisboa,-8.837657,38.51656
25115740,Alfragide,Grande Lisboa,311,2025-03-20T06:05:00Z,25115740,Em despacho,3329,Queda de estruturas temporárias ou móveis,0,0,0,0,2025-03-20T06:05:00Z,Amadora,Lisboa,Área Metropolitana De Lisboa,-9.2185,38.73116
25115799,"S.julião, N.s. da Anunciada e S. Maria da Graça",Península de Setúbal,311,2025-03-20T06:12:00Z,25115799,Em curso,3301,Queda de árvore,0,0,0,0,2025-03-20T06:12:00Z,Setúbal,Setúbal,Área Metropolitana De Lisboa,-8.88988,38.53046
25115822,Castelejo,Beiras e Serra da Estrela,310,2025-03-20T06:15:00Z,25115822,Em despacho,3301,Queda de árvore,0,1,0,2,2025-03-20T06:15:00Z,Fundão,Castelo Branco,Centro,-7.61121,40.11168
25115849,Pontinha e Famões,Grande Lisboa,311,2025-03-20T06:18:00Z,25115849,Em despacho,3301,Queda de árvore,0,0,0,0,2025-03-20T06:18:00Z,Odivelas,Lisboa,Área Metropolitana De Lisboa,-9.20379,38.801
25115858,Cacém e São Marcos,Grande Lisboa,311,2025-03-20T06:19:00Z,25115858,Em despacho,3301,Queda de árvore,0,0,0,0,2025-03-20T06:19:00Z,Sintra,Lisboa,Área Metropolitana De Lisboa,-9.29443,38.74753
25117455,Rio Maior,Lezíria do Tejo,311,2025-03-20T08:52:00Z,25117455,Em conclusão,3301,Queda de árvore,0,2,0,7,2025-03-20T08:52:00Z,Rio Maior,Santarém,Alentejo,-8.95426,39.333899
25117474,Ferreira do Zêzere,Médio Tejo,311,2025-03-20T08:53:00Z,25117474,Em despacho,3311,Queda de elementos de estruturas edificados,0,1,0,3,2025-03-20T08:53:00Z,Ferreira Do Zêzere,Santarém,Centro,-8.290499,39.695169
25117475,Carcavelos e Parede,Grande Lisboa,311,2025-03-20T08:54:00Z,25117475,Em despacho,3301,Queda de árvore,0,0,0,0,2025-03-20T08:54:00Z,Cascais,Lisboa,Área Metropolitana De Lisboa,-9.329576,38.69987
25117508,Alvares,Região de Coimbra,310,2025-03-20T08:56:00Z,25117508,Em despacho,3321,Dano na rede de fornecimento de eletricidade ,0,0,0,0,2025-03-20T08:56:00Z,Góis,Coimbra,Centro,-8.14879,40.01938
25117509,"Algés, Linda-a-Velha e Cruz Quebrada-Dafundo",Grande Lisboa,311,2025-03-20T08:56:00Z,25117509,Em despacho,3301,Queda de árvore,0,0,0,0,2025-03-20T08:56:00Z,Oeiras,Lisboa,Área Metropolitana De Lisboa,-9.2306,38.704
25117522,Constância,Médio Tejo,311,2025-03-20T08:56:00Z,25117522,Em despacho,3321,Dano na rede de fornecimento de eletricidade ,0,1,0,5,2025-03-20T08:56:00Z,Constância,Santarém,Centro,-8.327852,39.489498
25117524,Esmoriz,Região de Aveiro,310,2025-03-20T08:49:00Z,25117524,Em despacho,3301,Queda de árvore,0,1,0,4,2025-03-20T08:49:00Z,Ovar,Aveiro,Centro,-8.637974,40.962156
25117525,Repeses e São Salvador,Viseu Dão Lafões,310,2025-03-20T08:36:00Z,25117525,Em despacho,3301,Queda de árvore,0,1,0,2,2025-03-20T08:36:00Z,Viseu,Viseu,Centro,-7.941617,40.639835
25117540,"Algés, Linda-a-Velha e Cruz Quebrada-Dafundo",Grande Lisboa,311,2025-03-20T08:22:00Z,25117540,Em despacho,3301,Queda de árvore,0,1,0,4,2025-03-20T08:22:00Z,Oeiras,Lisboa,Área Metropolitana De Lisboa,-9.250524,38.707224
25117542,Oleiros,Alto Minho,309,2025-03-20T08:57:00Z,25117542,Em curso,3301,Queda de árvore,0,2,0,7,2025-03-20T08:57:00Z,Ponte Da Barca,Viana Do Castelo,Norte,-8.432059,41.797925
25115867,Grade e Carralcova,Alto Minho,309,2025-03-20T04:50:00Z,25115867,Em resolução,3301,Queda de árvore,0,1,0,2,2025-03-20T04:50:00Z,Arcos De Valdevez,Viana Do Castelo,Norte,-8.364605,41.86518
25115890,Setúbal (São Sebastião),Península de Setúbal,311,2025-03-20T06:23:00Z,25115890,Em curso,3301,Queda de árvore,0,0,0,0,2025-03-20T06:23:00Z,Setúbal,Setúbal,Área Metropolitana De Lisboa,-8.87776,38.5403
25115981,Sesimbra (Castelo),Península de Setúbal,311,2025-03-20T06:34:00Z,25115981,Em curso,3301,Queda de árvore,0,0,0,0,2025-03-20T06:34:00Z,Sesimbra,Setúbal,Área Metropolitana De Lisboa,-9.08571,38.46993
25115992,Arrifana,Beiras e Serra da Estrela,310,2025-03-20T06:35:00Z,25115992,Em despacho,3301,Queda de árvore,0,1,0,2,2025-03-20T06:35:00Z,Guarda,Guarda,Centro,-7.20714,40.57137
25115997,Beja (Santiago Maior e São João Baptista),Baixo Alentejo,312,2025-03-20T06:34:00Z,25115997,Em curso,3301,Queda de árvore,0,2,0,3,2025-03-20T06:34:00Z,Beja,Beja,Alentejo,-7.87003,38.014111
25116015,Bougado (São Martinho e Santiago),Area M. Porto,309,2025-03-20T06:20:00Z,25116015,Em despacho,3301,Queda de árvore,0,0,0,0,2025-03-20T06:20:00Z,Trofa,Porto,Norte,-8.558796,41.329536
25116065,a Dos Cunhados e Maceira,Oeste,311,2025-03-20T06:44:00Z,25116065,Em despacho,3321,Dano na rede de fornecimento de eletricidade ,0,0,0,0,2025-03-20T06:44:00Z,Torres Vedras,Lisboa,Centro,-9.376405,39.13558
25116072,Cela,Oeste,311,2025-03-20T06:43:00Z,25116072,Em despacho,3301,Queda de árvore,0,0,0,0,2025-03-20T06:43:00Z,Alcobaça,Leiria,Centro,-9.062135,39.50962
25116097,Coronado (São Romão e São Mamede),Area M. Porto,309,2025-03-20T06:48:00Z,25116097,Em despacho,3301,Queda de árvore,0,2,0,3,2025-03-20T06:48:00Z,Trofa,Porto,Norte,-8.57466,41.26169
25116124,Alcabideche,Grande Lisboa,311,2025-03-20T06:51:00Z,25116124,Em despacho,3311,Queda de elementos de estruturas edificados,0,0,0,0,2025-03-20T06:51:00Z,Cascais,Lisboa,Área Metropolitana De Lisboa,-9.381779,38.72408
25115864,Venteira,Grande Lisboa,311,2025-03-20T06:20:00Z,25115864,Em despacho,3301,Queda de árvore,0,0,0,0,2025-03-20T06:20:00Z,Amadora,Lisboa,Área Metropolitana De Lisboa,-9.23751,38.74258
25115882,Palmeira de Faro e Curvos,Cávado,309,2025-03-20T06:21:00Z,25115882,Em despacho,3301,Queda de árvore,0,1,0,5,2025-03-20T06:21:00Z,Esposende,Braga,Norte,-8.738948,41.549993
25115900,Falagueira-Venda Nova,Grande Lisboa,311,2025-03-20T06:24:00Z,25115900,Em despacho,3301,Queda de árvore,0,0,0,0,2025-03-20T06:24:00Z,Amadora,Lisboa,Área Metropolitana De Lisboa,-9.22461,38.75611
25115907,"Seia, São Romão e Lapa Dos Dinheiros",Beiras e Serra da Estrela,310,2025-03-20T05:50:00Z,25115907,Em curso,3301,Queda de árvore,0,0,0,0,2025-03-20T05:50:00Z,Seia,Guarda,Centro,-7.683032,40.41759
25115948,Cascais e Estoril,Grande Lisboa,311,2025-03-20T02:20:00Z,25115948,Em curso,3301,Queda de árvore,0,0,0,0,2025-03-20T02:20:00Z,Cascais,Lisboa,Área Metropolitana De Lisboa,-9.431354,38.711316
25115959,Charneca de Caparica e Sobreda,Península de Setúbal,311,2025-03-20T06:31:00Z,25115959,Em curso,3301,Queda de árvore,0,0,0,0,2025-03-20T06:31:00Z,Almada,Setúbal,Área Metropolitana De Lisboa,-9.17287,38.57701
25116084,Fornelo do Monte,Viseu Dão Lafões,310,2025-03-20T06:36:00Z,25116084,Em despacho,3301,Queda de árvore,0,1,0,2,2025-03-20T06:36:00Z,Vouzela,Viseu,Centro,-8.108297,40.643592
25116089,Santo António Dos Cavaleiros e Frielas,Grande Lisboa,311,2025-03-20T06:48:00Z,25116089,Em despacho,3301,Queda de árvore,0,0,0,0,2025-03-20T06:48:00Z,Loures,Lisboa,Área Metropolitana De Lisboa,-9.15094,38.80473
25116091,Custóias,Douro,309,2025-03-20T06:48:00Z,25116091,Em despacho,3301,Queda de árvore,0,1,0,5,2025-03-20T06:48:00Z,Vila Nova De Foz Côa,Guarda,Norte,-7.32083,41.10489
25116134,Corroios,Península de Setúbal,311,2025-03-20T01:33:00Z,25116134,Em curso,3301,Queda de árvore,0,0,0,0,2025-03-20T01:33:00Z,Seixal,Setúbal,Área Metropolitana De Lisboa,-9.15139,38.58
25116166,Carnaxide e Queijas,Grande Lisboa,311,2025-03-20T06:55:00Z,25116166,Em despacho,3301,Queda de árvore,0,0,0,0,2025-03-20T06:55:00Z,Oeiras,Lisboa,Área Metropolitana De Lisboa,-9.233587,38.727201
25116173,Corroios,Península de Setúbal,311,2025-03-20T06:56:00Z,25116173,Em curso,3301,Queda de árvore,0,0,0,0,2025-03-20T06:56:00Z,Seixal,Setúbal,Área Metropolitana De Lisboa,-9.16884,38.61179
25116182,Castanheiro do Norte e Ribalonga,Douro,309,2025-03-20T06:45:00Z,25116182,Em despacho,3301,Queda de árvore,0,1,0,2,2025-03-20T06:45:00Z,Carrazeda De Ansiães,Bragança,Norte,-7.386431,41.236388
25116207,Cumeada e Marmeleiro,Beira Baixa,310,2025-03-20T06:50:00Z,25116207,Em conclusão,3301,Queda de árvore,0,0,0,0,2025-03-20T06:50:00Z,Sertã,Castelo Branco,Centro,-8.121668,39.770695
25116218,Brinches,Baixo Alentejo,312,2025-03-20T07:02:00Z,25116218,Em conclusão,3301,Queda de árvore,0,1,0,2,2025-03-20T07:02:00Z,Serpa,Beja,Alentejo,-7.5326,38.031073
25116241,Arganil,Região de Coimbra,310,2025-03-20T07:03:00Z,25116241,Em despacho,3301,Queda de árvore,0,1,0,2,2025-03-20T07:03:00Z,Arganil,Coimbra,Centro,-8.049704,40.220309
25116250,Buarcos,Região de Coimbra,310,2025-03-20T07:02:00Z,25116250,Em despacho,3301,Queda de árvore,0,1,0,5,2025-03-20T07:02:00Z,Figueira Da Foz,Coimbra,Centro,-8.880897,40.168384
25116282,Cascais e Estoril,Grande Lisboa,311,2025-03-20T07:08:00Z,25116282,Em despacho,3301,Queda de árvore,0,0,0,0,2025-03-20T07:08:00Z,Cascais,Lisboa,Área Metropolitana De Lisboa,-9.44244,38.69803
25116291,Vilares e Carnicães,Beiras e Serra da Estrela,310,2025-03-20T07:00:00Z,25116291,Em despacho,3301,Queda de árvore,0,1,0,2,2025-03-20T07:00:00Z,Trancoso,Guarda,Centro,-7.291637,40.71888
25116298,Laranjeiro e Feijó,Península de Setúbal,311,2025-03-20T07:10:00Z,25116298,Em curso,3301,Queda de árvore,0,0,0,0,2025-03-20T07:10:00Z,Almada,Setúbal,Área Metropolitana De Lisboa,-9.155,38.65755
25117557,Sameice e Santa Eulália,Beiras e Serra da Estrela,310,2025-03-20T08:05:00Z,25117557,Em despacho,3301,Queda de árvore,0,1,0,2,2025-03-20T08:05:00Z,Seia,Guarda,Centro,-7.791428,40.41796
25117572,Pessegueiro do Vouga,Região de Aveiro,310,2025-03-20T08:50:00Z,25117572,Em despacho,3301,Queda de árvore,0,1,0,4,2025-03-20T08:50:00Z,Sever Do Vouga,Aveiro,Centro,-8.411128,40.688282
25117592,Figueira Dos Cavaleiros,Baixo Alentejo,312,2025-03-20T08:55:00Z,25117592,Em despacho,3301,Queda de árvore,0,1,0,2,2025-03-20T08:55:00Z,Ferreira Do Alentejo,Beja,Alentejo,-8.202621,38.096365
25117606,Cartaxo e Vale da Pinta,Lezíria do Tejo,311,2025-03-20T09:03:00Z,25117606,Em despacho,3309,Desabamento de estruturas edificadas,0,1,0,3,2025-03-20T09:03:00Z,Cartaxo,Santarém,Alentejo,-8.794948,39.166481
25117609,"S.maria, S.miguel, S.martinho, S.pedro Penaferrim",Grande Lisboa,311,2025-03-20T08:58:00Z,25117609,Em despacho,3321,Dano na rede de fornecimento de eletricidade ,0,0,0,0,2025-03-20T08:58:00Z,Sintra,Lisboa,Área Metropolitana De Lisboa,-9.413155,38.801935
25117623,Corroios,Península de Setúbal,311,2025-03-20T09:05:00Z,25117623,Em curso,3301,Queda de árvore,0,0,0,0,2025-03-20T09:05:00Z,Seixal,Setúbal,Área Metropolitana De Lisboa,-9.15997,38.62338
25117625,Midões,Região de Coimbra,310,2025-03-20T09:00:00Z,25117625,Em despacho,3301,Queda de árvore,0,1,0,2,2025-03-20T09:00:00Z,Tábua,Coimbra,Centro,-7.959948,40.405726
25117658,Carvalhal,Oeste,311,2025-03-20T08:58:00Z,25117658,Em despacho,3301,Queda de árvore,0,1,0,4,2025-03-20T08:58:00Z,Bombarral,Leiria,Centro,-9.125598,39.311846
25116151,Cabeça Gorda,Baixo Alentejo,312,2025-03-20T06:55:00Z,25116151,Em conclusão,3301,Queda de árvore,0,3,0,7,2025-03-20T06:55:00Z,Beja,Beja,Alentejo,-7.796843,37.92775
25116192,Charneca de Caparica e Sobreda,Península de Setúbal,311,2025-03-20T06:59:00Z,25116192,Em curso,3301,Queda de árvore,0,0,0,0,2025-03-20T06:59:00Z,Almada,Setúbal,Área Metropolitana De Lisboa,-9.179431,38.58817
25116217,Massamá e Monte Abraão,Grande Lisboa,311,2025-03-20T07:02:00Z,25116217,Em despacho,3301,Queda de árvore,0,0,0,0,2025-03-20T07:02:00Z,Sintra,Lisboa,Área Metropolitana De Lisboa,-9.280493,38.75529
25116276,Ramada e Caneças,Grande Lisboa,311,2025-03-20T06:54:00Z,25116276,Em despacho,3301,Queda de árvore,0,1,0,5,2025-03-20T06:54:00Z,Odivelas,Lisboa,Área Metropolitana De Lisboa,-9.194441,38.801427
25116281,Miranda do Corvo,Região de Coimbra,310,2025-03-20T07:05:00Z,25116281,Em despacho,3301,Queda de árvore,0,2,0,3,2025-03-20T07:05:00Z,Miranda Do Corvo,Coimbra,Centro,-8.339499,40.09407
25116292,Forninhos,Viseu Dão Lafões,310,2025-03-20T07:06:00Z,25116292,Em despacho,3301,Queda de árvore,0,1,0,3,2025-03-20T07:06:00Z,Aguiar Da Beira,Guarda,Centro,-7.552145,40.703373
25116301,Charneca de Caparica e Sobreda,Península de Setúbal,311,2025-03-20T07:10:00Z,25116301,Em curso,3301,Queda de árvore,0,0,0,0,2025-03-20T07:10:00Z,Almada,Setúbal,Área Metropolitana De Lisboa,-9.17948,38.60341
25116317,"Almada, Cova da Piedade, Pragal e Cacilhas",Península de Setúbal,311,2025-03-20T07:12:00Z,25116317,Em curso,3301,Queda de árvore,0,0,0,0,2025-03-20T07:12:00Z,Almada,Setúbal,Área Metropolitana De Lisboa,-9.1502,38.68656
25116324,Fernão Ferro,Península de Setúbal,311,2025-03-20T07:13:00Z,25116324,Em curso,3301,Queda de árvore,0,1,0,3,2025-03-20T07:13:00Z,Seixal,Setúbal,Área Metropolitana De Lisboa,-9.100874,38.55805
25116331,Souto da Carpalhosa e Ortigosa,Região de Leiria,310,2025-03-20T06:48:00Z,25116331,Em despacho,3301,Queda de árvore,0,1,0,3,2025-03-20T06:48:00Z,Leiria,Leiria,Centro,-8.772208,39.843919
25116340,Santa Catarina da Fonte do Bispo,Algarve,313,2025-03-20T06:55:00Z,25116340,Em conclusão,3301,Queda de árvore,0,1,0,4,2025-03-20T06:55:00Z,Tavira,Faro,Algarve,-7.75233,37.20291
25116342,Vila Fernando,Beiras e Serra da Estrela,310,2025-03-20T06:50:00Z,25116342,Em despacho,3301,Queda de árvore,0,1,0,5,2025-03-20T06:50:00Z,Guarda,Guarda,Centro,-7.160156,40.481917
25116358,"Ardegão, Freixo e Mato",Alto Minho,309,2025-03-20T06:41:00Z,25116358,Em conclusão,3301,Queda de árvore,0,1,0,2,2025-03-20T06:41:00Z,Ponte De Lima,Viana Do Castelo,Norte,-8.588227,41.656012
25116360,Cachopo,Algarve,313,2025-03-20T07:00:00Z,25116360,Em despacho,3301,Queda de árvore,0,2,0,5,2025-03-20T07:00:00Z,Tavira,Faro,Algarve,-7.728292,37.274914
25116367,São João Das Lampas e Terrugem,Grande Lisboa,311,2025-03-20T07:17:00Z,25116367,Em despacho,3301,Queda de árvore,0,0,0,0,2025-03-20T07:17:00Z,Sintra,Lisboa,Área Metropolitana De Lisboa,-9.437078,38.84199
25116383,"Oeiras e S. Julião da Barra, Paço de Arcos e Caxias",Grande Lisboa,311,2025-03-20T07:19:00Z,25116383,Em despacho,3301,Queda de árvore,0,0,0,0,2025-03-20T07:19:00Z,Oeiras,Lisboa,Área Metropolitana De Lisboa,-9.27596,38.70608
25116408,Branca,Região de Aveiro,310,2025-03-20T07:19:00Z,25116408,Em conclusão,3301,Queda de árvore,0,1,0,2,2025-03-20T07:19:00Z,Albergaria-a-Velha,Aveiro,Centro,-8.481324,40.764633
25116426,Nogueira da Regedoura,Area M. Porto,309,2025-03-20T07:24:00Z,25116426,Em despacho,3321,Dano na rede de fornecimento de eletricidade ,0,0,0,0,2025-03-20T07:24:00Z,Santa Maria Da Feira,Aveiro,Norte,-8.58902,41.00774
25116440,Carregado e Cadafais,Oeste,311,2025-03-20T07:09:00Z,25116440,Em curso,3301,Queda de árvore,0,1,0,2,2025-03-20T07:09:00Z,Alenquer,Lisboa,Centro,-8.989872,39.020191
25116313,Areias e Pias,Médio Tejo,311,2025-03-20T07:11:00Z,25116313,Em resolução,3301,Queda de árvore,0,4,0,9,2025-03-20T07:11:00Z,Ferreira Do Zêzere,Santarém,Centro,-8.334562,39.756393
25116330,Santa Cruz,Baixo Alentejo,312,2025-03-20T06:53:00Z,25116330,Em curso,3301,Queda de árvore,0,1,0,2,2025-03-20T06:53:00Z,Almodôvar,Beja,Alentejo,-8.025668,37.401325
