id,address,subregion,neighborhood,date,id.1,state,nature,nature_description,aerial_means,terrestrial_means,aquatic_means,operational,date.1,Concelho,Distrito,NUTII_DSG,longitude,latitude,state_2
26180438,Branca,Região de Aveiro,310,2025-10-23T17:40:00Z,26180438,Em Resolução/Conclusão,3111,Queima,0,2,0,4,2025-10-23T17:40:00Z,Albergaria-a-Velha,Aveiro,Centro,-8.51686,40.74391,Resolução/Conclusão
26180854,Albernoa e Trindade,Baixo Alentejo,312,2025-10-23T19:19:00Z,26180854,Em Despacho,3105,Incêndio rural,0,4,0,10,2025-10-23T19:19:00Z,Beja,Beja,Alentejo,-7.97967,37.8068,Despacho
26160929,Caranguejeira,Região de Leiria,310,2025-10-19T16:50:00Z,26160929,Em Resolução/Conclusão,3101,Incêndio rural,0,1,0,2,2025-10-19T16:50:00Z,Leiria,Leiria,Centro,-8.697637,39.726483,Resolução/Conclusão
26180713,Laranjeiro e Feijó,Península de Setúbal,311,2025-10-23T18:49:00Z,26180713,Em Resolução/Conclusão,3103,Incêndio rural,0,2,0,5,2025-10-23T18:49:00Z,Almada,Setúbal,Área Metropolitana De Lisboa,-9.16194,38.645,Resolução/Conclusão
26180879,Salir de Matos,Oeste,311,2025-10-23T19:34:00Z,26180879,Em Despacho,3111,Queima,0,1,0,5,2025-10-23T19:34:00Z,Caldas Da Rainha,Leiria,Centro,-9.114751,39.447941,Despacho
26180945,Nossa Senhora da Graça Dos Degolados,Alto Alentejo,312,2025-10-23T19:40:00Z,26180945,Em Resolução/Conclusão,3103,Incêndio rural,0,4,0,9,2025-10-23T19:40:00Z,Campo Maior,Portalegre,Alentejo,-7.12889,39.05667,Resolução/Conclusão
26181000,Salvaterra de Magos e Foros de Salvaterra,Lezíria do Tejo,311,2025-10-23T19:59:00Z,26181000,Em Despacho,3105,Incêndio rural,0,3,0,8,2025-10-23T19:59:00Z,Salvaterra De Magos,Santarém,Alentejo,-8.790194,39.028695,Despacho
