id,address,subregion,neighborhood,date,id.1,state,nature,nature_description,aerial_means,terrestrial_means,aquatic_means,operational,date.1,Concelho,Distrito,NUTII_DSG,longitude,latitude,state_2
25686799,Souto Maior,Douro,309,2025-07-16T13:19:00Z,25686799,Em Resolução/Conclusão,3101,Incêndio rural,0,3,0,12,2025-07-16T13:19:00Z,Sabrosa,Vila Real,Norte,-7.57839,41.287518,Resolução/Conclusão
25706620,Forno Telheiro,Beiras e Serra da Estrela,310,2025-07-20T14:06:00Z,25706620,Em Resolução/Conclusão,3103,Incêndio rural,0,4,0,14,2025-07-20T14:06:00Z,Celorico Da Beira,Guarda,Centro,-7.400468,40.6775,Resolução/Conclusão
25706871,Muxagata,Douro,309,2025-07-20T15:06:00Z,25706871,Em Resolução/Conclusão,3103,Incêndio rural,0,7,0,29,2025-07-20T15:06:00Z,Vila Nova De Foz Côa,Guarda,Norte,-7.195613,41.046983,Resolução/Conclusão
25707091,Ericeira,Grande Lisboa,311,2025-07-20T15:58:00Z,25707091,Em Resolução/Conclusão,3103,Incêndio rural,0,0,0,0,2025-07-20T15:58:00Z,Mafra,Lisboa,Área Metropolitana De Lisboa,-9.389667,38.96632,Resolução/Conclusão
25707279,Avintes,Area M. Porto,309,2025-07-20T16:49:00Z,25707279,Em Resolução/Conclusão,3103,Incêndio rural,0,2,0,7,2025-07-20T16:49:00Z,Vila Nova De Gaia,Porto,Norte,-8.555443,41.123418,Resolução/Conclusão
25707192,São Marcos da Serra,Algarve,313,2025-07-20T16:25:00Z,25707192,Em Resolução/Conclusão,3103,Incêndio rural,0,1,0,2,2025-07-20T16:25:00Z,Silves,Faro,Algarve,-8.39156,37.360013,Resolução/Conclusão
25706930,"Assunção, Ajuda, Salvador e Santo Ildefonso",Alto Alentejo,312,2025-07-20T15:18:00Z,25706930,Em Resolução/Conclusão,3105,Incêndio rural,0,2,0,10,2025-07-20T15:18:00Z,Elvas,Portalegre,Alentejo,-7.16295,38.829641,Resolução/Conclusão
