id,address,subregion,neighborhood,date,id.1,state,nature,nature_description,aerial_means,terrestrial_means,aquatic_means,operational,date.1,Concelho,Distrito,NUTII_DSG,longitude,latitude,state_2
26052925,Maceira,Região de Leiria,310,2025-09-27T12:54:00Z,26052925,Em Resolução/Conclusão,3105,Incêndio rural,0,1,0,2,2025-09-27T12:54:00Z,Leiria,Leiria,Centro,-8.89598,39.651515,Resolução/Conclusão
26047987,"Cambeses do Rio, Donões e Mourilhe",Alto Tâmega e Barroso,309,2025-09-26T13:14:00Z,26047987,Em Resolução/Conclusão,3103,Incêndio rural,0,1,0,2,2025-09-26T13:14:00Z,Montalegre,Vila Real,Norte,-7.849698,41.843018,Resolução/Conclusão
26050704,Tortosendo,Beiras e Serra da Estrela,310,2025-09-26T23:04:00Z,26050704,Em Resolução/Conclusão,3103,Incêndio rural,0,1,0,4,2025-09-26T23:04:00Z,Covilhã,Castelo Branco,Centro,-7.521592,40.251592,Resolução/Conclusão
26053608,Covões e Camarneira,Região de Coimbra,310,2025-09-27T15:25:00Z,26053608,Em Resolução/Conclusão,3103,Incêndio rural,0,10,0,34,2025-09-27T15:25:00Z,Cantanhede,Coimbra,Centro,-8.581894,40.468871,Resolução/Conclusão
26054812,Santo Quintino,Oeste,311,2025-09-27T20:04:00Z,26054812,Em Resolução/Conclusão,3103,Incêndio rural,0,1,0,2,2025-09-27T20:04:00Z,Sobral De Monte Agraço,Lisboa,Centro,-9.181054,38.987103,Resolução/Conclusão
25951176,Sandomil,Beiras e Serra da Estrela,310,2025-09-06T10:29:00Z,25951176,Em Resolução/Conclusão,3103,Incêndio rural,0,2,0,10,2025-09-06T10:29:00Z,Seia,Guarda,Centro,-7.76001,40.351547,Resolução/Conclusão
26052652,Mosteiro,Beira Baixa,310,2025-09-27T11:49:00Z,26052652,Em Resolução/Conclusão,3103,Incêndio rural,0,3,0,9,2025-09-27T11:49:00Z,Oleiros,Castelo Branco,Centro,-7.974832,39.883347,Resolução/Conclusão
26054259,Argoncilhe,Area M. Porto,309,2025-09-27T17:53:00Z,26054259,Em Resolução/Conclusão,3103,Incêndio rural,0,4,0,16,2025-09-27T17:53:00Z,Santa Maria Da Feira,Aveiro,Norte,-8.543464,41.03218,Resolução/Conclusão
26054559,"Oliveira de Frades, Souto de Lafões e Sejães",Viseu Dão Lafões,310,2025-09-27T19:12:00Z,26054559,Em Resolução/Conclusão,3103,Incêndio rural,0,6,0,24,2025-09-27T19:12:00Z,Oliveira De Frades,Viseu,Centro,-8.167883,40.735107,Resolução/Conclusão
26054774,Carvalhais,Terras de Trás-os-Montes,309,2025-09-27T20:03:00Z,26054774,Em Curso,3103,Incêndio rural,0,17,0,61,2025-09-27T20:03:00Z,Mirandela,Bragança,Norte,-7.147612,41.50026,Curso
26022995,Bordeira,Algarve,313,2025-09-21T12:21:00Z,26022995,Em Resolução/Conclusão,3103,Incêndio rural,0,10,0,29,2025-09-21T12:21:00Z,Aljezur,Faro,Algarve,-8.825374,37.23495,Resolução/Conclusão
26053948,Arganil,Região de Coimbra,310,2025-09-27T16:47:00Z,26053948,Em Resolução/Conclusão,3103,Incêndio rural,0,36,0,131,2025-09-27T16:47:00Z,Arganil,Coimbra,Centro,-8.08478,40.204972,Resolução/Conclusão
26054883,Louriçal,Região de Leiria,310,2025-09-27T20:27:00Z,26054883,Em Resolução/Conclusão,3103,Incêndio rural,0,3,0,9,2025-09-27T20:27:00Z,Pombal,Leiria,Centro,-8.74038,40.00463,Resolução/Conclusão
