id,address,subregion,neighborhood,date,id.1,state,nature,nature_description,aerial_means,terrestrial_means,aquatic_means,operational,date.1,Concelho,Distrito,NUTII_DSG,longitude,latitude,state_2
25635597,Agilde,Tâmega e Sousa,309,2025-07-06T10:39:00Z,25635597,Em Resolução/Conclusão,3103,Incêndio rural,0,3,0,12,2025-07-06T10:39:00Z,Celorico De Basto,Braga,Norte,-8.110412,41.371243,Resolução/Conclusão
25636351,Frazão Arreigada,Tâmega e Sousa,309,2025-07-06T13:38:00Z,25636351,Em Resolução/Conclusão,3103,Incêndio rural,0,3,0,12,2025-07-06T13:38:00Z,Paços De Ferreira,Porto,Norte,-8.404627,41.2445,Resolução/Conclusão
25636440,Lomba,Area M. Porto,309,2025-07-06T13:52:00Z,25636440,Em Resolução/Conclusão,3101,Incêndio rural,0,5,0,22,2025-07-06T13:52:00Z,Gondomar,Porto,Norte,-8.408252,41.034001,Resolução/Conclusão
25636515,"Esqueiros, Nevogilde e Travassós",Cávado,309,2025-07-06T14:11:00Z,25636515,Em Resolução/Conclusão,3103,Incêndio rural,0,20,0,63,2025-07-06T14:11:00Z,Vila Verde,Braga,Norte,-8.460355,41.663657,Resolução/Conclusão
25636540,Beduído e Veiros,Região de Aveiro,310,2025-07-06T14:17:00Z,25636540,Em Resolução/Conclusão,3103,Incêndio rural,0,4,0,12,2025-07-06T14:17:00Z,Estarreja,Aveiro,Centro,-8.596563,40.774418,Resolução/Conclusão
25636608,Vilarinho,Area M. Porto,309,2025-07-06T14:25:00Z,25636608,Em Resolução/Conclusão,3103,Incêndio rural,0,3,0,15,2025-07-06T14:25:00Z,Santo Tirso,Porto,Norte,-8.331512,41.357482,Resolução/Conclusão
25636247,Ventosa e Cova,Ave,309,2025-07-06T13:13:00Z,25636247,Em Resolução/Conclusão,3103,Incêndio rural,0,3,0,12,2025-07-06T13:13:00Z,Vieira Do Minho,Braga,Norte,-8.165258,41.677738,Resolução/Conclusão
25636528,Braga (São Vicente),Cávado,309,2025-07-06T14:18:00Z,25636528,Em Resolução/Conclusão,3103,Incêndio rural,0,6,0,17,2025-07-06T14:18:00Z,Braga,Braga,Norte,-8.422317,41.56285,Resolução/Conclusão
25636764,Romariz,Area M. Porto,309,2025-07-06T15:09:00Z,25636764,Em Curso,3103,Incêndio rural,0,1,0,5,2025-07-06T15:09:00Z,Santa Maria Da Feira,Aveiro,Norte,-8.45104,40.95669,Curso
25636812,Valdujo,Beiras e Serra da Estrela,310,2025-07-06T15:18:00Z,25636812,Em Resolução/Conclusão,3105,Incêndio rural,0,5,0,19,2025-07-06T15:18:00Z,Trancoso,Guarda,Centro,-7.285625,40.835718,Resolução/Conclusão
25636621,"Alhandra, São João Dos Montes e Calhandriz",Grande Lisboa,311,2025-07-06T14:30:00Z,25636621,Em Resolução/Conclusão,3103,Incêndio rural,0,1,0,6,2025-07-06T14:30:00Z,Vila Franca De Xira,Lisboa,Área Metropolitana De Lisboa,-9.04048,38.9566,Resolução/Conclusão
25636788,Quinta do Conde,Península de Setúbal,311,2025-07-06T15:14:00Z,25636788,Em Resolução/Conclusão,3105,Incêndio rural,0,6,0,26,2025-07-06T15:14:00Z,Sesimbra,Setúbal,Área Metropolitana De Lisboa,-9.077677,38.547845,Resolução/Conclusão
25636855,São João Baptista e Santa Maria Dos Olivais,Médio Tejo,311,2025-07-06T15:30:00Z,25636855,Em Resolução/Conclusão,3103,Incêndio rural,0,0,0,0,2025-07-06T15:30:00Z,Tomar,Santarém,Centro,-8.418407,39.604178,Resolução/Conclusão
25636857,Carregosa,Area M. Porto,309,2025-07-06T15:26:00Z,25636857,Em Resolução/Conclusão,3103,Incêndio rural,1,3,0,18,2025-07-06T15:26:00Z,Oliveira De Azeméis,Aveiro,Norte,-8.413127,40.881882,Resolução/Conclusão
25636341,Navió e Vitorino Dos Piães,Alto Minho,309,2025-07-06T13:36:00Z,25636341,Em Curso,3103,Incêndio rural,5,17,0,62,2025-07-06T13:36:00Z,Ponte De Lima,Viana Do Castelo,Norte,-8.636015,41.674557,Curso
25636900,Alhos Vedros,Península de Setúbal,311,2025-07-06T15:41:00Z,25636900,Em Curso,3103,Incêndio rural,1,9,0,37,2025-07-06T15:41:00Z,Moita,Setúbal,Área Metropolitana De Lisboa,-9.01087,38.64957,Curso
25636936,Foz do Sousa e Covelo,Area M. Porto,309,2025-07-06T15:49:00Z,25636936,Em Resolução/Conclusão,3103,Incêndio rural,1,2,0,13,2025-07-06T15:49:00Z,Gondomar,Porto,Norte,-8.492902,41.10876,Resolução/Conclusão
25636831,Quinta do Anjo,Península de Setúbal,311,2025-07-06T15:21:00Z,25636831,Em Resolução/Conclusão,3105,Incêndio rural,0,2,0,5,2025-07-06T15:21:00Z,Palmela,Setúbal,Área Metropolitana De Lisboa,-8.952793,38.574943,Resolução/Conclusão
25636848,Penafiel,Tâmega e Sousa,309,2025-07-06T15:28:00Z,25636848,Em Curso,3103,Incêndio rural,1,7,0,36,2025-07-06T15:28:00Z,Penafiel,Porto,Norte,-8.280964,41.200887,Curso
25637007,Paranhos,Area M. Porto,309,2025-07-06T16:03:00Z,25637007,Em Despacho,3103,Incêndio rural,0,1,0,5,2025-07-06T16:03:00Z,Porto,Porto,Norte,-8.581315,41.18042,Despacho
25637023,Tocha,Região de Coimbra,310,2025-07-06T16:09:00Z,25637023,Em Despacho,3103,Incêndio rural,1,5,0,26,2025-07-06T16:09:00Z,Cantanhede,Coimbra,Centro,-8.76456,40.31044,Despacho
25637024,Alijó,Douro,309,2025-07-06T16:09:00Z,25637024,Em Despacho,3103,Incêndio rural,1,1,0,11,2025-07-06T16:09:00Z,Alijó,Vila Real,Norte,-7.477,41.28042,Despacho
25636966,Ceivães e Badim,Alto Minho,309,2025-07-06T15:55:00Z,25636966,Em Despacho,3105,Incêndio rural,0,2,0,7,2025-07-06T15:55:00Z,Monção,Viana Do Castelo,Norte,-8.37976,42.07381,Despacho
25636995,Graça,Região de Leiria,310,2025-07-06T16:00:00Z,25636995,Em Curso,3103,Incêndio rural,1,11,0,43,2025-07-06T16:00:00Z,Pedrógão Grande,Leiria,Centro,-8.220789,39.883478,Curso
25637027,Alijó,Douro,309,2025-07-06T16:11:00Z,25637027,Em Despacho,3103,Incêndio rural,0,0,0,0,2025-07-06T16:11:00Z,Alijó,Vila Real,Norte,-7.47673,41.28724,Despacho
