id,address,subregion,neighborhood,date,id.1,state,nature,nature_description,aerial_means,terrestrial_means,aquatic_means,operational,date.1,Concelho,Distrito,NUTII_DSG,longitude,latitude,state_2
25836309,Cinfães,Tâmega e Sousa,309,2025-08-13T18:17:00Z,25836309,Em Resolução/Conclusão,3103,Incêndio rural,0,1,0,2,2025-08-13T18:17:00Z,Cinfães,Viseu,Norte,-8.071502,41.049757,Resolução/Conclusão
25911099,Chavães,Douro,309,2025-08-28T14:29:00Z,25911099,Em Resolução/Conclusão,3103,Incêndio rural,0,5,0,19,2025-08-28T14:29:00Z,Tabuaço,Viseu,Norte,-7.553807,41.09554,Resolução/Conclusão
25911281,Fornos de Maceira Dão,Viseu Dão Lafões,310,2025-08-28T15:09:00Z,25911281,Em Resolução/Conclusão,3103,Incêndio rural,0,1,0,1,2025-08-28T15:09:00Z,Mangualde,Viseu,Centro,-7.821208,40.562675,Resolução/Conclusão
25916414,Vale de Prados,Terras de Trás-os-Montes,309,2025-08-29T16:52:00Z,25916414,Em Resolução/Conclusão,3103,Incêndio rural,0,2,0,7,2025-08-29T16:52:00Z,Macedo De Cavaleiros,Bragança,Norte,-6.946582,41.561332,Resolução/Conclusão
25887019,Pedrógão Grande,Região de Leiria,310,2025-08-23T14:27:00Z,25887019,Em Resolução/Conclusão,3101,Incêndio rural,0,4,0,14,2025-08-23T14:27:00Z,Pedrógão Grande,Leiria,Centro,-8.15364,39.9136,Resolução/Conclusão
25917251,Vila Chã do Marão,Tâmega e Sousa,309,2025-08-29T20:12:00Z,25917251,Em Resolução/Conclusão,3103,Incêndio rural,0,3,0,15,2025-08-29T20:12:00Z,Amarante,Porto,Norte,-8.04957,41.29298,Resolução/Conclusão
25832672,Piódão,Região de Coimbra,310,2025-08-13T05:08:00Z,25832672,Em Resolução/Conclusão,3103,Incêndio rural,0,21,0,62,2025-08-13T05:08:00Z,Arganil,Coimbra,Centro,-7.81972,40.23083,Resolução/Conclusão
25840417,Lousã e Vilarinho,Região de Coimbra,310,2025-08-14T13:46:00Z,25840417,Em Resolução/Conclusão,3101,Incêndio rural,0,1,0,1,2025-08-14T13:46:00Z,Lousã,Coimbra,Centro,-8.201561,40.080016,Resolução/Conclusão
25916073,Zebreira e Segura,Beira Baixa,310,2025-08-29T15:44:00Z,25916073,Em Resolução/Conclusão,3105,Incêndio rural,0,6,0,24,2025-08-29T15:44:00Z,Idanha-a-Nova,Castelo Branco,Centro,-7.04562,39.855059,Resolução/Conclusão
25916877,Ferradosa e Sendim da Serra,Terras de Trás-os-Montes,309,2025-08-29T18:39:00Z,25916877,Em Resolução/Conclusão,3103,Incêndio rural,0,4,0,16,2025-08-29T18:39:00Z,Alfândega Da Fé,Bragança,Norte,-6.978082,41.304847,Resolução/Conclusão
25917109,"Sandim, Olival, Lever e Crestuma",Area M. Porto,309,2025-08-29T19:34:00Z,25917109,Em Resolução/Conclusão,3103,Incêndio rural,0,2,0,7,2025-08-29T19:34:00Z,Vila Nova De Gaia,Porto,Norte,-8.50838,41.02714,Resolução/Conclusão
25917177,Rio Tinto,Area M. Porto,309,2025-08-29T19:55:00Z,25917177,Em Resolução/Conclusão,3103,Incêndio rural,0,1,0,5,2025-08-29T19:55:00Z,Gondomar,Porto,Norte,-8.5571,41.16441,Resolução/Conclusão
25846480,Sabugal e Aldeia de Santo António,Beiras e Serra da Estrela,310,2025-08-15T14:41:00Z,25846480,Em Resolução/Conclusão,3103,Incêndio rural,0,9,0,26,2025-08-15T14:41:00Z,Sabugal,Guarda,Centro,-7.125037,40.34023,Resolução/Conclusão
25851895,Sortelha,Beiras e Serra da Estrela,310,2025-08-16T14:53:00Z,25851895,Em Resolução/Conclusão,3103,Incêndio rural,0,3,0,15,2025-08-16T14:53:00Z,Sabugal,Guarda,Centro,-7.254367,40.318488,Resolução/Conclusão
25910055,Rebordelo,Terras de Trás-os-Montes,309,2025-08-28T11:08:00Z,25910055,Em Curso,3103,Incêndio rural,0,158,0,462,2025-08-28T11:08:00Z,Vinhais,Bragança,Norte,-7.134773,41.765422,Curso
25916672,Sarnadas de Ródão,Beira Baixa,310,2025-08-29T17:53:00Z,25916672,Em Resolução/Conclusão,3101,Incêndio rural,0,19,0,60,2025-08-29T17:53:00Z,Vila Velha De Ródão,Castelo Branco,Centro,-7.620618,39.745495,Resolução/Conclusão
