id,address,subregion,neighborhood,date,id.1,state,nature,nature_description,aerial_means,terrestrial_means,aquatic_means,operational,date.1,Concelho,Distrito,NUTII_DSG,longitude,latitude,state_2
26114630,Seixo da Beira,Região de Coimbra,310,2025-10-10T08:46:00Z,26114630,Em Resolução/Conclusão,3101,Incêndio rural,0,3,0,9,2025-10-10T08:46:00Z,Oliveira Do Hospital,Coimbra,Centro,-7.851872,40.421183,Resolução/Conclusão
26120028,Pelariga,Região de Leiria,310,2025-10-11T09:26:00Z,26120028,Em Resolução/Conclusão,3111,Queima,0,0,0,0,2025-10-11T09:26:00Z,Pombal,Leiria,Centro,-8.581441,39.94881,Resolução/Conclusão
26120931,Moimenta e Montouto,Terras de Trás-os-Montes,309,2025-10-11T12:31:00Z,26120931,Em Curso,3103,Incêndio rural,4,11,0,48,2025-10-11T12:31:00Z,Vinhais,Bragança,Norte,-6.96733,41.954683,Curso
26119150,Prado (São Miguel),Cávado,309,2025-10-11T01:42:00Z,26119150,Em Resolução/Conclusão,3103,Incêndio rural,0,3,0,5,2025-10-11T01:42:00Z,Vila Verde,Braga,Norte,-8.437767,41.6985,Resolução/Conclusão
26120873,Prozelo,Alto Minho,309,2025-10-11T12:18:00Z,26120873,Em Resolução/Conclusão,3103,Incêndio rural,0,2,0,10,2025-10-11T12:18:00Z,Arcos De Valdevez,Viana Do Castelo,Norte,-8.440502,41.865137,Resolução/Conclusão
26121158,Sabariz,Cávado,309,2025-10-11T13:24:00Z,26121158,Em Curso,3103,Incêndio rural,0,0,0,0,2025-10-11T13:24:00Z,Vila Verde,Braga,Norte,-8.415337,41.654442,Curso
26121275,Setúbal (São Sebastião),Península de Setúbal,311,2025-10-11T13:49:00Z,26121275,Em Despacho,3103,Incêndio rural,0,2,0,10,2025-10-11T13:49:00Z,Setúbal,Setúbal,Área Metropolitana De Lisboa,-8.862434,38.527428,Despacho
26115854,Gralhas,Alto Tâmega e Barroso,309,2025-10-10T12:13:00Z,26115854,Em Resolução/Conclusão,3103,Incêndio rural,0,15,0,48,2025-10-10T12:13:00Z,Montalegre,Vila Real,Norte,-7.72346,41.854762,Resolução/Conclusão
26120518,Tocha,Região de Coimbra,310,2025-10-11T11:07:00Z,26120518,Em Resolução/Conclusão,3103,Incêndio rural,0,11,0,29,2025-10-11T11:07:00Z,Cantanhede,Coimbra,Centro,-8.7675,40.31778,Resolução/Conclusão
26121127,Selmes,Baixo Alentejo,312,2025-10-11T13:17:00Z,26121127,Em Resolução/Conclusão,3105,Incêndio rural,0,7,0,19,2025-10-11T13:17:00Z,Vidigueira,Beja,Alentejo,-7.844697,38.190823,Resolução/Conclusão
26121188,Vila Verde e Santão,Tâmega e Sousa,309,2025-10-11T13:24:00Z,26121188,Em Resolução/Conclusão,3105,Incêndio rural,0,1,0,5,2025-10-11T13:24:00Z,Felgueiras,Porto,Norte,-8.180867,41.30866,Resolução/Conclusão
26120694,Esperança e Brunhais,Ave,309,2025-10-11T11:42:00Z,26120694,Em Curso,3103,Incêndio rural,8,12,0,51,2025-10-11T11:42:00Z,Póvoa De Lanhoso,Braga,Norte,-8.173805,41.583791,Curso
26120701,Meca,Oeste,311,2025-10-11T11:43:00Z,26120701,Em Resolução/Conclusão,3103,Incêndio rural,0,8,0,27,2025-10-11T11:43:00Z,Alenquer,Lisboa,Centro,-9.042671,39.085545,Resolução/Conclusão
26121203,Atiães,Cávado,309,2025-10-11T13:33:00Z,26121203,Em Curso,3105,Incêndio rural,1,3,0,21,2025-10-11T13:33:00Z,Vila Verde,Braga,Norte,-8.488332,41.63437,Curso
