id,address,subregion,neighborhood,date,id.1,state,nature,nature_description,aerial_means,terrestrial_means,aquatic_means,operational,date.1,Concelho,Distrito,NUTII_DSG,longitude,latitude
24851780,"São Miguel, Santa Eufémia e Rabaçal",Região de Coimbra,310,2025-01-21T23:25:00Z,24851780,Em curso,3315,Inundação de estruturas por precipitação intensa,0,0,0,0,2025-01-21T23:25:00Z,Penela,Coimbra,Centro,-8.399036,40.025502
24890768,Moncarapacho e Fuseta,Algarve,313,2025-01-30T08:34:00Z,24890768,Em curso,3301,Queda de árvore,0,1,0,5,2025-01-30T08:34:00Z,Olhão,Faro,Algarve,-7.76164,37.0572
24890869,Albergaria-a-Velha e Valmaior,Região de Aveiro,310,2025-01-30T08:50:00Z,24890869,Em resolução,3301,Queda de árvore,0,1,0,1,2025-01-30T08:50:00Z,Albergaria-a-Velha,Aveiro,Centro,-8.451479,40.715192
24891472,Ladoeiro,Beira Baixa,310,2025-01-30T10:35:00Z,24891472,Em despacho,3315,Inundação de estruturas por precipitação intensa,0,1,0,1,2025-01-30T10:35:00Z,Idanha-a-Nova,Castelo Branco,Centro,-7.267471,39.83436
24891639,Massamá e Monte Abraão,Grande Lisboa,311,2025-01-30T11:04:00Z,24891639,Em despacho,3301,Queda de árvore,0,2,0,4,2025-01-30T11:04:00Z,Sintra,Lisboa,Área Metropolitana De Lisboa,-9.27045,38.75541
24891923,Santo André de Vagos,Região de Aveiro,310,2025-01-30T11:47:00Z,24891923,Em despacho,3301,Queda de árvore,0,1,0,2,2025-01-30T11:47:00Z,Vagos,Aveiro,Centro,-8.673363,40.493739
24892005,São Domingos de Rana,Grande Lisboa,311,2025-01-30T12:08:00Z,24892005,Em resolução,3329,Queda de estruturas temporárias ou móveis,0,1,0,3,2025-01-30T12:08:00Z,Cascais,Lisboa,Área Metropolitana De Lisboa,-9.340115,38.702729
24877003,Malagueira e Horta Das Figueiras,Alentejo Central,312,2025-01-27T11:41:00Z,24877003,Em conclusão,3315,Inundação de estruturas por precipitação intensa,0,0,0,0,2025-01-27T11:41:00Z,Évora,Évora,Alentejo,-7.924277,38.57285
24890228,"S.maria, S.miguel, S.martinho, S.pedro Penaferrim",Grande Lisboa,311,2025-01-30T02:27:00Z,24890228,Em curso,3301,Queda de árvore,0,3,0,8,2025-01-30T02:27:00Z,Sintra,Lisboa,Área Metropolitana De Lisboa,-9.387899,38.805813
24890489,Vila Real de Santo António,Algarve,313,2025-01-30T07:00:00Z,24890489,Em conclusão,3301,Queda de árvore,0,2,0,4,2025-01-30T07:00:00Z,Vila Real De Santo António,Faro,Algarve,-7.426935,37.187906
24890557,Luz de Tavira e Santo Estêvão,Algarve,313,2025-01-30T07:34:00Z,24890557,Em despacho,3301,Queda de árvore,0,0,0,0,2025-01-30T07:34:00Z,Tavira,Faro,Algarve,-7.692302,37.09587
24891123,"Almada, Cova da Piedade, Pragal e Cacilhas",Península de Setúbal,311,2025-01-30T09:36:00Z,24891123,Em despacho,3301,Queda de árvore,0,1,0,4,2025-01-30T09:36:00Z,Almada,Setúbal,Área Metropolitana De Lisboa,-9.168395,38.671949
24891348,Faro (Sé e São Pedro),Algarve,313,2025-01-30T10:17:00Z,24891348,Em curso,3301,Queda de árvore,0,2,0,7,2025-01-30T10:17:00Z,Faro,Faro,Algarve,-7.907983,37.02212
24891675,Carvoeira,Grande Lisboa,311,2025-01-30T11:05:00Z,24891675,Em curso,3301,Queda de árvore,0,0,0,0,2025-01-30T11:05:00Z,Mafra,Lisboa,Área Metropolitana De Lisboa,-9.39494,38.94355
24890604,Tavira (Santa Maria e Santiago),Algarve,313,2025-01-30T07:50:00Z,24890604,Em despacho,3329,Queda de estruturas temporárias ou móveis,0,0,0,0,2025-01-30T07:50:00Z,Tavira,Faro,Algarve,-7.645632,37.13715
24890615,Santa Luzia,Algarve,313,2025-01-30T07:50:00Z,24890615,Em despacho,3301,Queda de árvore,0,2,0,4,2025-01-30T07:50:00Z,Tavira,Faro,Algarve,-7.669591,37.101699000000004
24890824,Faro (Sé e São Pedro),Algarve,313,2025-01-30T08:48:00Z,24890824,Em despacho,3329,Queda de estruturas temporárias ou móveis,0,0,0,0,2025-01-30T08:48:00Z,Faro,Faro,Algarve,-7.92658,37.02948
24891101,Olhão,Algarve,313,2025-01-30T09:31:00Z,24891101,Em despacho,3329,Queda de estruturas temporárias ou móveis,0,1,0,3,2025-01-30T09:31:00Z,Olhão,Faro,Algarve,-7.843133,37.022054
24891626,Vila Real de Santo António,Algarve,313,2025-01-30T11:01:00Z,24891626,Em despacho,3311,Queda de elementos de estruturas edificados,0,1,0,1,2025-01-30T11:01:00Z,Vila Real De Santo António,Faro,Algarve,-7.413388,37.191428
24890427,Donai,Terras de Trás-os-Montes,309,2025-01-30T06:27:00Z,24890427,Em despacho,3301,Queda de árvore,0,2,0,4,2025-01-30T06:27:00Z,Bragança,Bragança,Norte,-6.793388,41.828848
24890543,Tavira (Santa Maria e Santiago),Algarve,313,2025-01-30T07:31:00Z,24890543,Em despacho,3301,Queda de árvore,0,0,0,0,2025-01-30T07:31:00Z,Tavira,Faro,Algarve,-7.6675,37.11636
24890911,Mondim de Basto,Ave,309,2025-01-30T09:00:00Z,24890911,Em despacho,3313,Deslizamento de terras,0,2,0,3,2025-01-30T09:00:00Z,Mondim De Basto,Vila Real,Norte,-7.939411,41.401613
24891011,Paranhos,Area M. Porto,309,2025-01-30T09:12:00Z,24891011,Em despacho,3301,Queda de árvore,0,1,0,1,2025-01-30T09:12:00Z,Porto,Porto,Norte,-8.607437,41.17569
24891162,São Brás de Alportel,Algarve,313,2025-01-30T09:43:00Z,24891162,Em despacho,3311,Queda de elementos de estruturas edificados,0,2,0,5,2025-01-30T09:43:00Z,São Brás De Alportel,Faro,Algarve,-7.907974,37.136629
24891261,"Mamouros, Alva e Ribolhos",Viseu Dão Lafões,310,2025-01-30T09:51:00Z,24891261,Em despacho,3315,Inundação de estruturas por precipitação intensa,0,1,0,2,2025-01-30T09:51:00Z,Castro Daire,Viseu,Centro,-7.955286,40.835265
24891445,Peniche,Oeste,311,2025-01-30T10:15:00Z,24891445,Em curso,3321,Dano na rede de fornecimento de eletricidade ,0,1,0,2,2025-01-30T10:15:00Z,Peniche,Leiria,Centro,-9.376833,39.357166
24891547,Luz de Tavira e Santo Estêvão,Algarve,313,2025-01-30T10:09:00Z,24891547,Em despacho,3301,Queda de árvore,0,1,0,2,2025-01-30T10:09:00Z,Tavira,Faro,Algarve,-7.714632,37.093757
24891702,Aveiras de Cima,Lezíria do Tejo,311,2025-01-30T11:19:00Z,24891702,Em despacho,3301,Queda de árvore,0,2,0,4,2025-01-30T11:19:00Z,Azambuja,Lisboa,Alentejo,-8.915722,39.14681
24891800,Benfica do Ribatejo,Lezíria do Tejo,311,2025-01-30T11:38:00Z,24891800,Em conclusão,3301,Queda de árvore,0,2,0,6,2025-01-30T11:38:00Z,Almeirim,Santarém,Alentejo,-8.662077,39.160672
24891916,Lamas,Região de Coimbra,310,2025-01-30T11:40:00Z,24891916,Em despacho,3301,Queda de árvore,0,1,0,2,2025-01-30T11:40:00Z,Miranda Do Corvo,Coimbra,Centro,-8.376991,40.084991
24891970,Olhão,Algarve,313,2025-01-30T11:41:00Z,24891970,Em despacho,3311,Queda de elementos de estruturas edificados,0,1,0,2,2025-01-30T11:41:00Z,Olhão,Faro,Algarve,-7.843133,37.022054
24891674,Faro (Sé e São Pedro),Algarve,313,2025-01-30T10:15:00Z,24891674,Em despacho,3329,Queda de estruturas temporárias ou móveis,0,0,0,0,2025-01-30T10:15:00Z,Faro,Faro,Algarve,-7.942032,37.01865
24891708,Benedita,Oeste,311,2025-01-30T11:10:00Z,24891708,Em conclusão,3329,Queda de estruturas temporárias ou móveis,0,3,0,6,2025-01-30T11:10:00Z,Alcobaça,Leiria,Centro,-8.979714,39.424686
24891799,Luz de Tavira e Santo Estêvão,Algarve,313,2025-01-30T11:26:00Z,24891799,Em despacho,3301,Queda de árvore,0,1,0,1,2025-01-30T11:26:00Z,Tavira,Faro,Algarve,-7.727129,37.070373
24891810,Olhão,Algarve,313,2025-01-30T08:34:00Z,24891810,Em despacho,3301,Queda de árvore,0,1,0,2,2025-01-30T08:34:00Z,Olhão,Faro,Algarve,-7.843133,37.022054
24891942,Maceira,Região de Leiria,310,2025-01-30T11:56:00Z,24891942,Em despacho,3321,Dano na rede de fornecimento de eletricidade ,0,1,0,1,2025-01-30T11:56:00Z,Leiria,Leiria,Centro,-8.889652,39.686501
24891951,"Sé Nova, Santa Cruz, Almedina e São Bartolomeu",Região de Coimbra,310,2025-01-30T11:52:00Z,24891951,Em despacho,3311,Queda de elementos de estruturas edificados,0,1,0,2,2025-01-30T11:52:00Z,Coimbra,Coimbra,Centro,-8.425582,40.205556
24891614,Olhão,Algarve,313,2025-01-30T10:00:00Z,24891614,Em despacho,3301,Queda de árvore,0,0,0,0,2025-01-30T10:00:00Z,Olhão,Faro,Algarve,-7.843133,37.022054
24891729,Cela,Oeste,311,2025-01-30T11:20:00Z,24891729,Em despacho,3301,Queda de árvore,0,2,0,4,2025-01-30T11:20:00Z,Alcobaça,Leiria,Centro,-9.047246,39.526851
24891748,Vale de Cavalos,Lezíria do Tejo,311,2025-01-30T11:29:00Z,24891748,Em despacho,3301,Queda de árvore,0,1,0,2,2025-01-30T11:29:00Z,Chamusca,Santarém,Alentejo,-8.48354,39.25944
24891779,Caparica e Trafaria,Península de Setúbal,311,2025-01-30T11:19:00Z,24891779,Em despacho,3301,Queda de árvore,0,1,0,3,2025-01-30T11:19:00Z,Almada,Setúbal,Área Metropolitana De Lisboa,-9.198172,38.665376
24891782,Vila Boa de Quires e Maureles,Tâmega e Sousa,309,2025-01-30T11:26:00Z,24891782,Em despacho,3301,Queda de árvore,0,1,0,2,2025-01-30T11:26:00Z,Marco De Canaveses,Porto,Norte,-8.204123,41.19461
24891898,Tavira (Santa Maria e Santiago),Algarve,313,2025-01-30T11:30:00Z,24891898,Em despacho,3301,Queda de árvore,0,1,0,2,2025-01-30T11:30:00Z,Tavira,Faro,Algarve,-7.665155,37.195225
