id,address,subregion,neighborhood,date,id.1,state,nature,nature_description,aerial_means,terrestrial_means,aquatic_means,operational,date.1,Concelho,Distrito,NUTII_DSG,longitude,latitude
24877003,Malagueira e Horta Das Figueiras,Alentejo Central,312,2025-01-27T11:41:00Z,24877003,Em conclusão,3315,Inundação de estruturas por precipitação intensa,0,0,0,0,2025-01-27T11:41:00Z,Évora,Évora,Alentejo,-7.924277,38.57285
25018171,São Domingos de Rana,Grande Lisboa,311,2025-02-27T14:11:00Z,25018171,Em curso,3315,Inundação de estruturas por precipitação intensa,0,3,0,4,2025-02-27T14:11:00Z,Cascais,Lisboa,Área Metropolitana De Lisboa,-9.340115,38.702729
25018364,Carnaxide e Queijas,Grande Lisboa,311,2025-02-27T13:58:00Z,25018364,Em curso,3315,Inundação de estruturas por precipitação intensa,0,1,0,5,2025-02-27T13:58:00Z,Oeiras,Lisboa,Área Metropolitana De Lisboa,-9.233587,38.727201
25017807,Cascais e Estoril,Grande Lisboa,311,2025-02-27T12:30:00Z,25017807,Em resolução,3315,Inundação de estruturas por precipitação intensa,0,6,0,14,2025-02-27T12:30:00Z,Cascais,Lisboa,Área Metropolitana De Lisboa,-9.419397,38.700982
25018262,"Oeiras e S. Julião da Barra, Paço de Arcos e Caxias",Grande Lisboa,311,2025-02-27T14:15:00Z,25018262,Em despacho,3315,Inundação de estruturas por precipitação intensa,0,1,0,4,2025-02-27T14:15:00Z,Oeiras,Lisboa,Área Metropolitana De Lisboa,-9.310159,38.698531
25018343,Carnaxide e Queijas,Grande Lisboa,311,2025-02-27T13:46:00Z,25018343,Em curso,3315,Inundação de estruturas por precipitação intensa,0,1,0,5,2025-02-27T13:46:00Z,Oeiras,Lisboa,Área Metropolitana De Lisboa,-9.233587,38.727201
24888293,Pernes,Lezíria do Tejo,311,2025-01-29T16:41:00Z,24888293,Em curso,3301,Queda de árvore,0,0,0,0,2025-01-29T16:41:00Z,Santarém,Santarém,Alentejo,-8.658865,39.381547
25018181,"Alto do Seixalinho, Santo André e Verderena",Península de Setúbal,311,2025-02-27T14:07:00Z,25018181,Em despacho,3317,Inundação de estruturas por água canalizada,0,1,0,5,2025-02-27T14:07:00Z,Barreiro,Setúbal,Área Metropolitana De Lisboa,-9.072252,38.651508
25018356,Cascais e Estoril,Grande Lisboa,311,2025-02-27T14:48:00Z,25018356,Em despacho,3315,Inundação de estruturas por precipitação intensa,0,0,0,0,2025-02-27T14:48:00Z,Cascais,Lisboa,Área Metropolitana De Lisboa,-9.395153,38.71652
25005550,Sines,Alentejo Litoral,312,2025-02-24T19:12:00Z,25005550,Em conclusão,3313,Deslizamento de terras,0,0,0,0,2025-02-24T19:12:00Z,Sines,Setúbal,Alentejo,-8.849778,37.961314
