id,address,subregion,neighborhood,date,id.1,state,nature,nature_description,aerial_means,terrestrial_means,aquatic_means,operational,date.1,Concelho,Distrito,NUTII_DSG,longitude,latitude,state_2
25832672,Piódão,Região de Coimbra,310,2025-08-13T05:08:00Z,25832672,Em Resolução/Conclusão,3103,Incêndio rural,0,0,0,0,2025-08-13T05:08:00Z,Arganil,Coimbra,Centro,-7.81972,40.23083,Resolução/Conclusão
26013902,Penacova,Região de Coimbra,310,2025-09-19T13:28:00Z,26013902,Em Resolução/Conclusão,3103,Incêndio rural,0,14,0,48,2025-09-19T13:28:00Z,Penacova,Coimbra,Centro,-8.32583,40.32722,Resolução/Conclusão
25951176,Sandomil,Beiras e Serra da Estrela,310,2025-09-06T10:29:00Z,25951176,Em Resolução/Conclusão,3103,Incêndio rural,0,2,0,10,2025-09-06T10:29:00Z,Seia,Guarda,Centro,-7.76001,40.351547,Resolução/Conclusão
26003954,Repeses e São Salvador,Viseu Dão Lafões,310,2025-09-17T14:20:00Z,26003954,Em Resolução/Conclusão,3103,Incêndio rural,0,0,0,0,2025-09-17T14:20:00Z,Viseu,Viseu,Centro,-7.95257,40.644483,Resolução/Conclusão
26013898,Viade de Baixo e Fervidelas,Alto Tâmega e Barroso,309,2025-09-19T13:28:00Z,26013898,Em Resolução/Conclusão,3103,Incêndio rural,0,2,0,7,2025-09-19T13:28:00Z,Montalegre,Vila Real,Norte,-7.825053,41.732715,Resolução/Conclusão
26014483,Felgueiras e Maçores,Douro,309,2025-09-19T15:00:00Z,26014483,Em Resolução/Conclusão,3103,Incêndio rural,0,10,0,24,2025-09-19T15:00:00Z,Torre De Moncorvo,Bragança,Norte,-7.021666,41.152412,Resolução/Conclusão
26015102,Ligares,Douro,309,2025-09-19T17:10:00Z,26015102,Em Despacho,3103,Incêndio rural,0,0,0,0,2025-09-19T17:10:00Z,Freixo De Espada à Cinta,Bragança,Norte,-6.967498,41.06339,Despacho
25980131,Carva e Vilares,Douro,309,2025-09-12T14:27:00Z,25980131,Em Resolução/Conclusão,3103,Incêndio rural,0,0,0,0,2025-09-12T14:27:00Z,Murça,Vila Real,Norte,-7.55901,41.401343,Resolução/Conclusão
26011448,Pensalvos e Parada de Monteiros,Alto Tâmega e Barroso,309,2025-09-19T01:21:00Z,26011448,Em Resolução/Conclusão,3103,Incêndio rural,0,10,0,34,2025-09-19T01:21:00Z,Vila Pouca De Aguiar,Vila Real,Norte,-7.66315,41.561337,Resolução/Conclusão
26011781,Vila Verde,Douro,309,2025-09-19T07:00:00Z,26011781,Em Resolução/Conclusão,3103,Incêndio rural,0,7,0,22,2025-09-19T07:00:00Z,Alijó,Vila Real,Norte,-7.524832,41.393817,Resolução/Conclusão
26013405,Barreiros e Cepões,Viseu Dão Lafões,310,2025-09-19T11:56:00Z,26013405,Em Curso,3103,Incêndio rural,7,106,0,320,2025-09-19T11:56:00Z,Viseu,Viseu,Centro,-7.786007,40.76602,Curso
26014089,Mondim de Basto,Ave,309,2025-09-19T14:00:00Z,26014089,Em Resolução/Conclusão,3103,Incêndio rural,0,6,0,19,2025-09-19T14:00:00Z,Mondim De Basto,Vila Real,Norte,-7.96278,41.398312,Resolução/Conclusão
26014173,Bom Sucesso,Região de Coimbra,310,2025-09-19T14:14:00Z,26014173,Em Resolução/Conclusão,3105,Incêndio rural,0,0,0,0,2025-09-19T14:14:00Z,Figueira Da Foz,Coimbra,Centro,-8.77075,40.28288,Resolução/Conclusão
26014573,São Paio,Beiras e Serra da Estrela,310,2025-09-19T15:25:00Z,26014573,Em Resolução/Conclusão,3103,Incêndio rural,0,5,0,16,2025-09-19T15:25:00Z,Gouveia,Guarda,Centro,-7.579448,40.515802,Resolução/Conclusão
26014923,Castelo Branco,Beira Baixa,310,2025-09-19T16:32:00Z,26014923,Em Resolução/Conclusão,3103,Incêndio rural,0,4,0,14,2025-09-19T16:32:00Z,Castelo Branco,Castelo Branco,Centro,-7.486262,39.797957,Resolução/Conclusão
26003298,Barreiros e Cepões,Viseu Dão Lafões,310,2025-09-17T12:05:00Z,26003298,Em Resolução/Conclusão,3101,Incêndio rural,0,1,0,2,2025-09-17T12:05:00Z,Viseu,Viseu,Centro,-7.825281,40.745844,Resolução/Conclusão
26013065,Mezio e Moura Morta,Viseu Dão Lafões,310,2025-09-19T11:05:00Z,26013065,Em Curso,3103,Incêndio rural,7,134,0,461,2025-09-19T11:05:00Z,Castro Daire,Viseu,Centro,-7.878187,40.98632,Curso
26013919,Ervedal e Vila Franca da Beira,Região de Coimbra,310,2025-09-19T13:25:00Z,26013919,Em Curso,3103,Incêndio rural,9,97,0,351,2025-09-19T13:25:00Z,Oliveira Do Hospital,Coimbra,Centro,-7.90472,40.43917,Curso
26014035,Cedrim e Paradela,Região de Aveiro,310,2025-09-19T13:49:00Z,26014035,Em Resolução/Conclusão,3101,Incêndio rural,0,1,0,2,2025-09-19T13:49:00Z,Sever Do Vouga,Aveiro,Centro,-8.33119,40.729352,Resolução/Conclusão
26014535,Arranhó,Oeste,311,2025-09-19T15:19:00Z,26014535,Em Resolução/Conclusão,3103,Incêndio rural,0,2,0,7,2025-09-19T15:19:00Z,Arruda Dos Vinhos,Lisboa,Centro,-9.163068,38.935237,Resolução/Conclusão
