id,address,subregion,neighborhood,date,id.1,state,nature,nature_description,aerial_means,terrestrial_means,aquatic_means,operational,date.1,Concelho,Distrito,NUTII_DSG,longitude,latitude
24847366,"Marvila, Ribeira Santarém, S.salvador, S.nicolau",Lezíria do Tejo,311,2025-01-21T06:55:00Z,24847366,Em resolução,3311,Queda de elementos de estruturas edificados,0,3,0,5,2025-01-21T06:55:00Z,Santarém,Santarém,Alentejo,-8.674035,39.241867
24848170,"Querença, Tôr e Benafim",Algarve,313,2025-01-21T10:00:00Z,24848170,Em conclusão,3313,Deslizamento de terras,0,1,0,3,2025-01-21T10:00:00Z,Loulé,Faro,Algarve,-7.994519,37.199835
24848470,"N. S. da Vila, N. S. do Bispo e Silveiras",Alentejo Central,312,2025-01-21T11:03:00Z,24848470,Em despacho,3301,Queda de árvore,0,1,0,2,2025-01-21T11:03:00Z,Montemor-o-Novo,Évora,Alentejo,-8.206568,38.611659
24848441,Castelo Branco,Beira Baixa,310,2025-01-21T10:50:00Z,24848441,Em curso,3315,Inundação de estruturas por precipitação intensa,0,2,0,4,2025-01-21T10:50:00Z,Castelo Branco,Castelo Branco,Centro,-7.490756,39.816895
24847222,Castelo Branco,Beira Baixa,310,2025-01-21T04:20:00Z,24847222,Em conclusão,3309,Desabamento de estruturas edificadas,0,2,0,3,2025-01-21T04:20:00Z,Castelo Branco,Castelo Branco,Centro,-7.493762,39.824047
24847997,Santa Maria Maior e Monserrate e Meadela,Alto Minho,309,2025-01-21T09:38:00Z,24847997,Em curso,3311,Queda de elementos de estruturas edificados,0,2,0,4,2025-01-21T09:38:00Z,Viana Do Castelo,Viana Do Castelo,Norte,-8.81652,41.703882
24848165,Folques,Região de Coimbra,310,2025-01-21T09:48:00Z,24848165,Em despacho,3301,Queda de árvore,0,1,0,4,2025-01-21T09:48:00Z,Arganil,Coimbra,Centro,-7.987433,40.22295
24848309,Sé e São Lourenço,Alto Alentejo,312,2025-01-21T10:37:00Z,24848309,Em resolução,3301,Queda de árvore,0,1,0,4,2025-01-21T10:37:00Z,Portalegre,Portalegre,Alentejo,-7.427853,39.268649
24848406,Ferreiras,Algarve,313,2025-01-21T10:40:00Z,24848406,Em despacho,3315,Inundação de estruturas por precipitação intensa,0,1,0,2,2025-01-21T10:40:00Z,Albufeira,Faro,Algarve,-8.24221,37.119669
