id,address,subregion,neighborhood,date,id.1,state,nature,nature_description,aerial_means,terrestrial_means,aquatic_means,operational,date.1,Concelho,Distrito,NUTII_DSG,longitude,latitude,state_2
25647106,Tortosendo,Beiras e Serra da Estrela,310,2025-07-08T14:25:00Z,25647106,Em Resolução/Conclusão,3103,Incêndio rural,0,2,0,7,2025-07-08T14:25:00Z,Covilhã,Castelo Branco,Centro,-7.508533,40.223705,Resolução/Conclusão
25652972,Casal Vasco,Beiras e Serra da Estrela,310,2025-07-09T16:12:00Z,25652972,Em Resolução/Conclusão,3103,Incêndio rural,0,3,0,9,2025-07-09T16:12:00Z,Fornos De Algodres,Guarda,Centro,-7.545148,40.650238,Resolução/Conclusão
25654490,Viade de Baixo e Fervidelas,Alto Tâmega e Barroso,309,2025-07-09T22:05:00Z,25654490,Em Resolução/Conclusão,3103,Incêndio rural,0,2,0,7,2025-07-09T22:05:00Z,Montalegre,Vila Real,Norte,-7.863085,41.740178,Resolução/Conclusão
25654751,Cavez,Ave,309,2025-07-09T23:34:00Z,25654751,Em Curso,3101,Incêndio rural,0,5,0,22,2025-07-09T23:34:00Z,Cabeceiras De Basto,Braga,Norte,-7.895342,41.522094,Curso
25654824,Fânzeres e São Pedro da Cova,Area M. Porto,309,2025-07-10T00:03:00Z,25654824,Em Resolução/Conclusão,3103,Incêndio rural,0,3,0,14,2025-07-10T00:03:00Z,Gondomar,Porto,Norte,-8.5317,41.16115,Resolução/Conclusão
25646735,Campelo e Ovil,Tâmega e Sousa,309,2025-07-08T13:19:00Z,25646735,Em Resolução/Conclusão,3105,Incêndio rural,0,3,0,11,2025-07-08T13:19:00Z,Baião,Porto,Norte,-8.00404,41.193612,Resolução/Conclusão
25654809,Pechão,Algarve,313,2025-07-09T23:57:00Z,25654809,Em Resolução/Conclusão,3103,Incêndio rural,0,3,0,7,2025-07-09T23:57:00Z,Olhão,Faro,Algarve,-7.85281,37.04198,Resolução/Conclusão
25646909,Nespereira,Tâmega e Sousa,309,2025-07-08T13:53:00Z,25646909,Em Resolução/Conclusão,3103,Incêndio rural,0,2,0,10,2025-07-08T13:53:00Z,Cinfães,Viseu,Norte,-8.122663,40.996095,Resolução/Conclusão
25649968,Pussos São Pedro,Região de Leiria,310,2025-07-09T04:38:00Z,25649968,Em Resolução/Conclusão,3103,Incêndio rural,0,2,0,4,2025-07-09T04:38:00Z,Alvaiázere,Leiria,Centro,-8.334062,39.841006,Resolução/Conclusão
25653444,Lagares,Região de Coimbra,310,2025-07-09T17:45:00Z,25653444,Em Resolução/Conclusão,3103,Incêndio rural,0,3,0,11,2025-07-09T17:45:00Z,Oliveira Do Hospital,Coimbra,Centro,-7.84119,40.40041,Resolução/Conclusão
25653525,Castêlo da Maia,Area M. Porto,309,2025-07-09T17:59:00Z,25653525,Em Resolução/Conclusão,3103,Incêndio rural,0,4,0,12,2025-07-09T17:59:00Z,Maia,Porto,Norte,-8.637862,41.273407,Resolução/Conclusão
25654243,Beja (Santiago Maior e São João Baptista),Baixo Alentejo,312,2025-07-09T21:00:00Z,25654243,Em Resolução/Conclusão,3105,Incêndio rural,0,0,0,0,2025-07-09T21:00:00Z,Beja,Beja,Alentejo,-7.877832,37.99162,Resolução/Conclusão
25654514,Carnaxide e Queijas,Grande Lisboa,311,2025-07-09T22:11:00Z,25654514,Em Resolução/Conclusão,3103,Incêndio rural,0,1,0,2,2025-07-09T22:11:00Z,Oeiras,Lisboa,Área Metropolitana De Lisboa,-9.224104,38.718166,Resolução/Conclusão
25654614,Penafiel,Tâmega e Sousa,309,2025-07-09T22:32:00Z,25654614,Em Resolução/Conclusão,3103,Incêndio rural,0,1,0,5,2025-07-09T22:32:00Z,Penafiel,Porto,Norte,-8.269773,41.215705,Resolução/Conclusão
25647385,Castelo Novo,Beiras e Serra da Estrela,310,2025-07-08T15:11:00Z,25647385,Em Resolução/Conclusão,3103,Incêndio rural,0,3,0,10,2025-07-08T15:11:00Z,Fundão,Castelo Branco,Centro,-7.447838,40.023465,Resolução/Conclusão
25651828,Alfena,Area M. Porto,309,2025-07-09T12:32:00Z,25651828,Em Resolução/Conclusão,3103,Incêndio rural,0,1,0,5,2025-07-09T12:32:00Z,Valongo,Porto,Norte,-8.525157,41.225625,Resolução/Conclusão
25653937,Recezinhos (São Mamede),Tâmega e Sousa,309,2025-07-09T19:45:00Z,25653937,Em Resolução/Conclusão,3103,Incêndio rural,0,5,0,17,2025-07-09T19:45:00Z,Penafiel,Porto,Norte,-8.21714,41.238373,Resolução/Conclusão
25654201,Estremoz (Santa Maria e Santo André),Alentejo Central,312,2025-07-09T20:47:00Z,25654201,Em Resolução/Conclusão,3105,Incêndio rural,0,1,0,5,2025-07-09T20:47:00Z,Estremoz,Évora,Alentejo,-7.575583,38.853468,Resolução/Conclusão
25654787,Cidade da Maia,Area M. Porto,309,2025-07-09T23:49:00Z,25654787,Em Resolução/Conclusão,3103,Incêndio rural,0,1,0,4,2025-07-09T23:49:00Z,Maia,Porto,Norte,-8.59738,41.23322,Resolução/Conclusão
25654839,Mafamude e Vilar do Paraíso,Area M. Porto,309,2025-07-10T00:13:00Z,25654839,Em Resolução/Conclusão,3103,Incêndio rural,0,2,0,10,2025-07-10T00:13:00Z,Vila Nova De Gaia,Porto,Norte,-8.593593,41.099543,Resolução/Conclusão
25654879,Vila Caiz,Tâmega e Sousa,309,2025-07-10T00:35:00Z,25654879,Em Curso,3105,Incêndio rural,0,2,0,10,2025-07-10T00:35:00Z,Amarante,Porto,Norte,-8.13387,41.229730000000004,Curso
