id,address,subregion,neighborhood,date,id.1,state,nature,nature_description,aerial_means,terrestrial_means,aquatic_means,operational,date.1,Concelho,Distrito,NUTII_DSG,longitude,latitude
24877003,Malagueira e Horta Das Figueiras,Alentejo Central,312,2025-01-27T11:41:00Z,24877003,Em conclusão,3315,Inundação de estruturas por precipitação intensa,0,0,0,0,2025-01-27T11:41:00Z,Évora,Évora,Alentejo,-7.924277,38.57285
24886261,Rio Tinto,Area M. Porto,309,2025-01-29T10:17:00Z,24886261,Em despacho,3321,Dano na rede de fornecimento de eletricidade ,0,1,0,1,2025-01-29T10:17:00Z,Gondomar,Porto,Norte,-8.55251,41.17102
24887086,"Marvila, Ribeira Santarém, S.salvador, S.nicolau",Lezíria do Tejo,311,2025-01-29T12:43:00Z,24887086,Em conclusão,3313,Deslizamento de terras,0,1,0,1,2025-01-29T12:43:00Z,Santarém,Santarém,Alentejo,-8.72694,39.336959
24887792,Baião (Santa Leocádia) e Mesquinhata,Tâmega e Sousa,309,2025-01-29T15:00:00Z,24887792,Em despacho,3313,Deslizamento de terras,0,1,0,2,2025-01-29T15:00:00Z,Baião,Porto,Norte,-8.08635,41.12016
24887817,Esmoriz,Região de Aveiro,310,2025-01-29T14:59:00Z,24887817,Em despacho,1115,Galgamento costeiro,0,2,0,5,2025-01-29T14:59:00Z,Ovar,Aveiro,Centro,-8.656778,40.948842
24887847,Matosinhos e Leça da Palmeira,Area M. Porto,309,2025-01-29T15:11:00Z,24887847,Em despacho,3311,Queda de elementos de estruturas edificados,0,1,0,2,2025-01-29T15:11:00Z,Matosinhos,Porto,Norte,-8.676712,41.17916
24887865,São Martinho Das Moitas e Covas do Rio,Viseu Dão Lafões,310,2025-01-29T15:10:00Z,24887865,Em curso,3313,Deslizamento de terras,0,3,0,12,2025-01-29T15:10:00Z,São Pedro Do Sul,Viseu,Centro,-8.08089,40.891495
24887899,Alcórrego e Maranhão,Alto Alentejo,312,2025-01-29T15:15:00Z,24887899,Em curso,3313,Deslizamento de terras,0,4,0,9,2025-01-29T15:15:00Z,Avis,Portalegre,Alentejo,-7.92824,39.013845
24886300,"Sé, Santa Maria e Meixedo",Terras de Trás-os-Montes,309,2025-01-29T10:22:00Z,24886300,Em curso,3315,Inundação de estruturas por precipitação intensa,0,2,0,3,2025-01-29T10:22:00Z,Bragança,Bragança,Norte,-6.76349,41.81617
24887752,Chamusca e Pinheiro Grande,Lezíria do Tejo,311,2025-01-29T14:52:00Z,24887752,Em resolução,3301,Queda de árvore,0,1,0,5,2025-01-29T14:52:00Z,Chamusca,Santarém,Alentejo,-8.428554,39.403996
24887871,"Nogueira, Fraião e Lamaçães",Cávado,309,2025-01-29T15:15:00Z,24887871,Em despacho,3315,Inundação de estruturas por precipitação intensa,0,1,0,4,2025-01-29T15:15:00Z,Braga,Braga,Norte,-8.41086,41.53137
24887920,"Mangualde, Mesquitela e Cunha Alta",Viseu Dão Lafões,310,2025-01-29T14:44:00Z,24887920,Em curso,3311,Queda de elementos de estruturas edificados,0,2,0,6,2025-01-29T14:44:00Z,Mangualde,Viseu,Centro,-7.73026,40.598771
24888038,Buarcos,Região de Coimbra,310,2025-01-29T15:50:00Z,24888038,Em despacho,3329,Queda de estruturas temporárias ou móveis,0,1,0,6,2025-01-29T15:50:00Z,Figueira Da Foz,Coimbra,Centro,-8.880897,40.168384
24888108,Pombal,Região de Leiria,310,2025-01-29T15:55:00Z,24888108,Em despacho,3301,Queda de árvore,0,1,0,2,2025-01-29T15:55:00Z,Pombal,Leiria,Centro,-8.657032,39.908442
24888149,Aljustrel e Rio de Moinhos,Baixo Alentejo,312,2025-01-29T16:00:00Z,24888149,Em despacho,3315,Inundação de estruturas por precipitação intensa,0,1,0,3,2025-01-29T16:00:00Z,Aljustrel,Beja,Alentejo,-8.170588,37.88196
24888069,"Santiago do Cacém, S.cruz e São Bartolomeu da Serra",Alentejo Litoral,312,2025-01-29T16:02:00Z,24888069,Em despacho,3301,Queda de árvore,0,0,0,0,2025-01-29T16:02:00Z,Santiago Do Cacém,Setúbal,Alentejo,-8.702819,37.94005
24888070,Bucelas,Grande Lisboa,311,2025-01-29T15:50:00Z,24888070,Em despacho,3317,Inundação de estruturas por água canalizada,0,1,0,5,2025-01-29T15:50:00Z,Loures,Lisboa,Área Metropolitana De Lisboa,-9.110652,38.903044
24888103,Albufeira e Olhos de Água,Algarve,313,2025-01-29T15:53:00Z,24888103,Em despacho,3329,Queda de estruturas temporárias ou móveis,0,1,0,2,2025-01-29T15:53:00Z,Albufeira,Faro,Algarve,-8.229809,37.101659
24888104,Condeixa-a-Velha e Condeixa-a-Nova,Região de Coimbra,310,2025-01-29T16:08:00Z,24888104,Em despacho,3301,Queda de árvore,0,1,0,3,2025-01-29T16:08:00Z,Condeixa-a-Nova,Coimbra,Centro,-8.492045,40.113509
24851780,"São Miguel, Santa Eufémia e Rabaçal",Região de Coimbra,310,2025-01-21T23:25:00Z,24851780,Em curso,3315,Inundação de estruturas por precipitação intensa,0,0,0,0,2025-01-21T23:25:00Z,Penela,Coimbra,Centro,-8.399036,40.025502
24886074,Boivães,Alto Minho,309,2025-01-29T09:45:00Z,24886074,Em curso,3313,Deslizamento de terras,0,2,0,6,2025-01-29T09:45:00Z,Ponte Da Barca,Viana Do Castelo,Norte,-8.450591,41.766096
24887945,Abrantes (São Vicente e São João) e Alferrarede,Médio Tejo,311,2025-01-29T15:29:00Z,24887945,Em despacho,3301,Queda de árvore,0,2,0,4,2025-01-29T15:29:00Z,Abrantes,Santarém,Centro,-8.193526,39.462886
24888010,"Oeiras e S. Julião da Barra, Paço de Arcos e Caxias",Grande Lisboa,311,2025-01-29T15:39:00Z,24888010,Em resolução,3321,Dano na rede de fornecimento de eletricidade ,0,2,0,5,2025-01-29T15:39:00Z,Oeiras,Lisboa,Área Metropolitana De Lisboa,-9.275682,38.698873
24887223,"Cedofeita, Ildefonso, Sé, Miragaia, Nicolau e Vitória",Area M. Porto,309,2025-01-29T13:11:00Z,24887223,Em despacho,3329,Queda de estruturas temporárias ou móveis,0,0,0,0,2025-01-29T13:11:00Z,Porto,Porto,Norte,-8.61101,41.16293
24887398,Sines,Alentejo Litoral,312,2025-01-29T13:40:00Z,24887398,Em conclusão,3315,Inundação de estruturas por precipitação intensa,0,2,0,3,2025-01-29T13:40:00Z,Sines,Setúbal,Alentejo,-8.830877,37.967532
24887605,Ladoeiro,Beira Baixa,310,2025-01-29T14:18:00Z,24887605,Em curso,3315,Inundação de estruturas por precipitação intensa,0,2,0,3,2025-01-29T14:18:00Z,Idanha-a-Nova,Castelo Branco,Centro,-7.262052,39.837795
24887798,Odeceixe,Algarve,313,2025-01-29T14:57:00Z,24887798,Em despacho,3301,Queda de árvore,0,1,0,2,2025-01-29T14:57:00Z,Aljezur,Faro,Algarve,-8.773577,37.418024
24887923,"Caia, São Pedro e Alcáçova",Alto Alentejo,312,2025-01-29T15:15:00Z,24887923,Em conclusão,3313,Deslizamento de terras,0,3,0,7,2025-01-29T15:15:00Z,Elvas,Portalegre,Alentejo,-7.148485,38.878658
24888027,São João de Loure e Frossos,Região de Aveiro,310,2025-01-29T15:40:00Z,24888027,Em despacho,3301,Queda de árvore,0,1,0,1,2025-01-29T15:40:00Z,Albergaria-a-Velha,Aveiro,Centro,-8.542278,40.661776
24888044,Abraveses,Viseu Dão Lafões,310,2025-01-29T15:48:00Z,24888044,Em despacho,3315,Inundação de estruturas por precipitação intensa,0,1,0,2,2025-01-29T15:48:00Z,Viseu,Viseu,Centro,-7.908379,40.681199
24888097,Ansião,Região de Leiria,310,2025-01-29T16:04:00Z,24888097,Em despacho,3315,Inundação de estruturas por precipitação intensa,0,1,0,3,2025-01-29T16:04:00Z,Ansião,Leiria,Centro,-8.43366,39.907437
24888129,Buarcos,Região de Coimbra,310,2025-01-29T16:12:00Z,24888129,Em despacho,3311,Queda de elementos de estruturas edificados,0,1,0,3,2025-01-29T16:12:00Z,Figueira Da Foz,Coimbra,Centro,-8.880897,40.168384
24888144,São Martinho do Porto,Oeste,311,2025-01-29T16:12:00Z,24888144,Em despacho,3321,Dano na rede de fornecimento de eletricidade ,0,1,0,2,2025-01-29T16:12:00Z,Alcobaça,Leiria,Centro,-9.131915,39.510842
24887957,São José da Lamarosa,Lezíria do Tejo,311,2025-01-29T15:30:00Z,24887957,Em resolução,3301,Queda de árvore,0,1,0,2,2025-01-29T15:30:00Z,Coruche,Santarém,Alentejo,-8.466018,39.040277
24887982,Braga (São Vítor),Cávado,309,2025-01-29T15:35:00Z,24887982,Em despacho,3315,Inundação de estruturas por precipitação intensa,0,1,0,2,2025-01-29T15:35:00Z,Braga,Braga,Norte,-8.406451,41.557726
24887991,Lagoa e Carvoeiro,Algarve,313,2025-01-29T15:25:00Z,24887991,Em conclusão,3301,Queda de árvore,0,1,0,2,2025-01-29T15:25:00Z,Lagoa,Faro,Algarve,-8.449309,37.134614
24888000,"Ovar, São João, Arada e São Vicente de Pereira Jusã",Região de Aveiro,310,2025-01-29T15:39:00Z,24888000,Em despacho,1115,Galgamento costeiro,0,2,0,5,2025-01-29T15:39:00Z,Ovar,Aveiro,Centro,-8.671695,40.872857
24888023,"Caia, São Pedro e Alcáçova",Alto Alentejo,312,2025-01-29T15:39:00Z,24888023,Em conclusão,3309,Desabamento de estruturas edificadas,0,3,0,5,2025-01-29T15:39:00Z,Elvas,Portalegre,Alentejo,-7.169645,38.882464
24888066,"Abrunheira, Verride e Vila Nova da Barca",Região de Coimbra,310,2025-01-29T16:01:00Z,24888066,Em despacho,3301,Queda de árvore,0,1,0,2,2025-01-29T16:01:00Z,Montemor-o-Velho,Coimbra,Centro,-8.703398,40.139677
24888100,Batalha,Região de Leiria,310,2025-01-29T16:09:00Z,24888100,Em despacho,3301,Queda de árvore,0,1,0,3,2025-01-29T16:09:00Z,Batalha,Leiria,Centro,-8.855879,39.67173
24888134,Moita Dos Ferreiros,Oeste,311,2025-01-29T16:01:00Z,24888134,Em despacho,3309,Desabamento de estruturas edificadas,0,3,0,6,2025-01-29T16:01:00Z,Lourinhã,Lisboa,Centro,-9.227775,39.24698
24888159,Golpilheira,Região de Leiria,310,2025-01-29T16:15:00Z,24888159,Em despacho,3301,Queda de árvore,0,1,0,2,2025-01-29T16:15:00Z,Batalha,Leiria,Centro,-8.825543,39.686901
