id,address,subregion,neighborhood,date,id.1,state,nature,nature_description,aerial_means,terrestrial_means,aquatic_means,operational,date.1,Concelho,Distrito,NUTII_DSG,longitude,latitude
24880852,"Custóias, Leça do Balio e Guifões",Area M. Porto,309,2025-01-28T07:24:00Z,24880852,Em curso,3301,Queda de árvore,0,4,0,7,2025-01-28T07:24:00Z,Matosinhos,Porto,Norte,-8.65214,41.21523
24880967,Caldas da Rainha - Santo Onofre e Serra do Bouro,Oeste,311,2025-01-28T08:04:00Z,24880967,Em despacho,3321,Dano na rede de fornecimento de eletricidade ,0,0,0,0,2025-01-28T08:04:00Z,Caldas Da Rainha,Leiria,Centro,-9.148929,39.401713
24881002,Gonçalo,Beiras e Serra da Estrela,310,2025-01-28T08:10:00Z,24881002,Em curso,3301,Queda de árvore,0,2,0,6,2025-01-28T08:10:00Z,Guarda,Guarda,Centro,-7.342367,40.427758
24881016,Labruja,Alto Minho,309,2025-01-28T08:12:00Z,24881016,Em curso,3301,Queda de árvore,0,1,0,5,2025-01-28T08:12:00Z,Ponte De Lima,Viana Do Castelo,Norte,-8.599071,41.842101
24881169,Vila Nova de Milfontes,Alentejo Litoral,312,2025-01-28T08:38:00Z,24881169,Em curso,3301,Queda de árvore,0,2,0,4,2025-01-28T08:38:00Z,Odemira,Beja,Alentejo,-8.780155,37.765898
24881184,Atouguia da Baleia,Oeste,311,2025-01-28T08:39:00Z,24881184,Em despacho,3321,Dano na rede de fornecimento de eletricidade ,0,1,0,5,2025-01-28T08:39:00Z,Peniche,Leiria,Centro,-9.312128,39.3038
24881199,Cativelos,Beiras e Serra da Estrela,310,2025-01-28T08:50:00Z,24881199,Em curso,3315,Inundação de estruturas por precipitação intensa,0,1,0,3,2025-01-28T08:50:00Z,Gouveia,Guarda,Centro,-7.697601,40.533815
24881203,Nogueira da Regedoura,Area M. Porto,309,2025-01-28T08:43:00Z,24881203,Em despacho,3301,Queda de árvore,0,1,0,3,2025-01-28T08:43:00Z,Santa Maria Da Feira,Aveiro,Norte,-8.582356,41.007084
24881219,Lourinhã e Atalaia,Oeste,311,2025-01-28T08:28:00Z,24881219,Em curso,3321,Dano na rede de fornecimento de eletricidade ,0,2,0,2,2025-01-28T08:28:00Z,Lourinhã,Lisboa,Centro,-9.311131,39.244365
24881336,"Aldoar, Foz do Douro e Nevogilde",Area M. Porto,309,2025-01-28T08:53:00Z,24881336,Em despacho,3329,Queda de estruturas temporárias ou móveis,0,1,0,5,2025-01-28T08:53:00Z,Porto,Porto,Norte,-8.672426,41.161999
24881368,"Fundão, Valverde, Donas, Aldeia de Joanes e Aldeia Nova do Cabo",Beiras e Serra da Estrela,310,2025-01-28T09:15:00Z,24881368,Em despacho,3329,Queda de estruturas temporárias ou móveis,0,1,0,4,2025-01-28T09:15:00Z,Fundão,Castelo Branco,Centro,-7.505345,40.138491
24874564,"Sé, Santa Maria e Meixedo",Terras de Trás-os-Montes,309,2025-01-26T21:55:00Z,24874564,Em curso,3315,Inundação de estruturas por precipitação intensa,0,1,0,2,2025-01-26T21:55:00Z,Bragança,Bragança,Norte,-6.761223,41.813164
24880873,"Almada, Cova da Piedade, Pragal e Cacilhas",Península de Setúbal,311,2025-01-28T07:25:00Z,24880873,Em despacho,3301,Queda de árvore,0,1,0,4,2025-01-28T07:25:00Z,Almada,Setúbal,Área Metropolitana De Lisboa,-9.164498,38.675268
24880880,São Pedro Fins,Area M. Porto,309,2025-01-28T07:35:00Z,24880880,Em despacho,3301,Queda de árvore,0,0,0,0,2025-01-28T07:35:00Z,Maia,Porto,Norte,-8.53927,41.25492
24880978,Castêlo da Maia,Area M. Porto,309,2025-01-28T07:55:00Z,24880978,Em curso,3301,Queda de árvore,0,1,0,4,2025-01-28T07:55:00Z,Maia,Porto,Norte,-8.631878,41.275618
24881048,Charneca de Caparica e Sobreda,Península de Setúbal,311,2025-01-28T08:15:00Z,24881048,Em curso,3301,Queda de árvore,0,1,0,6,2025-01-28T08:15:00Z,Almada,Setúbal,Área Metropolitana De Lisboa,-9.190193,38.591584
24881064,Ramalde,Area M. Porto,309,2025-01-28T08:23:00Z,24881064,Em despacho,3329,Queda de estruturas temporárias ou móveis,0,1,0,5,2025-01-28T08:23:00Z,Porto,Porto,Norte,-8.651472,41.168297
24881137,Maceira,Região de Leiria,310,2025-01-28T08:29:00Z,24881137,Em curso,3301,Queda de árvore,0,1,0,2,2025-01-28T08:29:00Z,Leiria,Leiria,Centro,-8.889652,39.686501
24877003,Malagueira e Horta Das Figueiras,Alentejo Central,312,2025-01-27T11:41:00Z,24877003,Em conclusão,3315,Inundação de estruturas por precipitação intensa,0,0,0,0,2025-01-27T11:41:00Z,Évora,Évora,Alentejo,-7.924277,38.57285
24880854,Cartaxo e Vale da Pinta,Lezíria do Tejo,311,2025-01-28T07:26:00Z,24880854,Em curso,3301,Queda de árvore,0,0,0,0,2025-01-28T07:26:00Z,Cartaxo,Santarém,Alentejo,-8.794948,39.166481
24880911,Salto,Alto Tâmega e Barroso,309,2025-01-28T07:30:00Z,24880911,Em despacho,1107,Nevão,0,1,0,2,2025-01-28T07:30:00Z,Montalegre,Vila Real,Norte,-7.952023,41.597916
24881006,Tavarede,Região de Coimbra,310,2025-01-28T08:05:00Z,24881006,Em despacho,3315,Inundação de estruturas por precipitação intensa,0,1,0,3,2025-01-28T08:05:00Z,Figueira Da Foz,Coimbra,Centro,-8.853871,40.165854
24881120,Cartaxo e Vale da Pinta,Lezíria do Tejo,311,2025-01-28T08:39:00Z,24881120,Em despacho,3301,Queda de árvore,0,2,0,4,2025-01-28T08:39:00Z,Cartaxo,Santarém,Alentejo,-8.794948,39.166481
24881147,Mira,Região de Coimbra,310,2025-01-28T08:42:00Z,24881147,Em resolução,3321,Dano na rede de fornecimento de eletricidade ,0,3,0,5,2025-01-28T08:42:00Z,Mira,Coimbra,Centro,-8.737783,40.44299
24881179,Galveias,Alto Alentejo,312,2025-01-28T08:50:00Z,24881179,Em resolução,3301,Queda de árvore,0,3,0,7,2025-01-28T08:50:00Z,Ponte De Sor,Portalegre,Alentejo,-7.990786,39.161076
24881195,Serrazes,Viseu Dão Lafões,310,2025-01-28T08:26:00Z,24881195,Em curso,3301,Queda de árvore,0,1,0,2,2025-01-28T08:26:00Z,São Pedro Do Sul,Viseu,Centro,-8.109448,40.736344
24851780,"São Miguel, Santa Eufémia e Rabaçal",Região de Coimbra,310,2025-01-21T23:25:00Z,24851780,Em curso,3315,Inundação de estruturas por precipitação intensa,0,0,0,0,2025-01-21T23:25:00Z,Penela,Coimbra,Centro,-8.399036,40.025502
24880792,Ulme,Lezíria do Tejo,311,2025-01-28T06:56:00Z,24880792,Em conclusão,3301,Queda de árvore,0,3,0,4,2025-01-28T06:56:00Z,Chamusca,Santarém,Alentejo,-8.312661,39.330203
24880807,Benfica do Ribatejo,Lezíria do Tejo,311,2025-01-28T07:03:00Z,24880807,Em curso,3301,Queda de árvore,0,6,0,16,2025-01-28T07:03:00Z,Almeirim,Santarém,Alentejo,-8.664093,39.15862
24880940,"Custóias, Leça do Balio e Guifões",Area M. Porto,309,2025-01-28T07:54:00Z,24880940,Em despacho,3301,Queda de árvore,0,1,0,1,2025-01-28T07:54:00Z,Matosinhos,Porto,Norte,-8.626157,41.22295
24881091,Nespereira,Tâmega e Sousa,309,2025-01-28T08:29:00Z,24881091,Em despacho,3301,Queda de árvore,0,1,0,2,2025-01-28T08:29:00Z,Cinfães,Viseu,Norte,-8.162845,41.002883
24881110,Souto da Carpalhosa e Ortigosa,Região de Leiria,310,2025-01-28T08:35:00Z,24881110,Em despacho,3301,Queda de árvore,0,1,0,4,2025-01-28T08:35:00Z,Leiria,Leiria,Centro,-8.837503,39.830931
24881209,Amora,Península de Setúbal,311,2025-01-28T08:32:00Z,24881209,Em curso,3301,Queda de árvore,0,2,0,4,2025-01-28T08:32:00Z,Seixal,Setúbal,Área Metropolitana De Lisboa,-9.125227,38.624582
24881323,Encosta do Sol,Grande Lisboa,311,2025-01-28T09:05:00Z,24881323,Em despacho,3311,Queda de elementos de estruturas edificados,0,1,0,6,2025-01-28T09:05:00Z,Amadora,Lisboa,Área Metropolitana De Lisboa,-9.219324,38.772374
24881346,Chafé,Alto Minho,309,2025-01-28T09:21:00Z,24881346,Em despacho,3301,Queda de árvore,0,0,0,0,2025-01-28T09:21:00Z,Viana Do Castelo,Viana Do Castelo,Norte,-8.81425,41.63455
24881241,Canidelo,Area M. Porto,309,2025-01-28T08:57:00Z,24881241,Em despacho,3329,Queda de estruturas temporárias ou móveis,0,1,0,3,2025-01-28T08:57:00Z,Vila Nova De Gaia,Porto,Norte,-8.652723,41.127681
24881311,Cascais e Estoril,Grande Lisboa,311,2025-01-28T09:02:00Z,24881311,Em despacho,3311,Queda de elementos de estruturas edificados,0,1,0,6,2025-01-28T09:02:00Z,Cascais,Lisboa,Área Metropolitana De Lisboa,-9.38607,38.701344
24881342,Barrô e Aguada de Baixo,Região de Aveiro,310,2025-01-28T09:15:00Z,24881342,Em despacho,3301,Queda de árvore,0,1,0,4,2025-01-28T09:15:00Z,Águeda,Aveiro,Centro,-8.459357,40.525092
24881360,Montalvão,Alto Alentejo,312,2025-01-28T09:20:00Z,24881360,Em resolução,3313,Deslizamento de terras,0,1,0,4,2025-01-28T09:20:00Z,Nisa,Portalegre,Alentejo,-7.535611,39.632623
24881265,"Tavares (Chãs, Várzea e Travanca)",Viseu Dão Lafões,310,2025-01-28T08:58:00Z,24881265,Em conclusão,3301,Queda de árvore,0,2,0,6,2025-01-28T08:58:00Z,Mangualde,Viseu,Centro,-7.645238,40.61465
24881347,Carnaxide e Queijas,Grande Lisboa,311,2025-01-28T08:58:00Z,24881347,Em despacho,3301,Queda de árvore,0,1,0,5,2025-01-28T08:58:00Z,Oeiras,Lisboa,Área Metropolitana De Lisboa,-9.233587,38.727201
24881374,Quiaios,Região de Coimbra,310,2025-01-28T09:27:00Z,24881374,Em despacho,3321,Dano na rede de fornecimento de eletricidade ,0,0,0,0,2025-01-28T09:27:00Z,Figueira Da Foz,Coimbra,Centro,-8.82579,40.20893
