id,address,subregion,neighborhood,date,id.1,state,nature,nature_description,aerial_means,terrestrial_means,aquatic_means,operational,date.1,Concelho,Distrito,NUTII_DSG,longitude,latitude,state_2
26137682,Cabril,Viseu Dão Lafões,310,2025-10-14T20:26:00Z,26137682,Em Resolução/Conclusão,3103,Incêndio rural,0,1,0,5,2025-10-14T20:26:00Z,Castro Daire,Viseu,Centro,-8.09192,40.961935,Resolução/Conclusão
26140933,Gafanha do Carmo,Região de Aveiro,310,2025-10-15T14:10:00Z,26140933,Em Resolução/Conclusão,3105,Incêndio rural,0,0,0,0,2025-10-15T14:10:00Z,Ílhavo,Aveiro,Centro,-8.740618,40.589963,Resolução/Conclusão
26141878,"Soeira, Fresulfe e Mofreita",Terras de Trás-os-Montes,309,2025-10-15T17:20:00Z,26141878,Em Resolução/Conclusão,3103,Incêndio rural,0,6,0,20,2025-10-15T17:20:00Z,Vinhais,Bragança,Norte,-6.906108,41.939292,Resolução/Conclusão
26142103,"Refojos de Basto, Outeiro e Painzela",Ave,309,2025-10-15T18:06:00Z,26142103,Em Resolução/Conclusão,3105,Incêndio rural,0,2,0,10,2025-10-15T18:06:00Z,Cabeceiras De Basto,Braga,Norte,-8.011555,41.529995,Resolução/Conclusão
26141641,"Ovar, São João, Arada e São Vicente de Pereira Jusã",Região de Aveiro,310,2025-10-15T16:24:00Z,26141641,Em Resolução/Conclusão,3103,Incêndio rural,0,9,0,25,2025-10-15T16:24:00Z,Ovar,Aveiro,Centro,-8.563633,40.8693,Resolução/Conclusão
26141920,Marrazes e Barosa,Região de Leiria,310,2025-10-15T17:24:00Z,26141920,Em Resolução/Conclusão,3103,Incêndio rural,0,2,0,7,2025-10-15T17:24:00Z,Leiria,Leiria,Centro,-8.810326,39.75373,Resolução/Conclusão
26140392,Soajo,Alto Minho,309,2025-10-15T12:22:00Z,26140392,Em Resolução/Conclusão,3103,Incêndio rural,0,1,0,4,2025-10-15T12:22:00Z,Arcos De Valdevez,Viana Do Castelo,Norte,-8.219368,41.903442,Resolução/Conclusão
26140644,Chorense e Monte,Cávado,309,2025-10-15T13:16:00Z,26140644,Em Resolução/Conclusão,3103,Incêndio rural,0,4,0,20,2025-10-15T13:16:00Z,Terras De Bouro,Braga,Norte,-8.254743,41.702095,Resolução/Conclusão
26140962,Avessadas e Rosém,Tâmega e Sousa,309,2025-10-15T14:10:00Z,26140962,Em Resolução/Conclusão,3103,Incêndio rural,0,3,0,11,2025-10-15T14:10:00Z,Marco De Canaveses,Porto,Norte,-8.190742,41.160777,Resolução/Conclusão
26141111,Alvora e Loureda,Alto Minho,309,2025-10-15T14:43:00Z,26141111,Em Resolução/Conclusão,3103,Incêndio rural,0,1,0,5,2025-10-15T14:43:00Z,Arcos De Valdevez,Viana Do Castelo,Norte,-8.440198,41.951498,Resolução/Conclusão
26141329,Leomil,Douro,309,2025-10-15T15:22:00Z,26141329,Em Resolução/Conclusão,3103,Incêndio rural,0,3,0,9,2025-10-15T15:22:00Z,Moimenta Da Beira,Viseu,Norte,-7.68704,40.927062,Resolução/Conclusão
26141532,Cabanas de Viriato,Viseu Dão Lafões,310,2025-10-15T16:00:00Z,26141532,Em Resolução/Conclusão,3105,Incêndio rural,0,5,0,15,2025-10-15T16:00:00Z,Carregal Do Sal,Viseu,Centro,-7.964722,40.465868,Resolução/Conclusão
26141798,Calvão e Soutelinho da Raia,Alto Tâmega e Barroso,309,2025-10-15T16:59:00Z,26141798,Em Resolução/Conclusão,3103,Incêndio rural,0,4,0,18,2025-10-15T16:59:00Z,Chaves,Vila Real,Norte,-7.563558,41.830962,Resolução/Conclusão
26141930,Laundos,Area M. Porto,309,2025-10-15T17:26:00Z,26141930,Em Resolução/Conclusão,3103,Incêndio rural,0,2,0,7,2025-10-15T17:26:00Z,Póvoa De Varzim,Porto,Norte,-8.714907,41.441497,Resolução/Conclusão
26137442,Cabril,Viseu Dão Lafões,310,2025-10-14T19:16:00Z,26137442,Em Resolução/Conclusão,3103,Incêndio rural,0,1,0,4,2025-10-14T19:16:00Z,Castro Daire,Viseu,Centro,-8.059472,40.970448,Resolução/Conclusão
26140802,Talhadas,Região de Aveiro,310,2025-10-15T13:42:00Z,26140802,Em Resolução/Conclusão,3101,Incêndio rural,0,20,0,56,2025-10-15T13:42:00Z,Sever Do Vouga,Aveiro,Centro,-8.320335,40.682953,Resolução/Conclusão
26141674,Resende,Tâmega e Sousa,309,2025-10-15T16:31:00Z,26141674,Em Resolução/Conclusão,3103,Incêndio rural,0,3,0,15,2025-10-15T16:31:00Z,Resende,Viseu,Norte,-7.940147,41.089043,Resolução/Conclusão
