id,address,subregion,neighborhood,date,id.1,state,nature,nature_description,aerial_means,terrestrial_means,aquatic_means,operational,date.1,Concelho,Distrito,NUTII_DSG,longitude,latitude,state_2
25846480,Sabugal e Aldeia de Santo António,Beiras e Serra da Estrela,310,2025-08-15T14:41:00Z,25846480,Em Resolução/Conclusão,3103,Incêndio rural,0,11,0,33,2025-08-15T14:41:00Z,Sabugal,Guarda,Centro,-7.125037,40.34023,Resolução/Conclusão
25910055,Rebordelo,Terras de Trás-os-Montes,309,2025-08-28T11:08:00Z,25910055,Em Curso,3103,Incêndio rural,14,72,0,253,2025-08-28T11:08:00Z,Vinhais,Bragança,Norte,-7.134773,41.765422,Curso
25910638,Vale,Alto Minho,309,2025-08-28T13:04:00Z,25910638,Em Resolução/Conclusão,3103,Incêndio rural,0,5,0,20,2025-08-28T13:04:00Z,Arcos De Valdevez,Viana Do Castelo,Norte,-8.336287,41.861395,Resolução/Conclusão
25911105,"Requeixo, Nossa Senhora de Fátima e Nariz",Região de Aveiro,310,2025-08-28T14:36:00Z,25911105,Em Curso,3101,Incêndio rural,4,40,0,149,2025-08-28T14:36:00Z,Aveiro,Aveiro,Centro,-8.537161,40.597857,Curso
25911341,Famalicão,Oeste,311,2025-08-28T15:19:00Z,25911341,Em Resolução/Conclusão,3105,Incêndio rural,0,3,0,12,2025-08-28T15:19:00Z,Nazaré,Leiria,Centro,-9.07467,39.51778,Resolução/Conclusão
25911393,Santa Catarina da Serra e Chainça,Região de Leiria,310,2025-08-28T15:30:00Z,25911393,Em Resolução/Conclusão,3103,Incêndio rural,0,2,0,6,2025-08-28T15:30:00Z,Leiria,Leiria,Centro,-8.692412,39.661077,Resolução/Conclusão
25883011,Almofala,Viseu Dão Lafões,310,2025-08-22T17:00:00Z,25883011,Em Resolução/Conclusão,3103,Incêndio rural,0,1,0,2,2025-08-22T17:00:00Z,Castro Daire,Viseu,Centro,-7.767003,40.956183,Resolução/Conclusão
25887019,Pedrógão Grande,Região de Leiria,310,2025-08-23T14:27:00Z,25887019,Em Resolução/Conclusão,3101,Incêndio rural,0,13,0,40,2025-08-23T14:27:00Z,Pedrógão Grande,Leiria,Centro,-8.15364,39.9136,Resolução/Conclusão
25906523,Picão e Ermida,Viseu Dão Lafões,310,2025-08-27T15:26:00Z,25906523,Em Resolução/Conclusão,3103,Incêndio rural,0,1,0,2,2025-08-27T15:26:00Z,Castro Daire,Viseu,Centro,-7.9416079999999996,40.947432,Resolução/Conclusão
25910026,Santa Lucrécia de Algeriz e Navarra,Cávado,309,2025-08-28T11:02:00Z,25910026,Em Resolução/Conclusão,3103,Incêndio rural,0,1,0,5,2025-08-28T11:02:00Z,Braga,Braga,Norte,-8.376365,41.605148,Resolução/Conclusão
25911523,Borbela e Lamas de Olo,Douro,309,2025-08-28T16:04:00Z,25911523,Em Resolução/Conclusão,3103,Incêndio rural,0,3,0,15,2025-08-28T16:04:00Z,Vila Real,Vila Real,Norte,-7.756608,41.32746,Resolução/Conclusão
25832672,Piódão,Região de Coimbra,310,2025-08-13T05:08:00Z,25832672,Em Resolução/Conclusão,3103,Incêndio rural,0,44,0,146,2025-08-13T05:08:00Z,Arganil,Coimbra,Centro,-7.81972,40.23083,Resolução/Conclusão
25840417,Lousã e Vilarinho,Região de Coimbra,310,2025-08-14T13:46:00Z,25840417,Em Resolução/Conclusão,3101,Incêndio rural,0,2,0,6,2025-08-14T13:46:00Z,Lousã,Coimbra,Centro,-8.201561,40.080016,Resolução/Conclusão
25911638,Moledo,Viseu Dão Lafões,310,2025-08-28T16:35:00Z,25911638,Em Despacho,3103,Incêndio rural,1,10,0,47,2025-08-28T16:35:00Z,Castro Daire,Viseu,Centro,-7.866435,40.817985,Despacho
25813482,Freches e Torres,Beiras e Serra da Estrela,310,2025-08-09T16:21:00Z,25813482,Em Resolução/Conclusão,3103,Incêndio rural,0,1,0,5,2025-08-09T16:21:00Z,Trancoso,Guarda,Centro,-7.363745,40.709022,Resolução/Conclusão
25832250,Ferreira de Aves,Viseu Dão Lafões,310,2025-08-13T00:03:00Z,25832250,Em Resolução/Conclusão,3103,Incêndio rural,0,1,0,2,2025-08-13T00:03:00Z,Sátão,Viseu,Centro,-7.647793,40.79568,Resolução/Conclusão
25836309,Cinfães,Tâmega e Sousa,309,2025-08-13T18:17:00Z,25836309,Em Resolução/Conclusão,3103,Incêndio rural,0,1,0,2,2025-08-13T18:17:00Z,Cinfães,Viseu,Norte,-8.071502,41.049757,Resolução/Conclusão
25910498,Cortiçadas de Lavre e Lavre,Alentejo Central,312,2025-08-28T12:32:00Z,25910498,Em Resolução/Conclusão,3103,Incêndio rural,0,25,0,75,2025-08-28T12:32:00Z,Montemor-o-Novo,Évora,Alentejo,-8.362108,38.73748,Resolução/Conclusão
25910697,Chancelaria,Médio Tejo,311,2025-08-28T13:19:00Z,25910697,Em Resolução/Conclusão,3103,Incêndio rural,0,7,0,19,2025-08-28T13:19:00Z,Torres Novas,Santarém,Centro,-8.568325,39.54473,Resolução/Conclusão
25910796,Gralhas,Alto Tâmega e Barroso,309,2025-08-28T13:42:00Z,25910796,Em Resolução/Conclusão,3103,Incêndio rural,0,5,0,19,2025-08-28T13:42:00Z,Montalegre,Vila Real,Norte,-7.719135,41.880207,Resolução/Conclusão
25911099,Chavães,Douro,309,2025-08-28T14:29:00Z,25911099,Em Resolução/Conclusão,3103,Incêndio rural,0,9,0,30,2025-08-28T14:29:00Z,Tabuaço,Viseu,Norte,-7.553807,41.09554,Resolução/Conclusão
25911281,Vilar Seco,Viseu Dão Lafões,310,2025-08-28T15:09:00Z,25911281,Em Resolução/Conclusão,3103,Incêndio rural,5,42,0,157,2025-08-28T15:09:00Z,Mangualde,Viseu,Centro,-7.821583,40.562405,Resolução/Conclusão
25911666,Gândaras,Região de Coimbra,310,2025-08-28T16:43:00Z,25911666,Em Despacho,3101,Incêndio rural,1,3,0,18,2025-08-28T16:43:00Z,Lousã,Coimbra,Centro,-8.27752,40.128026,Despacho
