id,address,subregion,neighborhood,date,id.1,state,nature,nature_description,aerial_means,terrestrial_means,aquatic_means,operational,date.1,Concelho,Distrito,NUTII_DSG,longitude,latitude,state_2
25599382,Almaceda,Beira Baixa,310,2025-06-29T17:03:00Z,25599382,Em Resolução/Conclusão,3101,Incêndio rural,0,17,0,53,2025-06-29T17:03:00Z,Castelo Branco,Castelo Branco,Centro,-7.645695,39.962858,Resolução/Conclusão
25612309,Portela e Extremo,Alto Minho,309,2025-07-01T23:31:00Z,25612309,Em Resolução/Conclusão,3103,Incêndio rural,0,10,0,36,2025-07-01T23:31:00Z,Arcos De Valdevez,Viana Do Castelo,Norte,-8.46703,41.947547,Resolução/Conclusão
25614308,Romariz,Area M. Porto,309,2025-07-02T11:13:00Z,25614308,Em Resolução/Conclusão,3103,Incêndio rural,0,1,0,5,2025-07-02T11:13:00Z,Santa Maria Da Feira,Aveiro,Norte,-8.46242,40.93556,Resolução/Conclusão
25615006,Fiães,Area M. Porto,309,2025-07-02T13:13:00Z,25615006,Em Resolução/Conclusão,3105,Incêndio rural,0,1,0,2,2025-07-02T13:13:00Z,Santa Maria Da Feira,Aveiro,Norte,-8.522206,40.985785,Resolução/Conclusão
25603618,Messejana,Baixo Alentejo,312,2025-06-30T13:09:00Z,25603618,Em Resolução/Conclusão,3101,Incêndio rural,0,7,0,17,2025-06-30T13:09:00Z,Aljustrel,Beja,Alentejo,-8.169013,37.814978,Resolução/Conclusão
25605147,Vale do Côa,Beiras e Serra da Estrela,310,2025-06-30T17:42:00Z,25605147,Em Resolução/Conclusão,3103,Incêndio rural,0,4,0,14,2025-06-30T17:42:00Z,Pinhel,Guarda,Centro,-7.114995,40.946045,Resolução/Conclusão
25610143,Nossa Senhora Das Misericórdias,Médio Tejo,311,2025-07-01T15:32:00Z,25610143,Em Resolução/Conclusão,3103,Incêndio rural,0,1,0,5,2025-07-01T15:32:00Z,Ourém,Santarém,Centro,-8.600277,39.655883,Resolução/Conclusão
25614641,"St.tirso, Couto (S.cristina e S.miguel) e Burgães",Area M. Porto,309,2025-07-02T12:08:00Z,25614641,Em Resolução/Conclusão,3103,Incêndio rural,0,3,0,9,2025-07-02T12:08:00Z,Santo Tirso,Porto,Norte,-8.499497,41.350898,Resolução/Conclusão
25614834,Alcabideche,Grande Lisboa,311,2025-07-02T12:48:00Z,25614834,Em Resolução/Conclusão,3103,Incêndio rural,0,5,0,14,2025-07-02T12:48:00Z,Cascais,Lisboa,Área Metropolitana De Lisboa,-9.45132,38.7464,Resolução/Conclusão
25614914,Serpa (Salvador e Santa Maria),Baixo Alentejo,312,2025-07-02T12:58:00Z,25614914,Em Resolução/Conclusão,3105,Incêndio rural,0,11,0,33,2025-07-02T12:58:00Z,Serpa,Beja,Alentejo,-7.613587,37.988957,Resolução/Conclusão
25613433,Távora e Pereiro,Douro,309,2025-07-02T09:03:00Z,25613433,Em Resolução/Conclusão,3103,Incêndio rural,0,5,0,16,2025-07-02T09:03:00Z,Tabuaço,Viseu,Norte,-7.555308,41.108568,Resolução/Conclusão
25614585,Faro (Sé e São Pedro),Algarve,313,2025-07-02T12:00:00Z,25614585,Em Resolução/Conclusão,3103,Incêndio rural,0,3,0,9,2025-07-02T12:00:00Z,Faro,Faro,Algarve,-7.939748,37.033063,Resolução/Conclusão
25615053,Oldrões,Tâmega e Sousa,309,2025-07-02T13:28:00Z,25615053,Em Curso,3103,Incêndio rural,1,5,0,28,2025-07-02T13:28:00Z,Penafiel,Porto,Norte,-8.295737,41.154202,Curso
25615087,Pelariga,Região de Leiria,310,2025-07-02T13:34:00Z,25615087,Em Resolução/Conclusão,3105,Incêndio rural,0,7,0,22,2025-07-02T13:34:00Z,Pombal,Leiria,Centro,-8.624792,39.978831,Resolução/Conclusão
25615119,Valpaços e Sanfins,Alto Tâmega e Barroso,309,2025-07-02T13:38:00Z,25615119,Em Resolução/Conclusão,3103,Incêndio rural,0,2,0,10,2025-07-02T13:38:00Z,Valpaços,Vila Real,Norte,-7.31441,41.60176,Resolução/Conclusão
25610953,Barbacena e Vila Fernando,Alto Alentejo,312,2025-07-01T18:18:00Z,25610953,Em Resolução/Conclusão,3101,Incêndio rural,0,7,0,20,2025-07-01T18:18:00Z,Elvas,Portalegre,Alentejo,-7.318435,38.920227,Resolução/Conclusão
25611301,"Algodres, Vale de Afonsinho e Vilar de Amargo",Beiras e Serra da Estrela,310,2025-07-01T19:25:00Z,25611301,Em Resolução/Conclusão,3103,Incêndio rural,1,13,0,60,2025-07-01T19:25:00Z,Figueira De Castelo Rodrigo,Guarda,Centro,-7.002512,40.960853,Resolução/Conclusão
25612908,Portela e Extremo,Alto Minho,309,2025-07-02T07:05:00Z,25612908,Em Resolução/Conclusão,3103,Incêndio rural,0,2,0,7,2025-07-02T07:05:00Z,Arcos De Valdevez,Viana Do Castelo,Norte,-8.472543,41.953533,Resolução/Conclusão
25613041,Baguim do Monte (Rio Tinto),Area M. Porto,309,2025-07-02T07:56:00Z,25613041,Em Resolução/Conclusão,3103,Incêndio rural,0,2,0,4,2025-07-02T07:56:00Z,Gondomar,Porto,Norte,-8.526002,41.197023,Resolução/Conclusão
25614793,Eixo e Eirol,Região de Aveiro,310,2025-07-02T12:38:00Z,25614793,Em Resolução/Conclusão,3101,Incêndio rural,0,6,0,22,2025-07-02T12:38:00Z,Aveiro,Aveiro,Centro,-8.589795,40.626498,Resolução/Conclusão
25614844,Malagueira e Horta Das Figueiras,Alentejo Central,312,2025-07-02T12:48:00Z,25614844,Em Resolução/Conclusão,3105,Incêndio rural,0,8,0,29,2025-07-02T12:48:00Z,Évora,Évora,Alentejo,-7.927843,38.541022,Resolução/Conclusão
25615163,Alhos Vedros,Península de Setúbal,311,2025-07-02T13:46:00Z,25615163,Em Resolução/Conclusão,3103,Incêndio rural,1,7,0,30,2025-07-02T13:46:00Z,Moita,Setúbal,Área Metropolitana De Lisboa,-9.026889,38.657804,Resolução/Conclusão
25615211,Aguada de Cima,Região de Aveiro,310,2025-07-02T13:55:00Z,25615211,Em Despacho,3103,Incêndio rural,0,3,0,15,2025-07-02T13:55:00Z,Águeda,Aveiro,Centro,-8.382128,40.525355,Despacho
25615166,Chamusca e Pinheiro Grande,Lezíria do Tejo,311,2025-07-02T13:45:00Z,25615166,Em Resolução/Conclusão,3103,Incêndio rural,0,2,0,6,2025-07-02T13:45:00Z,Chamusca,Santarém,Alentejo,-8.490477,39.362372,Resolução/Conclusão
