id,address,subregion,neighborhood,date,id.1,state,nature,nature_description,aerial_means,terrestrial_means,aquatic_means,operational,date.1,Concelho,Distrito,NUTII_DSG,longitude,latitude,state_2
26022995,Bordeira,Algarve,313,2025-09-21T12:21:00Z,26022995,Em Resolução/Conclusão,3103,Incêndio rural,0,5,0,15,2025-09-21T12:21:00Z,Aljezur,Faro,Algarve,-8.825374,37.23495,Resolução/Conclusão
26082277,Bougado (São Martinho e Santiago),Area M. Porto,309,2025-10-03T12:41:00Z,26082277,Em Resolução/Conclusão,3103,Incêndio rural,0,2,0,6,2025-10-03T12:41:00Z,Trofa,Porto,Norte,-8.558796,41.329536,Resolução/Conclusão
26082309,"Camarate, Unhos e Apelação",Grande Lisboa,311,2025-10-03T12:52:00Z,26082309,Em Resolução/Conclusão,3103,Incêndio rural,0,4,0,17,2025-10-03T12:52:00Z,Loures,Lisboa,Área Metropolitana De Lisboa,-9.125813,38.796052,Resolução/Conclusão
26082343,"S.pedro e Santiago, S.maria e S.miguel e Matacães",Oeste,311,2025-10-03T12:59:00Z,26082343,Em Despacho,3111,Queima,0,1,0,5,2025-10-03T12:59:00Z,Torres Vedras,Lisboa,Centro,-9.248246,39.10392,Despacho
26073480,Alcanede,Lezíria do Tejo,311,2025-10-01T16:15:00Z,26073480,Em Resolução/Conclusão,3103,Incêndio rural,0,2,0,10,2025-10-01T16:15:00Z,Santarém,Santarém,Alentejo,-8.787427,39.400588,Resolução/Conclusão
26078806,"Tavares (Chãs, Várzea e Travanca)",Viseu Dão Lafões,310,2025-10-02T17:31:00Z,26078806,Em Resolução/Conclusão,3103,Incêndio rural,0,1,0,2,2025-10-02T17:31:00Z,Mangualde,Viseu,Centro,-7.638958,40.609205,Resolução/Conclusão
26077823,São Cipriano e Vil de Souto,Viseu Dão Lafões,310,2025-10-02T14:18:00Z,26077823,Em Resolução/Conclusão,3103,Incêndio rural,0,2,0,7,2025-10-02T14:18:00Z,Viseu,Viseu,Centro,-7.953868,40.632302,Resolução/Conclusão
26078406,Arcozelo,Beiras e Serra da Estrela,310,2025-10-02T16:12:00Z,26078406,Em Resolução/Conclusão,3103,Incêndio rural,0,5,0,21,2025-10-02T16:12:00Z,Gouveia,Guarda,Centro,-7.635898,40.563733,Resolução/Conclusão
26082051,Cabreiro,Alto Minho,309,2025-10-03T12:04:00Z,26082051,Em Resolução/Conclusão,3103,Incêndio rural,0,1,0,3,2025-10-03T12:04:00Z,Arcos De Valdevez,Viana Do Castelo,Norte,-8.387593,41.927735,Resolução/Conclusão
