id,address,subregion,neighborhood,date,id.1,state,nature,nature_description,aerial_means,terrestrial_means,aquatic_means,operational,date.1,Concelho,Distrito,NUTII_DSG,longitude,latitude
25087162,Pedrógão,Baixo Alentejo,312,2025-03-14T17:00:00Z,25087162,Em curso,1101,Cheia,0,0,0,0,2025-03-14T17:00:00Z,Vidigueira,Beja,Alentejo,-7.630327,38.110775
25111421,Febres,Região de Coimbra,310,2025-03-19T20:53:00Z,25111421,Em despacho,3311,Queda de elementos de estruturas edificados,0,1,0,2,2025-03-19T20:53:00Z,Cantanhede,Coimbra,Centro,-8.637168,40.385839
25111596,Paião,Região de Coimbra,310,2025-03-19T21:30:00Z,25111596,Em despacho,3301,Queda de árvore,0,1,0,2,2025-03-19T21:30:00Z,Figueira Da Foz,Coimbra,Centro,-8.756598,40.054747
25111669,Marinha Grande,Região de Leiria,310,2025-03-19T21:26:00Z,25111669,Em despacho,3311,Queda de elementos de estruturas edificados,0,1,0,2,2025-03-19T21:26:00Z,Marinha Grande,Leiria,Centro,-8.937219,39.767238
25111939,Pombal,Região de Leiria,310,2025-03-19T22:30:00Z,25111939,Em despacho,3301,Queda de árvore,0,1,0,2,2025-03-19T22:30:00Z,Pombal,Leiria,Centro,-8.603159,39.896965
25111987,Paião,Região de Coimbra,310,2025-03-19T22:38:00Z,25111987,Em despacho,3301,Queda de árvore,0,0,0,0,2025-03-19T22:38:00Z,Figueira Da Foz,Coimbra,Centro,-8.81391,40.06369
25112073,Corroios,Península de Setúbal,311,2025-03-19T22:56:00Z,25112073,Em curso,3301,Queda de árvore,0,1,0,3,2025-03-19T22:56:00Z,Seixal,Setúbal,Área Metropolitana De Lisboa,-9.15214,38.58275
25112289,Alcabideche,Grande Lisboa,311,2025-03-19T23:23:00Z,25112289,Em despacho,3301,Queda de árvore,0,1,0,5,2025-03-19T23:23:00Z,Cascais,Lisboa,Área Metropolitana De Lisboa,-9.377282,38.724858
25112355,Cascais e Estoril,Grande Lisboa,311,2025-03-19T23:42:00Z,25112355,Em despacho,3301,Queda de árvore,0,0,0,0,2025-03-19T23:42:00Z,Cascais,Lisboa,Área Metropolitana De Lisboa,-9.44891,38.69577
25112364,Canha,Península de Setúbal,311,2025-03-19T23:25:00Z,25112364,Em curso,3301,Queda de árvore,0,3,0,12,2025-03-19T23:25:00Z,Montijo,Setúbal,Área Metropolitana De Lisboa,-8.631311,38.768258
25112462,Costa da Caparica,Península de Setúbal,311,2025-03-19T23:45:00Z,25112462,Em curso,3301,Queda de árvore,0,0,0,0,2025-03-19T23:45:00Z,Almada,Setúbal,Área Metropolitana De Lisboa,-9.227696,38.642583
25112466,Colares,Grande Lisboa,311,2025-03-19T23:50:00Z,25112466,Em curso,3321,Dano na rede de fornecimento de eletricidade ,0,2,0,7,2025-03-19T23:50:00Z,Sintra,Lisboa,Área Metropolitana De Lisboa,-9.470171,38.782676
25112505,"S.julião, N.s. da Anunciada e S. Maria da Graça",Península de Setúbal,311,2025-03-19T23:48:00Z,25112505,Em curso,3301,Queda de árvore,0,2,0,9,2025-03-19T23:48:00Z,Setúbal,Setúbal,Área Metropolitana De Lisboa,-8.889983,38.529955
25112539,"Almargem do Bispo, Pêro Pinheiro e Montelavar",Grande Lisboa,311,2025-03-20T00:02:00Z,25112539,Em despacho,3321,Dano na rede de fornecimento de eletricidade ,0,1,0,2,2025-03-20T00:02:00Z,Sintra,Lisboa,Área Metropolitana De Lisboa,-9.297507,38.825783
25112541,Fernão Ferro,Península de Setúbal,311,2025-03-19T23:20:00Z,25112541,Em despacho,3321,Dano na rede de fornecimento de eletricidade ,0,1,0,4,2025-03-19T23:20:00Z,Seixal,Setúbal,Área Metropolitana De Lisboa,-9.115329,38.572419
25112564,Charneca de Caparica e Sobreda,Península de Setúbal,311,2025-03-20T00:13:00Z,25112564,Em curso,3301,Queda de árvore,0,0,0,0,2025-03-20T00:13:00Z,Almada,Setúbal,Área Metropolitana De Lisboa,-9.178229,38.59188
25112589,Fernão Ferro,Península de Setúbal,311,2025-03-20T00:16:00Z,25112589,Em curso,3301,Queda de árvore,0,0,0,0,2025-03-20T00:16:00Z,Seixal,Setúbal,Área Metropolitana De Lisboa,-9.07498,38.57159
25112607,"Seixal, Arrentela e Aldeia de Paio Pires",Península de Setúbal,311,2025-03-20T00:19:00Z,25112607,Em curso,3311,Queda de elementos de estruturas edificados,0,0,0,0,2025-03-20T00:19:00Z,Seixal,Setúbal,Área Metropolitana De Lisboa,-9.102241,38.62695
25112639,"S.julião, N.s. da Anunciada e S. Maria da Graça",Península de Setúbal,311,2025-03-20T00:23:00Z,25112639,Em curso,3311,Queda de elementos de estruturas edificados,0,0,0,0,2025-03-20T00:23:00Z,Setúbal,Setúbal,Área Metropolitana De Lisboa,-8.90127,38.52768
25112648,"S.julião, N.s. da Anunciada e S. Maria da Graça",Península de Setúbal,311,2025-03-20T00:25:00Z,25112648,Em curso,3321,Dano na rede de fornecimento de eletricidade ,0,0,0,0,2025-03-20T00:25:00Z,Setúbal,Setúbal,Área Metropolitana De Lisboa,-8.88305,38.53925
25112666,Azeitão (São Lourenço e São Simão),Península de Setúbal,311,2025-03-20T00:27:00Z,25112666,Em curso,3301,Queda de árvore,0,0,0,0,2025-03-20T00:27:00Z,Setúbal,Setúbal,Área Metropolitana De Lisboa,-9.01777,38.52527
25112675,Alhos Vedros,Península de Setúbal,311,2025-03-20T00:28:00Z,25112675,Em curso,3301,Queda de árvore,0,0,0,0,2025-03-20T00:28:00Z,Moita,Setúbal,Área Metropolitana De Lisboa,-9.010387,38.63902
25112680,Samora Correia,Lezíria do Tejo,311,2025-03-20T00:28:00Z,25112680,Em curso,3301,Queda de árvore,0,2,0,3,2025-03-20T00:28:00Z,Benavente,Santarém,Alentejo,-8.890675,38.921796
25112682,Gâmbia-Pontes-Alto da Guerra,Península de Setúbal,311,2025-03-20T00:29:00Z,25112682,Em curso,3301,Queda de árvore,0,0,0,0,2025-03-20T00:29:00Z,Setúbal,Setúbal,Área Metropolitana De Lisboa,-8.85317,38.54087
25112721,Quinta do Anjo,Península de Setúbal,311,2025-03-20T00:34:00Z,25112721,Em curso,3301,Queda de árvore,0,0,0,0,2025-03-20T00:34:00Z,Palmela,Setúbal,Área Metropolitana De Lisboa,-8.950333,38.56405
25112766,Alverca do Ribatejo e Sobralinho,Grande Lisboa,311,2025-03-20T00:39:00Z,25112766,Em despacho,3329,Queda de estruturas temporárias ou móveis,0,0,0,0,2025-03-20T00:39:00Z,Vila Franca De Xira,Lisboa,Área Metropolitana De Lisboa,-9.04762,38.90468
25112773,Poceirão e Marateca,Península de Setúbal,311,2025-03-20T00:40:00Z,25112773,Em curso,3301,Queda de árvore,0,0,0,0,2025-03-20T00:40:00Z,Palmela,Setúbal,Área Metropolitana De Lisboa,-8.76661,38.69349
25112789,"Camarate, Unhos e Apelação",Grande Lisboa,311,2025-03-20T00:30:00Z,25112789,Em despacho,3315,Inundação de estruturas por precipitação intensa,0,1,0,5,2025-03-20T00:30:00Z,Loures,Lisboa,Área Metropolitana De Lisboa,-9.139208,38.802817
25112814,"Marvila, Ribeira Santarém, S.salvador, S.nicolau",Lezíria do Tejo,311,2025-03-20T00:44:00Z,25112814,Em curso,3301,Queda de árvore,0,0,0,0,2025-03-20T00:44:00Z,Santarém,Santarém,Alentejo,-8.675088,39.23623
25112823,Samora Correia,Lezíria do Tejo,311,2025-03-20T00:46:00Z,25112823,Em despacho,3311,Queda de elementos de estruturas edificados,0,0,0,0,2025-03-20T00:46:00Z,Benavente,Santarém,Alentejo,-8.87181,38.90654
25112830,Canha,Península de Setúbal,311,2025-03-19T23:55:00Z,25112830,Em despacho,3301,Queda de árvore,0,1,0,5,2025-03-19T23:55:00Z,Montijo,Setúbal,Área Metropolitana De Lisboa,-8.631311,38.768258
25112839,Mafra,Grande Lisboa,311,2025-03-20T00:41:00Z,25112839,Em despacho,3301,Queda de árvore,0,1,0,3,2025-03-20T00:41:00Z,Mafra,Lisboa,Área Metropolitana De Lisboa,-9.322743,38.971331
25112850,Samora Correia,Lezíria do Tejo,311,2025-03-20T00:49:00Z,25112850,Em despacho,3309,Desabamento de estruturas edificadas,0,0,0,0,2025-03-20T00:49:00Z,Benavente,Santarém,Alentejo,-8.844734,38.92736
25112857,Póvoa de Santa Iria e Forte da Casa,Grande Lisboa,311,2025-03-20T00:30:00Z,25112857,Em despacho,3329,Queda de estruturas temporárias ou móveis,0,1,0,4,2025-03-20T00:30:00Z,Vila Franca De Xira,Lisboa,Área Metropolitana De Lisboa,-9.051508,38.875602
25068300,Almeirim,Lezíria do Tejo,311,2025-03-10T20:52:00Z,25068300,Em curso,1101,Cheia,0,0,0,0,2025-03-10T20:52:00Z,Almeirim,Santarém,Alentejo,-8.635002,39.187436
25111284,"Manique do Intendente, V. N. de São Pedro e Maçussa",Lezíria do Tejo,311,2025-03-19T20:22:00Z,25111284,Em conclusão,3329,Queda de estruturas temporárias ou móveis,0,1,0,2,2025-03-19T20:22:00Z,Azambuja,Lisboa,Alentejo,-8.889528,39.229128
25111888,Louriçal,Região de Leiria,310,2025-03-19T22:22:00Z,25111888,Em despacho,3321,Dano na rede de fornecimento de eletricidade ,0,1,0,1,2025-03-19T22:22:00Z,Pombal,Leiria,Centro,-8.773705,40.03828
25112036,"São Miguel, Santa Eufémia e Rabaçal",Região de Coimbra,310,2025-03-19T22:40:00Z,25112036,Em curso,3301,Queda de árvore,0,1,0,2,2025-03-19T22:40:00Z,Penela,Coimbra,Centro,-8.397812,40.011996
25112088,Azeitão (São Lourenço e São Simão),Península de Setúbal,311,2025-03-19T22:51:00Z,25112088,Em despacho,3301,Queda de árvore,0,1,0,5,2025-03-19T22:51:00Z,Setúbal,Setúbal,Área Metropolitana De Lisboa,-9.00001,38.524687
25112172,"Seixal, Arrentela e Aldeia de Paio Pires",Península de Setúbal,311,2025-03-19T23:13:00Z,25112172,Em curso,3329,Queda de estruturas temporárias ou móveis,0,1,0,4,2025-03-19T23:13:00Z,Seixal,Setúbal,Área Metropolitana De Lisboa,-9.090212,38.62184
25112270,Marrazes e Barosa,Região de Leiria,310,2025-03-19T23:00:00Z,25112270,Em despacho,3301,Queda de árvore,0,1,0,2,2025-03-19T23:00:00Z,Leiria,Leiria,Centro,-8.794769,39.760033
25112422,Pala,Região de Coimbra,310,2025-03-19T23:48:00Z,25112422,Em despacho,3301,Queda de árvore,0,1,0,4,2025-03-19T23:48:00Z,Mortágua,Viseu,Centro,-8.262736,40.422891
25112875,Palmela,Península de Setúbal,311,2025-03-20T00:52:00Z,25112875,Em curso,3321,Dano na rede de fornecimento de eletricidade ,0,0,0,0,2025-03-20T00:52:00Z,Palmela,Setúbal,Área Metropolitana De Lisboa,-8.87707,38.60478
25112882,Massamá e Monte Abraão,Grande Lisboa,311,2025-03-20T00:20:00Z,25112882,Em despacho,3329,Queda de estruturas temporárias ou móveis,0,1,0,2,2025-03-20T00:20:00Z,Sintra,Lisboa,Área Metropolitana De Lisboa,-9.280008,38.753778
25112889,Ramada e Caneças,Grande Lisboa,311,2025-03-20T00:41:00Z,25112889,Em despacho,3315,Inundação de estruturas por precipitação intensa,0,1,0,5,2025-03-20T00:41:00Z,Odivelas,Lisboa,Área Metropolitana De Lisboa,-9.225171,38.812571
25112891,Malveira e São Miguel de Alcainça,Grande Lisboa,311,2025-03-20T00:53:00Z,25112891,Em despacho,3301,Queda de árvore,0,0,0,0,2025-03-20T00:53:00Z,Mafra,Lisboa,Área Metropolitana De Lisboa,-9.28055,38.91962
25112900,Queluz e Belas,Grande Lisboa,311,2025-03-20T00:50:00Z,25112900,Em despacho,3301,Queda de árvore,0,1,0,4,2025-03-20T00:50:00Z,Sintra,Lisboa,Área Metropolitana De Lisboa,-9.270072,38.779997
25112916,"Seixal, Arrentela e Aldeia de Paio Pires",Península de Setúbal,311,2025-03-20T00:57:00Z,25112916,Em curso,3311,Queda de elementos de estruturas edificados,0,0,0,0,2025-03-20T00:57:00Z,Seixal,Setúbal,Área Metropolitana De Lisboa,-9.103791,38.61711
25112930,Carregado e Cadafais,Oeste,311,2025-03-20T00:55:00Z,25112930,Em despacho,3309,Desabamento de estruturas edificadas,0,1,0,1,2025-03-20T00:55:00Z,Alenquer,Lisboa,Centro,-8.985297,39.023828
25112934,"Alto do Seixalinho, Santo André e Verderena",Península de Setúbal,311,2025-03-20T00:50:00Z,25112934,Em curso,3301,Queda de árvore,0,0,0,0,2025-03-20T00:50:00Z,Barreiro,Setúbal,Área Metropolitana De Lisboa,-9.065968,38.6593
25063232,Santa Maria do Castelo e Santiago e Santa Susana,Alentejo Litoral,312,2025-03-09T19:02:00Z,25063232,Em curso,1101,Cheia,0,0,0,0,2025-03-09T19:02:00Z,Alcácer Do Sal,Setúbal,Alentejo,-8.48167,38.29806
25112000,Fernão Ferro,Península de Setúbal,311,2025-03-19T22:42:00Z,25112000,Em despacho,3301,Queda de árvore,0,1,0,2,2025-03-19T22:42:00Z,Seixal,Setúbal,Área Metropolitana De Lisboa,-9.09385,38.57806
25112066,Gafanha da Nazaré,Região de Aveiro,310,2025-03-19T22:51:00Z,25112066,Em resolução,3311,Queda de elementos de estruturas edificados,0,0,0,1,2025-03-19T22:51:00Z,Ílhavo,Aveiro,Centro,-8.714699,40.63582
25112068,Lagoa e Carvoeiro,Algarve,313,2025-03-19T22:54:00Z,25112068,Em curso,3301,Queda de árvore,0,1,0,5,2025-03-19T22:54:00Z,Lagoa,Faro,Algarve,-8.45971,37.09728
25112199,Cascais e Estoril,Grande Lisboa,311,2025-03-19T23:12:00Z,25112199,Em despacho,3301,Queda de árvore,0,2,0,10,2025-03-19T23:12:00Z,Cascais,Lisboa,Área Metropolitana De Lisboa,-9.398759,38.70391
25112335,Falagueira-Venda Nova,Grande Lisboa,311,2025-03-19T23:38:00Z,25112335,Em despacho,3321,Dano na rede de fornecimento de eletricidade ,0,0,0,0,2025-03-19T23:38:00Z,Amadora,Lisboa,Área Metropolitana De Lisboa,-9.223747,38.760622
25112350,Setúbal (São Sebastião),Península de Setúbal,311,2025-03-19T23:42:00Z,25112350,Em curso,3329,Queda de estruturas temporárias ou móveis,0,0,0,0,2025-03-19T23:42:00Z,Setúbal,Setúbal,Área Metropolitana De Lisboa,-8.87752,38.52253
25112402,Golegã,Lezíria do Tejo,311,2025-03-19T23:46:00Z,25112402,Em conclusão,3301,Queda de árvore,0,1,0,2,2025-03-19T23:46:00Z,Golegã,Santarém,Alentejo,-8.483135,39.415012
25112470,Quiaios,Região de Coimbra,310,2025-03-19T23:47:00Z,25112470,Em despacho,3311,Queda de elementos de estruturas edificados,0,1,0,3,2025-03-19T23:47:00Z,Figueira Da Foz,Coimbra,Centro,-8.86,40.190131
25059714,Torrão,Alentejo Litoral,312,2025-03-08T22:10:00Z,25059714,Em curso,1101,Cheia,0,1,0,2,2025-03-08T22:10:00Z,Alcácer Do Sal,Setúbal,Alentejo,-8.359133,38.252053
25070044,Praia do Ribatejo,Médio Tejo,311,2025-03-10T19:30:00Z,25070044,Em curso,1101,Cheia,0,0,0,0,2025-03-10T19:30:00Z,Vila Nova Da Barquinha,Santarém,Centro,-8.357309,39.485638
25071496,São Manços e São Vicente do Pigeiro,Alentejo Central,312,2025-03-11T13:18:00Z,25071496,Em curso,1101,Cheia,0,2,0,4,2025-03-11T13:18:00Z,Évora,Évora,Alentejo,-7.713313,38.513673
25111474,Bombarral e Vale Covo,Oeste,311,2025-03-19T21:07:00Z,25111474,Em resolução,3301,Queda de árvore,0,2,0,3,2025-03-19T21:07:00Z,Bombarral,Leiria,Centro,-9.16726,39.2754
25111623,Alqueidão,Região de Coimbra,310,2025-03-19T21:36:00Z,25111623,Em despacho,3301,Queda de árvore,0,0,0,0,2025-03-19T21:36:00Z,Figueira Da Foz,Coimbra,Centro,-8.76809,40.07898
25111891,"Seia, São Romão e Lapa Dos Dinheiros",Beiras e Serra da Estrela,310,2025-03-19T22:20:00Z,25111891,Em resolução,3301,Queda de árvore,0,2,0,3,2025-03-19T22:20:00Z,Seia,Guarda,Centro,-7.74354,40.393485
25111892,Marinha Das Ondas,Região de Coimbra,310,2025-03-19T22:22:00Z,25111892,Em despacho,3309,Desabamento de estruturas edificadas,0,0,0,0,2025-03-19T22:22:00Z,Figueira Da Foz,Coimbra,Centro,-8.832842,40.02937
25111976,Cascais e Estoril,Grande Lisboa,311,2025-03-19T22:25:00Z,25111976,Em conclusão,3301,Queda de árvore,0,2,0,7,2025-03-19T22:25:00Z,Cascais,Lisboa,Área Metropolitana De Lisboa,-9.419397,38.700982
25112447,Laranjeiro e Feijó,Península de Setúbal,311,2025-03-19T23:43:00Z,25112447,Em curso,3311,Queda de elementos de estruturas edificados,0,1,0,4,2025-03-19T23:43:00Z,Almada,Setúbal,Área Metropolitana De Lisboa,-9.156624,38.652235
25112472,Caparica e Trafaria,Península de Setúbal,311,2025-03-19T23:57:00Z,25112472,Em curso,3301,Queda de árvore,0,0,0,0,2025-03-19T23:57:00Z,Almada,Setúbal,Área Metropolitana De Lisboa,-9.242559,38.66221
25112488,Buarcos,Região de Coimbra,310,2025-03-19T23:59:00Z,25112488,Em despacho,3301,Queda de árvore,0,1,0,5,2025-03-19T23:59:00Z,Figueira Da Foz,Coimbra,Centro,-8.880897,40.168384
25112513,Caparica e Trafaria,Península de Setúbal,311,2025-03-19T23:58:00Z,25112513,Em despacho,3301,Queda de árvore,0,1,0,3,2025-03-19T23:58:00Z,Almada,Setúbal,Área Metropolitana De Lisboa,-9.205011,38.66171
25112524,Pereira,Região de Coimbra,310,2025-03-19T23:55:00Z,25112524,Em despacho,3301,Queda de árvore,0,0,0,0,2025-03-19T23:55:00Z,Montemor-o-Velho,Coimbra,Centro,-8.585186,40.185229
25112554,Charneca de Caparica e Sobreda,Península de Setúbal,311,2025-03-20T00:10:00Z,25112554,Em curso,3301,Queda de árvore,0,1,0,4,2025-03-20T00:10:00Z,Almada,Setúbal,Área Metropolitana De Lisboa,-9.181708,38.64791
25112622,"S.julião, N.s. da Anunciada e S. Maria da Graça",Península de Setúbal,311,2025-03-20T00:21:00Z,25112622,Em curso,3311,Queda de elementos de estruturas edificados,0,0,0,0,2025-03-20T00:21:00Z,Setúbal,Setúbal,Área Metropolitana De Lisboa,-8.90427,38.528
25112624,Azeitão (São Lourenço e São Simão),Península de Setúbal,311,2025-03-20T00:00:00Z,25112624,Em curso,3301,Queda de árvore,0,0,0,0,2025-03-20T00:00:00Z,Setúbal,Setúbal,Área Metropolitana De Lisboa,-9.04265,38.541479
25112658,Quinta do Anjo,Península de Setúbal,311,2025-03-20T00:26:00Z,25112658,Em curso,3301,Queda de árvore,0,0,0,0,2025-03-20T00:26:00Z,Palmela,Setúbal,Área Metropolitana De Lisboa,-9.02329,38.58032
25112939,Massamá e Monte Abraão,Grande Lisboa,311,2025-03-20T00:30:00Z,25112939,Em despacho,3301,Queda de árvore,0,1,0,4,2025-03-20T00:30:00Z,Sintra,Lisboa,Área Metropolitana De Lisboa,-9.27045,38.75541
25112957,Cascais e Estoril,Grande Lisboa,311,2025-03-20T01:02:00Z,25112957,Em despacho,3311,Queda de elementos de estruturas edificados,0,0,0,0,2025-03-20T01:02:00Z,Cascais,Lisboa,Área Metropolitana De Lisboa,-9.434678,38.72133
25112973,Charneca de Caparica e Sobreda,Península de Setúbal,311,2025-03-20T00:04:00Z,25112973,Em curso,3301,Queda de árvore,0,1,0,1,2025-03-20T00:04:00Z,Almada,Setúbal,Área Metropolitana De Lisboa,-9.190193,38.591584
25112982,Moscavide e Portela,Grande Lisboa,311,2025-03-20T00:51:00Z,25112982,Em despacho,3301,Queda de árvore,0,1,0,4,2025-03-20T00:51:00Z,Loures,Lisboa,Área Metropolitana De Lisboa,-9.114803,38.78591
25112984,"Oeiras e S. Julião da Barra, Paço de Arcos e Caxias",Grande Lisboa,311,2025-03-20T01:06:00Z,25112984,Em despacho,3311,Queda de elementos de estruturas edificados,0,0,0,0,2025-03-20T01:06:00Z,Oeiras,Lisboa,Área Metropolitana De Lisboa,-9.303858,38.70432
25112998,Charneca de Caparica e Sobreda,Península de Setúbal,311,2025-03-20T01:07:00Z,25112998,Em curso,3309,Desabamento de estruturas edificadas,0,0,0,0,2025-03-20T01:07:00Z,Almada,Setúbal,Área Metropolitana De Lisboa,-9.19436,38.64644
25113023,Póvoa de Santa Iria e Forte da Casa,Grande Lisboa,311,2025-03-20T01:10:00Z,25113023,Em despacho,3329,Queda de estruturas temporárias ou móveis,0,0,0,0,2025-03-20T01:10:00Z,Vila Franca De Xira,Lisboa,Área Metropolitana De Lisboa,-9.055658,38.87217
25113041,Alcabideche,Grande Lisboa,311,2025-03-20T01:12:00Z,25113041,Em despacho,3311,Queda de elementos de estruturas edificados,0,0,0,0,2025-03-20T01:12:00Z,Cascais,Lisboa,Área Metropolitana De Lisboa,-9.422703,38.72363
25112144,"S.julião, N.s. da Anunciada e S. Maria da Graça",Península de Setúbal,311,2025-03-19T23:01:00Z,25112144,Em curso,3311,Queda de elementos de estruturas edificados,0,1,0,5,2025-03-19T23:01:00Z,Setúbal,Setúbal,Área Metropolitana De Lisboa,-8.889983,38.529955
25112160,"Guia, Ilha e Mata Mourisca",Região de Leiria,310,2025-03-19T22:25:00Z,25112160,Em despacho,3301,Queda de árvore,0,1,0,3,2025-03-19T22:25:00Z,Pombal,Leiria,Centro,-8.753282,39.947593
25112193,Louriçal,Região de Leiria,310,2025-03-19T23:18:00Z,25112193,Em despacho,3301,Queda de árvore,0,1,0,3,2025-03-19T23:18:00Z,Pombal,Leiria,Centro,-8.711387,39.974828
25112341,Sabugueiro,Beiras e Serra da Estrela,310,2025-03-19T23:40:00Z,25112341,Em curso,3311,Queda de elementos de estruturas edificados,0,1,0,1,2025-03-19T23:40:00Z,Seia,Guarda,Centro,-7.63621,40.40352
25112361,"Almada, Cova da Piedade, Pragal e Cacilhas",Península de Setúbal,311,2025-03-19T23:43:00Z,25112361,Em curso,3301,Queda de árvore,0,1,0,4,2025-03-19T23:43:00Z,Almada,Setúbal,Área Metropolitana De Lisboa,-9.169937,38.67238
25112377,Pombal,Região de Leiria,310,2025-03-19T23:44:00Z,25112377,Em despacho,3321,Dano na rede de fornecimento de eletricidade ,0,1,0,1,2025-03-19T23:44:00Z,Pombal,Leiria,Centro,-8.67152,39.8958
25112444,"S.maria, S.miguel, S.martinho, S.pedro Penaferrim",Grande Lisboa,311,2025-03-19T23:45:00Z,25112444,Em despacho,3301,Queda de árvore,0,2,0,9,2025-03-19T23:45:00Z,Sintra,Lisboa,Área Metropolitana De Lisboa,-9.414924,38.772191
25112475,Alcabideche,Grande Lisboa,311,2025-03-19T23:48:00Z,25112475,Em despacho,3301,Queda de árvore,0,1,0,5,2025-03-19T23:48:00Z,Cascais,Lisboa,Área Metropolitana De Lisboa,-9.41439,38.712196
25112543,Alcabideche,Grande Lisboa,311,2025-03-20T00:09:00Z,25112543,Em despacho,3301,Queda de árvore,0,1,0,5,2025-03-20T00:09:00Z,Cascais,Lisboa,Área Metropolitana De Lisboa,-9.38993,38.74284
25113064,"Alhandra, São João Dos Montes e Calhandriz",Grande Lisboa,311,2025-03-20T01:14:00Z,25113064,Em despacho,3301,Queda de árvore,0,0,0,0,2025-03-20T01:14:00Z,Vila Franca De Xira,Lisboa,Área Metropolitana De Lisboa,-9.03587,38.95457
25113073,Corroios,Península de Setúbal,311,2025-03-20T01:15:00Z,25113073,Em curso,3329,Queda de estruturas temporárias ou móveis,0,0,0,0,2025-03-20T01:15:00Z,Seixal,Setúbal,Área Metropolitana De Lisboa,-9.15315,38.64089
25113089,"Almargem do Bispo, Pêro Pinheiro e Montelavar",Grande Lisboa,311,2025-03-20T01:16:00Z,25113089,Em despacho,3311,Queda de elementos de estruturas edificados,0,0,0,0,2025-03-20T01:16:00Z,Sintra,Lisboa,Área Metropolitana De Lisboa,-9.24059,38.80967
25113100,Sesimbra (Castelo),Península de Setúbal,311,2025-03-20T01:17:00Z,25113100,Em curso,3311,Queda de elementos de estruturas edificados,0,0,0,0,2025-03-20T01:17:00Z,Sesimbra,Setúbal,Área Metropolitana De Lisboa,-9.17306,38.47686
25113107,Charneca de Caparica e Sobreda,Península de Setúbal,311,2025-03-20T01:18:00Z,25113107,Em curso,3301,Queda de árvore,0,0,0,0,2025-03-20T01:18:00Z,Almada,Setúbal,Área Metropolitana De Lisboa,-9.177058,38.60883
25113114,Alpiarça,Lezíria do Tejo,311,2025-03-20T01:15:00Z,25113114,Em despacho,3301,Queda de árvore,0,0,0,0,2025-03-20T01:15:00Z,Alpiarça,Santarém,Alentejo,-8.595402,39.262022
25113125,Alverca do Ribatejo e Sobralinho,Grande Lisboa,311,2025-03-20T01:20:00Z,25113125,Em despacho,3311,Queda de elementos de estruturas edificados,0,0,0,0,2025-03-20T01:20:00Z,Vila Franca De Xira,Lisboa,Área Metropolitana De Lisboa,-9.03425,38.91567
25113148,Soure,Região de Coimbra,310,2025-03-20T00:46:00Z,25113148,Em despacho,3301,Queda de árvore,0,1,0,2,2025-03-20T00:46:00Z,Soure,Coimbra,Centro,-8.613421,40.026611
25113173,Charneca de Caparica e Sobreda,Península de Setúbal,311,2025-03-20T01:25:00Z,25113173,Em curso,3301,Queda de árvore,0,0,0,0,2025-03-20T01:25:00Z,Almada,Setúbal,Área Metropolitana De Lisboa,-9.18059,38.59585
25113198,Charneca de Caparica e Sobreda,Península de Setúbal,311,2025-03-20T01:27:00Z,25113198,Em curso,3301,Queda de árvore,0,0,0,0,2025-03-20T01:27:00Z,Almada,Setúbal,Área Metropolitana De Lisboa,-9.18368,38.58977
25113200,Ericeira,Grande Lisboa,311,2025-03-20T01:15:00Z,25113200,Em despacho,3329,Queda de estruturas temporárias ou móveis,0,3,0,8,2025-03-20T01:15:00Z,Mafra,Lisboa,Área Metropolitana De Lisboa,-9.417289,38.967626
25113218,Sapataria,Oeste,311,2025-03-20T01:23:00Z,25113218,Em curso,3301,Queda de árvore,0,2,0,4,2025-03-20T01:23:00Z,Sobral De Monte Agraço,Lisboa,Centro,-9.198053,38.966232
25113241,Odivelas,Grande Lisboa,311,2025-03-20T01:32:00Z,25113241,Em despacho,3311,Queda de elementos de estruturas edificados,0,0,0,0,2025-03-20T01:32:00Z,Odivelas,Lisboa,Área Metropolitana De Lisboa,-9.17906,38.78882
25113243,Odivelas,Grande Lisboa,311,2025-03-20T01:32:00Z,25113243,Em despacho,3311,Queda de elementos de estruturas edificados,0,0,0,0,2025-03-20T01:32:00Z,Odivelas,Lisboa,Área Metropolitana De Lisboa,-9.17332,38.79666
25113266,Marinhais,Lezíria do Tejo,311,2025-03-20T01:33:00Z,25113266,Em conclusão,3301,Queda de árvore,0,0,0,0,2025-03-20T01:33:00Z,Salvaterra De Magos,Santarém,Alentejo,-8.697218,39.037103
25113275,Charneca de Caparica e Sobreda,Península de Setúbal,311,2025-03-20T01:35:00Z,25113275,Em curso,3301,Queda de árvore,0,0,0,0,2025-03-20T01:35:00Z,Almada,Setúbal,Área Metropolitana De Lisboa,-9.17436,38.59079
25113325,Ourique,Baixo Alentejo,312,2025-03-20T01:24:00Z,25113325,Em curso,3301,Queda de árvore,0,0,0,0,2025-03-20T01:24:00Z,Ourique,Beja,Alentejo,-8.244517,37.644989
25112561,Fernão Ferro,Península de Setúbal,311,2025-03-19T23:07:00Z,25112561,Em despacho,3321,Dano na rede de fornecimento de eletricidade ,0,1,0,2,2025-03-19T23:07:00Z,Seixal,Setúbal,Área Metropolitana De Lisboa,-9.063432,38.552125
25112562,"S.julião, N.s. da Anunciada e S. Maria da Graça",Península de Setúbal,311,2025-03-20T00:12:00Z,25112562,Em curso,3329,Queda de estruturas temporárias ou móveis,0,0,0,0,2025-03-20T00:12:00Z,Setúbal,Setúbal,Área Metropolitana De Lisboa,-8.90758,38.52468
25112595,Maiorca,Região de Coimbra,310,2025-03-20T00:16:00Z,25112595,Em despacho,3301,Queda de árvore,0,0,0,0,2025-03-20T00:16:00Z,Figueira Da Foz,Coimbra,Centro,-8.749227,40.16851
25112611,Salvaterra de Magos e Foros de Salvaterra,Lezíria do Tejo,311,2025-03-20T00:18:00Z,25112611,Em resolução,3301,Queda de árvore,0,0,0,0,2025-03-20T00:18:00Z,Salvaterra De Magos,Santarém,Alentejo,-8.791365,39.03049
25112628,"Sé Nova, Santa Cruz, Almedina e São Bartolomeu",Região de Coimbra,310,2025-03-20T00:10:00Z,25112628,Em despacho,3311,Queda de elementos de estruturas edificados,0,0,0,0,2025-03-20T00:10:00Z,Coimbra,Coimbra,Centro,-8.425582,40.205556
25112643,Massamá e Monte Abraão,Grande Lisboa,311,2025-03-20T00:11:00Z,25112643,Em despacho,3301,Queda de árvore,0,2,0,10,2025-03-20T00:11:00Z,Sintra,Lisboa,Área Metropolitana De Lisboa,-9.27045,38.75541
25112662,Setúbal (São Sebastião),Península de Setúbal,311,2025-03-20T00:27:00Z,25112662,Em curso,3329,Queda de estruturas temporárias ou móveis,0,0,0,0,2025-03-20T00:27:00Z,Setúbal,Setúbal,Área Metropolitana De Lisboa,-8.86899,38.52164
25112569,São Salvador e Santa Maria,Alentejo Litoral,312,2025-03-20T00:01:00Z,25112569,Em despacho,3301,Queda de árvore,0,1,0,4,2025-03-20T00:01:00Z,Odemira,Beja,Alentejo,-8.681094,37.59238
25112600,Carvoeira,Grande Lisboa,311,2025-03-19T23:18:00Z,25112600,Em despacho,3301,Queda de árvore,0,1,0,4,2025-03-19T23:18:00Z,Mafra,Lisboa,Área Metropolitana De Lisboa,-9.39494,38.94355
25112618,Azinhaga,Lezíria do Tejo,311,2025-03-20T00:20:00Z,25112618,Em conclusão,3301,Queda de árvore,0,0,0,0,2025-03-20T00:20:00Z,Golegã,Santarém,Alentejo,-8.532263,39.364938
25112651,Setúbal (São Sebastião),Península de Setúbal,311,2025-03-20T00:25:00Z,25112651,Em curso,3301,Queda de árvore,0,0,0,0,2025-03-20T00:25:00Z,Setúbal,Setúbal,Área Metropolitana De Lisboa,-8.872648,38.53292
25112669,Parque Das Nações,Grande Lisboa,311,2025-03-20T00:28:00Z,25112669,Em despacho,3301,Queda de árvore,0,1,0,5,2025-03-20T00:28:00Z,Lisboa,Lisboa,Área Metropolitana De Lisboa,-9.09548,38.774802
25112704,Fernão Ferro,Península de Setúbal,311,2025-03-20T00:32:00Z,25112704,Em curso,3321,Dano na rede de fornecimento de eletricidade ,0,0,0,0,2025-03-20T00:32:00Z,Seixal,Setúbal,Área Metropolitana De Lisboa,-9.08671,38.56536
25112718,Alhos Vedros,Península de Setúbal,311,2025-03-20T00:33:00Z,25112718,Em curso,3329,Queda de estruturas temporárias ou móveis,0,0,0,0,2025-03-20T00:33:00Z,Moita,Setúbal,Área Metropolitana De Lisboa,-9.023435,38.65349
25112736,Seixo de Gatões,Região de Coimbra,310,2025-03-20T00:26:00Z,25112736,Em despacho,3309,Desabamento de estruturas edificadas,0,0,0,0,2025-03-20T00:26:00Z,Montemor-o-Velho,Coimbra,Centro,-8.690129,40.238805
25112770,Cascais e Estoril,Grande Lisboa,311,2025-03-20T00:39:00Z,25112770,Em despacho,3301,Queda de árvore,0,0,0,0,2025-03-20T00:39:00Z,Cascais,Lisboa,Área Metropolitana De Lisboa,-9.393056,38.71305
25112819,Cascais e Estoril,Grande Lisboa,311,2025-03-20T00:45:00Z,25112819,Em despacho,3301,Queda de árvore,0,0,0,0,2025-03-20T00:45:00Z,Cascais,Lisboa,Área Metropolitana De Lisboa,-9.43903,38.70249
25112744,Ramada e Caneças,Grande Lisboa,311,2025-03-20T00:29:00Z,25112744,Em conclusão,3301,Queda de árvore,0,2,0,7,2025-03-20T00:29:00Z,Odivelas,Lisboa,Área Metropolitana De Lisboa,-9.194441,38.801427
25112796,"S.julião, N.s. da Anunciada e S. Maria da Graça",Península de Setúbal,311,2025-03-20T00:42:00Z,25112796,Em curso,3311,Queda de elementos de estruturas edificados,0,0,0,0,2025-03-20T00:42:00Z,Setúbal,Setúbal,Área Metropolitana De Lisboa,-8.890614,38.52599
25112812,Olivais,Grande Lisboa,311,2025-03-20T00:44:00Z,25112812,Em despacho,3301,Queda de árvore,0,2,0,5,2025-03-20T00:44:00Z,Lisboa,Lisboa,Área Metropolitana De Lisboa,-9.123507,38.76593
25112829,Bucelas,Grande Lisboa,311,2025-03-20T00:44:00Z,25112829,Em despacho,3301,Queda de árvore,0,1,0,4,2025-03-20T00:44:00Z,Loures,Lisboa,Área Metropolitana De Lisboa,-9.121038,38.903857
25112846,Amora,Península de Setúbal,311,2025-03-20T00:48:00Z,25112846,Em curso,3311,Queda de elementos de estruturas edificados,0,1,0,3,2025-03-20T00:48:00Z,Seixal,Setúbal,Área Metropolitana De Lisboa,-9.11648,38.62536
25112859,Alcabideche,Grande Lisboa,311,2025-03-20T00:44:00Z,25112859,Em despacho,3301,Queda de árvore,0,1,0,4,2025-03-20T00:44:00Z,Cascais,Lisboa,Área Metropolitana De Lisboa,-9.438785,38.755713
25112876,Corroios,Península de Setúbal,311,2025-03-20T00:52:00Z,25112876,Em curso,3301,Queda de árvore,0,0,0,0,2025-03-20T00:52:00Z,Seixal,Setúbal,Área Metropolitana De Lisboa,-9.157211,38.5818
25112928,Porto Salvo,Grande Lisboa,311,2025-03-20T00:40:00Z,25112928,Em despacho,3329,Queda de estruturas temporárias ou móveis,0,1,0,4,2025-03-20T00:40:00Z,Oeiras,Lisboa,Área Metropolitana De Lisboa,-9.305901,38.719291
25112943,Alverca do Ribatejo e Sobralinho,Grande Lisboa,311,2025-03-20T01:00:00Z,25112943,Em despacho,3329,Queda de estruturas temporárias ou móveis,0,0,0,0,2025-03-20T01:00:00Z,Vila Franca De Xira,Lisboa,Área Metropolitana De Lisboa,-9.04604,38.89168
25113332,Charneca de Caparica e Sobreda,Península de Setúbal,311,2025-03-20T01:41:00Z,25113332,Em curso,3301,Queda de árvore,0,0,0,0,2025-03-20T01:41:00Z,Almada,Setúbal,Área Metropolitana De Lisboa,-9.18218,38.59689
25113375,Charneca de Caparica e Sobreda,Península de Setúbal,311,2025-03-20T01:45:00Z,25113375,Em curso,3301,Queda de árvore,0,0,0,0,2025-03-20T01:45:00Z,Almada,Setúbal,Área Metropolitana De Lisboa,-9.18101,38.58698
25113382,Santo Antão e São Julião do Tojal,Grande Lisboa,311,2025-03-20T01:46:00Z,25113382,Em despacho,3321,Dano na rede de fornecimento de eletricidade ,0,0,0,0,2025-03-20T01:46:00Z,Loures,Lisboa,Área Metropolitana De Lisboa,-9.12403,38.86915
25113393,Alfragide,Grande Lisboa,311,2025-03-20T01:46:00Z,25113393,Em despacho,3311,Queda de elementos de estruturas edificados,0,0,0,0,2025-03-20T01:46:00Z,Amadora,Lisboa,Área Metropolitana De Lisboa,-9.225704,38.738085
25113407,Amora,Península de Setúbal,311,2025-03-20T01:21:00Z,25113407,Em curso,3301,Queda de árvore,0,1,0,5,2025-03-20T01:21:00Z,Seixal,Setúbal,Área Metropolitana De Lisboa,-9.125227,38.624582
25113416,Vila Franca de Xira,Grande Lisboa,311,2025-03-20T01:49:00Z,25113416,Em despacho,3321,Dano na rede de fornecimento de eletricidade ,0,0,0,0,2025-03-20T01:49:00Z,Vila Franca De Xira,Lisboa,Área Metropolitana De Lisboa,-8.99117,38.95186
25113425,Carcavelos e Parede,Grande Lisboa,311,2025-03-20T01:49:00Z,25113425,Em despacho,3301,Queda de árvore,0,0,0,0,2025-03-20T01:49:00Z,Cascais,Lisboa,Área Metropolitana De Lisboa,-9.337574,38.688343
25113434,"Seixal, Arrentela e Aldeia de Paio Pires",Península de Setúbal,311,2025-03-20T01:50:00Z,25113434,Em curso,3311,Queda de elementos de estruturas edificados,0,0,0,0,2025-03-20T01:50:00Z,Seixal,Setúbal,Área Metropolitana De Lisboa,-9.08101,38.61963
25113441,Casal de Cambra,Grande Lisboa,311,2025-03-20T01:51:00Z,25113441,Em despacho,3311,Queda de elementos de estruturas edificados,0,0,0,0,2025-03-20T01:51:00Z,Sintra,Lisboa,Área Metropolitana De Lisboa,-9.22849,38.801
25113452,Cacém e São Marcos,Grande Lisboa,311,2025-03-20T01:53:00Z,25113452,Em despacho,3311,Queda de elementos de estruturas edificados,0,0,0,0,2025-03-20T01:53:00Z,Sintra,Lisboa,Área Metropolitana De Lisboa,-9.29452,38.74796
25113459,"Algés, Linda-a-Velha e Cruz Quebrada-Dafundo",Grande Lisboa,311,2025-03-20T00:21:00Z,25113459,Em despacho,3301,Queda de árvore,0,1,0,4,2025-03-20T00:21:00Z,Oeiras,Lisboa,Área Metropolitana De Lisboa,-9.250524,38.707224
25113466,Azeitão (São Lourenço e São Simão),Península de Setúbal,311,2025-03-20T01:54:00Z,25113466,Em curso,3301,Queda de árvore,0,0,0,0,2025-03-20T01:54:00Z,Setúbal,Setúbal,Área Metropolitana De Lisboa,-9.01947,38.5205
25113482,São João Das Lampas e Terrugem,Grande Lisboa,311,2025-03-20T01:54:00Z,25113482,Em despacho,3301,Queda de árvore,0,0,0,0,2025-03-20T01:54:00Z,Sintra,Lisboa,Área Metropolitana De Lisboa,-9.436253,38.869236
25113491,Chamusca e Pinheiro Grande,Lezíria do Tejo,311,2025-03-20T01:56:00Z,25113491,Em despacho,3301,Queda de árvore,0,1,0,2,2025-03-20T01:56:00Z,Chamusca,Santarém,Alentejo,-8.490477,39.362372
25113516,Samora Correia,Lezíria do Tejo,311,2025-03-20T00:53:00Z,25113516,Em curso,3309,Desabamento de estruturas edificadas,0,0,0,0,2025-03-20T00:53:00Z,Benavente,Santarém,Alentejo,-8.868908,38.935447
25113527,Fernão Ferro,Península de Setúbal,311,2025-03-20T02:01:00Z,25113527,Em curso,3301,Queda de árvore,0,0,0,0,2025-03-20T02:01:00Z,Seixal,Setúbal,Área Metropolitana De Lisboa,-9.09935,38.56798
25113616,"Enxara do Bispo, Gradil e Vila Franca do Rosário",Grande Lisboa,311,2025-03-20T01:30:00Z,25113616,Em curso,3321,Dano na rede de fornecimento de eletricidade ,0,0,0,0,2025-03-20T01:30:00Z,Mafra,Lisboa,Área Metropolitana De Lisboa,-9.260847,38.962848
25112821,Queluz e Belas,Grande Lisboa,311,2025-03-20T00:05:00Z,25112821,Em curso,3301,Queda de árvore,0,2,0,7,2025-03-20T00:05:00Z,Sintra,Lisboa,Área Metropolitana De Lisboa,-9.270072,38.779997
25112834,Alvorninha,Oeste,311,2025-03-20T00:42:00Z,25112834,Em curso,3301,Queda de árvore,0,4,0,12,2025-03-20T00:42:00Z,Caldas Da Rainha,Leiria,Centro,-9.022426,39.404552
25112835,"Almada, Cova da Piedade, Pragal e Cacilhas",Península de Setúbal,311,2025-03-20T00:47:00Z,25112835,Em curso,3301,Queda de árvore,0,0,0,0,2025-03-20T00:47:00Z,Almada,Setúbal,Área Metropolitana De Lisboa,-9.15992,38.67447
25112887,Sesimbra (Castelo),Península de Setúbal,311,2025-03-20T00:53:00Z,25112887,Em curso,3301,Queda de árvore,0,0,0,0,2025-03-20T00:53:00Z,Sesimbra,Setúbal,Área Metropolitana De Lisboa,-9.093273,38.47523
25112903,Massamá e Monte Abraão,Grande Lisboa,311,2025-03-20T00:46:00Z,25112903,Em despacho,3301,Queda de árvore,0,1,0,6,2025-03-20T00:46:00Z,Sintra,Lisboa,Área Metropolitana De Lisboa,-9.280008,38.753778
25112919,São Domingos de Rana,Grande Lisboa,311,2025-03-20T00:57:00Z,25112919,Em despacho,3301,Queda de árvore,0,0,0,0,2025-03-20T00:57:00Z,Cascais,Lisboa,Área Metropolitana De Lisboa,-9.353889,38.70417
25112936,Pinhal Novo,Península de Setúbal,311,2025-03-20T00:59:00Z,25112936,Em curso,3329,Queda de estruturas temporárias ou móveis,0,0,0,0,2025-03-20T00:59:00Z,Palmela,Setúbal,Área Metropolitana De Lisboa,-8.93024,38.60548
25112952,Amora,Península de Setúbal,311,2025-03-20T01:01:00Z,25112952,Em curso,3311,Queda de elementos de estruturas edificados,0,0,0,0,2025-03-20T01:01:00Z,Seixal,Setúbal,Área Metropolitana De Lisboa,-9.114517,38.62354
25112987,Quinta do Anjo,Península de Setúbal,311,2025-03-20T01:06:00Z,25112987,Em curso,3301,Queda de árvore,0,0,0,0,2025-03-20T01:06:00Z,Palmela,Setúbal,Área Metropolitana De Lisboa,-8.94361,38.60282
25113002,"Algés, Linda-a-Velha e Cruz Quebrada-Dafundo",Grande Lisboa,311,2025-03-20T00:58:00Z,25113002,Em despacho,3329,Queda de estruturas temporárias ou móveis,0,1,0,5,2025-03-20T00:58:00Z,Oeiras,Lisboa,Área Metropolitana De Lisboa,-9.22967,38.696612
25112944,Longueira/Almograve,Alentejo Litoral,312,2025-03-20T00:20:00Z,25112944,Em despacho,3301,Queda de árvore,0,4,0,9,2025-03-20T00:20:00Z,Odemira,Beja,Alentejo,-8.752532,37.635323
25112945,Amora,Península de Setúbal,311,2025-03-20T01:00:00Z,25112945,Em curso,3311,Queda de elementos de estruturas edificados,0,1,0,5,2025-03-20T01:00:00Z,Seixal,Setúbal,Área Metropolitana De Lisboa,-9.112282,38.62221
25112978,Mina de Água,Grande Lisboa,311,2025-03-20T01:05:00Z,25112978,Em despacho,3301,Queda de árvore,0,0,0,0,2025-03-20T01:05:00Z,Amadora,Lisboa,Área Metropolitana De Lisboa,-9.23375,38.7797
25113010,"Seia, São Romão e Lapa Dos Dinheiros",Beiras e Serra da Estrela,310,2025-03-20T00:40:00Z,25113010,Em curso,3311,Queda de elementos de estruturas edificados,0,1,0,2,2025-03-20T00:40:00Z,Seia,Guarda,Centro,-7.706579,40.420381
25113011,Cascais e Estoril,Grande Lisboa,311,2025-03-20T01:09:00Z,25113011,Em despacho,3301,Queda de árvore,0,0,0,0,2025-03-20T01:09:00Z,Cascais,Lisboa,Área Metropolitana De Lisboa,-9.398759,38.70391
25113012,Cacém e São Marcos,Grande Lisboa,311,2025-03-20T01:09:00Z,25113012,Em despacho,3311,Queda de elementos de estruturas edificados,0,0,0,0,2025-03-20T01:09:00Z,Sintra,Lisboa,Área Metropolitana De Lisboa,-9.3115,38.76819
25113026,Cascais e Estoril,Grande Lisboa,311,2025-03-20T01:11:00Z,25113026,Em despacho,3311,Queda de elementos de estruturas edificados,0,0,0,0,2025-03-20T01:11:00Z,Cascais,Lisboa,Área Metropolitana De Lisboa,-9.43197,38.69844
25113030,Vialonga,Grande Lisboa,311,2025-03-20T01:02:00Z,25113030,Em despacho,3301,Queda de árvore,0,2,0,10,2025-03-20T01:02:00Z,Vila Franca De Xira,Lisboa,Área Metropolitana De Lisboa,-9.083937,38.887952
25113046,Salvaterra de Magos e Foros de Salvaterra,Lezíria do Tejo,311,2025-03-20T01:12:00Z,25113046,Em curso,3329,Queda de estruturas temporárias ou móveis,0,0,0,0,2025-03-20T01:12:00Z,Salvaterra De Magos,Santarém,Alentejo,-8.791365,39.03049
25113005,Póvoa de Santa Iria e Forte da Casa,Grande Lisboa,311,2025-03-20T00:51:00Z,25113005,Em despacho,3301,Queda de árvore,0,1,0,6,2025-03-20T00:51:00Z,Vila Franca De Xira,Lisboa,Área Metropolitana De Lisboa,-9.080109,38.86006
25113018,Alcochete,Península de Setúbal,311,2025-03-20T01:10:00Z,25113018,Em curso,3321,Dano na rede de fornecimento de eletricidade ,0,0,0,0,2025-03-20T01:10:00Z,Alcochete,Setúbal,Área Metropolitana De Lisboa,-8.93938,38.73429
25113019,Póvoa de Santa Iria e Forte da Casa,Grande Lisboa,311,2025-03-20T01:00:00Z,25113019,Em despacho,3329,Queda de estruturas temporárias ou móveis,0,1,0,2,2025-03-20T01:00:00Z,Vila Franca De Xira,Lisboa,Área Metropolitana De Lisboa,-9.051508,38.875602
25113052,São Domingos de Rana,Grande Lisboa,311,2025-03-20T01:13:00Z,25113052,Em despacho,3311,Queda de elementos de estruturas edificados,0,0,0,0,2025-03-20T01:13:00Z,Cascais,Lisboa,Área Metropolitana De Lisboa,-9.32533,38.72599
25113069,Amora,Península de Setúbal,311,2025-03-20T01:15:00Z,25113069,Em curso,3311,Queda de elementos de estruturas edificados,0,0,0,0,2025-03-20T01:15:00Z,Seixal,Setúbal,Área Metropolitana De Lisboa,-9.11034,38.62046
25113085,Santo António Dos Cavaleiros e Frielas,Grande Lisboa,311,2025-03-20T01:14:00Z,25113085,Em despacho,3311,Queda de elementos de estruturas edificados,0,0,0,0,2025-03-20T01:14:00Z,Loures,Lisboa,Área Metropolitana De Lisboa,-9.171619,38.815144
25113086,Quinta do Conde,Península de Setúbal,311,2025-03-20T01:16:00Z,25113086,Em curso,3321,Dano na rede de fornecimento de eletricidade ,0,0,0,0,2025-03-20T01:16:00Z,Sesimbra,Setúbal,Área Metropolitana De Lisboa,-9.04645,38.56296
25113088,Venteira,Grande Lisboa,311,2025-03-20T01:16:00Z,25113088,Em despacho,3311,Queda de elementos de estruturas edificados,0,0,0,0,2025-03-20T01:16:00Z,Amadora,Lisboa,Área Metropolitana De Lisboa,-9.23452,38.75815
25113102,Charneca de Caparica e Sobreda,Península de Setúbal,311,2025-03-20T01:18:00Z,25113102,Em curso,3301,Queda de árvore,0,0,0,0,2025-03-20T01:18:00Z,Almada,Setúbal,Área Metropolitana De Lisboa,-9.17228,38.58738
25112672,Alhos Vedros,Península de Setúbal,311,2025-03-20T00:28:00Z,25112672,Em curso,3311,Queda de elementos de estruturas edificados,0,0,0,0,2025-03-20T00:28:00Z,Moita,Setúbal,Área Metropolitana De Lisboa,-9.02548,38.65708
25112722,Azeitão (São Lourenço e São Simão),Península de Setúbal,311,2025-03-20T00:34:00Z,25112722,Em curso,3321,Dano na rede de fornecimento de eletricidade ,0,1,0,3,2025-03-20T00:34:00Z,Setúbal,Setúbal,Área Metropolitana De Lisboa,-9.01777,38.55323
25112740,Arganil,Região de Coimbra,310,2025-03-20T00:10:00Z,25112740,Em despacho,3301,Queda de árvore,0,0,0,0,2025-03-20T00:10:00Z,Arganil,Coimbra,Centro,-8.0518,40.21991
25112763,Cascais e Estoril,Grande Lisboa,311,2025-03-20T00:38:00Z,25112763,Em despacho,3301,Queda de árvore,0,0,0,0,2025-03-20T00:38:00Z,Cascais,Lisboa,Área Metropolitana De Lisboa,-9.398759,38.70391
25112774,Azueira e Sobral da Abelheira,Grande Lisboa,311,2025-03-20T00:40:00Z,25112774,Em despacho,3301,Queda de árvore,0,0,0,0,2025-03-20T00:40:00Z,Mafra,Lisboa,Área Metropolitana De Lisboa,-9.28373,39.00416
25112781,Moita,Península de Setúbal,311,2025-03-20T00:35:00Z,25112781,Em curso,3301,Queda de árvore,0,0,0,0,2025-03-20T00:35:00Z,Moita,Setúbal,Área Metropolitana De Lisboa,-8.985364,38.643702
25112783,Alverca do Ribatejo e Sobralinho,Grande Lisboa,311,2025-03-20T00:41:00Z,25112783,Em despacho,3301,Queda de árvore,0,0,0,0,2025-03-20T00:41:00Z,Vila Franca De Xira,Lisboa,Área Metropolitana De Lisboa,-9.04675,38.8895
25112797,Vila Franca de Xira,Grande Lisboa,311,2025-03-20T00:42:00Z,25112797,Em despacho,3301,Queda de árvore,0,0,0,0,2025-03-20T00:42:00Z,Vila Franca De Xira,Lisboa,Área Metropolitana De Lisboa,-8.95154,38.94419
25112831,Azueira e Sobral da Abelheira,Grande Lisboa,311,2025-03-20T00:46:00Z,25112831,Em despacho,3301,Queda de árvore,0,0,0,0,2025-03-20T00:46:00Z,Mafra,Lisboa,Área Metropolitana De Lisboa,-9.261398,38.99127
25113650,Carcavelos e Parede,Grande Lisboa,311,2025-03-20T02:12:00Z,25113650,Em despacho,3301,Queda de árvore,0,0,0,0,2025-03-20T02:12:00Z,Cascais,Lisboa,Área Metropolitana De Lisboa,-9.325114,38.69928
25113661,Cepos e Teixeira,Região de Coimbra,310,2025-03-19T23:46:00Z,25113661,Em despacho,3301,Queda de árvore,0,1,0,2,2025-03-19T23:46:00Z,Arganil,Coimbra,Centro,-7.973479,40.160791
25113666,Pechão,Algarve,313,2025-03-20T02:02:00Z,25113666,Em despacho,3301,Queda de árvore,0,3,0,5,2025-03-20T02:02:00Z,Olhão,Faro,Algarve,-7.868861,37.056355
25113682,"Mangualde, Mesquitela e Cunha Alta",Viseu Dão Lafões,310,2025-03-20T02:17:00Z,25113682,Em curso,3311,Queda de elementos de estruturas edificados,0,2,0,7,2025-03-20T02:17:00Z,Mangualde,Viseu,Centro,-7.72944,40.60975
25113686,Alpiarça,Lezíria do Tejo,311,2025-03-20T02:17:00Z,25113686,Em despacho,3321,Dano na rede de fornecimento de eletricidade ,0,1,0,1,2025-03-20T02:17:00Z,Alpiarça,Santarém,Alentejo,-8.57695,39.25462
25113691,"Cedofeita, Ildefonso, Sé, Miragaia, Nicolau e Vitória",Area M. Porto,309,2025-03-20T02:13:00Z,25113691,Em despacho,3311,Queda de elementos de estruturas edificados,0,1,0,3,2025-03-20T02:13:00Z,Porto,Porto,Norte,-8.615939,41.15359
25113700,São João Das Lampas e Terrugem,Grande Lisboa,311,2025-03-20T02:19:00Z,25113700,Em despacho,3321,Dano na rede de fornecimento de eletricidade ,0,0,0,0,2025-03-20T02:19:00Z,Sintra,Lisboa,Área Metropolitana De Lisboa,-9.39833,38.92588
25113702,Agualva e Mira-Sintra,Grande Lisboa,311,2025-03-20T02:19:00Z,25113702,Em despacho,3321,Dano na rede de fornecimento de eletricidade ,0,0,0,0,2025-03-20T02:19:00Z,Sintra,Lisboa,Área Metropolitana De Lisboa,-9.29993,38.77514
25113711,Folques,Região de Coimbra,310,2025-03-20T02:20:00Z,25113711,Em despacho,3301,Queda de árvore,0,1,0,2,2025-03-20T02:20:00Z,Arganil,Coimbra,Centro,-7.999029,40.23407
25113135,Rio de Mouro,Grande Lisboa,311,2025-03-20T01:20:00Z,25113135,Em despacho,3321,Dano na rede de fornecimento de eletricidade ,0,0,0,0,2025-03-20T01:20:00Z,Sintra,Lisboa,Área Metropolitana De Lisboa,-9.317364,38.786733
25113155,"Seixal, Arrentela e Aldeia de Paio Pires",Península de Setúbal,311,2025-03-20T01:23:00Z,25113155,Em curso,3301,Queda de árvore,0,0,0,0,2025-03-20T01:23:00Z,Seixal,Setúbal,Área Metropolitana De Lisboa,-9.09963,38.62781
25113170,Corroios,Península de Setúbal,311,2025-03-20T01:24:00Z,25113170,Em curso,3301,Queda de árvore,0,0,0,0,2025-03-20T01:24:00Z,Seixal,Setúbal,Área Metropolitana De Lisboa,-9.15464,38.58128
25113171,São João Das Lampas e Terrugem,Grande Lisboa,311,2025-03-20T01:24:00Z,25113171,Em despacho,3301,Queda de árvore,0,0,0,0,2025-03-20T01:24:00Z,Sintra,Lisboa,Área Metropolitana De Lisboa,-9.38058,38.91877
25113186,Santa Maria Maior,Grande Lisboa,311,2025-03-20T01:25:00Z,25113186,Em despacho,3301,Queda de árvore,0,1,0,6,2025-03-20T01:25:00Z,Lisboa,Lisboa,Área Metropolitana De Lisboa,-9.13452,38.714581
25113221,Soure,Região de Coimbra,310,2025-03-20T01:15:00Z,25113221,Em despacho,3301,Queda de árvore,0,1,0,2,2025-03-20T01:15:00Z,Soure,Coimbra,Centro,-8.60866,40.015823
25113236,"Almada, Cova da Piedade, Pragal e Cacilhas",Península de Setúbal,311,2025-03-20T01:32:00Z,25113236,Em curso,3311,Queda de elementos de estruturas edificados,0,0,0,0,2025-03-20T01:32:00Z,Almada,Setúbal,Área Metropolitana De Lisboa,-9.15908,38.67736
25113237,Costa da Caparica,Península de Setúbal,311,2025-03-20T01:32:00Z,25113237,Em curso,3311,Queda de elementos de estruturas edificados,0,0,0,0,2025-03-20T01:32:00Z,Almada,Setúbal,Área Metropolitana De Lisboa,-9.23149,38.63755
25113741,Carregal do Sal,Viseu Dão Lafões,310,2025-03-20T02:17:00Z,25113741,Em despacho,3329,Queda de estruturas temporárias ou móveis,0,2,0,4,2025-03-20T02:17:00Z,Carregal Do Sal,Viseu,Centro,-7.999939,40.437298
25113761,"Leomil, Mido, Senouras e Aldeia Nova",Beiras e Serra da Estrela,310,2025-03-20T02:23:00Z,25113761,Em despacho,3301,Queda de árvore,0,2,0,4,2025-03-20T02:23:00Z,Almeida,Guarda,Centro,-6.970048,40.632346
25113768,São João Das Lampas e Terrugem,Grande Lisboa,311,2025-03-20T02:26:00Z,25113768,Em despacho,3301,Queda de árvore,0,0,0,0,2025-03-20T02:26:00Z,Sintra,Lisboa,Área Metropolitana De Lisboa,-9.41128,38.85702
25113827,"Areias, Sequeiró, Lama e Palmeira",Area M. Porto,309,2025-03-20T02:31:00Z,25113827,Em despacho,3311,Queda de elementos de estruturas edificados,0,1,0,3,2025-03-20T02:31:00Z,Santo Tirso,Porto,Norte,-8.45139,41.36108
25113841,Santa Catarina,Oeste,311,2025-03-20T02:25:00Z,25113841,Em resolução,3301,Queda de árvore,0,2,0,9,2025-03-20T02:25:00Z,Caldas Da Rainha,Leiria,Centro,-9.013661,39.44605
25113866,Bensafrim e Barão de São João,Algarve,313,2025-03-20T01:30:00Z,25113866,Em despacho,3301,Queda de árvore,0,1,0,3,2025-03-20T01:30:00Z,Lagos,Faro,Algarve,-8.733104,37.158743
25113875,Charneca de Caparica e Sobreda,Península de Setúbal,311,2025-03-20T02:35:00Z,25113875,Em curso,3321,Dano na rede de fornecimento de eletricidade ,0,0,0,0,2025-03-20T02:35:00Z,Almada,Setúbal,Área Metropolitana De Lisboa,-9.17345,38.58643
25113902,"Almada, Cova da Piedade, Pragal e Cacilhas",Península de Setúbal,311,2025-03-20T00:52:00Z,25113902,Em curso,3301,Queda de árvore,0,1,0,3,2025-03-20T00:52:00Z,Almada,Setúbal,Área Metropolitana De Lisboa,-9.168395,38.671949
25113911,Sapataria,Oeste,311,2025-03-20T02:15:00Z,25113911,Em despacho,3301,Queda de árvore,0,1,0,3,2025-03-20T02:15:00Z,Sobral De Monte Agraço,Lisboa,Centro,-9.198053,38.966232
25113252,Venteira,Grande Lisboa,311,2025-03-20T01:33:00Z,25113252,Em despacho,3311,Queda de elementos de estruturas edificados,0,0,0,0,2025-03-20T01:33:00Z,Amadora,Lisboa,Área Metropolitana De Lisboa,-9.23969,38.75664
25113270,Charneca de Caparica e Sobreda,Península de Setúbal,311,2025-03-20T01:34:00Z,25113270,Em curso,3301,Queda de árvore,0,0,0,0,2025-03-20T01:34:00Z,Almada,Setúbal,Área Metropolitana De Lisboa,-9.17811,38.58586
25113288,"N. S. da Vila, N. S. do Bispo e Silveiras",Alentejo Central,312,2025-03-20T01:20:00Z,25113288,Em despacho,3301,Queda de árvore,0,1,0,2,2025-03-20T01:20:00Z,Montemor-o-Novo,Évora,Alentejo,-8.21652,38.662575
25113289,Amora,Península de Setúbal,311,2025-03-20T01:36:00Z,25113289,Em curso,3311,Queda de elementos de estruturas edificados,0,0,0,0,2025-03-20T01:36:00Z,Seixal,Setúbal,Área Metropolitana De Lisboa,-9.14507,38.59622
25113304,São Domingos de Rana,Grande Lisboa,311,2025-03-20T01:38:00Z,25113304,Em despacho,3321,Dano na rede de fornecimento de eletricidade ,0,0,0,0,2025-03-20T01:38:00Z,Cascais,Lisboa,Área Metropolitana De Lisboa,-9.32923,38.71493
25113354,Mina de Água,Grande Lisboa,311,2025-03-20T01:43:00Z,25113354,Em despacho,3311,Queda de elementos de estruturas edificados,0,0,0,0,2025-03-20T01:43:00Z,Amadora,Lisboa,Área Metropolitana De Lisboa,-9.243611,38.76194
25113370,Caparica e Trafaria,Península de Setúbal,311,2025-03-20T01:45:00Z,25113370,Em curso,3301,Queda de árvore,0,0,0,0,2025-03-20T01:45:00Z,Almada,Setúbal,Área Metropolitana De Lisboa,-9.23785,38.66768
25113386,Alpiarça,Lezíria do Tejo,311,2025-03-20T01:46:00Z,25113386,Em despacho,3301,Queda de árvore,0,0,0,0,2025-03-20T01:46:00Z,Alpiarça,Santarém,Alentejo,-8.595402,39.262022
25113403,"Santa Iria de Azoia, São João da Talha e Bobadela",Grande Lisboa,311,2025-03-20T01:48:00Z,25113403,Em despacho,3301,Queda de árvore,0,0,0,0,2025-03-20T01:48:00Z,Loures,Lisboa,Área Metropolitana De Lisboa,-9.0884,38.83462
25112838,"Almada, Cova da Piedade, Pragal e Cacilhas",Península de Setúbal,311,2025-03-20T00:47:00Z,25112838,Em curso,3301,Queda de árvore,0,0,0,0,2025-03-20T00:47:00Z,Almada,Setúbal,Área Metropolitana De Lisboa,-9.15927,38.6747
25112856,Amora,Península de Setúbal,311,2025-03-20T00:50:00Z,25112856,Em curso,3301,Queda de árvore,0,1,0,4,2025-03-20T00:50:00Z,Seixal,Setúbal,Área Metropolitana De Lisboa,-9.137635,38.60391
25112899,Cascais e Estoril,Grande Lisboa,311,2025-03-20T00:55:00Z,25112899,Em despacho,3315,Inundação de estruturas por precipitação intensa,0,0,0,0,2025-03-20T00:55:00Z,Cascais,Lisboa,Área Metropolitana De Lisboa,-9.38669,38.70476
25112933,Febres,Região de Coimbra,310,2025-03-20T00:45:00Z,25112933,Em despacho,3311,Queda de elementos de estruturas edificados,0,0,0,0,2025-03-20T00:45:00Z,Cantanhede,Coimbra,Centro,-8.63492,40.400257
25112949,"Oeiras e S. Julião da Barra, Paço de Arcos e Caxias",Grande Lisboa,311,2025-03-20T01:01:00Z,25112949,Em despacho,3301,Queda de árvore,0,0,0,0,2025-03-20T01:01:00Z,Oeiras,Lisboa,Área Metropolitana De Lisboa,-9.324249,38.69806
25112974,Corroios,Península de Setúbal,311,2025-03-20T01:04:00Z,25112974,Em curso,3301,Queda de árvore,0,0,0,0,2025-03-20T01:04:00Z,Seixal,Setúbal,Área Metropolitana De Lisboa,-9.1683,38.62225
25113927,"Almada, Cova da Piedade, Pragal e Cacilhas",Península de Setúbal,311,2025-03-20T02:38:00Z,25113927,Em curso,3301,Queda de árvore,0,0,0,0,2025-03-20T02:38:00Z,Almada,Setúbal,Área Metropolitana De Lisboa,-9.16689,38.67327
25113959,Alcabideche,Grande Lisboa,311,2025-03-20T02:41:00Z,25113959,Em curso,3315,Inundação de estruturas por precipitação intensa,0,3,0,7,2025-03-20T02:41:00Z,Cascais,Lisboa,Área Metropolitana De Lisboa,-9.418781,38.730714
25113968,Beja (Santiago Maior e São João Baptista),Baixo Alentejo,312,2025-03-20T01:55:00Z,25113968,Em curso,3301,Queda de árvore,0,1,0,2,2025-03-20T01:55:00Z,Beja,Beja,Alentejo,-7.87003,38.014111
25113970,Pontinha e Famões,Grande Lisboa,311,2025-03-20T02:43:00Z,25113970,Em despacho,3315,Inundação de estruturas por precipitação intensa,0,0,0,0,2025-03-20T02:43:00Z,Odivelas,Lisboa,Área Metropolitana De Lisboa,-9.19871,38.76359
25113993,Corroios,Península de Setúbal,311,2025-03-20T02:45:00Z,25113993,Em curso,3301,Queda de árvore,0,0,0,0,2025-03-20T02:45:00Z,Seixal,Setúbal,Área Metropolitana De Lisboa,-9.1512,38.58007
25113995,"Oeiras e S. Julião da Barra, Paço de Arcos e Caxias",Grande Lisboa,311,2025-03-20T02:45:00Z,25113995,Em despacho,3301,Queda de árvore,0,0,0,0,2025-03-20T02:45:00Z,Oeiras,Lisboa,Área Metropolitana De Lisboa,-9.272,38.70125
25114000,Aguiar da Beira e Coruche,Viseu Dão Lafões,310,2025-03-20T02:42:00Z,25114000,Em despacho,3301,Queda de árvore,0,1,0,2,2025-03-20T02:42:00Z,Aguiar Da Beira,Guarda,Centro,-7.56905,40.80341
25114020,Lordelo,Area M. Porto,309,2025-03-20T02:45:00Z,25114020,Em despacho,3329,Queda de estruturas temporárias ou móveis,0,1,0,2,2025-03-20T02:45:00Z,Paredes,Porto,Norte,-8.422737,41.239614
25114043,Queluz e Belas,Grande Lisboa,311,2025-03-20T02:49:00Z,25114043,Em despacho,3311,Queda de elementos de estruturas edificados,0,0,0,0,2025-03-20T02:49:00Z,Sintra,Lisboa,Área Metropolitana De Lisboa,-9.25397,38.76355
25114050,Pardilhó,Região de Aveiro,310,2025-03-20T02:45:00Z,25114050,Em curso,3311,Queda de elementos de estruturas edificados,0,1,0,3,2025-03-20T02:45:00Z,Estarreja,Aveiro,Centro,-8.635515,40.794679
25114075,Ribafeita,Viseu Dão Lafões,310,2025-03-20T02:51:00Z,25114075,Em despacho,3301,Queda de árvore,0,0,0,0,2025-03-20T02:51:00Z,Viseu,Viseu,Centro,-8.026556,40.750706
25114077,Pindelo Dos Milagres,Viseu Dão Lafões,310,2025-03-20T02:49:00Z,25114077,Em despacho,3301,Queda de árvore,0,1,0,3,2025-03-20T02:49:00Z,São Pedro Do Sul,Viseu,Centro,-7.983807,40.805589
25114084,Melres e Medas,Area M. Porto,309,2025-03-20T02:53:00Z,25114084,Em despacho,3301,Queda de árvore,0,1,0,5,2025-03-20T02:53:00Z,Gondomar,Porto,Norte,-8.447585,41.06827
25114095,Pinhal Novo,Península de Setúbal,311,2025-03-20T02:30:00Z,25114095,Em curso,3301,Queda de árvore,0,4,0,8,2025-03-20T02:30:00Z,Palmela,Setúbal,Área Metropolitana De Lisboa,-8.91294,38.637902
25114100,Ventosa,Oeste,311,2025-03-20T02:41:00Z,25114100,Em despacho,3301,Queda de árvore,0,1,0,3,2025-03-20T02:41:00Z,Torres Vedras,Lisboa,Centro,-9.297362,39.041844
25114111,Aves,Area M. Porto,309,2025-03-20T02:45:00Z,25114111,Em despacho,3329,Queda de estruturas temporárias ou móveis,0,2,0,5,2025-03-20T02:45:00Z,Santo Tirso,Porto,Norte,-8.407527,41.368477
25114129,Caldas da Rainha - Santo Onofre e Serra do Bouro,Oeste,311,2025-03-20T02:50:00Z,25114129,Em curso,3301,Queda de árvore,0,1,0,1,2025-03-20T02:50:00Z,Caldas Da Rainha,Leiria,Centro,-9.148929,39.401713
25114136,Azambuja,Lezíria do Tejo,311,2025-03-20T02:57:00Z,25114136,Em despacho,3301,Queda de árvore,0,2,0,4,2025-03-20T02:57:00Z,Azambuja,Lisboa,Alentejo,-8.864506,39.067885
25114152,Canelas,Tâmega e Sousa,309,2025-03-20T02:36:00Z,25114152,Em curso,3311,Queda de elementos de estruturas edificados,0,1,0,2,2025-03-20T02:36:00Z,Penafiel,Porto,Norte,-8.318853,41.076808
25113419,Queluz e Belas,Grande Lisboa,311,2025-03-20T01:49:00Z,25113419,Em despacho,3301,Queda de árvore,0,0,0,0,2025-03-20T01:49:00Z,Sintra,Lisboa,Área Metropolitana De Lisboa,-9.2549,38.76253
25113421,Igreja Nova e Cheleiros,Grande Lisboa,311,2025-03-20T01:49:00Z,25113421,Em despacho,3301,Queda de árvore,0,0,0,0,2025-03-20T01:49:00Z,Mafra,Lisboa,Área Metropolitana De Lisboa,-9.310799,38.93288
25113436,Fernão Ferro,Península de Setúbal,311,2025-03-20T01:51:00Z,25113436,Em curso,3301,Queda de árvore,0,0,0,0,2025-03-20T01:51:00Z,Seixal,Setúbal,Área Metropolitana De Lisboa,-9.09578,38.55292
25113437,Covões e Camarneira,Região de Coimbra,310,2025-03-20T01:48:00Z,25113437,Em despacho,3301,Queda de árvore,0,0,0,0,2025-03-20T01:48:00Z,Cantanhede,Coimbra,Centro,-8.602074,40.443399
25113455,Charneca de Caparica e Sobreda,Península de Setúbal,311,2025-03-20T01:53:00Z,25113455,Em curso,3301,Queda de árvore,0,0,0,0,2025-03-20T01:53:00Z,Almada,Setúbal,Área Metropolitana De Lisboa,-9.17021,38.57797
25113470,Cascais e Estoril,Grande Lisboa,311,2025-03-20T01:54:00Z,25113470,Em despacho,3301,Queda de árvore,0,0,0,0,2025-03-20T01:54:00Z,Cascais,Lisboa,Área Metropolitana De Lisboa,-9.434008,38.71018
25113473,Pinheiro de Coja e Meda de Mouros,Região de Coimbra,310,2025-03-20T01:39:00Z,25113473,Em curso,3301,Queda de árvore,0,1,0,3,2025-03-20T01:39:00Z,Tábua,Coimbra,Centro,-7.990795,40.301303
25113489,Nelas,Viseu Dão Lafões,310,2025-03-20T01:54:00Z,25113489,Em curso,3301,Queda de árvore,0,1,0,5,2025-03-20T01:54:00Z,Nelas,Viseu,Centro,-7.855738,40.520916
25113504,Mértola,Baixo Alentejo,312,2025-03-20T01:53:00Z,25113504,Em curso,3301,Queda de árvore,0,2,0,2,2025-03-20T01:53:00Z,Mértola,Beja,Alentejo,-7.707997,37.678842
25113554,Charneca de Caparica e Sobreda,Península de Setúbal,311,2025-03-20T02:03:00Z,25113554,Em curso,3301,Queda de árvore,0,0,0,0,2025-03-20T02:03:00Z,Almada,Setúbal,Área Metropolitana De Lisboa,-9.18207,38.59188
25114159,"Oeiras e S. Julião da Barra, Paço de Arcos e Caxias",Grande Lisboa,311,2025-03-20T03:00:00Z,25114159,Em despacho,3301,Queda de árvore,0,0,0,0,2025-03-20T03:00:00Z,Oeiras,Lisboa,Área Metropolitana De Lisboa,-9.29439,38.70243
25114184,Ramada e Caneças,Grande Lisboa,311,2025-03-20T03:03:00Z,25114184,Em despacho,3311,Queda de elementos de estruturas edificados,0,0,0,0,2025-03-20T03:03:00Z,Odivelas,Lisboa,Área Metropolitana De Lisboa,-9.18865,38.81316
25114234,Carvalhal,Oeste,311,2025-03-20T03:08:00Z,25114234,Em despacho,3311,Queda de elementos de estruturas edificados,0,0,0,0,2025-03-20T03:08:00Z,Bombarral,Leiria,Centro,-9.12731,39.28677
25114236,Ronfe,Ave,309,2025-03-20T03:08:00Z,25114236,Em despacho,3311,Queda de elementos de estruturas edificados,0,1,0,2,2025-03-20T03:08:00Z,Guimarães,Braga,Norte,-8.38642,41.44113
25114270,"Nogueira, Fraião e Lamaçães",Cávado,309,2025-03-20T03:09:00Z,25114270,Em despacho,3329,Queda de estruturas temporárias ou móveis,0,1,0,3,2025-03-20T03:09:00Z,Braga,Braga,Norte,-8.399912,41.531469
25114284,Serpa (Salvador e Santa Maria),Baixo Alentejo,312,2025-03-20T03:05:00Z,25114284,Em despacho,3301,Queda de árvore,0,1,0,2,2025-03-20T03:05:00Z,Serpa,Beja,Alentejo,-7.497192,37.804577
25114293,Lousa,Grande Lisboa,311,2025-03-20T03:13:00Z,25114293,Em despacho,3311,Queda de elementos de estruturas edificados,0,0,0,0,2025-03-20T03:13:00Z,Loures,Lisboa,Área Metropolitana De Lisboa,-9.20461,38.88559
25114304,"Vila Garcia, Aboim e Chapa",Tâmega e Sousa,309,2025-03-20T03:13:00Z,25114304,Em despacho,3301,Queda de árvore,0,1,0,4,2025-03-20T03:13:00Z,Amarante,Porto,Norte,-8.0751,41.30714
25113572,Cascais e Estoril,Grande Lisboa,311,2025-03-20T02:05:00Z,25113572,Em despacho,3301,Queda de árvore,0,0,0,0,2025-03-20T02:05:00Z,Cascais,Lisboa,Área Metropolitana De Lisboa,-9.43971,38.72218
25113604,Matosinhos e Leça da Palmeira,Area M. Porto,309,2025-03-20T02:03:00Z,25113604,Em curso,3301,Queda de árvore,0,4,0,11,2025-03-20T02:03:00Z,Matosinhos,Porto,Norte,-8.692583,41.193749
25113606,"N. S. da Vila, N. S. do Bispo e Silveiras",Alentejo Central,312,2025-03-20T01:45:00Z,25113606,Em despacho,3301,Queda de árvore,0,1,0,2,2025-03-20T01:45:00Z,Montemor-o-Novo,Évora,Alentejo,-8.21652,38.662575
25113640,Alenquer (Santo Estêvão e Triana),Oeste,311,2025-03-20T02:00:00Z,25113640,Em despacho,3301,Queda de árvore,0,1,0,2,2025-03-20T02:00:00Z,Alenquer,Lisboa,Centro,-8.984619,39.063465
25113653,"Oeiras e S. Julião da Barra, Paço de Arcos e Caxias",Grande Lisboa,311,2025-03-20T02:12:00Z,25113653,Em despacho,3301,Queda de árvore,0,0,0,0,2025-03-20T02:12:00Z,Oeiras,Lisboa,Área Metropolitana De Lisboa,-9.275682,38.698873
25113655,Envendos,Médio Tejo,311,2025-03-20T02:11:00Z,25113655,Em conclusão,3309,Desabamento de estruturas edificadas,0,1,0,3,2025-03-20T02:11:00Z,Mação,Santarém,Centro,-7.8439,39.529878
25113670,Samora Correia,Lezíria do Tejo,311,2025-03-20T01:56:00Z,25113670,Em despacho,3301,Queda de árvore,0,1,0,3,2025-03-20T01:56:00Z,Benavente,Santarém,Alentejo,-8.868908,38.935447
25113690,Nazaré,Oeste,311,2025-03-20T02:18:00Z,25113690,Em despacho,3311,Queda de elementos de estruturas edificados,0,1,0,2,2025-03-20T02:18:00Z,Nazaré,Leiria,Centro,-9.074,39.60537
25113722,Carcavelos e Parede,Grande Lisboa,311,2025-03-20T02:21:00Z,25113722,Em despacho,3311,Queda de elementos de estruturas edificados,0,0,0,0,2025-03-20T02:21:00Z,Cascais,Lisboa,Área Metropolitana De Lisboa,-9.367864,38.69675
25113737,Charneca de Caparica e Sobreda,Península de Setúbal,311,2025-03-20T02:22:00Z,25113737,Em curso,3301,Queda de árvore,0,0,0,0,2025-03-20T02:22:00Z,Almada,Setúbal,Área Metropolitana De Lisboa,-9.17331,38.58715
25112992,Moscavide e Portela,Grande Lisboa,311,2025-03-20T00:53:00Z,25112992,Em despacho,3329,Queda de estruturas temporárias ou móveis,0,1,0,3,2025-03-20T00:53:00Z,Loures,Lisboa,Área Metropolitana De Lisboa,-9.114803,38.78591
25113022,São Domingos de Rana,Grande Lisboa,311,2025-03-20T01:10:00Z,25113022,Em despacho,3311,Queda de elementos de estruturas edificados,0,0,0,0,2025-03-20T01:10:00Z,Cascais,Lisboa,Área Metropolitana De Lisboa,-9.3408,38.73652
25113042,Oliveira do Hospital e São Paio de Gramaços,Região de Coimbra,310,2025-03-20T01:10:00Z,25113042,Em despacho,3329,Queda de estruturas temporárias ou móveis,0,1,0,2,2025-03-20T01:10:00Z,Oliveira Do Hospital,Coimbra,Centro,-7.849022,40.355133
25113047,Corroios,Península de Setúbal,311,2025-03-20T01:13:00Z,25113047,Em curso,3301,Queda de árvore,0,0,0,0,2025-03-20T01:13:00Z,Seixal,Setúbal,Área Metropolitana De Lisboa,-9.16166,38.61952
25113076,Cascais e Estoril,Grande Lisboa,311,2025-03-20T01:15:00Z,25113076,Em despacho,3311,Queda de elementos de estruturas edificados,0,0,0,0,2025-03-20T01:15:00Z,Cascais,Lisboa,Área Metropolitana De Lisboa,-9.40634,38.72382
25113090,"Alhandra, São João Dos Montes e Calhandriz",Grande Lisboa,311,2025-03-20T01:16:00Z,25113090,Em despacho,3301,Queda de árvore,0,0,0,0,2025-03-20T01:16:00Z,Vila Franca De Xira,Lisboa,Área Metropolitana De Lisboa,-9.02855,38.9405
25113092,Torrozelo e Folhadosa,Beiras e Serra da Estrela,310,2025-03-20T01:03:00Z,25113092,Em despacho,3301,Queda de árvore,0,1,0,3,2025-03-20T01:03:00Z,Seia,Guarda,Centro,-7.777454,40.386399
25113101,Charneca de Caparica e Sobreda,Península de Setúbal,311,2025-03-20T01:18:00Z,25113101,Em curso,3301,Queda de árvore,0,0,0,0,2025-03-20T01:18:00Z,Almada,Setúbal,Área Metropolitana De Lisboa,-9.17264,38.5926
25113117,Charneca de Caparica e Sobreda,Península de Setúbal,311,2025-03-20T01:19:00Z,25113117,Em curso,3301,Queda de árvore,0,0,0,0,2025-03-20T01:19:00Z,Almada,Setúbal,Área Metropolitana De Lisboa,-9.18066,38.59207
25114318,Charneca de Caparica e Sobreda,Península de Setúbal,311,2025-03-20T03:15:00Z,25114318,Em curso,3301,Queda de árvore,0,1,0,4,2025-03-20T03:15:00Z,Almada,Setúbal,Área Metropolitana De Lisboa,-9.207191,38.62898
25114327,Benavente,Lezíria do Tejo,311,2025-03-20T03:15:00Z,25114327,Em conclusão,3329,Queda de estruturas temporárias ou móveis,0,0,0,0,2025-03-20T03:15:00Z,Benavente,Santarém,Alentejo,-8.804753,38.980872
25114334,Serzedo e Calvos,Ave,309,2025-03-20T03:16:00Z,25114334,Em curso,3301,Queda de árvore,0,2,0,4,2025-03-20T03:16:00Z,Guimarães,Braga,Norte,-8.24593,41.40594
25114343,Samora Correia,Lezíria do Tejo,311,2025-03-20T02:57:00Z,25114343,Em despacho,3301,Queda de árvore,0,1,0,4,2025-03-20T02:57:00Z,Benavente,Santarém,Alentejo,-8.890675,38.921796
25114345,Charneca de Caparica e Sobreda,Península de Setúbal,311,2025-03-20T03:17:00Z,25114345,Em curso,3301,Queda de árvore,0,0,0,0,2025-03-20T03:17:00Z,Almada,Setúbal,Área Metropolitana De Lisboa,-9.17936,38.61397
25114368,Samora Correia,Lezíria do Tejo,311,2025-03-20T02:59:00Z,25114368,Em resolução,3321,Dano na rede de fornecimento de eletricidade ,0,1,0,2,2025-03-20T02:59:00Z,Benavente,Santarém,Alentejo,-8.854147,38.902282
25114370,Charneca de Caparica e Sobreda,Península de Setúbal,311,2025-03-20T03:20:00Z,25114370,Em curso,3301,Queda de árvore,0,0,0,0,2025-03-20T03:20:00Z,Almada,Setúbal,Área Metropolitana De Lisboa,-9.17923,38.60275
25114377,Santa Marinha e São Pedro da Afurada,Area M. Porto,309,2025-03-20T03:21:00Z,25114377,Em despacho,3311,Queda de elementos de estruturas edificados,0,1,0,5,2025-03-20T03:21:00Z,Vila Nova De Gaia,Porto,Norte,-8.62524,41.13787
25114384,Ramalde,Area M. Porto,309,2025-03-20T03:22:00Z,25114384,Em despacho,3301,Queda de árvore,0,0,0,0,2025-03-20T03:22:00Z,Porto,Porto,Norte,-8.65672,41.17382
25113738,"N. S. da Vila, N. S. do Bispo e Silveiras",Alentejo Central,312,2025-03-20T02:21:00Z,25113738,Em conclusão,3301,Queda de árvore,0,1,0,2,2025-03-20T02:21:00Z,Montemor-o-Novo,Évora,Alentejo,-8.21652,38.662575
25113740,"Oeiras e S. Julião da Barra, Paço de Arcos e Caxias",Grande Lisboa,311,2025-03-20T02:22:00Z,25113740,Em despacho,3301,Queda de árvore,0,0,0,0,2025-03-20T02:22:00Z,Oeiras,Lisboa,Área Metropolitana De Lisboa,-9.275682,38.698873
25113772,Vila Verde Dos Francos,Oeste,311,2025-03-20T02:26:00Z,25113772,Em despacho,3301,Queda de árvore,0,1,0,1,2025-03-20T02:26:00Z,Alenquer,Lisboa,Centro,-9.129415,39.172205
25113787,Salvaterra de Magos e Foros de Salvaterra,Lezíria do Tejo,311,2025-03-20T02:27:00Z,25113787,Em curso,3329,Queda de estruturas temporárias ou móveis,0,0,0,0,2025-03-20T02:27:00Z,Salvaterra De Magos,Santarém,Alentejo,-8.791365,39.03049
25113790,São Manços e São Vicente do Pigeiro,Alentejo Central,312,2025-03-20T02:24:00Z,25113790,Em conclusão,3301,Queda de árvore,0,3,0,6,2025-03-20T02:24:00Z,Évora,Évora,Alentejo,-7.758873,38.456348
25113804,Aveiras de Baixo,Lezíria do Tejo,311,2025-03-20T02:27:00Z,25113804,Em curso,3301,Queda de árvore,0,0,0,0,2025-03-20T02:27:00Z,Azambuja,Lisboa,Alentejo,-8.869588,39.111989
25113807,Alvares,Região de Coimbra,310,2025-03-20T02:29:00Z,25113807,Em curso,3321,Dano na rede de fornecimento de eletricidade ,0,1,0,2,2025-03-20T02:29:00Z,Góis,Coimbra,Centro,-8.14939,40.01864
25113820,Azambuja,Lezíria do Tejo,311,2025-03-20T02:29:00Z,25113820,Em despacho,3321,Dano na rede de fornecimento de eletricidade ,0,1,0,1,2025-03-20T02:29:00Z,Azambuja,Lisboa,Alentejo,-8.896472,39.072897
25113837,Góis,Região de Coimbra,310,2025-03-20T02:31:00Z,25113837,Em despacho,3301,Queda de árvore,0,1,0,2,2025-03-20T02:31:00Z,Góis,Coimbra,Centro,-8.097889,40.18431
25113840,Pataias e Martingança,Oeste,311,2025-03-20T02:15:00Z,25113840,Em despacho,3301,Queda de árvore,0,1,0,5,2025-03-20T02:15:00Z,Alcobaça,Leiria,Centro,-8.943291,39.68794
25114393,Canelas,Area M. Porto,309,2025-03-20T03:23:00Z,25114393,Em despacho,3311,Queda de elementos de estruturas edificados,0,0,0,0,2025-03-20T03:23:00Z,Vila Nova De Gaia,Porto,Norte,-8.6008,41.08116
25114395,Corroios,Península de Setúbal,311,2025-03-20T03:23:00Z,25114395,Em curso,3301,Queda de árvore,0,0,0,0,2025-03-20T03:23:00Z,Seixal,Setúbal,Área Metropolitana De Lisboa,-9.156315,38.57963
25114404,Torres do Mondego,Região de Coimbra,310,2025-03-20T03:24:00Z,25114404,Em despacho,3301,Queda de árvore,0,1,0,3,2025-03-20T03:24:00Z,Coimbra,Coimbra,Centro,-8.372038,40.20649
25114413,São Pedro da Cadeira,Oeste,311,2025-03-20T03:00:00Z,25114413,Em despacho,3311,Queda de elementos de estruturas edificados,0,1,0,4,2025-03-20T03:00:00Z,Torres Vedras,Lisboa,Centro,-9.35655,39.058351
25114420,Arcozelos,Douro,309,2025-03-20T03:25:00Z,25114420,Em despacho,3301,Queda de árvore,0,0,0,0,2025-03-20T03:25:00Z,Moimenta Da Beira,Viseu,Norte,-7.58506,40.96374
25114429,Almoster,Lezíria do Tejo,311,2025-03-20T03:25:00Z,25114429,Em curso,3301,Queda de árvore,0,0,0,0,2025-03-20T03:25:00Z,Santarém,Santarém,Alentejo,-8.795515,39.226827
25114443,Ericeira,Grande Lisboa,311,2025-03-20T03:27:00Z,25114443,Em despacho,3311,Queda de elementos de estruturas edificados,0,0,0,0,2025-03-20T03:27:00Z,Mafra,Lisboa,Área Metropolitana De Lisboa,-9.41106,38.95243
25114454,Carregado e Cadafais,Oeste,311,2025-03-20T03:25:00Z,25114454,Em despacho,3301,Queda de árvore,0,1,0,4,2025-03-20T03:25:00Z,Alenquer,Lisboa,Centro,-9.011797,39.019127
25114461,Marrazes e Barosa,Região de Leiria,310,2025-03-20T02:38:00Z,25114461,Em despacho,3301,Queda de árvore,0,0,0,0,2025-03-20T02:38:00Z,Leiria,Leiria,Centro,-8.813484,39.764428
25114486,São Marcos da Serra,Algarve,313,2025-03-20T03:32:00Z,25114486,Em despacho,3301,Queda de árvore,0,1,0,4,2025-03-20T03:32:00Z,Silves,Faro,Algarve,-8.42667,37.37191
25114488,Cadima,Região de Coimbra,310,2025-03-20T03:24:00Z,25114488,Em despacho,3301,Queda de árvore,0,1,0,5,2025-03-20T03:24:00Z,Cantanhede,Coimbra,Centro,-8.621201,40.294952
25113874,Ramada e Caneças,Grande Lisboa,311,2025-03-20T02:35:00Z,25113874,Em despacho,3321,Dano na rede de fornecimento de eletricidade ,0,0,0,0,2025-03-20T02:35:00Z,Odivelas,Lisboa,Área Metropolitana De Lisboa,-9.21026,38.82131
25113888,Odivelas,Grande Lisboa,311,2025-03-20T02:36:00Z,25113888,Em despacho,3311,Queda de elementos de estruturas edificados,0,0,0,0,2025-03-20T02:36:00Z,Odivelas,Lisboa,Área Metropolitana De Lisboa,-9.19047,38.79637
25113939,Paranhos,Area M. Porto,309,2025-03-20T02:40:00Z,25113939,Em despacho,3311,Queda de elementos de estruturas edificados,0,0,0,0,2025-03-20T02:40:00Z,Porto,Porto,Norte,-8.61817,41.1665
25113940,Salir,Algarve,313,2025-03-20T01:35:00Z,25113940,Em despacho,3301,Queda de árvore,0,0,0,0,2025-03-20T01:35:00Z,Loulé,Faro,Algarve,-7.962852,37.25746
25113987,São Domingos de Rana,Grande Lisboa,311,2025-03-20T02:44:00Z,25113987,Em despacho,3301,Queda de árvore,0,0,0,0,2025-03-20T02:44:00Z,Cascais,Lisboa,Área Metropolitana De Lisboa,-9.33595,38.71096
25114022,a Dos Francos,Oeste,311,2025-03-20T02:26:00Z,25114022,Em resolução,3301,Queda de árvore,0,2,0,8,2025-03-20T02:26:00Z,Caldas Da Rainha,Leiria,Centro,-9.044564,39.321517
25114041,Comporta,Alentejo Litoral,312,2025-03-20T02:35:00Z,25114041,Em despacho,3301,Queda de árvore,0,2,0,5,2025-03-20T02:35:00Z,Alcácer Do Sal,Setúbal,Alentejo,-8.785435,38.381947
25114056,Azeitão (São Lourenço e São Simão),Península de Setúbal,311,2025-03-20T02:51:00Z,25114056,Em curso,3321,Dano na rede de fornecimento de eletricidade ,0,0,0,0,2025-03-20T02:51:00Z,Setúbal,Setúbal,Área Metropolitana De Lisboa,-9.024796,38.53981
25114073,Pontével,Lezíria do Tejo,311,2025-03-20T02:52:00Z,25114073,Em curso,3301,Queda de árvore,0,1,0,4,2025-03-20T02:52:00Z,Cartaxo,Santarém,Alentejo,-8.819585,39.125572
25114074,Charneca de Caparica e Sobreda,Península de Setúbal,311,2025-03-20T02:52:00Z,25114074,Em curso,3301,Queda de árvore,0,0,0,0,2025-03-20T02:52:00Z,Almada,Setúbal,Área Metropolitana De Lisboa,-9.18666,38.59386
25113124,Carnaxide e Queijas,Grande Lisboa,311,2025-03-20T01:20:00Z,25113124,Em despacho,3311,Queda de elementos de estruturas edificados,0,0,0,0,2025-03-20T01:20:00Z,Oeiras,Lisboa,Área Metropolitana De Lisboa,-9.24609,38.72263
25113126,Águas Livres,Grande Lisboa,311,2025-03-20T01:20:00Z,25113126,Em despacho,3311,Queda de elementos de estruturas edificados,0,0,0,0,2025-03-20T01:20:00Z,Amadora,Lisboa,Área Metropolitana De Lisboa,-9.20581,38.74231
25113140,"Almada, Cova da Piedade, Pragal e Cacilhas",Península de Setúbal,311,2025-03-20T01:21:00Z,25113140,Em curso,3311,Queda de elementos de estruturas edificados,0,0,0,0,2025-03-20T01:21:00Z,Almada,Setúbal,Área Metropolitana De Lisboa,-9.16207,38.6795
25113156,Baixa da Banheira e Vale da Amoreira,Península de Setúbal,311,2025-03-20T01:23:00Z,25113156,Em curso,3311,Queda de elementos de estruturas edificados,0,0,0,0,2025-03-20T01:23:00Z,Moita,Setúbal,Área Metropolitana De Lisboa,-9.04162,38.65316
25113158,Santo Antão e São Julião do Tojal,Grande Lisboa,311,2025-03-20T01:23:00Z,25113158,Em despacho,3329,Queda de estruturas temporárias ou móveis,0,0,0,0,2025-03-20T01:23:00Z,Loures,Lisboa,Área Metropolitana De Lisboa,-9.122308,38.86943
25113215,Charneca de Caparica e Sobreda,Península de Setúbal,311,2025-03-20T01:29:00Z,25113215,Em curso,3301,Queda de árvore,0,0,0,0,2025-03-20T01:29:00Z,Almada,Setúbal,Área Metropolitana De Lisboa,-9.16891,38.57109
25113217,Usseira,Oeste,311,2025-03-20T01:28:00Z,25113217,Em despacho,3321,Dano na rede de fornecimento de eletricidade ,0,1,0,1,2025-03-20T01:28:00Z,Óbidos,Leiria,Centro,-9.131689,39.33251
25113226,Barcarena,Grande Lisboa,311,2025-03-20T01:21:00Z,25113226,Em despacho,3301,Queda de árvore,0,1,0,2,2025-03-20T01:21:00Z,Oeiras,Lisboa,Área Metropolitana De Lisboa,-9.277392,38.733987
25114502,Caparica e Trafaria,Península de Setúbal,311,2025-03-20T03:31:00Z,25114502,Em curso,3311,Queda de elementos de estruturas edificados,0,0,0,0,2025-03-20T03:31:00Z,Almada,Setúbal,Área Metropolitana De Lisboa,-9.198172,38.665376
25114511,Póvoa de Santa Iria e Forte da Casa,Grande Lisboa,311,2025-03-20T03:15:00Z,25114511,Em curso,3301,Queda de árvore,0,1,0,1,2025-03-20T03:15:00Z,Vila Franca De Xira,Lisboa,Área Metropolitana De Lisboa,-9.080109,38.86006
25114527,"Ovar, São João, Arada e São Vicente de Pereira Jusã",Região de Aveiro,310,2025-03-20T03:29:00Z,25114527,Em conclusão,3301,Queda de árvore,0,1,0,5,2025-03-20T03:29:00Z,Ovar,Aveiro,Centro,-8.603194,40.915479
25114561,"Alpendorada, Várzea e Torrão",Tâmega e Sousa,309,2025-03-20T03:39:00Z,25114561,Em despacho,3301,Queda de árvore,0,1,0,3,2025-03-20T03:39:00Z,Marco De Canaveses,Porto,Norte,-8.23196,41.08296
25114568,Ferrel,Oeste,311,2025-03-20T03:00:00Z,25114568,Em despacho,3329,Queda de estruturas temporárias ou móveis,0,1,0,5,2025-03-20T03:00:00Z,Peniche,Leiria,Centro,-9.312058,39.368649
25114588,Cortegaça,Região de Aveiro,310,2025-03-20T03:36:00Z,25114588,Em conclusão,3311,Queda de elementos de estruturas edificados,0,1,0,4,2025-03-20T03:36:00Z,Ovar,Aveiro,Centro,-8.634253,40.941462
25114593,Santiago de Piães,Tâmega e Sousa,309,2025-03-20T03:17:00Z,25114593,Em despacho,3311,Queda de elementos de estruturas edificados,0,1,0,2,2025-03-20T03:17:00Z,Cinfães,Viseu,Norte,-8.154546,41.065916
25114602,Paços de Ferreira,Tâmega e Sousa,309,2025-03-20T03:35:00Z,25114602,Em despacho,3311,Queda de elementos de estruturas edificados,0,1,0,4,2025-03-20T03:35:00Z,Paços De Ferreira,Porto,Norte,-8.370658,41.278172
25114613,São Bernardo,Região de Aveiro,310,2025-03-20T03:37:00Z,25114613,Em despacho,3301,Queda de árvore,0,1,0,3,2025-03-20T03:37:00Z,Aveiro,Aveiro,Centro,-8.625929,40.620025
25114627,Carvalhal,Oeste,311,2025-03-20T03:45:00Z,25114627,Em despacho,3301,Queda de árvore,0,1,0,3,2025-03-20T03:45:00Z,Bombarral,Leiria,Centro,-9.140539,39.302711
25114645,Colmeal e Vilar Torpim,Beiras e Serra da Estrela,310,2025-03-20T03:48:00Z,25114645,Em despacho,3301,Queda de árvore,0,1,0,5,2025-03-20T03:48:00Z,Figueira De Castelo Rodrigo,Guarda,Centro,-7.0016,40.84742
25114661,"Leiria, Pousos, Barreira e Cortes",Região de Leiria,310,2025-03-20T03:45:00Z,25114661,Em despacho,3301,Queda de árvore,0,1,0,5,2025-03-20T03:45:00Z,Leiria,Leiria,Centro,-8.820333,39.749077
25114668,Moimenta de Maceira Dão e Lobelhe do Mato,Viseu Dão Lafões,310,2025-03-20T02:34:00Z,25114668,Em despacho,3301,Queda de árvore,0,1,0,3,2025-03-20T02:34:00Z,Mangualde,Viseu,Centro,-7.835496,40.578377
25114672,"Guia, Ilha e Mata Mourisca",Região de Leiria,310,2025-03-20T03:35:00Z,25114672,Em despacho,3301,Queda de árvore,0,1,0,2,2025-03-20T03:35:00Z,Pombal,Leiria,Centro,-8.731859,39.906277
25114679,"Coruche, Fajarda e Erra",Lezíria do Tejo,311,2025-03-20T03:51:00Z,25114679,Em resolução,3301,Queda de árvore,0,1,0,5,2025-03-20T03:51:00Z,Coruche,Santarém,Alentejo,-8.54111,38.890215
25114688,Casal de Cinza,Beiras e Serra da Estrela,310,2025-03-20T03:39:00Z,25114688,Em despacho,3301,Queda de árvore,0,1,0,2,2025-03-20T03:39:00Z,Guarda,Guarda,Centro,-7.216219,40.521998
25114704,Alpiarça,Lezíria do Tejo,311,2025-03-20T03:53:00Z,25114704,Em conclusão,3301,Queda de árvore,0,1,0,4,2025-03-20T03:53:00Z,Alpiarça,Santarém,Alentejo,-8.581038,39.251
25114713,Eiras e São Paulo de Frades,Região de Coimbra,310,2025-03-20T03:44:00Z,25114713,Em despacho,3329,Queda de estruturas temporárias ou móveis,0,1,0,3,2025-03-20T03:44:00Z,Coimbra,Coimbra,Centro,-8.423418,40.248789
25114720,Foz do Sousa e Covelo,Area M. Porto,309,2025-03-20T03:46:00Z,25114720,Em despacho,3301,Queda de árvore,0,1,0,5,2025-03-20T03:46:00Z,Gondomar,Porto,Norte,-8.482621,41.0963
25114088,"N. S. da Vila, N. S. do Bispo e Silveiras",Alentejo Central,312,2025-03-20T02:45:00Z,25114088,Em conclusão,3301,Queda de árvore,0,1,0,2,2025-03-20T02:45:00Z,Montemor-o-Novo,Évora,Alentejo,-8.159378,38.666313
25114121,São João da Madeira,Area M. Porto,309,2025-03-20T02:57:00Z,25114121,Em despacho,3311,Queda de elementos de estruturas edificados,0,1,0,2,2025-03-20T02:57:00Z,São João Da Madeira,Aveiro,Norte,-8.50724,40.89465
25114156,"Seia, São Romão e Lapa Dos Dinheiros",Beiras e Serra da Estrela,310,2025-03-20T02:51:00Z,25114156,Em despacho,3301,Queda de árvore,0,2,0,6,2025-03-20T02:51:00Z,Seia,Guarda,Centro,-7.707882,40.400574
25114173,Benavente,Lezíria do Tejo,311,2025-03-20T03:00:00Z,25114173,Em conclusão,3301,Queda de árvore,0,0,0,0,2025-03-20T03:00:00Z,Benavente,Santarém,Alentejo,-8.804753,38.980872
25114189,"S.pedro e Santiago, S.maria e S.miguel e Matacães",Oeste,311,2025-03-20T01:21:00Z,25114189,Em despacho,3311,Queda de elementos de estruturas edificados,0,1,0,4,2025-03-20T01:21:00Z,Torres Vedras,Lisboa,Centro,-9.251952,39.091829
25114221,Bencatel,Alentejo Central,312,2025-03-20T03:06:00Z,25114221,Em conclusão,3301,Queda de árvore,0,3,0,5,2025-03-20T03:06:00Z,Vila Viçosa,Évora,Alentejo,-7.460133,38.722566
25114222,"S.maria, S.miguel, S.martinho, S.pedro Penaferrim",Grande Lisboa,311,2025-03-20T03:05:00Z,25114222,Em despacho,3301,Queda de árvore,0,0,0,0,2025-03-20T03:05:00Z,Sintra,Lisboa,Área Metropolitana De Lisboa,-9.395193,38.762498
25114223,Trancoso (São Pedro e Santa Maria) e Souto Maior,Beiras e Serra da Estrela,310,2025-03-20T03:06:00Z,25114223,Em curso,3311,Queda de elementos de estruturas edificados,0,1,0,4,2025-03-20T03:06:00Z,Trancoso,Guarda,Centro,-7.34965,40.78498
25114239,Almodôvar e Graça Dos Padrões,Baixo Alentejo,312,2025-03-20T03:05:00Z,25114239,Em despacho,3301,Queda de árvore,0,1,0,2,2025-03-20T03:05:00Z,Almodôvar,Beja,Alentejo,-8.049267,37.503912
25114729,Aveiras de Baixo,Lezíria do Tejo,311,2025-03-20T03:57:00Z,25114729,Em despacho,3301,Queda de árvore,0,1,0,2,2025-03-20T03:57:00Z,Azambuja,Lisboa,Alentejo,-8.826556,39.086132
25114736,Águas Livres,Grande Lisboa,311,2025-03-20T03:58:00Z,25114736,Em despacho,3301,Queda de árvore,0,0,0,0,2025-03-20T03:58:00Z,Amadora,Lisboa,Área Metropolitana De Lisboa,-9.23008,38.74993
25114738,Azambuja,Lezíria do Tejo,311,2025-03-20T03:58:00Z,25114738,Em despacho,3301,Queda de árvore,0,1,0,5,2025-03-20T03:58:00Z,Azambuja,Lisboa,Alentejo,-8.864506,39.067885
25114745,Cidade da Maia,Area M. Porto,309,2025-03-20T03:59:00Z,25114745,Em despacho,3329,Queda de estruturas temporárias ou móveis,0,1,0,5,2025-03-20T03:59:00Z,Maia,Porto,Norte,-8.599495,41.23719
25114788,Andrães,Douro,309,2025-03-20T04:02:00Z,25114788,Em despacho,3301,Queda de árvore,0,0,0,0,2025-03-20T04:02:00Z,Vila Real,Vila Real,Norte,-7.68449,41.25383
25114804,Maceira,Região de Leiria,310,2025-03-20T03:55:00Z,25114804,Em despacho,3321,Dano na rede de fornecimento de eletricidade ,0,2,0,5,2025-03-20T03:55:00Z,Leiria,Leiria,Centro,-8.889652,39.686501
25114820,Pinhal Novo,Península de Setúbal,311,2025-03-20T03:50:00Z,25114820,Em despacho,3311,Queda de elementos de estruturas edificados,0,1,0,3,2025-03-20T03:50:00Z,Palmela,Setúbal,Área Metropolitana De Lisboa,-8.91294,38.637902
25114836,Nelas,Viseu Dão Lafões,310,2025-03-20T04:06:00Z,25114836,Em despacho,3301,Queda de árvore,0,1,0,5,2025-03-20T04:06:00Z,Nelas,Viseu,Centro,-7.851124,40.512677
25114838,Arranhó,Oeste,311,2025-03-20T03:40:00Z,25114838,Em despacho,3301,Queda de árvore,0,1,0,3,2025-03-20T03:40:00Z,Arruda Dos Vinhos,Lisboa,Centro,-9.145871,38.947781
25114847,Vila Cortês da Serra,Beiras e Serra da Estrela,310,2025-03-20T04:03:00Z,25114847,Em despacho,3301,Queda de árvore,0,1,0,5,2025-03-20T04:03:00Z,Gouveia,Guarda,Centro,-7.547549,40.552064
25114863,Arazede,Região de Coimbra,310,2025-03-20T04:09:00Z,25114863,Em despacho,3301,Queda de árvore,0,0,0,0,2025-03-20T04:09:00Z,Montemor-o-Velho,Coimbra,Centro,-8.631626,40.273294
25114240,Teixeira e Teixeiró,Tâmega e Sousa,309,2025-03-20T03:08:00Z,25114240,Em despacho,3311,Queda de elementos de estruturas edificados,0,1,0,2,2025-03-20T03:08:00Z,Baião,Porto,Norte,-7.90901,41.18203
25114257,Cativelos,Beiras e Serra da Estrela,310,2025-03-20T03:09:00Z,25114257,Em despacho,3301,Queda de árvore,0,2,0,3,2025-03-20T03:09:00Z,Gouveia,Guarda,Centro,-7.694037,40.537404
25114274,Santos Evos,Viseu Dão Lafões,310,2025-03-20T03:05:00Z,25114274,Em curso,3311,Queda de elementos de estruturas edificados,0,1,0,2,2025-03-20T03:05:00Z,Viseu,Viseu,Centro,-7.838669,40.663033
25114289,Mondim de Basto,Ave,309,2025-03-20T03:00:00Z,25114289,Em despacho,3311,Queda de elementos de estruturas edificados,0,1,0,2,2025-03-20T03:00:00Z,Mondim De Basto,Vila Real,Norte,-7.948501,41.393019
25114291,Guardão,Viseu Dão Lafões,310,2025-03-20T02:45:00Z,25114291,Em despacho,3301,Queda de árvore,0,2,0,4,2025-03-20T02:45:00Z,Tondela,Viseu,Centro,-8.166187,40.569747
25114373,Vila Nova de Cacela,Algarve,313,2025-03-20T02:31:00Z,25114373,Em despacho,3301,Queda de árvore,0,1,0,5,2025-03-20T02:31:00Z,Vila Real De Santo António,Faro,Algarve,-7.560058,37.157087
25114389,Palhais e Coina,Península de Setúbal,311,2025-03-20T01:50:00Z,25114389,Em curso,3301,Queda de árvore,0,1,0,4,2025-03-20T01:50:00Z,Barreiro,Setúbal,Área Metropolitana De Lisboa,-9.043332,38.595522
25114390,São Martinho Das Amoreiras,Alentejo Litoral,312,2025-03-20T03:20:00Z,25114390,Em despacho,3301,Queda de árvore,0,1,0,1,2025-03-20T03:20:00Z,Odemira,Beja,Alentejo,-8.423175,37.653664
25113078,"Santa Iria de Azoia, São João da Talha e Bobadela",Grande Lisboa,311,2025-03-20T01:15:00Z,25113078,Em despacho,3311,Queda de elementos de estruturas edificados,0,0,0,0,2025-03-20T01:15:00Z,Loures,Lisboa,Área Metropolitana De Lisboa,-9.097366,38.83854
25113095,Amora,Península de Setúbal,311,2025-03-20T01:17:00Z,25113095,Em curso,3311,Queda de elementos de estruturas edificados,0,0,0,0,2025-03-20T01:17:00Z,Seixal,Setúbal,Área Metropolitana De Lisboa,-9.124338,38.61855
25113129,Vila Franca de Xira,Grande Lisboa,311,2025-03-20T01:05:00Z,25113129,Em curso,3301,Queda de árvore,0,1,0,5,2025-03-20T01:05:00Z,Vila Franca De Xira,Lisboa,Área Metropolitana De Lisboa,-8.989293,38.955728
25113145,"Coruche, Fajarda e Erra",Lezíria do Tejo,311,2025-03-20T01:21:00Z,25113145,Em curso,3311,Queda de elementos de estruturas edificados,0,0,0,0,2025-03-20T01:21:00Z,Coruche,Santarém,Alentejo,-8.602737,38.971954
25113160,Corroios,Península de Setúbal,311,2025-03-20T01:24:00Z,25113160,Em curso,3311,Queda de elementos de estruturas edificados,0,0,0,0,2025-03-20T01:24:00Z,Seixal,Setúbal,Área Metropolitana De Lisboa,-9.14678,38.62745
25113161,São João da Ribeira e Ribeira de São João,Lezíria do Tejo,311,2025-03-20T01:23:00Z,25113161,Em resolução,3301,Queda de árvore,0,1,0,4,2025-03-20T01:23:00Z,Rio Maior,Santarém,Alentejo,-8.83397,39.277248
25113162,São Domingos de Rana,Grande Lisboa,311,2025-03-20T01:24:00Z,25113162,Em despacho,3301,Queda de árvore,0,0,0,0,2025-03-20T01:24:00Z,Cascais,Lisboa,Área Metropolitana De Lisboa,-9.3553,38.70397
25113163,São Domingos de Rana,Grande Lisboa,311,2025-03-20T01:18:00Z,25113163,Em despacho,3311,Queda de elementos de estruturas edificados,0,0,0,0,2025-03-20T01:18:00Z,Cascais,Lisboa,Área Metropolitana De Lisboa,-9.341509,38.701875
25113177,Amora,Península de Setúbal,311,2025-03-20T01:25:00Z,25113177,Em curso,3311,Queda de elementos de estruturas edificados,0,0,0,0,2025-03-20T01:25:00Z,Seixal,Setúbal,Área Metropolitana De Lisboa,-9.11848,38.61897
25114872,São Pedro da Cadeira,Oeste,311,2025-03-20T02:38:00Z,25114872,Em despacho,3301,Queda de árvore,0,1,0,2,2025-03-20T02:38:00Z,Torres Vedras,Lisboa,Centro,-9.372006,39.083408
25114877,Arcos e Mogofores,Região de Aveiro,310,2025-03-20T04:09:00Z,25114877,Em despacho,3301,Queda de árvore,0,2,0,6,2025-03-20T04:09:00Z,Anadia,Aveiro,Centro,-8.433666,40.438781
25114881,Sesimbra (Castelo),Península de Setúbal,311,2025-03-20T04:05:00Z,25114881,Em despacho,3301,Queda de árvore,0,1,0,3,2025-03-20T04:05:00Z,Sesimbra,Setúbal,Área Metropolitana De Lisboa,-9.126293,38.535393
25114895,Fazendas de Almeirim,Lezíria do Tejo,311,2025-03-20T03:35:00Z,25114895,Em curso,3329,Queda de estruturas temporárias ou móveis,0,1,0,2,2025-03-20T03:35:00Z,Alpiarça,Santarém,Alentejo,-8.564325,39.191508
25114904,Portimão,Algarve,313,2025-03-20T04:09:00Z,25114904,Em despacho,3301,Queda de árvore,0,1,0,4,2025-03-20T04:09:00Z,Portimão,Faro,Algarve,-8.532608,37.137966
25114913,Barcarena,Grande Lisboa,311,2025-03-20T04:15:00Z,25114913,Em despacho,3311,Queda de elementos de estruturas edificados,0,0,0,0,2025-03-20T04:15:00Z,Oeiras,Lisboa,Área Metropolitana De Lisboa,-9.27601,38.72112
25114931,Santos Evos,Viseu Dão Lafões,310,2025-03-20T04:10:00Z,25114931,Em despacho,3301,Queda de árvore,0,1,0,2,2025-03-20T04:10:00Z,Viseu,Viseu,Centro,-7.837514,40.656726
25114405,Mujães,Alto Minho,309,2025-03-20T03:24:00Z,25114405,Em despacho,3311,Queda de elementos de estruturas edificados,0,2,0,4,2025-03-20T03:24:00Z,Viana Do Castelo,Viana Do Castelo,Norte,-8.708787,41.67049
25114408,Alcabideche,Grande Lisboa,311,2025-03-20T03:24:00Z,25114408,Em despacho,3301,Queda de árvore,0,1,0,5,2025-03-20T03:24:00Z,Cascais,Lisboa,Área Metropolitana De Lisboa,-9.41679,38.7148
25114424,Vila Nova de Tazem,Beiras e Serra da Estrela,310,2025-03-20T03:25:00Z,25114424,Em despacho,3301,Queda de árvore,0,1,0,2,2025-03-20T03:25:00Z,Gouveia,Guarda,Centro,-7.716662,40.505068
25114425,Cumieira,Douro,309,2025-03-20T03:26:00Z,25114425,Em despacho,3311,Queda de elementos de estruturas edificados,0,1,0,4,2025-03-20T03:26:00Z,Santa Marta De Penaguião,Vila Real,Norte,-7.761025,41.23536
25114456,Bonfim,Area M. Porto,309,2025-03-20T03:28:00Z,25114456,Em despacho,3311,Queda de elementos de estruturas edificados,0,1,0,4,2025-03-20T03:28:00Z,Porto,Porto,Norte,-8.603249,41.1616
25114473,"Cedofeita, Ildefonso, Sé, Miragaia, Nicolau e Vitória",Area M. Porto,309,2025-03-20T03:19:00Z,25114473,Em despacho,3313,Deslizamento de terras,0,1,0,5,2025-03-20T03:19:00Z,Porto,Porto,Norte,-8.615939,41.15359
25114489,Juncal,Região de Leiria,310,2025-03-20T03:27:00Z,25114489,Em despacho,3301,Queda de árvore,0,1,0,4,2025-03-20T03:27:00Z,Porto De Mós,Leiria,Centro,-8.89608,39.635121
25114507,Forno Telheiro,Beiras e Serra da Estrela,310,2025-03-20T03:32:00Z,25114507,Em despacho,3311,Queda de elementos de estruturas edificados,0,1,0,3,2025-03-20T03:32:00Z,Celorico Da Beira,Guarda,Centro,-7.39045,40.666428
25114525,Malveira e São Miguel de Alcainça,Grande Lisboa,311,2025-03-20T03:36:00Z,25114525,Em despacho,3321,Dano na rede de fornecimento de eletricidade ,0,0,0,0,2025-03-20T03:36:00Z,Mafra,Lisboa,Área Metropolitana De Lisboa,-9.279616,38.92011
25114542,Santana da Serra,Baixo Alentejo,312,2025-03-20T03:37:00Z,25114542,Em despacho,3301,Queda de árvore,0,1,0,3,2025-03-20T03:37:00Z,Ourique,Beja,Alentejo,-8.311378,37.4732
25113256,"Almada, Cova da Piedade, Pragal e Cacilhas",Península de Setúbal,311,2025-03-20T01:33:00Z,25113256,Em curso,3321,Dano na rede de fornecimento de eletricidade ,0,0,0,0,2025-03-20T01:33:00Z,Almada,Setúbal,Área Metropolitana De Lisboa,-9.16659,38.67428
25113258,Valado Dos Frades,Oeste,311,2025-03-20T01:26:00Z,25113258,Em curso,3301,Queda de árvore,0,4,0,6,2025-03-20T01:26:00Z,Nazaré,Leiria,Centro,-9.041021,39.584542
25113281,"Almargem do Bispo, Pêro Pinheiro e Montelavar",Grande Lisboa,311,2025-03-20T01:36:00Z,25113281,Em despacho,3311,Queda de elementos de estruturas edificados,0,0,0,0,2025-03-20T01:36:00Z,Sintra,Lisboa,Área Metropolitana De Lisboa,-9.286858,38.81957
25113285,Branca,Lezíria do Tejo,311,2025-03-20T01:35:00Z,25113285,Em curso,3311,Queda de elementos de estruturas edificados,0,0,0,0,2025-03-20T01:35:00Z,Coruche,Santarém,Alentejo,-8.599754,38.869277
25113292,Charneca de Caparica e Sobreda,Península de Setúbal,311,2025-03-20T01:37:00Z,25113292,Em curso,3301,Queda de árvore,0,0,0,0,2025-03-20T01:37:00Z,Almada,Setúbal,Área Metropolitana De Lisboa,-9.18076,38.56634
25113308,"Seixal, Arrentela e Aldeia de Paio Pires",Península de Setúbal,311,2025-03-20T01:38:00Z,25113308,Em curso,3311,Queda de elementos de estruturas edificados,0,0,0,0,2025-03-20T01:38:00Z,Seixal,Setúbal,Área Metropolitana De Lisboa,-9.0728,38.58636
25113315,Beja (Santiago Maior e São João Baptista),Baixo Alentejo,312,2025-03-20T01:09:00Z,25113315,Em despacho,3301,Queda de árvore,0,1,0,2,2025-03-20T01:09:00Z,Beja,Beja,Alentejo,-7.87003,38.014111
25113331,Almoster,Lezíria do Tejo,311,2025-03-20T01:41:00Z,25113331,Em conclusão,3311,Queda de elementos de estruturas edificados,0,0,0,0,2025-03-20T01:41:00Z,Santarém,Santarém,Alentejo,-8.867038,39.241897
25113180,Pena Verde,Viseu Dão Lafões,310,2025-03-20T01:01:00Z,25113180,Em despacho,3301,Queda de árvore,0,1,0,3,2025-03-20T01:01:00Z,Aguiar Da Beira,Guarda,Centro,-7.504589,40.727437
25113194,Alverca do Ribatejo e Sobralinho,Grande Lisboa,311,2025-03-20T01:27:00Z,25113194,Em despacho,3311,Queda de elementos de estruturas edificados,0,0,0,0,2025-03-20T01:27:00Z,Vila Franca De Xira,Lisboa,Área Metropolitana De Lisboa,-9.0484000000000009,38.90376
25113197,Cela,Oeste,311,2025-03-20T01:22:00Z,25113197,Em resolução,3301,Queda de árvore,0,1,0,2,2025-03-20T01:22:00Z,Alcobaça,Leiria,Centro,-9.042419,39.527414
25113212,Benavente,Lezíria do Tejo,311,2025-03-20T01:27:00Z,25113212,Em curso,3329,Queda de estruturas temporárias ou móveis,0,0,0,0,2025-03-20T01:27:00Z,Benavente,Santarém,Alentejo,-8.804753,38.980872
25113213,Santa Maria Maior,Grande Lisboa,311,2025-03-20T01:25:00Z,25113213,Em despacho,3329,Queda de estruturas temporárias ou móveis,0,1,0,2,2025-03-20T01:25:00Z,Lisboa,Lisboa,Área Metropolitana De Lisboa,-9.13452,38.714581
25113227,Charneca de Caparica e Sobreda,Península de Setúbal,311,2025-03-20T01:31:00Z,25113227,Em curso,3301,Queda de árvore,0,0,0,0,2025-03-20T01:31:00Z,Almada,Setúbal,Área Metropolitana De Lisboa,-9.176084,38.58879
25113229,Charneca de Caparica e Sobreda,Península de Setúbal,311,2025-03-20T01:31:00Z,25113229,Em curso,3301,Queda de árvore,0,0,0,0,2025-03-20T01:31:00Z,Almada,Setúbal,Área Metropolitana De Lisboa,-9.182356,38.58913
25113230,Roliça,Oeste,311,2025-03-20T01:25:00Z,25113230,Em curso,3301,Queda de árvore,0,1,0,2,2025-03-20T01:25:00Z,Bombarral,Leiria,Centro,-9.152078,39.299008
25113246,Mafra,Grande Lisboa,311,2025-03-20T01:22:00Z,25113246,Em despacho,3301,Queda de árvore,0,1,0,5,2025-03-20T01:22:00Z,Mafra,Lisboa,Área Metropolitana De Lisboa,-9.3779419999999991,38.960847
25113294,Algueirão-Mem Martins,Grande Lisboa,311,2025-03-20T01:37:00Z,25113294,Em despacho,3311,Queda de elementos de estruturas edificados,0,0,0,0,2025-03-20T01:37:00Z,Sintra,Lisboa,Área Metropolitana De Lisboa,-9.324166,38.79472
25114573,Quinta do Conde,Península de Setúbal,311,2025-03-20T03:41:00Z,25114573,Em curso,3301,Queda de árvore,0,0,0,0,2025-03-20T03:41:00Z,Sesimbra,Setúbal,Área Metropolitana De Lisboa,-9.041492,38.55076
25114592,Lamas e Cercal,Oeste,311,2025-03-20T03:31:00Z,25114592,Em despacho,3301,Queda de árvore,0,1,0,1,2025-03-20T03:31:00Z,Cadaval,Lisboa,Centro,-9.057162,39.221439
25114606,Albergaria-a-Velha e Valmaior,Região de Aveiro,310,2025-03-20T03:24:00Z,25114606,Em despacho,3321,Dano na rede de fornecimento de eletricidade ,0,1,0,2,2025-03-20T03:24:00Z,Albergaria-a-Velha,Aveiro,Centro,-8.510534,40.694302
25114607,Souselo,Tâmega e Sousa,309,2025-03-20T03:23:00Z,25114607,Em despacho,3311,Queda de elementos de estruturas edificados,0,1,0,2,2025-03-20T03:23:00Z,Cinfães,Viseu,Norte,-8.229763,41.064373
25114623,Alpiarça,Lezíria do Tejo,311,2025-03-20T03:44:00Z,25114623,Em resolução,3301,Queda de árvore,0,1,0,4,2025-03-20T03:44:00Z,Alpiarça,Santarém,Alentejo,-8.595402,39.262022
25114624,Alcochete,Península de Setúbal,311,2025-03-20T03:46:00Z,25114624,Em curso,3301,Queda de árvore,0,1,0,4,2025-03-20T03:46:00Z,Alcochete,Setúbal,Área Metropolitana De Lisboa,-8.851111,38.72972
25114625,Oliveira do Douro,Area M. Porto,309,2025-03-20T03:35:00Z,25114625,Em despacho,3329,Queda de estruturas temporárias ou móveis,0,1,0,6,2025-03-20T03:35:00Z,Vila Nova De Gaia,Porto,Norte,-8.585272,41.125484
25114642,Alvor,Algarve,313,2025-03-20T03:26:00Z,25114642,Em despacho,3301,Queda de árvore,0,2,0,7,2025-03-20T03:26:00Z,Portimão,Faro,Algarve,-8.5944680000000009,37.131433
25114656,Guarda,Beiras e Serra da Estrela,310,2025-03-20T03:39:00Z,25114656,Em despacho,3301,Queda de árvore,0,1,0,2,2025-03-20T03:39:00Z,Guarda,Guarda,Centro,-7.260869,40.536751
25114657,Requião,Ave,309,2025-03-20T03:30:00Z,25114657,Em despacho,3301,Queda de árvore,0,2,0,4,2025-03-20T03:30:00Z,Vila Nova De Famalicão,Braga,Norte,-8.479353,41.41157
25114673,Vilarinho Dos Freires,Douro,309,2025-03-20T03:44:00Z,25114673,Em despacho,3301,Queda de árvore,0,1,0,3,2025-03-20T03:44:00Z,Peso Da Régua,Vila Real,Norte,-7.748211,41.175132
25113312,"Santa Iria de Azoia, São João da Talha e Bobadela",Grande Lisboa,311,2025-03-20T01:39:00Z,25113312,Em despacho,3311,Queda de elementos de estruturas edificados,0,1,0,4,2025-03-20T01:39:00Z,Loures,Lisboa,Área Metropolitana De Lisboa,-9.102797,38.83672
25113313,Alverca do Ribatejo e Sobralinho,Grande Lisboa,311,2025-03-20T01:39:00Z,25113313,Em despacho,3311,Queda de elementos de estruturas edificados,0,0,0,0,2025-03-20T01:39:00Z,Vila Franca De Xira,Lisboa,Área Metropolitana De Lisboa,-9.05384,38.90527
25113329,Falagueira-Venda Nova,Grande Lisboa,311,2025-03-20T01:40:00Z,25113329,Em despacho,3301,Queda de árvore,0,0,0,0,2025-03-20T01:40:00Z,Amadora,Lisboa,Área Metropolitana De Lisboa,-9.223747,38.760622
25113330,Cascais e Estoril,Grande Lisboa,311,2025-03-20T01:40:00Z,25113330,Em despacho,3301,Queda de árvore,0,0,0,0,2025-03-20T01:40:00Z,Cascais,Lisboa,Área Metropolitana De Lisboa,-9.398759,38.70391
25113346,Soure,Região de Coimbra,310,2025-03-20T01:42:00Z,25113346,Em despacho,3301,Queda de árvore,0,1,0,2,2025-03-20T01:42:00Z,Soure,Coimbra,Centro,-8.639406,40.055319
25113361,Ventosa,Oeste,311,2025-03-20T01:32:00Z,25113361,Em curso,3301,Queda de árvore,0,3,0,6,2025-03-20T01:32:00Z,Alenquer,Lisboa,Centro,-9.09504,39.112146
25113395,Alcoutim e Pereiro,Algarve,313,2025-03-20T01:25:00Z,25113395,Em despacho,3301,Queda de árvore,0,1,0,3,2025-03-20T01:25:00Z,Alcoutim,Faro,Algarve,-7.605324,37.446524
25113430,Charneca de Caparica e Sobreda,Península de Setúbal,311,2025-03-20T01:50:00Z,25113430,Em curso,3301,Queda de árvore,0,0,0,0,2025-03-20T01:50:00Z,Almada,Setúbal,Área Metropolitana De Lisboa,-9.1789,38.60783
25113444,Carnota,Oeste,311,2025-03-20T01:40:00Z,25113444,Em despacho,3311,Queda de elementos de estruturas edificados,0,1,0,4,2025-03-20T01:40:00Z,Alenquer,Lisboa,Centro,-9.046712,39.040476
25114674,Mexilhoeira Grande,Algarve,313,2025-03-20T03:38:00Z,25114674,Em despacho,3301,Queda de árvore,0,1,0,3,2025-03-20T03:38:00Z,Portimão,Faro,Algarve,-8.648803,37.178063
25114691,Mafra,Grande Lisboa,311,2025-03-20T03:53:00Z,25114691,Em despacho,3321,Dano na rede de fornecimento de eletricidade ,0,0,0,0,2025-03-20T03:53:00Z,Mafra,Lisboa,Área Metropolitana De Lisboa,-9.34026,38.9585
25114692,Cacia,Região de Aveiro,310,2025-03-20T03:47:00Z,25114692,Em despacho,3301,Queda de árvore,0,2,0,6,2025-03-20T03:47:00Z,Aveiro,Aveiro,Centro,-8.590939,40.687707
25114706,Torno,Tâmega e Sousa,309,2025-03-20T03:28:00Z,25114706,Em curso,3329,Queda de estruturas temporárias ou móveis,0,0,0,0,2025-03-20T03:28:00Z,Lousada,Porto,Norte,-8.211066,41.296428
25114725,Maxial e Monte Redondo,Oeste,311,2025-03-20T03:57:00Z,25114725,Em despacho,3301,Queda de árvore,0,0,0,0,2025-03-20T03:57:00Z,Torres Vedras,Lisboa,Centro,-9.18331,39.139305
25114740,Vila Verde e Barbudo,Cávado,309,2025-03-20T03:58:00Z,25114740,Em despacho,3311,Queda de elementos de estruturas edificados,0,0,0,0,2025-03-20T03:58:00Z,Vila Verde,Braga,Norte,-8.42563,41.64321
25114773,Pinheiro,Viseu Dão Lafões,310,2025-03-20T03:53:00Z,25114773,Em despacho,3301,Queda de árvore,0,1,0,3,2025-03-20T03:53:00Z,Oliveira De Frades,Viseu,Centro,-8.215989,40.731813
25114776,Passô,Douro,309,2025-03-20T03:37:00Z,25114776,Em despacho,3301,Queda de árvore,0,1,0,2,2025-03-20T03:37:00Z,Moimenta Da Beira,Viseu,Norte,-7.721795,41.015664
25114790,Alfeizerão,Oeste,311,2025-03-20T03:56:00Z,25114790,Em despacho,3301,Queda de árvore,0,1,0,2,2025-03-20T03:56:00Z,Alcobaça,Leiria,Centro,-9.110786,39.496611
25114808,Milheirós,Area M. Porto,309,2025-03-20T04:05:00Z,25114808,Em despacho,3311,Queda de elementos de estruturas edificados,0,0,0,0,2025-03-20T04:05:00Z,Maia,Porto,Norte,-8.57913,41.22719
25113461,Beja (Santiago Maior e São João Baptista),Baixo Alentejo,312,2025-03-20T01:54:00Z,25113461,Em despacho,3301,Queda de árvore,0,0,0,0,2025-03-20T01:54:00Z,Beja,Beja,Alentejo,-7.86754,38.00967
25113462,Carregal do Sal,Viseu Dão Lafões,310,2025-03-20T01:52:00Z,25113462,Em despacho,3301,Queda de árvore,0,2,0,5,2025-03-20T01:52:00Z,Carregal Do Sal,Viseu,Centro,-7.999939,40.437298
25113463,"Almada, Cova da Piedade, Pragal e Cacilhas",Península de Setúbal,311,2025-03-20T01:54:00Z,25113463,Em conclusão,3311,Queda de elementos de estruturas edificados,0,0,0,0,2025-03-20T01:54:00Z,Almada,Setúbal,Área Metropolitana De Lisboa,-9.1648,38.67804
25113464,Soure,Região de Coimbra,310,2025-03-20T01:50:00Z,25113464,Em despacho,3309,Desabamento de estruturas edificadas,0,1,0,2,2025-03-20T01:50:00Z,Soure,Coimbra,Centro,-8.639406,40.055319
25113480,São Domingos de Rana,Grande Lisboa,311,2025-03-20T01:55:00Z,25113480,Em despacho,3301,Queda de árvore,0,0,0,0,2025-03-20T01:55:00Z,Cascais,Lisboa,Área Metropolitana De Lisboa,-9.34564,38.69702
25113498,Charneca de Caparica e Sobreda,Península de Setúbal,311,2025-03-20T01:58:00Z,25113498,Em curso,3301,Queda de árvore,0,0,0,0,2025-03-20T01:58:00Z,Almada,Setúbal,Área Metropolitana De Lisboa,-9.18074,38.58747
25113512,Cascais e Estoril,Grande Lisboa,311,2025-03-20T01:59:00Z,25113512,Em despacho,3301,Queda de árvore,0,0,0,0,2025-03-20T01:59:00Z,Cascais,Lisboa,Área Metropolitana De Lisboa,-9.40005,38.71162
25113513,Cascais e Estoril,Grande Lisboa,311,2025-03-20T01:59:00Z,25113513,Em despacho,3329,Queda de estruturas temporárias ou móveis,0,0,0,0,2025-03-20T01:59:00Z,Cascais,Lisboa,Área Metropolitana De Lisboa,-9.38034,38.70228
25113545,Loures,Grande Lisboa,311,2025-03-20T02:02:00Z,25113545,Em despacho,3311,Queda de elementos de estruturas edificados,0,0,0,0,2025-03-20T02:02:00Z,Loures,Lisboa,Área Metropolitana De Lisboa,-9.19531,38.81873
25113333,Mina de Água,Grande Lisboa,311,2025-03-20T01:41:00Z,25113333,Em despacho,3311,Queda de elementos de estruturas edificados,0,0,0,0,2025-03-20T01:41:00Z,Amadora,Lisboa,Área Metropolitana De Lisboa,-9.24209,38.77874
25113358,Vale de Cavalos,Lezíria do Tejo,311,2025-03-20T01:42:00Z,25113358,Em conclusão,3301,Queda de árvore,0,0,0,0,2025-03-20T01:42:00Z,Chamusca,Santarém,Alentejo,-8.516783,39.292933
25113367,Charneca de Caparica e Sobreda,Península de Setúbal,311,2025-03-20T01:45:00Z,25113367,Em curso,3301,Queda de árvore,0,0,0,0,2025-03-20T01:45:00Z,Almada,Setúbal,Área Metropolitana De Lisboa,-9.17951,38.59582
25113376,"Santa Iria de Azoia, São João da Talha e Bobadela",Grande Lisboa,311,2025-03-20T01:45:00Z,25113376,Em despacho,3311,Queda de elementos de estruturas edificados,0,0,0,0,2025-03-20T01:45:00Z,Loures,Lisboa,Área Metropolitana De Lisboa,-9.098026,38.83377
25113385,Mértola,Baixo Alentejo,312,2025-03-20T01:21:00Z,25113385,Em curso,3301,Queda de árvore,0,0,0,0,2025-03-20T01:21:00Z,Mértola,Beja,Alentejo,-7.708733,37.631222
25113390,Sobral de Monte Agraço,Oeste,311,2025-03-20T01:32:00Z,25113390,Em despacho,3301,Queda de árvore,0,1,0,1,2025-03-20T01:32:00Z,Sobral De Monte Agraço,Lisboa,Centro,-9.151478,39.017089
25113399,"Oeiras e S. Julião da Barra, Paço de Arcos e Caxias",Grande Lisboa,311,2025-03-20T01:47:00Z,25113399,Em despacho,3301,Queda de árvore,0,0,0,0,2025-03-20T01:47:00Z,Oeiras,Lisboa,Área Metropolitana De Lisboa,-9.275682,38.698873
25113426,Queluz e Belas,Grande Lisboa,311,2025-03-20T01:49:00Z,25113426,Em despacho,3311,Queda de elementos de estruturas edificados,0,0,0,0,2025-03-20T01:49:00Z,Sintra,Lisboa,Área Metropolitana De Lisboa,-9.27789,38.76549
25113440,Batalha,Região de Leiria,310,2025-03-20T01:42:00Z,25113440,Em curso,3301,Queda de árvore,0,0,0,0,2025-03-20T01:42:00Z,Batalha,Leiria,Centro,-8.84276,39.660678
25114809,Vilas Boas e Vilarinho Das Azenhas,Terras de Trás-os-Montes,309,2025-03-20T04:05:00Z,25114809,Em despacho,3301,Queda de árvore,0,1,0,2,2025-03-20T04:05:00Z,Vila Flor,Bragança,Norte,-7.17078,41.3535
25114825,Abraveses,Viseu Dão Lafões,310,2025-03-20T03:41:00Z,25114825,Em despacho,3311,Queda de elementos de estruturas edificados,0,1,0,2,2025-03-20T03:41:00Z,Viseu,Viseu,Centro,-7.94029,40.690261
25114826,Monchique,Algarve,313,2025-03-20T03:44:00Z,25114826,Em despacho,3301,Queda de árvore,0,2,0,4,2025-03-20T03:44:00Z,Monchique,Faro,Algarve,-8.575361,37.327931
25114840,Eixo e Eirol,Região de Aveiro,310,2025-03-20T04:08:00Z,25114840,Em despacho,3301,Queda de árvore,0,0,0,0,2025-03-20T04:08:00Z,Aveiro,Aveiro,Centro,-8.57902,40.63193
25114873,Arcozelo,Area M. Porto,309,2025-03-20T04:05:00Z,25114873,Em despacho,3311,Queda de elementos de estruturas edificados,0,1,0,5,2025-03-20T04:05:00Z,Vila Nova De Gaia,Porto,Norte,-8.640388,41.056331
25114874,"O. Azeméis, Riba-Ul, Ul, Macinhata Seixa, Madail",Area M. Porto,309,2025-03-20T03:15:00Z,25114874,Em despacho,3321,Dano na rede de fornecimento de eletricidade ,0,1,0,2,2025-03-20T03:15:00Z,Oliveira De Azeméis,Aveiro,Norte,-8.482939,40.836334
25114876,Paranhos,Area M. Porto,309,2025-03-20T04:11:00Z,25114876,Em despacho,3311,Queda de elementos de estruturas edificados,0,1,0,5,2025-03-20T04:11:00Z,Porto,Porto,Norte,-8.61155,41.16627
