id,address,subregion,neighborhood,date,id.1,state,nature,nature_description,aerial_means,terrestrial_means,aquatic_means,operational,date.1,Concelho,Distrito,NUTII_DSG,longitude,latitude,state_2
25951176,Sandomil,Beiras e Serra da Estrela,310,2025-09-06T10:29:00Z,25951176,Em Resolução/Conclusão,3103,Incêndio rural,0,2,0,10,2025-09-06T10:29:00Z,Seia,Guarda,Centro,-7.76001,40.351547,Resolução/Conclusão
26020631,"Tavares (Chãs, Várzea e Travanca)",Viseu Dão Lafões,310,2025-09-20T21:15:00Z,26020631,Em Resolução/Conclusão,3103,Incêndio rural,0,1,0,5,2025-09-20T21:15:00Z,Mangualde,Viseu,Centro,-7.639468,40.609133,Resolução/Conclusão
26023007,Viade de Baixo e Fervidelas,Alto Tâmega e Barroso,309,2025-09-21T12:25:00Z,26023007,Em Resolução/Conclusão,3103,Incêndio rural,0,2,0,8,2025-09-21T12:25:00Z,Montalegre,Vila Real,Norte,-7.82553,41.732438,Resolução/Conclusão
26023591,Oliveira do Douro,Area M. Porto,309,2025-09-21T14:32:00Z,26023591,Em Despacho,3103,Incêndio rural,0,1,0,5,2025-09-21T14:32:00Z,Vila Nova De Gaia,Porto,Norte,-8.585272,41.125484,Despacho
26023742,Nadadouro,Oeste,311,2025-09-21T15:07:00Z,26023742,Em Despacho,3103,Incêndio rural,0,4,0,17,2025-09-21T15:07:00Z,Caldas Da Rainha,Leiria,Centro,-9.189082,39.41462,Despacho
26023772,Anjos e Vilar do Chão,Ave,309,2025-09-21T15:12:00Z,26023772,Em Despacho,3103,Incêndio rural,2,1,0,17,2025-09-21T15:12:00Z,Vieira Do Minho,Braga,Norte,-8.081954,41.594617,Despacho
26003298,Barreiros e Cepões,Viseu Dão Lafões,310,2025-09-17T12:05:00Z,26003298,Em Resolução/Conclusão,3101,Incêndio rural,0,1,0,2,2025-09-17T12:05:00Z,Viseu,Viseu,Centro,-7.825281,40.745844,Resolução/Conclusão
26013065,Mezio e Moura Morta,Viseu Dão Lafões,310,2025-09-19T11:05:00Z,26013065,Em Resolução/Conclusão,3103,Incêndio rural,0,33,0,159,2025-09-19T11:05:00Z,Castro Daire,Viseu,Centro,-7.878187,40.98632,Resolução/Conclusão
26013919,Ervedal e Vila Franca da Beira,Região de Coimbra,310,2025-09-19T13:25:00Z,26013919,Em Resolução/Conclusão,3103,Incêndio rural,0,23,0,75,2025-09-19T13:25:00Z,Oliveira Do Hospital,Coimbra,Centro,-7.90472,40.43917,Resolução/Conclusão
26021680,Cimo de Vila da Castanheira,Alto Tâmega e Barroso,309,2025-09-21T07:00:00Z,26021680,Em Resolução/Conclusão,3103,Incêndio rural,0,2,0,9,2025-09-21T07:00:00Z,Chaves,Vila Real,Norte,-7.303293,41.804648,Resolução/Conclusão
26022857,NA,NA,0,2025-09-21T08:20:00Z,26022857,Em Curso,3103,Incêndio rural,1,5,0,19,2025-09-21T08:20:00Z,NA,NA,NA,-8.10654,41.86587,Curso
26023354,Beja (Salvador e Santa Maria da Feira),Baixo Alentejo,312,2025-09-21T13:46:00Z,26023354,Em Resolução/Conclusão,3105,Incêndio rural,0,2,0,7,2025-09-21T13:46:00Z,Beja,Beja,Alentejo,-7.849775,38.031315,Resolução/Conclusão
26023534,Benlhevai,Terras de Trás-os-Montes,309,2025-09-21T14:26:00Z,26023534,Em Resolução/Conclusão,3103,Incêndio rural,0,7,0,26,2025-09-21T14:26:00Z,Vila Flor,Bragança,Norte,-7.103348,41.380498,Resolução/Conclusão
26023552,Gafanha da Nazaré,Região de Aveiro,310,2025-09-21T14:31:00Z,26023552,Em Resolução/Conclusão,3103,Incêndio rural,0,1,0,5,2025-09-21T14:31:00Z,Ílhavo,Aveiro,Centro,-8.68813,40.629028,Resolução/Conclusão
25832672,Piódão,Região de Coimbra,310,2025-08-13T05:08:00Z,25832672,Em Resolução/Conclusão,3103,Incêndio rural,0,0,0,0,2025-08-13T05:08:00Z,Arganil,Coimbra,Centro,-7.81972,40.23083,Resolução/Conclusão
26013902,Penacova,Região de Coimbra,310,2025-09-19T13:28:00Z,26013902,Em Resolução/Conclusão,3103,Incêndio rural,0,4,0,12,2025-09-19T13:28:00Z,Penacova,Coimbra,Centro,-8.32583,40.32722,Resolução/Conclusão
26016785,Gralhas,Alto Tâmega e Barroso,309,2025-09-20T01:20:00Z,26016785,Em Resolução/Conclusão,3103,Incêndio rural,3,56,0,209,2025-09-20T01:20:00Z,Montalegre,Vila Real,Norte,-7.720897,41.880163,Resolução/Conclusão
26019877,Guardão,Viseu Dão Lafões,310,2025-09-20T17:50:00Z,26019877,Em Resolução/Conclusão,3103,Incêndio rural,0,6,0,22,2025-09-20T17:50:00Z,Tondela,Viseu,Centro,-8.148484,40.610274,Resolução/Conclusão
26023342,Orada,Alentejo Central,312,2025-09-21T13:42:00Z,26023342,Em Resolução/Conclusão,3105,Incêndio rural,0,4,0,14,2025-09-21T13:42:00Z,Borba,Évora,Alentejo,-7.47328,38.908048,Resolução/Conclusão
26023410,Beja (Salvador e Santa Maria da Feira),Baixo Alentejo,312,2025-09-21T13:47:00Z,26023410,Em Resolução/Conclusão,3105,Incêndio rural,0,0,0,0,2025-09-21T13:47:00Z,Beja,Beja,Alentejo,-7.856313,38.015708,Resolução/Conclusão
26023737,Algueirão-Mem Martins,Grande Lisboa,311,2025-09-21T15:05:00Z,26023737,Em Despacho,3103,Incêndio rural,0,4,0,17,2025-09-21T15:05:00Z,Sintra,Lisboa,Área Metropolitana De Lisboa,-9.327732,38.796,Despacho
26013405,Barreiros e Cepões,Viseu Dão Lafões,310,2025-09-19T11:56:00Z,26013405,Em Resolução/Conclusão,3103,Incêndio rural,0,9,0,36,2025-09-19T11:56:00Z,Viseu,Viseu,Centro,-7.786007,40.76602,Resolução/Conclusão
26022995,Bordeira,Algarve,313,2025-09-21T12:21:00Z,26022995,Em Curso,3103,Incêndio rural,11,110,0,337,2025-09-21T12:21:00Z,Aljezur,Faro,Algarve,-8.825374,37.23495,Curso
26023264,Arnóia,Tâmega e Sousa,309,2025-09-21T13:33:00Z,26023264,Em Curso,3103,Incêndio rural,1,7,0,34,2025-09-21T13:33:00Z,Celorico De Basto,Braga,Norte,-8.005322,41.357533,Curso
26023784,Poceirão e Marateca,Península de Setúbal,311,2025-09-21T15:09:00Z,26023784,Em Despacho,3103,Incêndio rural,0,0,0,0,2025-09-21T15:09:00Z,Palmela,Setúbal,Área Metropolitana De Lisboa,-8.683933,38.578852,Despacho
