id,address,subregion,neighborhood,date,id.1,state,nature,nature_description,aerial_means,terrestrial_means,aquatic_means,operational,date.1,Concelho,Distrito,NUTII_DSG,longitude,latitude,state_2
25728646,Vila Fernando,Beiras e Serra da Estrela,310,2025-07-24T23:39:00Z,25728646,Em Resolução/Conclusão,3103,Incêndio rural,0,1,0,5,2025-07-24T23:39:00Z,Guarda,Guarda,Centro,-7.135077,40.484042,Resolução/Conclusão
25730832,Aveleda e Rio de Onor,Terras de Trás-os-Montes,309,2025-07-25T12:07:00Z,25730832,Em Resolução/Conclusão,3103,Incêndio rural,0,27,0,89,2025-07-25T12:07:00Z,Bragança,Bragança,Norte,-6.707873,41.891435,Resolução/Conclusão
25734292,Boelhe,Tâmega e Sousa,309,2025-07-26T01:16:00Z,25734292,Em Resolução/Conclusão,3103,Incêndio rural,0,2,0,7,2025-07-26T01:16:00Z,Penafiel,Porto,Norte,-8.236902,41.13743,Resolução/Conclusão
25734510,Vila do Conde,Area M. Porto,309,2025-07-26T03:27:00Z,25734510,Em Resolução/Conclusão,3103,Incêndio rural,0,1,0,5,2025-07-26T03:27:00Z,Vila Do Conde,Porto,Norte,-8.752042,41.371562,Resolução/Conclusão
25734678,Durrães e Tregosa,Cávado,309,2025-07-26T06:15:00Z,25734678,Em Despacho,3103,Incêndio rural,0,0,0,0,2025-07-26T06:15:00Z,Barcelos,Braga,Norte,-8.669,41.63852,Despacho
25727257,Santiago de Piães,Tâmega e Sousa,309,2025-07-24T17:40:00Z,25727257,Em Resolução/Conclusão,3103,Incêndio rural,0,5,0,18,2025-07-24T17:40:00Z,Cinfães,Viseu,Norte,-8.173138,41.025392,Resolução/Conclusão
25734595,São Paio de Oleiros,Area M. Porto,309,2025-07-26T04:56:00Z,25734595,Em Resolução/Conclusão,3105,Incêndio rural,0,2,0,7,2025-07-26T04:56:00Z,Santa Maria Da Feira,Aveiro,Norte,-8.600707,40.9839,Resolução/Conclusão
25712338,Cercal,Alentejo Litoral,312,2025-07-21T17:38:00Z,25712338,Em Resolução/Conclusão,3103,Incêndio rural,0,0,0,0,2025-07-21T17:38:00Z,Santiago Do Cacém,Setúbal,Alentejo,-8.682272,37.791582,Resolução/Conclusão
25729082,São Jorge e Ermelo,Alto Minho,309,2025-07-25T04:45:00Z,25729082,Em Resolução/Conclusão,3101,Incêndio rural,0,15,0,50,2025-07-25T04:45:00Z,Arcos De Valdevez,Viana Do Castelo,Norte,-8.356835,41.818005,Resolução/Conclusão
