id,address,subregion,neighborhood,date,id.1,state,nature,nature_description,aerial_means,terrestrial_means,aquatic_means,operational,date.1,Concelho,Distrito,NUTII_DSG,longitude,latitude
25087162,Pedrógão,Baixo Alentejo,312,2025-03-14T17:00:00Z,25087162,Em curso,1101,Cheia,0,0,0,0,2025-03-14T17:00:00Z,Vidigueira,Beja,Alentejo,-7.630327,38.110775
25111421,Febres,Região de Coimbra,310,2025-03-19T20:53:00Z,25111421,Em despacho,3311,Queda de elementos de estruturas edificados,0,1,0,2,2025-03-19T20:53:00Z,Cantanhede,Coimbra,Centro,-8.637168,40.385839
25111537,Santo António Dos Olivais,Região de Coimbra,310,2025-03-19T21:22:00Z,25111537,Em despacho,3301,Queda de árvore,0,1,0,3,2025-03-19T21:22:00Z,Coimbra,Coimbra,Centro,-8.426807,40.217261
25111569,Peniche,Oeste,311,2025-03-19T21:21:00Z,25111569,Em despacho,3321,Dano na rede de fornecimento de eletricidade ,0,1,0,6,2025-03-19T21:21:00Z,Peniche,Leiria,Centro,-9.376833,39.357166
25111596,Paião,Região de Coimbra,310,2025-03-19T21:30:00Z,25111596,Em despacho,3301,Queda de árvore,0,1,0,2,2025-03-19T21:30:00Z,Figueira Da Foz,Coimbra,Centro,-8.756598,40.054747
25111610,Marrazes e Barosa,Região de Leiria,310,2025-03-19T21:35:00Z,25111610,Em despacho,3301,Queda de árvore,0,0,0,0,2025-03-19T21:35:00Z,Leiria,Leiria,Centro,-8.81813,39.75452
25068300,Almeirim,Lezíria do Tejo,311,2025-03-10T20:52:00Z,25068300,Em curso,1101,Cheia,0,0,0,0,2025-03-10T20:52:00Z,Almeirim,Santarém,Alentejo,-8.635002,39.187436
25111204,Atouguia da Baleia,Oeste,311,2025-03-19T19:57:00Z,25111204,Em curso,3301,Queda de árvore,0,1,0,1,2025-03-19T19:57:00Z,Peniche,Leiria,Centro,-9.293139,39.353139
25111284,"Manique do Intendente, V. N. de São Pedro e Maçussa",Lezíria do Tejo,311,2025-03-19T20:22:00Z,25111284,Em conclusão,3329,Queda de estruturas temporárias ou móveis,0,1,0,2,2025-03-19T20:22:00Z,Azambuja,Lisboa,Alentejo,-8.889528,39.229128
25111611,Sesimbra (Castelo),Península de Setúbal,311,2025-03-19T21:35:00Z,25111611,Em curso,3301,Queda de árvore,0,0,0,0,2025-03-19T21:35:00Z,Sesimbra,Setúbal,Área Metropolitana De Lisboa,-9.106586,38.49022
25111702,Alcobaça e Vestiaria,Oeste,311,2025-03-19T21:45:00Z,25111702,Em curso,3329,Queda de estruturas temporárias ou móveis,0,2,0,5,2025-03-19T21:45:00Z,Alcobaça,Leiria,Centro,-8.970766,39.549944000000004
25059714,Torrão,Alentejo Litoral,312,2025-03-08T22:10:00Z,25059714,Em curso,1101,Cheia,0,2,0,3,2025-03-08T22:10:00Z,Alcácer Do Sal,Setúbal,Alentejo,-8.359133,38.252053
25070044,Praia do Ribatejo,Médio Tejo,311,2025-03-10T19:30:00Z,25070044,Em curso,1101,Cheia,0,0,0,0,2025-03-10T19:30:00Z,Vila Nova Da Barquinha,Santarém,Centro,-8.357309,39.485638
25071496,São Manços e São Vicente do Pigeiro,Alentejo Central,312,2025-03-11T13:18:00Z,25071496,Em curso,1101,Cheia,0,2,0,4,2025-03-11T13:18:00Z,Évora,Évora,Alentejo,-7.713313,38.513673
25111474,Bombarral e Vale Covo,Oeste,311,2025-03-19T21:07:00Z,25111474,Em resolução,3301,Queda de árvore,0,2,0,3,2025-03-19T21:07:00Z,Bombarral,Leiria,Centro,-9.16726,39.2754
25111623,Alqueidão,Região de Coimbra,310,2025-03-19T21:36:00Z,25111623,Em despacho,3301,Queda de árvore,0,0,0,0,2025-03-19T21:36:00Z,Figueira Da Foz,Coimbra,Centro,-8.76809,40.07898
25111658,Alvorninha,Oeste,311,2025-03-19T21:41:00Z,25111658,Em despacho,3311,Queda de elementos de estruturas edificados,0,2,0,10,2025-03-19T21:41:00Z,Caldas Da Rainha,Leiria,Centro,-9.047004,39.419673
25111662,Juncal,Região de Leiria,310,2025-03-19T21:38:00Z,25111662,Em despacho,3301,Queda de árvore,0,1,0,2,2025-03-19T21:38:00Z,Porto De Mós,Leiria,Centro,-8.908329,39.584603
25111669,Marinha Grande,Região de Leiria,310,2025-03-19T21:26:00Z,25111669,Em despacho,3311,Queda de elementos de estruturas edificados,0,1,0,2,2025-03-19T21:26:00Z,Marinha Grande,Leiria,Centro,-8.937219,39.767238
25111687,Povolide,Viseu Dão Lafões,310,2025-03-19T21:48:00Z,25111687,Em resolução,3301,Queda de árvore,0,2,0,4,2025-03-19T21:48:00Z,Viseu,Viseu,Centro,-7.79787,40.64324
25111714,Verdelhos,Beiras e Serra da Estrela,310,2025-03-19T21:45:00Z,25111714,Em despacho,3301,Queda de árvore,0,1,0,2,2025-03-19T21:45:00Z,Covilhã,Castelo Branco,Centro,-7.45837,40.379578
25111753,Vidais,Oeste,311,2025-03-19T21:58:00Z,25111753,Em despacho,3301,Queda de árvore,0,0,0,0,2025-03-19T21:58:00Z,Caldas Da Rainha,Leiria,Centro,-9.048666,39.369221
25111778,São Pedro da Cadeira,Oeste,311,2025-03-19T22:02:00Z,25111778,Em despacho,3321,Dano na rede de fornecimento de eletricidade ,0,2,0,5,2025-03-19T22:02:00Z,Torres Vedras,Lisboa,Centro,-9.385521,39.063448
25111780,Carriço,Região de Leiria,310,2025-03-19T21:55:00Z,25111780,Em despacho,3301,Queda de árvore,0,1,0,3,2025-03-19T21:55:00Z,Pombal,Leiria,Centro,-8.8051,39.981527
25111794,Santiago e S. Simão de Litém e Albergaria Dos Doze,Região de Leiria,310,2025-03-19T22:00:00Z,25111794,Em despacho,3311,Queda de elementos de estruturas edificados,0,1,0,2,2025-03-19T22:00:00Z,Pombal,Leiria,Centro,-8.58281,39.824995
25111821,Couto de Baixo e Couto de Cima,Viseu Dão Lafões,310,2025-03-19T22:03:00Z,25111821,Em despacho,3301,Queda de árvore,0,1,0,2,2025-03-19T22:03:00Z,Viseu,Viseu,Centro,-8.005421,40.656132
25111839,Alfeizerão,Oeste,311,2025-03-19T21:57:00Z,25111839,Em resolução,3311,Queda de elementos de estruturas edificados,0,1,0,3,2025-03-19T21:57:00Z,Alcobaça,Leiria,Centro,-9.110786,39.496611
25111829,"S.maria, S.miguel, S.martinho, S.pedro Penaferrim",Grande Lisboa,311,2025-03-19T22:02:00Z,25111829,Em despacho,3301,Queda de árvore,0,1,0,5,2025-03-19T22:02:00Z,Sintra,Lisboa,Área Metropolitana De Lisboa,-9.380105,38.790996
25111847,Monte Redondo e Carreira,Região de Leiria,310,2025-03-19T22:13:00Z,25111847,Em despacho,3301,Queda de árvore,0,1,0,2,2025-03-19T22:13:00Z,Leiria,Leiria,Centro,-8.847483,39.892112
25111854,Cascais e Estoril,Grande Lisboa,311,2025-03-19T22:07:00Z,25111854,Em curso,3301,Queda de árvore,0,1,0,3,2025-03-19T22:07:00Z,Cascais,Lisboa,Área Metropolitana De Lisboa,-9.419397,38.700982
25111863,Portimão,Algarve,313,2025-03-19T22:05:00Z,25111863,Em despacho,3311,Queda de elementos de estruturas edificados,0,2,0,4,2025-03-19T22:05:00Z,Portimão,Faro,Algarve,-8.532608,37.137966
25111870,Rossas,Area M. Porto,309,2025-03-19T22:10:00Z,25111870,Em despacho,3311,Queda de elementos de estruturas edificados,0,1,0,2,2025-03-19T22:10:00Z,Arouca,Aveiro,Norte,-8.31542,40.903464
25111872,Samora Correia,Lezíria do Tejo,311,2025-03-19T22:19:00Z,25111872,Em resolução,3301,Queda de árvore,0,2,0,5,2025-03-19T22:19:00Z,Benavente,Santarém,Alentejo,-8.881385,38.895035
25111877,Gondemaria e Olival,Médio Tejo,311,2025-03-19T22:12:00Z,25111877,Em conclusão,3301,Queda de árvore,0,0,0,0,2025-03-19T22:12:00Z,Ourém,Santarém,Centro,-8.603658,39.711097
25111879,Vau,Oeste,311,2025-03-19T22:12:00Z,25111879,Em despacho,3301,Queda de árvore,0,1,0,2,2025-03-19T22:12:00Z,Óbidos,Leiria,Centro,-9.254195,39.378229
25111888,Louriçal,Região de Leiria,310,2025-03-19T22:22:00Z,25111888,Em despacho,3321,Dano na rede de fornecimento de eletricidade ,0,1,0,1,2025-03-19T22:22:00Z,Pombal,Leiria,Centro,-8.773705,40.03828
25111913,Águas Santas,Area M. Porto,309,2025-03-19T22:26:00Z,25111913,Em curso,3329,Queda de estruturas temporárias ou móveis,0,1,0,4,2025-03-19T22:26:00Z,Maia,Porto,Norte,-8.561395,41.20415
25111673,Bajouca,Região de Leiria,310,2025-03-19T21:36:00Z,25111673,Em despacho,3301,Queda de árvore,0,1,0,2,2025-03-19T21:36:00Z,Leiria,Leiria,Centro,-8.793774,39.899636
25111689,Cadaval e Pêro Moniz,Oeste,311,2025-03-19T21:49:00Z,25111689,Em despacho,3301,Queda de árvore,0,0,0,0,2025-03-19T21:49:00Z,Cadaval,Lisboa,Centro,-9.101481,39.244497
25111708,Algueirão-Mem Martins,Grande Lisboa,311,2025-03-19T21:43:00Z,25111708,Em despacho,3301,Queda de árvore,0,1,0,3,2025-03-19T21:43:00Z,Sintra,Lisboa,Área Metropolitana De Lisboa,-9.345795,38.786998
25111824,Amoreira,Oeste,311,2025-03-19T21:58:00Z,25111824,Em despacho,3301,Queda de árvore,0,1,0,5,2025-03-19T21:58:00Z,Óbidos,Leiria,Centro,-9.213027,39.342591
25111826,Alfeizerão,Oeste,311,2025-03-19T21:55:00Z,25111826,Em despacho,3301,Queda de árvore,0,1,0,3,2025-03-19T21:55:00Z,Alcobaça,Leiria,Centro,-9.110786,39.496611
25111842,Marinha Grande,Região de Leiria,310,2025-03-19T22:07:00Z,25111842,Em despacho,3301,Queda de árvore,0,1,0,3,2025-03-19T22:07:00Z,Marinha Grande,Leiria,Centro,-8.945197,39.750971
25111859,Cadaval e Pêro Moniz,Oeste,311,2025-03-19T22:07:00Z,25111859,Em curso,3301,Queda de árvore,0,1,0,3,2025-03-19T22:07:00Z,Cadaval,Lisboa,Centro,-9.101481,39.244497
25111922,Ossela,Area M. Porto,309,2025-03-19T22:11:00Z,25111922,Em curso,3321,Dano na rede de fornecimento de eletricidade ,0,2,0,4,2025-03-19T22:11:00Z,Oliveira De Azeméis,Aveiro,Norte,-8.428963,40.827387
25111936,Alfeizerão,Oeste,311,2025-03-19T22:29:00Z,25111936,Em despacho,3301,Queda de árvore,0,1,0,1,2025-03-19T22:29:00Z,Alcobaça,Leiria,Centro,-9.10212,39.50255
25111938,Carregal do Sal,Viseu Dão Lafões,310,2025-03-19T22:27:00Z,25111938,Em despacho,3329,Queda de estruturas temporárias ou móveis,0,1,0,3,2025-03-19T22:27:00Z,Carregal Do Sal,Viseu,Centro,-7.999939,40.437298
25111972,Maçainhas,Beiras e Serra da Estrela,310,2025-03-19T22:34:00Z,25111972,Em despacho,3301,Queda de árvore,0,1,0,2,2025-03-19T22:34:00Z,Guarda,Guarda,Centro,-7.310414,40.538915
25111979,Soure,Região de Coimbra,310,2025-03-19T22:25:00Z,25111979,Em despacho,3309,Desabamento de estruturas edificadas,0,1,0,2,2025-03-19T22:25:00Z,Soure,Coimbra,Centro,-8.639406,40.055319
25111995,"Enxara do Bispo, Gradil e Vila Franca do Rosário",Grande Lisboa,311,2025-03-19T22:29:00Z,25111995,Em despacho,3301,Queda de árvore,0,1,0,5,2025-03-19T22:29:00Z,Mafra,Lisboa,Área Metropolitana De Lisboa,-9.267426,38.975485
25111997,"Oeiras e S. Julião da Barra, Paço de Arcos e Caxias",Grande Lisboa,311,2025-03-19T22:32:00Z,25111997,Em despacho,3329,Queda de estruturas temporárias ou móveis,0,1,0,5,2025-03-19T22:32:00Z,Oeiras,Lisboa,Área Metropolitana De Lisboa,-9.310159,38.698531
25112013,Torres do Mondego,Região de Coimbra,310,2025-03-19T22:40:00Z,25112013,Em despacho,3301,Queda de árvore,0,1,0,3,2025-03-19T22:40:00Z,Coimbra,Coimbra,Centro,-8.362162,40.207501
25112020,Ribamar,Oeste,311,2025-03-19T22:30:00Z,25112020,Em despacho,3321,Dano na rede de fornecimento de eletricidade ,0,1,0,5,2025-03-19T22:30:00Z,Lourinhã,Lisboa,Centro,-9.328497,39.202767
25111844,Cadafaz e Colmeal,Região de Coimbra,310,2025-03-19T22:11:00Z,25111844,Em despacho,3309,Desabamento de estruturas edificadas,0,2,0,3,2025-03-19T22:11:00Z,Góis,Coimbra,Centro,-8.013447,40.126617
25111855,Cacém e São Marcos,Grande Lisboa,311,2025-03-19T21:54:00Z,25111855,Em conclusão,3301,Queda de árvore,0,1,0,3,2025-03-19T21:54:00Z,Sintra,Lisboa,Área Metropolitana De Lisboa,-9.296125,38.754519
25111862,Buarcos,Região de Coimbra,310,2025-03-19T22:17:00Z,25111862,Em despacho,3309,Desabamento de estruturas edificadas,0,1,0,3,2025-03-19T22:17:00Z,Figueira Da Foz,Coimbra,Centro,-8.87546,40.16447
25111880,Caldas da Rainha - Santo Onofre e Serra do Bouro,Oeste,311,2025-03-19T22:21:00Z,25111880,Em despacho,3301,Queda de árvore,0,1,0,5,2025-03-19T22:21:00Z,Caldas Da Rainha,Leiria,Centro,-9.14999,39.4037
25111894,São Martinho,Alentejo Litoral,312,2025-03-19T22:23:00Z,25111894,Em despacho,3301,Queda de árvore,0,5,0,9,2025-03-19T22:23:00Z,Alcácer Do Sal,Setúbal,Alentejo,-8.5474,38.44614
25111896,Rio Tinto,Area M. Porto,309,2025-03-19T22:23:00Z,25111896,Em resolução,3301,Queda de árvore,0,3,0,8,2025-03-19T22:23:00Z,Gondomar,Porto,Norte,-8.56816,41.18064
25111905,Lorvão,Região de Coimbra,310,2025-03-19T22:22:00Z,25111905,Em despacho,3301,Queda de árvore,0,1,0,2,2025-03-19T22:22:00Z,Penacova,Coimbra,Centro,-8.316504,40.263418
25111912,Marinha Grande,Região de Leiria,310,2025-03-19T22:23:00Z,25111912,Em curso,3301,Queda de árvore,0,1,0,2,2025-03-19T22:23:00Z,Marinha Grande,Leiria,Centro,-8.937219,39.767238
25111930,Charneca de Caparica e Sobreda,Península de Setúbal,311,2025-03-19T22:21:00Z,25111930,Em despacho,3301,Queda de árvore,0,1,0,4,2025-03-19T22:21:00Z,Almada,Setúbal,Área Metropolitana De Lisboa,-9.190193,38.591584
25111939,Pombal,Região de Leiria,310,2025-03-19T22:30:00Z,25111939,Em despacho,3301,Queda de árvore,0,1,0,2,2025-03-19T22:30:00Z,Pombal,Leiria,Centro,-8.603159,39.896965
25111948,Santo António Dos Olivais,Região de Coimbra,310,2025-03-19T22:20:00Z,25111948,Em despacho,3301,Queda de árvore,0,1,0,3,2025-03-19T22:20:00Z,Coimbra,Coimbra,Centro,-8.426807,40.217261
25063232,Santa Maria do Castelo e Santiago e Santa Susana,Alentejo Litoral,312,2025-03-09T19:02:00Z,25063232,Em curso,1101,Cheia,0,0,0,0,2025-03-09T19:02:00Z,Alcácer Do Sal,Setúbal,Alentejo,-8.48167,38.29806
25111582,"Sé Nova, Santa Cruz, Almedina e São Bartolomeu",Região de Coimbra,310,2025-03-19T21:30:00Z,25111582,Em despacho,3301,Queda de árvore,0,0,0,0,2025-03-19T21:30:00Z,Coimbra,Coimbra,Centro,-8.425582,40.205556
25111584,Miranda do Corvo,Região de Coimbra,310,2025-03-19T21:25:00Z,25111584,Em despacho,3329,Queda de estruturas temporárias ou móveis,0,1,0,4,2025-03-19T21:25:00Z,Miranda Do Corvo,Coimbra,Centro,-8.339499,40.09407
25111633,"Guia, Ilha e Mata Mourisca",Região de Leiria,310,2025-03-19T21:30:00Z,25111633,Em despacho,3301,Queda de árvore,0,1,0,3,2025-03-19T21:30:00Z,Pombal,Leiria,Centro,-8.789424,39.933884
25111683,Beja (Santiago Maior e São João Baptista),Baixo Alentejo,312,2025-03-19T21:47:00Z,25111683,Em conclusão,3301,Queda de árvore,0,1,0,4,2025-03-19T21:47:00Z,Beja,Beja,Alentejo,-7.875623,38.024622
25111717,Praia de Mira,Região de Coimbra,310,2025-03-19T21:36:00Z,25111717,Em despacho,3301,Queda de árvore,0,2,0,4,2025-03-19T21:36:00Z,Mira,Coimbra,Centro,-8.788778,40.475131
25111860,Longueira/Almograve,Alentejo Litoral,312,2025-03-19T22:09:00Z,25111860,Em conclusão,3301,Queda de árvore,0,1,0,2,2025-03-19T22:09:00Z,Odemira,Beja,Alentejo,-8.71748,37.612027
25111876,Pataias e Martingança,Oeste,311,2025-03-19T21:56:00Z,25111876,Em curso,3301,Queda de árvore,0,1,0,5,2025-03-19T21:56:00Z,Alcobaça,Leiria,Centro,-8.948779,39.65908
25111891,"Seia, São Romão e Lapa Dos Dinheiros",Beiras e Serra da Estrela,310,2025-03-19T22:20:00Z,25111891,Em curso,3301,Queda de árvore,0,2,0,4,2025-03-19T22:20:00Z,Seia,Guarda,Centro,-7.74354,40.393485
25111892,Marinha Das Ondas,Região de Coimbra,310,2025-03-19T22:22:00Z,25111892,Em despacho,3309,Desabamento de estruturas edificadas,0,0,0,0,2025-03-19T22:22:00Z,Figueira Da Foz,Coimbra,Centro,-8.832842,40.02937
25111907,Alvorninha,Oeste,311,2025-03-19T22:10:00Z,25111907,Em despacho,3301,Queda de árvore,0,1,0,5,2025-03-19T22:10:00Z,Caldas Da Rainha,Leiria,Centro,-9.022426,39.404552
25111909,Reguengo do Fetal,Região de Leiria,310,2025-03-19T22:09:00Z,25111909,Em despacho,3301,Queda de árvore,0,1,0,3,2025-03-19T22:09:00Z,Batalha,Leiria,Centro,-8.789033,39.647485
25111923,Cascais e Estoril,Grande Lisboa,311,2025-03-19T22:27:00Z,25111923,Em despacho,3301,Queda de árvore,0,0,0,0,2025-03-19T22:27:00Z,Cascais,Lisboa,Área Metropolitana De Lisboa,-9.4403,38.70115
25111926,Foz do Arelho,Oeste,311,2025-03-19T22:00:00Z,25111926,Em despacho,3309,Desabamento de estruturas edificadas,0,1,0,5,2025-03-19T22:00:00Z,Caldas Da Rainha,Leiria,Centro,-9.207478,39.434512
25111974,Montijo e Afonsoeiro,Península de Setúbal,311,2025-03-19T22:35:00Z,25111974,Em despacho,3311,Queda de elementos de estruturas edificados,0,1,0,4,2025-03-19T22:35:00Z,Montijo,Setúbal,Área Metropolitana De Lisboa,-8.953643,38.70447
25111765,Fernão Ferro,Península de Setúbal,311,2025-03-19T21:50:00Z,25111765,Em despacho,3301,Queda de árvore,0,1,0,2,2025-03-19T21:50:00Z,Seixal,Setúbal,Área Metropolitana De Lisboa,-9.115329,38.572419
25111783,Marinha Grande,Região de Leiria,310,2025-03-19T22:05:00Z,25111783,Em despacho,3311,Queda de elementos de estruturas edificados,0,1,0,1,2025-03-19T22:05:00Z,Marinha Grande,Leiria,Centro,-8.924808,39.76481
25111816,Regueira de Pontes,Região de Leiria,310,2025-03-19T21:57:00Z,25111816,Em despacho,3301,Queda de árvore,0,1,0,3,2025-03-19T21:57:00Z,Leiria,Leiria,Centro,-8.830185,39.800354
25111848,Alenquer (Santo Estêvão e Triana),Oeste,311,2025-03-19T22:14:00Z,25111848,Em despacho,3301,Queda de árvore,0,1,0,2,2025-03-19T22:14:00Z,Alenquer,Lisboa,Centro,-9.02472,39.02977
25111850,Moita Dos Ferreiros,Oeste,311,2025-03-19T21:45:00Z,25111850,Em conclusão,3301,Queda de árvore,0,2,0,4,2025-03-19T21:45:00Z,Lourinhã,Lisboa,Centro,-9.227775,39.24698
25111851,Manteigas (Santa Maria),Beiras e Serra da Estrela,310,2025-03-19T22:06:00Z,25111851,Em despacho,3301,Queda de árvore,0,2,0,6,2025-03-19T22:06:00Z,Manteigas,Guarda,Centro,-7.537826,40.403513
25111884,Ventosa,Oeste,311,2025-03-19T22:21:00Z,25111884,Em despacho,3301,Queda de árvore,0,0,0,0,2025-03-19T22:21:00Z,Torres Vedras,Lisboa,Centro,-9.302352,39.064312
25111885,Vidais,Oeste,311,2025-03-19T22:17:00Z,25111885,Em curso,3301,Queda de árvore,0,1,0,1,2025-03-19T22:17:00Z,Caldas Da Rainha,Leiria,Centro,-9.048666,39.369221
25111898,Santo Isidoro,Grande Lisboa,311,2025-03-19T22:16:00Z,25111898,Em despacho,3301,Queda de árvore,0,1,0,5,2025-03-19T22:16:00Z,Mafra,Lisboa,Área Metropolitana De Lisboa,-9.368141,38.994278
25111915,Góis,Região de Coimbra,310,2025-03-19T22:23:00Z,25111915,Em despacho,3301,Queda de árvore,0,1,0,4,2025-03-19T22:23:00Z,Góis,Coimbra,Centro,-8.120659,40.134935
25111917,Sebal e Belide,Região de Coimbra,310,2025-03-19T22:26:00Z,25111917,Em despacho,3301,Queda de árvore,0,1,0,3,2025-03-19T22:26:00Z,Condeixa-a-Nova,Coimbra,Centro,-8.514017,40.12339
25112029,"Coz, Alpedriz e Montes",Oeste,311,2025-03-19T22:35:00Z,25112029,Em resolução,3301,Queda de árvore,0,1,0,3,2025-03-19T22:35:00Z,Alcobaça,Leiria,Centro,-8.984224,39.603886
25112036,"São Miguel, Santa Eufémia e Rabaçal",Região de Coimbra,310,2025-03-19T22:40:00Z,25112036,Em despacho,3301,Queda de árvore,0,2,0,5,2025-03-19T22:40:00Z,Penela,Coimbra,Centro,-8.397812,40.011996
25112038,Porto de Mós - São João Baptista e São Pedro,Região de Leiria,310,2025-03-19T22:49:00Z,25112038,Em despacho,3301,Queda de árvore,0,1,0,2,2025-03-19T22:49:00Z,Porto De Mós,Leiria,Centro,-8.833938,39.61876
25112045,Agualva e Mira-Sintra,Grande Lisboa,311,2025-03-19T22:44:00Z,25112045,Em curso,3311,Queda de elementos de estruturas edificados,0,1,0,4,2025-03-19T22:44:00Z,Sintra,Lisboa,Área Metropolitana De Lisboa,-9.297451,38.765315
25112061,"S.pedro e Santiago, S.maria e S.miguel e Matacães",Oeste,311,2025-03-19T22:53:00Z,25112061,Em despacho,3301,Queda de árvore,0,0,0,0,2025-03-19T22:53:00Z,Torres Vedras,Lisboa,Centro,-9.236424,39.059551
25112063,São Martinho do Porto,Oeste,311,2025-03-19T22:54:00Z,25112063,Em despacho,3301,Queda de árvore,0,0,0,0,2025-03-19T22:54:00Z,Alcobaça,Leiria,Centro,-9.13483,39.51152
25112070,Queluz e Belas,Grande Lisboa,311,2025-03-19T22:45:00Z,25112070,Em despacho,3301,Queda de árvore,0,1,0,4,2025-03-19T22:45:00Z,Sintra,Lisboa,Área Metropolitana De Lisboa,-9.277613,38.762621
25112072,São João do Campo,Região de Coimbra,310,2025-03-19T22:45:00Z,25112072,Em despacho,3311,Queda de elementos de estruturas edificados,0,1,0,3,2025-03-19T22:45:00Z,Coimbra,Coimbra,Centro,-8.517374,40.236807
25112088,Azeitão (São Lourenço e São Simão),Península de Setúbal,311,2025-03-19T22:51:00Z,25112088,Em despacho,3301,Queda de árvore,0,1,0,5,2025-03-19T22:51:00Z,Setúbal,Setúbal,Área Metropolitana De Lisboa,-9.00001,38.524687
25112095,Urqueira,Médio Tejo,311,2025-03-19T22:58:00Z,25112095,Em despacho,3301,Queda de árvore,0,1,0,5,2025-03-19T22:58:00Z,Ourém,Santarém,Centro,-8.603397,39.760968
25112097,Cidade da Maia,Area M. Porto,309,2025-03-19T22:59:00Z,25112097,Em despacho,3301,Queda de árvore,0,0,0,0,2025-03-19T22:59:00Z,Maia,Porto,Norte,-8.601682,41.23353
25112111,Lourinhã e Atalaia,Oeste,311,2025-03-19T22:43:00Z,25112111,Em despacho,3301,Queda de árvore,0,1,0,1,2025-03-19T22:43:00Z,Lourinhã,Lisboa,Centro,-9.314052,39.280363
25112115,Oliveira do Bairro,Região de Aveiro,310,2025-03-19T22:59:00Z,25112115,Em despacho,3311,Queda de elementos de estruturas edificados,0,1,0,3,2025-03-19T22:59:00Z,Oliveira Do Bairro,Aveiro,Centro,-8.49301,40.516056
25111934,Monchique,Algarve,313,2025-03-19T22:18:00Z,25111934,Em despacho,3301,Queda de árvore,0,1,0,3,2025-03-19T22:18:00Z,Monchique,Faro,Algarve,-8.614574,37.284529
25111951,São Domingos de Rana,Grande Lisboa,311,2025-03-19T22:21:00Z,25111951,Em despacho,3329,Queda de estruturas temporárias ou móveis,0,1,0,4,2025-03-19T22:21:00Z,Cascais,Lisboa,Área Metropolitana De Lisboa,-9.340115,38.702729
25111952,Beijós,Viseu Dão Lafões,310,2025-03-19T22:31:00Z,25111952,Em despacho,3301,Queda de árvore,0,1,0,3,2025-03-19T22:31:00Z,Carregal Do Sal,Viseu,Centro,-7.963221,40.510194
25111965,Quarteira,Algarve,313,2025-03-19T22:34:00Z,25111965,Em conclusão,3301,Queda de árvore,0,1,0,5,2025-03-19T22:34:00Z,Loulé,Faro,Algarve,-8.120364,37.10959
25111968,Lousã e Vilarinho,Região de Coimbra,310,2025-03-19T22:34:00Z,25111968,Em despacho,3311,Queda de elementos de estruturas edificados,0,1,0,2,2025-03-19T22:34:00Z,Lousã,Coimbra,Centro,-8.243385,40.12032
25111984,"S.pedro e Santiago, S.maria e S.miguel e Matacães",Oeste,311,2025-03-19T22:26:00Z,25111984,Em despacho,3311,Queda de elementos de estruturas edificados,0,1,0,2,2025-03-19T22:26:00Z,Torres Vedras,Lisboa,Centro,-9.251952,39.091829
25111999,"Seixal, Arrentela e Aldeia de Paio Pires",Península de Setúbal,311,2025-03-19T22:42:00Z,25111999,Em despacho,3301,Queda de árvore,0,1,0,4,2025-03-19T22:42:00Z,Seixal,Setúbal,Área Metropolitana De Lisboa,-9.10403,38.61725
25112001,Nadadouro,Oeste,311,2025-03-19T22:37:00Z,25112001,Em despacho,3321,Dano na rede de fornecimento de eletricidade ,0,1,0,5,2025-03-19T22:37:00Z,Caldas Da Rainha,Leiria,Centro,-9.199088,39.417476
25112015,Carapinheira,Região de Coimbra,310,2025-03-19T22:40:00Z,25112015,Em despacho,3301,Queda de árvore,0,1,0,3,2025-03-19T22:40:00Z,Montemor-o-Velho,Coimbra,Centro,-8.65348,40.210157
25112019,Sesimbra (Castelo),Península de Setúbal,311,2025-03-19T22:39:00Z,25112019,Em despacho,3301,Queda de árvore,0,1,0,3,2025-03-19T22:39:00Z,Sesimbra,Setúbal,Área Metropolitana De Lisboa,-9.106828,38.452682
25111955,"Gondomar (São Cosme), Valbom e Jovim",Area M. Porto,309,2025-03-19T22:30:00Z,25111955,Em curso,3301,Queda de árvore,0,1,0,4,2025-03-19T22:30:00Z,Gondomar,Porto,Norte,-8.550895,41.124963
25111987,Paião,Região de Coimbra,310,2025-03-19T22:38:00Z,25111987,Em despacho,3301,Queda de árvore,0,0,0,0,2025-03-19T22:38:00Z,Figueira Da Foz,Coimbra,Centro,-8.81391,40.06369
25111998,Maceira,Região de Leiria,310,2025-03-19T22:18:00Z,25111998,Em despacho,3309,Desabamento de estruturas edificadas,0,2,0,4,2025-03-19T22:18:00Z,Leiria,Leiria,Centro,-8.877948,39.682073
25112005,Martinchel,Médio Tejo,311,2025-03-19T22:34:00Z,25112005,Em conclusão,3301,Queda de árvore,0,1,0,5,2025-03-19T22:34:00Z,Abrantes,Santarém,Centro,-8.326087,39.5079
25112012,Benedita,Oeste,311,2025-03-19T22:33:00Z,25112012,Em despacho,3301,Queda de árvore,0,1,0,3,2025-03-19T22:33:00Z,Alcobaça,Leiria,Centro,-8.973006,39.446351
25112028,Santiago da Guarda,Região de Leiria,310,2025-03-19T22:35:00Z,25112028,Em despacho,3301,Queda de árvore,0,1,0,4,2025-03-19T22:35:00Z,Ansião,Leiria,Centro,-8.482758,39.903696
25112030,Santa Bárbara de Nexe,Algarve,313,2025-03-19T22:47:00Z,25112030,Em despacho,3321,Dano na rede de fornecimento de eletricidade ,0,1,0,3,2025-03-19T22:47:00Z,Faro,Faro,Algarve,-7.93309,37.12767
25112055,Cascais e Estoril,Grande Lisboa,311,2025-03-19T22:49:00Z,25112055,Em despacho,3301,Queda de árvore,0,1,0,5,2025-03-19T22:49:00Z,Cascais,Lisboa,Área Metropolitana De Lisboa,-9.419397,38.700982
25112062,Figueiró Dos Vinhos e Bairradas,Região de Leiria,310,2025-03-19T22:47:00Z,25112062,Em despacho,3301,Queda de árvore,0,1,0,2,2025-03-19T22:47:00Z,Figueiró Dos Vinhos,Leiria,Centro,-8.273435,39.902339
25112078,Costa da Caparica,Península de Setúbal,311,2025-03-19T22:57:00Z,25112078,Em despacho,3301,Queda de árvore,0,1,0,3,2025-03-19T22:57:00Z,Almada,Setúbal,Área Metropolitana De Lisboa,-9.23314,38.65319
25111976,Cascais e Estoril,Grande Lisboa,311,2025-03-19T22:25:00Z,25111976,Em conclusão,3301,Queda de árvore,0,2,0,7,2025-03-19T22:25:00Z,Cascais,Lisboa,Área Metropolitana De Lisboa,-9.419397,38.700982
25111977,Ventosa,Oeste,311,2025-03-19T22:26:00Z,25111977,Em despacho,3301,Queda de árvore,0,1,0,4,2025-03-19T22:26:00Z,Torres Vedras,Lisboa,Centro,-9.302352,39.064312
25111991,"Enxara do Bispo, Gradil e Vila Franca do Rosário",Grande Lisboa,311,2025-03-19T22:15:00Z,25111991,Em despacho,3301,Queda de árvore,0,1,0,5,2025-03-19T22:15:00Z,Mafra,Lisboa,Área Metropolitana De Lisboa,-9.256159,38.992708
25111992,Souto da Carpalhosa e Ortigosa,Região de Leiria,310,2025-03-19T22:26:00Z,25111992,Em despacho,3301,Queda de árvore,0,1,0,3,2025-03-19T22:26:00Z,Leiria,Leiria,Centro,-8.823387,39.821109
25112007,Ovoa e Vimieiro,Viseu Dão Lafões,310,2025-03-19T22:36:00Z,25112007,Em despacho,3301,Queda de árvore,0,1,0,3,2025-03-19T22:36:00Z,Santa Comba Dão,Viseu,Centro,-8.164901,40.354518
25112008,Manteigas (Santa Maria),Beiras e Serra da Estrela,310,2025-03-19T22:44:00Z,25112008,Em despacho,3301,Queda de árvore,0,0,0,0,2025-03-19T22:44:00Z,Manteigas,Guarda,Centro,-7.534834,40.40585
25112009,Arouca e Burgo,Area M. Porto,309,2025-03-19T22:40:00Z,25112009,Em despacho,3301,Queda de árvore,0,1,0,2,2025-03-19T22:40:00Z,Arouca,Aveiro,Norte,-8.248978,40.925751
25112025,Nazaré,Oeste,311,2025-03-19T22:38:00Z,25112025,Em despacho,3329,Queda de estruturas temporárias ou móveis,0,2,0,4,2025-03-19T22:38:00Z,Nazaré,Leiria,Centro,-9.062127,39.596083
25112027,"São Miguel, Santa Eufémia e Rabaçal",Região de Coimbra,310,2025-03-19T22:40:00Z,25112027,Em despacho,3301,Queda de árvore,0,1,0,2,2025-03-19T22:40:00Z,Penela,Coimbra,Centro,-8.375645,40.036361
25112040,"Oeiras e S. Julião da Barra, Paço de Arcos e Caxias",Grande Lisboa,311,2025-03-19T22:44:00Z,25112040,Em despacho,3311,Queda de elementos de estruturas edificados,0,1,0,3,2025-03-19T22:44:00Z,Oeiras,Lisboa,Área Metropolitana De Lisboa,-9.290593,38.696925
25112033,São Bartolomeu de Messines,Algarve,313,2025-03-19T22:40:00Z,25112033,Em curso,3301,Queda de árvore,0,1,0,5,2025-03-19T22:40:00Z,Silves,Faro,Algarve,-8.283554,37.282885
25112049,Juncal,Região de Leiria,310,2025-03-19T22:40:00Z,25112049,Em despacho,3301,Queda de árvore,0,1,0,3,2025-03-19T22:40:00Z,Porto De Mós,Leiria,Centro,-8.891382,39.63155
25112051,"Seixal, Arrentela e Aldeia de Paio Pires",Península de Setúbal,311,2025-03-19T22:41:00Z,25112051,Em despacho,3321,Dano na rede de fornecimento de eletricidade ,0,1,0,4,2025-03-19T22:41:00Z,Seixal,Setúbal,Área Metropolitana De Lisboa,-9.087279,38.620394
25112066,Gafanha da Nazaré,Região de Aveiro,310,2025-03-19T22:51:00Z,25112066,Em despacho,3311,Queda de elementos de estruturas edificados,0,0,0,1,2025-03-19T22:51:00Z,Ílhavo,Aveiro,Centro,-8.714699,40.63582
25112067,"Seixal, Arrentela e Aldeia de Paio Pires",Península de Setúbal,311,2025-03-19T22:41:00Z,25112067,Em despacho,3329,Queda de estruturas temporárias ou móveis,0,0,0,0,2025-03-19T22:41:00Z,Seixal,Setúbal,Área Metropolitana De Lisboa,-9.101286,38.637394
25112068,Lagoa e Carvoeiro,Algarve,313,2025-03-19T22:54:00Z,25112068,Em despacho,3301,Queda de árvore,0,1,0,3,2025-03-19T22:54:00Z,Lagoa,Faro,Algarve,-8.45971,37.09728
25112083,Bordeira,Algarve,313,2025-03-19T22:57:00Z,25112083,Em despacho,3301,Queda de árvore,0,0,0,0,2025-03-19T22:57:00Z,Aljezur,Faro,Algarve,-8.795544,37.21969
25112099,"Oeiras e S. Julião da Barra, Paço de Arcos e Caxias",Grande Lisboa,311,2025-03-19T22:54:00Z,25112099,Em despacho,3301,Queda de árvore,0,1,0,3,2025-03-19T22:54:00Z,Oeiras,Lisboa,Área Metropolitana De Lisboa,-9.275682,38.698873
25112087,"S.pedro e Santiago, S.maria e S.miguel e Matacães",Oeste,311,2025-03-19T22:55:00Z,25112087,Em despacho,3301,Queda de árvore,0,3,0,9,2025-03-19T22:55:00Z,Torres Vedras,Lisboa,Centro,-9.251952,39.091829
25112089,Cerdeira e Moura da Serra,Região de Coimbra,310,2025-03-19T22:55:00Z,25112089,Em despacho,3301,Queda de árvore,0,1,0,2,2025-03-19T22:55:00Z,Arganil,Coimbra,Centro,-7.902901,40.205702
25112098,Oliveira do Hospital e São Paio de Gramaços,Região de Coimbra,310,2025-03-19T22:45:00Z,25112098,Em despacho,3301,Queda de árvore,0,1,0,2,2025-03-19T22:45:00Z,Oliveira Do Hospital,Coimbra,Centro,-7.869418,40.359628
25112114,Quinta do Conde,Península de Setúbal,311,2025-03-19T22:54:00Z,25112114,Em despacho,3329,Queda de estruturas temporárias ou móveis,0,1,0,5,2025-03-19T22:54:00Z,Sesimbra,Setúbal,Área Metropolitana De Lisboa,-9.03613,38.570355
25112042,Marinha Grande,Região de Leiria,310,2025-03-19T22:46:00Z,25112042,Em despacho,3301,Queda de árvore,0,1,0,2,2025-03-19T22:46:00Z,Marinha Grande,Leiria,Centro,-8.9339479999999991,39.787074
25112058,Cidade da Maia,Area M. Porto,309,2025-03-19T22:47:00Z,25112058,Em despacho,3329,Queda de estruturas temporárias ou móveis,0,1,0,3,2025-03-19T22:47:00Z,Maia,Porto,Norte,-8.614095,41.229822
25112076,"Coruche, Fajarda e Erra",Lezíria do Tejo,311,2025-03-19T22:54:00Z,25112076,Em curso,3301,Queda de árvore,0,3,0,8,2025-03-19T22:54:00Z,Coruche,Santarém,Alentejo,-8.531156,38.965014
25112092,Roliça,Oeste,311,2025-03-19T22:49:00Z,25112092,Em despacho,3301,Queda de árvore,0,2,0,6,2025-03-19T22:49:00Z,Bombarral,Leiria,Centro,-9.176338,39.293388
25112107,Nossa Senhora da Piedade,Médio Tejo,311,2025-03-19T22:59:00Z,25112107,Em curso,3301,Queda de árvore,0,1,0,5,2025-03-19T22:59:00Z,Ourém,Santarém,Centro,-8.579381,39.672187
25112109,Macieira de Cambra,Area M. Porto,309,2025-03-19T22:55:00Z,25112109,Em despacho,3329,Queda de estruturas temporárias ou móveis,0,1,0,3,2025-03-19T22:55:00Z,Vale De Cambra,Aveiro,Norte,-8.367205,40.870286
25112100,Sines,Alentejo Litoral,312,2025-03-19T22:56:00Z,25112100,Em despacho,3301,Queda de árvore,0,0,0,0,2025-03-19T22:56:00Z,Sines,Setúbal,Alentejo,-8.817062,37.971866
25112118,Cascais e Estoril,Grande Lisboa,311,2025-03-19T22:52:00Z,25112118,Em despacho,3301,Queda de árvore,0,1,0,5,2025-03-19T22:52:00Z,Cascais,Lisboa,Área Metropolitana De Lisboa,-9.398759,38.70391
25112119,Góis,Região de Coimbra,310,2025-03-19T23:00:00Z,25112119,Em despacho,3301,Queda de árvore,0,1,0,3,2025-03-19T23:00:00Z,Góis,Coimbra,Centro,-8.101407,40.194217
