id,address,subregion,neighborhood,date,id.1,state,nature,nature_description,aerial_means,terrestrial_means,aquatic_means,operational,date.1,Concelho,Distrito,NUTII_DSG,longitude,latitude,state_2
26321507,Serpa (Salvador e Santa Maria),Baixo Alentejo,312,2025-11-21T16:34:00Z,26321507,Em Resolução/Conclusão,3105,Incêndio rural,0,3,0,6,2025-11-21T16:34:00Z,Serpa,Beja,Alentejo,-7.495407,37.832828,Resolução/Conclusão
26321754,Quinta do Anjo,Península de Setúbal,311,2025-11-21T17:30:00Z,26321754,Em Despacho,3101,Incêndio rural,0,1,0,4,2025-11-21T17:30:00Z,Palmela,Setúbal,Área Metropolitana De Lisboa,-8.936669,38.58452,Despacho
26321662,Gesteira e Brunhós,Região de Coimbra,310,2025-11-21T17:12:00Z,26321662,Em Resolução/Conclusão,3111,Queima,0,2,0,5,2025-11-21T17:12:00Z,Soure,Coimbra,Centro,-8.6675,40.08194,Resolução/Conclusão
26320329,Santa Clara de Louredo,Baixo Alentejo,312,2025-11-21T13:02:00Z,26320329,Em Resolução/Conclusão,3105,Incêndio rural,0,0,0,0,2025-11-21T13:02:00Z,Beja,Beja,Alentejo,-7.882298,37.958553,Resolução/Conclusão
26321855,Outeiro,Alto Minho,309,2025-11-21T17:48:00Z,26321855,Em Despacho,3103,Incêndio rural,0,1,0,3,2025-11-21T17:48:00Z,Viana Do Castelo,Viana Do Castelo,Norte,-8.788156,41.761011,Despacho
