id,address,subregion,neighborhood,date,id.1,state,nature,nature_description,aerial_means,terrestrial_means,aquatic_means,operational,date.1,Concelho,Distrito,NUTII_DSG,longitude,latitude,state_2
26022995,Bordeira,Algarve,313,2025-09-21T12:21:00Z,26022995,Em Resolução/Conclusão,3103,Incêndio rural,0,10,0,29,2025-09-21T12:21:00Z,Aljezur,Faro,Algarve,-8.825374,37.23495,Resolução/Conclusão
26053948,Arganil,Região de Coimbra,310,2025-09-27T16:47:00Z,26053948,Em Resolução/Conclusão,3103,Incêndio rural,0,46,0,171,2025-09-27T16:47:00Z,Arganil,Coimbra,Centro,-8.08478,40.204972,Resolução/Conclusão
26054349,"Alpendorada, Várzea e Torrão",Tâmega e Sousa,309,2025-09-27T18:15:00Z,26054349,Em Resolução/Conclusão,3103,Incêndio rural,0,1,0,5,2025-09-27T18:15:00Z,Marco De Canaveses,Porto,Norte,-8.280438,41.078753,Resolução/Conclusão
26054584,Sobrosa,Area M. Porto,309,2025-09-27T19:20:00Z,26054584,Em Resolução/Conclusão,3103,Incêndio rural,0,1,0,5,2025-09-27T19:20:00Z,Paredes,Porto,Norte,-8.346085,41.253738,Resolução/Conclusão
26054651,Chancelaria,Médio Tejo,311,2025-09-27T19:34:00Z,26054651,Em Despacho,3111,Queima,0,1,0,5,2025-09-27T19:34:00Z,Torres Novas,Santarém,Centro,-8.5566,39.55534,Despacho
25951176,Sandomil,Beiras e Serra da Estrela,310,2025-09-06T10:29:00Z,25951176,Em Resolução/Conclusão,3103,Incêndio rural,0,2,0,10,2025-09-06T10:29:00Z,Seia,Guarda,Centro,-7.76001,40.351547,Resolução/Conclusão
26052652,Mosteiro,Beira Baixa,310,2025-09-27T11:49:00Z,26052652,Em Resolução/Conclusão,3103,Incêndio rural,0,15,0,52,2025-09-27T11:49:00Z,Oleiros,Castelo Branco,Centro,-7.974832,39.883347,Resolução/Conclusão
26054259,Argoncilhe,Area M. Porto,309,2025-09-27T17:53:00Z,26054259,Em Resolução/Conclusão,3103,Incêndio rural,0,4,0,16,2025-09-27T17:53:00Z,Santa Maria Da Feira,Aveiro,Norte,-8.543464,41.03218,Resolução/Conclusão
26054526,Sonim e Barreiros,Alto Tâmega e Barroso,309,2025-09-27T18:57:00Z,26054526,Em Resolução/Conclusão,3105,Incêndio rural,0,1,0,5,2025-09-27T18:57:00Z,Valpaços,Vila Real,Norte,-7.233167,41.687277,Resolução/Conclusão
26013065,Mezio e Moura Morta,Viseu Dão Lafões,310,2025-09-19T11:05:00Z,26013065,Em Resolução/Conclusão,3103,Incêndio rural,0,0,0,0,2025-09-19T11:05:00Z,Castro Daire,Viseu,Centro,-7.878187,40.98632,Resolução/Conclusão
26031908,Arcozelo Das Maias,Viseu Dão Lafões,310,2025-09-23T10:21:00Z,26031908,Em Resolução/Conclusão,3103,Incêndio rural,0,0,0,0,2025-09-23T10:21:00Z,Oliveira De Frades,Viseu,Centro,-8.27871,40.723646,Resolução/Conclusão
26052925,Maceira,Região de Leiria,310,2025-09-27T12:54:00Z,26052925,Em Resolução/Conclusão,3105,Incêndio rural,0,1,0,2,2025-09-27T12:54:00Z,Leiria,Leiria,Centro,-8.89598,39.651515,Resolução/Conclusão
26047987,"Cambeses do Rio, Donões e Mourilhe",Alto Tâmega e Barroso,309,2025-09-26T13:14:00Z,26047987,Em Resolução/Conclusão,3103,Incêndio rural,0,9,0,20,2025-09-26T13:14:00Z,Montalegre,Vila Real,Norte,-7.849698,41.843018,Resolução/Conclusão
26050704,Tortosendo,Beiras e Serra da Estrela,310,2025-09-26T23:04:00Z,26050704,Em Resolução/Conclusão,3103,Incêndio rural,0,4,0,15,2025-09-26T23:04:00Z,Covilhã,Castelo Branco,Centro,-7.521592,40.251592,Resolução/Conclusão
26053608,Covões e Camarneira,Região de Coimbra,310,2025-09-27T15:25:00Z,26053608,Em Resolução/Conclusão,3103,Incêndio rural,0,17,0,61,2025-09-27T15:25:00Z,Cantanhede,Coimbra,Centro,-8.581894,40.468871,Resolução/Conclusão
26054496,Tamel (São Veríssimo),Cávado,309,2025-09-27T18:58:00Z,26054496,Em Resolução/Conclusão,3111,Queima,0,2,0,7,2025-09-27T18:58:00Z,Barcelos,Braga,Norte,-8.587322,41.550963,Resolução/Conclusão
26054569,"Margaride (Santa Eulália), Várzea, Lagares, Varziela e Moure",Tâmega e Sousa,309,2025-09-27T19:10:00Z,26054569,Em Resolução/Conclusão,3103,Incêndio rural,0,2,0,7,2025-09-27T19:10:00Z,Felgueiras,Porto,Norte,-8.205253,41.354848,Resolução/Conclusão
26054557,Aveiras de Baixo,Lezíria do Tejo,311,2025-09-27T19:09:00Z,26054557,Em Resolução/Conclusão,3105,Incêndio rural,0,3,0,9,2025-09-27T19:09:00Z,Azambuja,Lisboa,Alentejo,-8.837685,39.113887,Resolução/Conclusão
26054559,"Oliveira de Frades, Souto de Lafões e Sejães",Viseu Dão Lafões,310,2025-09-27T19:12:00Z,26054559,Em Resolução/Conclusão,3103,Incêndio rural,0,7,0,29,2025-09-27T19:12:00Z,Oliveira De Frades,Viseu,Centro,-8.167883,40.735107,Resolução/Conclusão
