id,address,subregion,neighborhood,date,id.1,state,nature,nature_description,aerial_means,terrestrial_means,aquatic_means,operational,date.1,Concelho,Distrito,NUTII_DSG,longitude,latitude
25565486,"Ardegão, Arnozela e Seidões",Ave,309,2025-06-22T23:53:00Z,25565486,Em curso,3103,Incêndio rural,0,1,0,5,2025-06-22T23:53:00Z,Fafe,Braga,Norte,-8.136992,41.375438
25563320,Ermelo e Pardelhas,Ave,309,2025-06-22T13:41:00Z,25563320,Em conclusão,3107,Consolidação de rescaldo de incêndio rural,0,3,0,12,2025-06-22T13:41:00Z,Mondim De Basto,Vila Real,Norte,-7.835997,41.35894
25563767,Bemposta,Médio Tejo,311,2025-06-22T15:29:00Z,25563767,Em conclusão,3103,Incêndio rural,0,2,0,7,2025-06-22T15:29:00Z,Abrantes,Santarém,Centro,-8.173193,39.277957
25565239,Pedrógão,Baixo Alentejo,312,2025-06-22T22:04:00Z,25565239,Em conclusão,3107,Consolidação de rescaldo de incêndio rural,0,1,0,2,2025-06-22T22:04:00Z,Vidigueira,Beja,Alentejo,-7.549325,38.180705
25565532,Costa da Caparica,Península de Setúbal,311,2025-06-23T00:07:00Z,25565532,Em resolução,3105,Incêndio rural,0,1,0,5,2025-06-23T00:07:00Z,Almada,Setúbal,Área Metropolitana De Lisboa,-9.227696,38.642583
25553154,Pedrógão,Baixo Alentejo,312,2025-06-20T12:23:00Z,25553154,Em conclusão,3103,Incêndio rural,0,0,0,0,2025-06-20T12:23:00Z,Vidigueira,Beja,Alentejo,-7.549947,38.179912
25565279,"Ardegão, Arnozela e Seidões",Ave,309,2025-06-22T22:30:00Z,25565279,Em curso,3103,Incêndio rural,0,0,0,0,2025-06-22T22:30:00Z,Fafe,Braga,Norte,-8.11822,41.40925
25565356,Alte,Algarve,313,2025-06-22T23:02:00Z,25565356,Em conclusão,3107,Consolidação de rescaldo de incêndio rural,0,2,0,7,2025-06-22T23:02:00Z,Loulé,Faro,Algarve,-8.18085,37.23326
25565474,"São Salvador, Vila Fonche e Parada",Alto Minho,309,2025-06-22T23:41:00Z,25565474,Em conclusão,2101,Incêndio em edifícios habitacionais,0,2,0,10,2025-06-22T23:41:00Z,Arcos De Valdevez,Viana Do Castelo,Norte,-8.431452,41.854445
