id,address,subregion,neighborhood,date,id.1,state,nature,nature_description,aerial_means,terrestrial_means,aquatic_means,operational,date.1,Concelho,Distrito,NUTII_DSG,longitude,latitude,state_2
25744206,Paderne,Alto Minho,309,2025-07-28T02:18:00Z,25744206,Em Resolução/Conclusão,3101,Incêndio rural,0,6,0,18,2025-07-28T02:18:00Z,Melgaço,Viana Do Castelo,Norte,-8.280477,42.10041,Resolução/Conclusão
25744340,"Lebução, Fiães e Nozelos",Alto Tâmega e Barroso,309,2025-07-28T04:18:00Z,25744340,Em Resolução/Conclusão,3103,Incêndio rural,0,8,0,30,2025-07-28T04:18:00Z,Valpaços,Vila Real,Norte,-7.240383,41.755678,Resolução/Conclusão
25744408,Moimenta e Montouto,Terras de Trás-os-Montes,309,2025-07-28T05:18:00Z,25744408,Em Resolução/Conclusão,3103,Incêndio rural,0,3,0,12,2025-07-28T05:18:00Z,Vinhais,Bragança,Norte,-6.95667,41.96389,Resolução/Conclusão
25744627,Espadanedo,Tâmega e Sousa,309,2025-07-28T07:42:00Z,25744627,Em Resolução/Conclusão,3103,Incêndio rural,0,2,0,7,2025-07-28T07:42:00Z,Cinfães,Viseu,Norte,-8.185687,41.088733,Resolução/Conclusão
25744842,Monchique,Algarve,313,2025-07-28T08:27:00Z,25744842,Em Resolução/Conclusão,3103,Incêndio rural,0,0,0,0,2025-07-28T08:27:00Z,Monchique,Faro,Algarve,-8.616939,37.301639,Resolução/Conclusão
25744927,Nogueira da Regedoura,Area M. Porto,309,2025-07-28T08:42:00Z,25744927,Em Resolução/Conclusão,3103,Incêndio rural,0,1,0,5,2025-07-28T08:42:00Z,Santa Maria Da Feira,Aveiro,Norte,-8.583055,41.01083,Resolução/Conclusão
25741525,Vela,Beiras e Serra da Estrela,310,2025-07-27T13:16:00Z,25741525,Em Resolução/Conclusão,3103,Incêndio rural,0,3,0,11,2025-07-27T13:16:00Z,Guarda,Guarda,Centro,-7.287277,40.438025,Resolução/Conclusão
25737642,Aboim da Nóbrega e Gondomar,Cávado,309,2025-07-26T17:54:00Z,25737642,Em Resolução/Conclusão,3103,Incêndio rural,0,4,0,15,2025-07-26T17:54:00Z,Vila Verde,Braga,Norte,-8.38607,41.734402,Resolução/Conclusão
25741940,"Aldeia do Bispo, Águas e Aldeia de João Pires",Beira Baixa,310,2025-07-27T14:45:00Z,25741940,Em Resolução/Conclusão,3105,Incêndio rural,0,3,0,10,2025-07-27T14:45:00Z,Penamacor,Castelo Branco,Centro,-7.213632,40.123598,Resolução/Conclusão
25742517,Anhões e Luzio,Alto Minho,309,2025-07-27T17:08:00Z,25742517,Em Resolução/Conclusão,3103,Incêndio rural,0,20,0,61,2025-07-27T17:08:00Z,Monção,Viana Do Castelo,Norte,-8.452967,41.97745,Resolução/Conclusão
25744321,Gestaçô,Tâmega e Sousa,309,2025-07-28T03:55:00Z,25744321,Em Resolução/Conclusão,3103,Incêndio rural,0,5,0,21,2025-07-28T03:55:00Z,Baião,Porto,Norte,-7.951497,41.164208,Resolução/Conclusão
25744328,Vila Facaia,Região de Leiria,310,2025-07-28T04:00:00Z,25744328,Em Resolução/Conclusão,3101,Incêndio rural,0,1,0,2,2025-07-28T04:00:00Z,Pedrógão Grande,Leiria,Centro,-8.197592,39.93944,Resolução/Conclusão
25744346,Pedrógão Grande,Região de Leiria,310,2025-07-28T04:18:00Z,25744346,Em Resolução/Conclusão,3101,Incêndio rural,0,1,0,2,2025-07-28T04:18:00Z,Pedrógão Grande,Leiria,Centro,-8.18142,39.926725,Resolução/Conclusão
25738747,Lindoso,Alto Minho,309,2025-07-26T21:47:00Z,25738747,Em Curso,3103,Incêndio rural,7,77,0,235,2025-07-26T21:47:00Z,Ponte Da Barca,Viana Do Castelo,Norte,-8.220528,41.865272,Curso
25741880,Benavila e Valongo,Alto Alentejo,312,2025-07-27T14:31:00Z,25741880,Em Resolução/Conclusão,3101,Incêndio rural,0,17,0,55,2025-07-27T14:31:00Z,Avis,Portalegre,Alentejo,-7.866293,39.19533,Resolução/Conclusão
25743677,Portela,Alto Minho,309,2025-07-27T22:05:00Z,25743677,Em Resolução/Conclusão,3101,Incêndio rural,0,6,0,11,2025-07-27T22:05:00Z,Monção,Viana Do Castelo,Norte,-8.481475,41.977915,Resolução/Conclusão
25743786,Portela,Alto Minho,309,2025-07-28T00:13:00Z,25743786,Em Curso,3101,Incêndio rural,0,6,0,13,2025-07-28T00:13:00Z,Monção,Viana Do Castelo,Norte,-8.480967,41.97155,Curso
