id,address,subregion,neighborhood,date,id.1,state,nature,nature_description,aerial_means,terrestrial_means,aquatic_means,operational,date.1,Concelho,Distrito,NUTII_DSG,longitude,latitude
25550973,Odivelas,Grande Lisboa,311,2025-06-19T23:15:00Z,25550973,Em conclusão,2101,Incêndio em edifícios habitacionais,0,2,0,7,2025-06-19T23:15:00Z,Odivelas,Lisboa,Área Metropolitana De Lisboa,-9.194374,38.796924
25550982,Carapito,Viseu Dão Lafões,310,2025-06-19T23:28:00Z,25550982,Em despacho,2127,"Incêndio em edifícios e recintos industriais, oficinas e armazéns",0,2,0,7,2025-06-19T23:28:00Z,Aguiar Da Beira,Guarda,Centro,-7.46437,40.76336
25550911,"Silvares, Pias, Nogueira e Alvarenga",Tâmega e Sousa,309,2025-06-19T23:07:00Z,25550911,Em resolução,3103,Incêndio rural,0,3,0,12,2025-06-19T23:07:00Z,Lousada,Porto,Norte,-8.269768,41.276733
25550944,Vila do Conde,Area M. Porto,309,2025-06-19T23:10:00Z,25550944,Em conclusão,2129,Incêndio em edifícios degradados ou devolutos,0,1,0,5,2025-06-19T23:10:00Z,Vila Do Conde,Porto,Norte,-8.735384,41.352471
25549454,Cabeça Boa,Douro,309,2025-06-19T16:08:00Z,25549454,Em conclusão,3103,Incêndio rural,0,3,0,14,2025-06-19T16:08:00Z,Torre De Moncorvo,Bragança,Norte,-7.15936,41.196307
25550847,"Ardegão, Arnozela e Seidões",Ave,309,2025-06-19T22:40:00Z,25550847,Em conclusão,3103,Incêndio rural,0,3,0,16,2025-06-19T22:40:00Z,Fafe,Braga,Norte,-8.131885,41.3866
25544135,Toulões,Beira Baixa,310,2025-06-18T13:59:00Z,25544135,Em conclusão,3105,Incêndio rural,0,0,0,0,2025-06-18T13:59:00Z,Idanha-a-Nova,Castelo Branco,Centro,-7.056978,39.904387
25550386,Lomba,Area M. Porto,309,2025-06-19T20:17:00Z,25550386,Em conclusão,3101,Incêndio rural,0,2,0,8,2025-06-19T20:17:00Z,Gondomar,Porto,Norte,-8.404195,41.033718
25551005,Nossa Senhora da Expectação,Alto Alentejo,312,2025-06-19T23:35:00Z,25551005,Em resolução,3105,Incêndio rural,0,2,0,5,2025-06-19T23:35:00Z,Campo Maior,Portalegre,Alentejo,-7.063944,39.014855
