id,address,subregion,neighborhood,date,id.1,state,nature,nature_description,aerial_means,terrestrial_means,aquatic_means,operational,date.1,Concelho,Distrito,NUTII_DSG,longitude,latitude,state_2
25773830,Andrães,Douro,309,2025-08-02T14:23:00Z,25773830,Em Resolução/Conclusão,3103,Incêndio rural,0,18,0,70,2025-08-02T14:23:00Z,Vila Real,Vila Real,Norte,-7.671293,41.267593,Resolução/Conclusão
25774883,Arnóia,Tâmega e Sousa,309,2025-08-02T18:20:00Z,25774883,Em Resolução/Conclusão,3103,Incêndio rural,0,14,0,45,2025-08-02T18:20:00Z,Celorico De Basto,Braga,Norte,-7.998983,41.348727,Resolução/Conclusão
25775734,Sequeiros e Gradiz,Viseu Dão Lafões,310,2025-08-02T21:35:00Z,25775734,Em Resolução/Conclusão,3103,Incêndio rural,0,0,0,0,2025-08-02T21:35:00Z,Aguiar Da Beira,Guarda,Centro,-7.564515,40.858278,Resolução/Conclusão
25787199,Castro Daire,Viseu Dão Lafões,310,2025-08-04T22:56:00Z,25787199,Em Resolução/Conclusão,3103,Incêndio rural,0,2,0,7,2025-08-04T22:56:00Z,Castro Daire,Viseu,Centro,-7.943425,40.911315,Resolução/Conclusão
25793436,Vila Velha de Ródão,Beira Baixa,310,2025-08-06T02:41:00Z,25793436,Em Resolução/Conclusão,3103,Incêndio rural,0,2,0,7,2025-08-06T02:41:00Z,Vila Velha De Ródão,Castelo Branco,Centro,-7.683468,39.646462,Resolução/Conclusão
25794154,Rio Frio,Alto Minho,309,2025-08-06T08:52:00Z,25794154,Em Resolução/Conclusão,3103,Incêndio rural,0,0,0,0,2025-08-06T08:52:00Z,Arcos De Valdevez,Viana Do Castelo,Norte,-8.474502,41.87301,Resolução/Conclusão
25794472,Boelhe,Tâmega e Sousa,309,2025-08-06T09:45:00Z,25794472,Em Curso,3103,Incêndio rural,3,16,0,64,2025-08-06T09:45:00Z,Penafiel,Porto,Norte,-8.251117,41.129577,Curso
25794823,Alfândega da Fé,Terras de Trás-os-Montes,309,2025-08-06T10:29:00Z,25794823,Em Resolução/Conclusão,3105,Incêndio rural,0,2,0,7,2025-08-06T10:29:00Z,Alfândega Da Fé,Bragança,Norte,-6.957012,41.348902,Resolução/Conclusão
25795274,Louredo,Tâmega e Sousa,309,2025-08-06T11:39:00Z,25795274,Em Resolução/Conclusão,3101,Incêndio rural,0,2,0,10,2025-08-06T11:39:00Z,Amarante,Porto,Norte,-8.126272,41.26196,Resolução/Conclusão
25763650,Milagres,Região de Leiria,310,2025-07-31T15:58:00Z,25763650,Em Resolução/Conclusão,3101,Incêndio rural,0,1,0,2,2025-07-31T15:58:00Z,Leiria,Leiria,Centro,-8.792217,39.793427,Resolução/Conclusão
25785983,Caçarilhe e Infesta,Tâmega e Sousa,309,2025-08-04T18:22:00Z,25785983,Em Curso,3103,Incêndio rural,5,108,0,343,2025-08-04T18:22:00Z,Celorico De Basto,Braga,Norte,-8.04611,41.419858,Curso
25786312,Mões,Viseu Dão Lafões,310,2025-08-04T19:31:00Z,25786312,Em Resolução/Conclusão,3105,Incêndio rural,0,0,0,0,2025-08-04T19:31:00Z,Castro Daire,Viseu,Centro,-7.888317,40.866883,Resolução/Conclusão
25790229,Galegos,Tâmega e Sousa,309,2025-08-05T13:59:00Z,25790229,Em Resolução/Conclusão,3103,Incêndio rural,0,19,0,60,2025-08-05T13:59:00Z,Penafiel,Porto,Norte,-8.31029,41.153427,Resolução/Conclusão
25792058,Cibões e Brufe,Cávado,309,2025-08-05T19:10:00Z,25792058,Em Resolução/Conclusão,3103,Incêndio rural,0,4,0,16,2025-08-05T19:10:00Z,Terras De Bouro,Braga,Norte,-8.293932,41.764918,Resolução/Conclusão
25794457,"Provesende, Gouvães Douro, S.cristóvão Douro",Douro,309,2025-08-06T09:43:00Z,25794457,Em Resolução/Conclusão,3103,Incêndio rural,0,3,0,10,2025-08-06T09:43:00Z,Sabrosa,Vila Real,Norte,-7.569235,41.20573,Resolução/Conclusão
25795184,Recezinhos (São Martinho),Tâmega e Sousa,309,2025-08-06T11:24:00Z,25795184,Em Resolução/Conclusão,3103,Incêndio rural,0,1,0,5,2025-08-06T11:24:00Z,Penafiel,Porto,Norte,-8.218997,41.22076,Resolução/Conclusão
25795406,Tornada e Salir do Porto,Oeste,311,2025-08-06T11:59:00Z,25795406,Em Resolução/Conclusão,3105,Incêndio rural,0,1,0,5,2025-08-06T11:59:00Z,Caldas Da Rainha,Leiria,Centro,-9.128209,39.460105,Resolução/Conclusão
25796043,Paredes,Area M. Porto,309,2025-08-06T13:45:00Z,25796043,Em Despacho,3103,Incêndio rural,1,3,0,21,2025-08-06T13:45:00Z,Paredes,Porto,Norte,-8.32628,41.205322,Despacho
25796158,Vale de Anta,Alto Tâmega e Barroso,309,2025-08-06T14:08:00Z,25796158,Em Despacho,3103,Incêndio rural,1,1,0,11,2025-08-06T14:08:00Z,Chaves,Vila Real,Norte,-7.49782,41.74392,Despacho
25796159,Vale de Anta,Alto Tâmega e Barroso,309,2025-08-06T14:08:00Z,25796159,Em Despacho,3101,Incêndio rural,0,1,0,5,2025-08-06T14:08:00Z,Chaves,Vila Real,Norte,-7.5025,41.73971,Despacho
25795863,Beça,Alto Tâmega e Barroso,309,2025-08-06T13:21:00Z,25795863,Em Resolução/Conclusão,3103,Incêndio rural,0,1,0,2,2025-08-06T13:21:00Z,Boticas,Vila Real,Norte,-7.703103,41.693594,Resolução/Conclusão
25796063,Póvoa de Midões,Região de Coimbra,310,2025-08-06T13:53:00Z,25796063,Em Curso,3103,Incêndio rural,3,25,0,114,2025-08-06T13:53:00Z,Tábua,Coimbra,Centro,-7.987161,40.389788,Curso
25796156,Canelas e Fermelã,Região de Aveiro,310,2025-08-06T14:07:00Z,25796156,Em Despacho,3103,Incêndio rural,0,0,0,0,2025-08-06T14:07:00Z,Estarreja,Aveiro,Centro,-8.560585,40.70731,Despacho
25796179,"Ovar, São João, Arada e São Vicente de Pereira Jusã",Região de Aveiro,310,2025-08-06T14:10:00Z,25796179,Em Despacho,3101,Incêndio rural,0,2,0,7,2025-08-06T14:10:00Z,Ovar,Aveiro,Centro,-8.57414,40.86714,Despacho
25748118,Canelas e Espiunca,Area M. Porto,309,2025-07-28T17:16:00Z,25748118,Em Resolução/Conclusão,3101,Incêndio rural,0,4,0,17,2025-07-28T17:16:00Z,Arouca,Aveiro,Norte,-8.212231,40.969918,Resolução/Conclusão
25749320,Rebordões (Santa Maria),Alto Minho,309,2025-07-28T22:47:00Z,25749320,Em Resolução/Conclusão,3103,Incêndio rural,0,1,0,4,2025-07-28T22:47:00Z,Ponte De Lima,Viana Do Castelo,Norte,-8.588365,41.729993,Resolução/Conclusão
25776263,"Pena, Quintã e Vila Cova",Douro,309,2025-08-02T23:45:00Z,25776263,Em Resolução/Conclusão,3103,Incêndio rural,2,183,0,560,2025-08-02T23:45:00Z,Vila Real,Vila Real,Norte,-7.811902,41.317355,Resolução/Conclusão
25779639,Senhorim,Viseu Dão Lafões,310,2025-08-03T16:28:00Z,25779639,Em Resolução/Conclusão,3103,Incêndio rural,0,2,0,6,2025-08-03T16:28:00Z,Nelas,Viseu,Centro,-7.81226,40.511713,Resolução/Conclusão
25783717,Cunha Baixa,Viseu Dão Lafões,310,2025-08-04T11:48:00Z,25783717,Em Resolução/Conclusão,3101,Incêndio rural,0,1,0,2,2025-08-04T11:48:00Z,Mangualde,Viseu,Centro,-7.764411,40.559738,Resolução/Conclusão
25784751,"São Pedro do Sul, Várzea e Baiões",Viseu Dão Lafões,310,2025-08-04T14:36:00Z,25784751,Em Resolução/Conclusão,3103,Incêndio rural,0,1,0,4,2025-08-04T14:36:00Z,São Pedro Do Sul,Viseu,Centro,-8.098667,40.75791,Resolução/Conclusão
25784920,Castro Daire,Viseu Dão Lafões,310,2025-08-04T15:03:00Z,25784920,Em Resolução/Conclusão,3103,Incêndio rural,0,1,0,4,2025-08-04T15:03:00Z,Castro Daire,Viseu,Centro,-7.945405,40.912732,Resolução/Conclusão
25785204,Ribas,Tâmega e Sousa,309,2025-08-04T16:03:00Z,25785204,Em Resolução/Conclusão,3103,Incêndio rural,0,4,0,9,2025-08-04T16:03:00Z,Celorico De Basto,Braga,Norte,-8.022547,41.449583,Resolução/Conclusão
25787860,Faíl e Vila Chã de Sá,Viseu Dão Lafões,310,2025-08-05T05:55:00Z,25787860,Em Resolução/Conclusão,3103,Incêndio rural,0,1,0,5,2025-08-05T05:55:00Z,Viseu,Viseu,Centro,-7.987877,40.601342,Resolução/Conclusão
25793141,Beiral do Lima,Alto Minho,309,2025-08-05T23:55:00Z,25793141,Em Resolução/Conclusão,3103,Incêndio rural,0,2,0,6,2025-08-05T23:55:00Z,Ponte De Lima,Viana Do Castelo,Norte,-8.482547,41.757582,Resolução/Conclusão
25793511,Pedrógão Pequeno,Beira Baixa,310,2025-08-06T03:42:00Z,25793511,Em Resolução/Conclusão,3101,Incêndio rural,0,7,0,26,2025-08-06T03:42:00Z,Sertã,Castelo Branco,Centro,-8.110183,39.900423,Resolução/Conclusão
25738747,Lindoso,Alto Minho,309,2025-07-26T21:47:00Z,25738747,Em Resolução/Conclusão,3103,Incêndio rural,0,24,0,77,2025-07-26T21:47:00Z,Ponte Da Barca,Viana Do Castelo,Norte,-8.220528,41.865272,Resolução/Conclusão
25747773,Aranhas,Beira Baixa,310,2025-07-28T16:36:00Z,25747773,Em Resolução/Conclusão,3103,Incêndio rural,0,3,0,10,2025-07-28T16:36:00Z,Penamacor,Castelo Branco,Centro,-7.14438,40.117542,Resolução/Conclusão
25775263,Torgueda,Douro,309,2025-08-02T19:49:00Z,25775263,Em Resolução/Conclusão,3101,Incêndio rural,0,10,0,27,2025-08-02T19:49:00Z,Vila Real,Vila Real,Norte,-7.785983,41.274952,Resolução/Conclusão
25778337,Senhorim,Viseu Dão Lafões,310,2025-08-03T11:59:00Z,25778337,Em Resolução/Conclusão,3103,Incêndio rural,0,0,0,0,2025-08-03T11:59:00Z,Nelas,Viseu,Centro,-7.825723,40.54384,Resolução/Conclusão
25785466,Caçarilhe e Infesta,Tâmega e Sousa,309,2025-08-04T16:48:00Z,25785466,Em Resolução/Conclusão,3103,Incêndio rural,0,1,0,19,2025-08-04T16:48:00Z,Celorico De Basto,Braga,Norte,-8.035342,41.42903,Resolução/Conclusão
25790096,"Leomil, Mido, Senouras e Aldeia Nova",Beiras e Serra da Estrela,310,2025-08-05T13:37:00Z,25790096,Em Resolução/Conclusão,3103,Incêndio rural,0,4,0,14,2025-08-05T13:37:00Z,Almeida,Guarda,Centro,-6.951735,40.680123,Resolução/Conclusão
25791761,Santa Cruz do Douro e São Tomé de Covelas,Tâmega e Sousa,309,2025-08-05T18:32:00Z,25791761,Em Resolução/Conclusão,3103,Incêndio rural,1,0,0,1,2025-08-05T18:32:00Z,Baião,Porto,Norte,-7.998456,41.123167,Resolução/Conclusão
25793429,Quirás e Pinheiro Novo,Terras de Trás-os-Montes,309,2025-08-06T02:38:00Z,25793429,Em Resolução/Conclusão,3103,Incêndio rural,0,3,0,9,2025-08-06T02:38:00Z,Vinhais,Bragança,Norte,-7.1618830000000004,41.932082,Resolução/Conclusão
25793572,Real,Tâmega e Sousa,309,2025-08-06T04:31:00Z,25793572,Em Resolução/Conclusão,3103,Incêndio rural,0,5,0,19,2025-08-06T04:31:00Z,Castelo De Paiva,Aveiro,Norte,-8.293568,40.988583,Resolução/Conclusão
25794662,Vilela,Area M. Porto,309,2025-08-06T10:10:00Z,25794662,Em Resolução/Conclusão,3103,Incêndio rural,0,2,0,7,2025-08-06T10:10:00Z,Paredes,Porto,Norte,-8.394252,41.23504,Resolução/Conclusão
25795348,Rio Frio,Alto Minho,309,2025-08-06T11:50:00Z,25795348,Em Resolução/Conclusão,3103,Incêndio rural,0,3,0,9,2025-08-06T11:50:00Z,Arcos De Valdevez,Viana Do Castelo,Norte,-8.507973,41.860385,Resolução/Conclusão
25795364,Castro Verde e Casével,Baixo Alentejo,312,2025-08-06T11:54:00Z,25795364,Em Resolução/Conclusão,3105,Incêndio rural,0,6,0,17,2025-08-06T11:54:00Z,Castro Verde,Beja,Alentejo,-8.084605,37.693545,Resolução/Conclusão
25795667,Pias,Alto Minho,309,2025-08-06T12:51:00Z,25795667,Em Resolução/Conclusão,3103,Incêndio rural,0,8,0,26,2025-08-06T12:51:00Z,Monção,Viana Do Castelo,Norte,-8.526247,42.018312,Resolução/Conclusão
25795901,Fornelos,Tâmega e Sousa,309,2025-08-06T13:16:00Z,25795901,Em Resolução/Conclusão,3103,Incêndio rural,0,4,0,13,2025-08-06T13:16:00Z,Cinfães,Viseu,Norte,-8.197727,41.019043,Resolução/Conclusão
25796049,Eiras e Mei,Alto Minho,309,2025-08-06T13:51:00Z,25796049,Em Resolução/Conclusão,3103,Incêndio rural,1,0,0,6,2025-08-06T13:51:00Z,Arcos De Valdevez,Viana Do Castelo,Norte,-8.457302,41.919097,Resolução/Conclusão
25794617,Lustosa e Barrosas (Santo Estêvão),Tâmega e Sousa,309,2025-08-06T10:07:00Z,25794617,Em Resolução/Conclusão,3103,Incêndio rural,0,8,0,24,2025-08-06T10:07:00Z,Lousada,Porto,Norte,-8.302258,41.341468,Resolução/Conclusão
25795067,Foz do Sousa e Covelo,Area M. Porto,309,2025-08-06T11:03:00Z,25795067,Em Resolução/Conclusão,3103,Incêndio rural,0,5,0,13,2025-08-06T11:03:00Z,Gondomar,Porto,Norte,-8.50811,41.083865,Resolução/Conclusão
25795446,Vila Boa de Quires e Maureles,Tâmega e Sousa,309,2025-08-06T12:00:00Z,25795446,Em Resolução/Conclusão,3103,Incêndio rural,0,3,0,11,2025-08-06T12:00:00Z,Marco De Canaveses,Porto,Norte,-8.207442,41.197417,Resolução/Conclusão
25795889,Duas Igrejas,Area M. Porto,309,2025-08-06T13:10:00Z,25795889,Em Despacho,3103,Incêndio rural,0,2,0,10,2025-08-06T13:10:00Z,Paredes,Porto,Norte,-8.376281,41.228302,Despacho
25795905,Nossa Senhora da Expectação,Alto Alentejo,312,2025-08-06T13:25:00Z,25795905,Em Resolução/Conclusão,3105,Incêndio rural,0,4,0,11,2025-08-06T13:25:00Z,Campo Maior,Portalegre,Alentejo,-7.016662,38.962748,Resolução/Conclusão
25795937,Montijo e Afonsoeiro,Península de Setúbal,311,2025-08-06T13:30:00Z,25795937,Em Resolução/Conclusão,3105,Incêndio rural,0,4,0,13,2025-08-06T13:30:00Z,Montijo,Setúbal,Área Metropolitana De Lisboa,-8.975715,38.702323,Resolução/Conclusão
25796019,Vila Cova de Alva e Anseriz,Região de Coimbra,310,2025-08-06T13:45:00Z,25796019,Em Resolução/Conclusão,3101,Incêndio rural,0,1,0,2,2025-08-06T13:45:00Z,Arganil,Coimbra,Centro,-7.941439,40.285023,Resolução/Conclusão
25796144,Vila Cova da Lixa e Borba de Godim,Tâmega e Sousa,309,2025-08-06T14:05:00Z,25796144,Em Despacho,3103,Incêndio rural,0,1,0,5,2025-08-06T14:05:00Z,Felgueiras,Porto,Norte,-8.148762,41.33155,Despacho
25796146,Alvite,Douro,309,2025-08-06T14:02:00Z,25796146,Em Despacho,3103,Incêndio rural,1,5,0,22,2025-08-06T14:02:00Z,Moimenta Da Beira,Viseu,Norte,-7.741182,40.9536,Despacho
