id,address,subregion,neighborhood,date,id.1,state,nature,nature_description,aerial_means,terrestrial_means,aquatic_means,operational,date.1,Concelho,Distrito,NUTII_DSG,longitude,latitude,state_2
25682254,Panque,Cávado,309,2025-07-15T15:31:00Z,25682254,Em Resolução/Conclusão,3101,Incêndio rural,0,15,0,38,2025-07-15T15:31:00Z,Barcelos,Braga,Norte,-8.607035,41.626113,Resolução/Conclusão
25682641,São Bento,Região de Leiria,310,2025-07-15T16:44:00Z,25682641,Em Resolução/Conclusão,3101,Incêndio rural,0,4,0,11,2025-07-15T16:44:00Z,Porto De Mós,Leiria,Centro,-8.746525,39.524688,Resolução/Conclusão
25683057,Messejana,Baixo Alentejo,312,2025-07-15T18:10:00Z,25683057,Em Resolução/Conclusão,3103,Incêndio rural,0,27,0,83,2025-07-15T18:10:00Z,Aljustrel,Beja,Alentejo,-8.253787,37.845618,Resolução/Conclusão
25684761,Travancas e Roriz,Alto Tâmega e Barroso,309,2025-07-16T06:16:00Z,25684761,Em Resolução/Conclusão,3103,Incêndio rural,0,5,0,19,2025-07-16T06:16:00Z,Chaves,Vila Real,Norte,-7.321297,41.815978,Resolução/Conclusão
25685479,Vilar de Pinheiro,Area M. Porto,309,2025-07-16T09:31:00Z,25685479,Em Resolução/Conclusão,3103,Incêndio rural,0,4,0,16,2025-07-16T09:31:00Z,Vila Do Conde,Porto,Norte,-8.675913,41.270743,Resolução/Conclusão
25686301,"Aldeia do Bispo, Águas e Aldeia de João Pires",Beira Baixa,310,2025-07-16T11:41:00Z,25686301,Em Resolução/Conclusão,3103,Incêndio rural,0,3,0,5,2025-07-16T11:41:00Z,Penamacor,Castelo Branco,Centro,-7.230028,40.099718,Resolução/Conclusão
25686450,Santana da Azinha,Beiras e Serra da Estrela,310,2025-07-16T12:08:00Z,25686450,Em Resolução/Conclusão,3103,Incêndio rural,1,6,0,30,2025-07-16T12:08:00Z,Guarda,Guarda,Centro,-7.209047,40.480347,Resolução/Conclusão
25686029,Beja (Salvador e Santa Maria da Feira),Baixo Alentejo,312,2025-07-16T10:54:00Z,25686029,Em Resolução/Conclusão,3105,Incêndio rural,0,0,0,0,2025-07-16T10:54:00Z,Beja,Beja,Alentejo,-7.861188,38.02782,Resolução/Conclusão
25686168,Proença-a-Velha,Beira Baixa,310,2025-07-16T11:11:00Z,25686168,Em Resolução/Conclusão,3101,Incêndio rural,0,9,0,25,2025-07-16T11:11:00Z,Idanha-a-Nova,Castelo Branco,Centro,-7.206996,40.02141,Resolução/Conclusão
25686452,Reguengos de Monsaraz,Alentejo Central,312,2025-07-16T12:09:00Z,25686452,Em Resolução/Conclusão,3103,Incêndio rural,0,2,0,4,2025-07-16T12:09:00Z,Reguengos De Monsaraz,Évora,Alentejo,-7.547467,38.417797,Resolução/Conclusão
25682868,Sertã,Beira Baixa,310,2025-07-15T17:30:00Z,25682868,Em Resolução/Conclusão,3101,Incêndio rural,0,4,0,17,2025-07-15T17:30:00Z,Sertã,Castelo Branco,Centro,-8.092748,39.819602,Resolução/Conclusão
25685551,Alvalade,Alentejo Litoral,312,2025-07-16T09:42:00Z,25685551,Em Resolução/Conclusão,3105,Incêndio rural,0,0,0,0,2025-07-16T09:42:00Z,Santiago Do Cacém,Setúbal,Alentejo,-8.3582,37.895503,Resolução/Conclusão
25685553,Alvalade,Alentejo Litoral,312,2025-07-16T09:37:00Z,25685553,Em Resolução/Conclusão,3105,Incêndio rural,0,0,0,0,2025-07-16T09:37:00Z,Santiago Do Cacém,Setúbal,Alentejo,-8.380973,37.950178,Resolução/Conclusão
25686085,Touro,Viseu Dão Lafões,310,2025-07-16T11:04:00Z,25686085,Em Resolução/Conclusão,3103,Incêndio rural,0,5,0,18,2025-07-16T11:04:00Z,Vila Nova De Paiva,Viseu,Centro,-7.696173,40.938535,Resolução/Conclusão
25686160,Campo,Viseu Dão Lafões,310,2025-07-16T11:15:00Z,25686160,Em Resolução/Conclusão,3103,Incêndio rural,0,4,0,16,2025-07-16T11:15:00Z,Viseu,Viseu,Centro,-7.939115,40.701422,Resolução/Conclusão
25686241,Pedrógão Pequeno,Beira Baixa,310,2025-07-16T11:31:00Z,25686241,Em Resolução/Conclusão,3101,Incêndio rural,0,8,0,28,2025-07-16T11:31:00Z,Sertã,Castelo Branco,Centro,-8.081258,39.915592,Resolução/Conclusão
25686324,Bacelo e Senhora da Saúde,Alentejo Central,312,2025-07-16T11:45:00Z,25686324,Em Resolução/Conclusão,3105,Incêndio rural,0,8,0,28,2025-07-16T11:45:00Z,Évora,Évora,Alentejo,-7.915167,38.595073,Resolução/Conclusão
25686593,Leomil,Douro,309,2025-07-16T12:43:00Z,25686593,Em Despacho,3103,Incêndio rural,1,5,0,28,2025-07-16T12:43:00Z,Moimenta Da Beira,Viseu,Norte,-7.656838,40.955985,Despacho
25686522,São Pedro de France,Viseu Dão Lafões,310,2025-07-16T12:23:00Z,25686522,Em Resolução/Conclusão,3103,Incêndio rural,1,3,0,17,2025-07-16T12:23:00Z,Viseu,Viseu,Centro,-7.802977,40.726302,Resolução/Conclusão
25686587,Mosteiros,Alto Alentejo,312,2025-07-16T12:39:00Z,25686587,Em Despacho,3103,Incêndio rural,0,7,0,25,2025-07-16T12:39:00Z,Arronches,Portalegre,Alentejo,-7.321671,39.159687,Despacho
