id,address,subregion,neighborhood,date,id.1,state,nature,nature_description,aerial_means,terrestrial_means,aquatic_means,operational,date.1,Concelho,Distrito,NUTII_DSG,longitude,latitude
25510177,Estômbar e Parchal,Algarve,313,2025-06-11T13:25:00Z,25510177,Em conclusão,2101,Incêndio em edifícios habitacionais,0,2,0,4,2025-06-11T13:25:00Z,Lagoa,Faro,Algarve,-8.51809,37.13631
25510522,Sanguinheira,Região de Coimbra,310,2025-06-11T14:27:00Z,25510522,Em resolução,3101,Incêndio rural,1,7,0,28,2025-06-11T14:27:00Z,Cantanhede,Coimbra,Centro,-8.731988,40.321447
25510715,Penas Roias,Terras de Trás-os-Montes,309,2025-06-11T14:59:00Z,25510715,Em despacho,3103,Incêndio rural,1,7,0,34,2025-06-11T14:59:00Z,Mogadouro,Bragança,Norte,-6.652916,41.393169
25508203,Ermelo e Pardelhas,Ave,309,2025-06-11T07:30:00Z,25508203,Em conclusão,3103,Incêndio rural,0,7,0,26,2025-06-11T07:30:00Z,Mondim De Basto,Vila Real,Norte,-7.842792,41.3582
25509271,Beja (Salvador e Santa Maria da Feira),Baixo Alentejo,312,2025-06-11T10:38:00Z,25509271,Em conclusão,3105,Incêndio rural,0,0,0,0,2025-06-11T10:38:00Z,Beja,Beja,Alentejo,-7.866213,38.030653
25509891,Sanfins Lamoso Codessos,Tâmega e Sousa,309,2025-06-11T12:30:00Z,25509891,Em conclusão,3103,Incêndio rural,0,3,0,15,2025-06-11T12:30:00Z,Paços De Ferreira,Porto,Norte,-8.382427,41.32457
25510460,Gouveia (São Simão),Tâmega e Sousa,309,2025-06-11T14:22:00Z,25510460,Em resolução,3103,Incêndio rural,0,2,0,7,2025-06-11T14:22:00Z,Amarante,Porto,Norte,-8.063648,41.229885
25510491,São João Baptista e Santa Maria Dos Olivais,Médio Tejo,311,2025-06-11T14:23:00Z,25510491,Em despacho,3109,Gestão de combustível,0,1,0,1,2025-06-11T14:23:00Z,Tomar,Santarém,Centro,-8.398191,39.598324
