id,address,subregion,neighborhood,date,id.1,state,nature,nature_description,aerial_means,terrestrial_means,aquatic_means,operational,date.1,Concelho,Distrito,NUTII_DSG,longitude,latitude
25517462,Recardães e Espinhel,Região de Aveiro,310,2025-06-12T23:20:00Z,25517462,Em resolução,3111,Queima,0,2,0,7,2025-06-12T23:20:00Z,Águeda,Aveiro,Centro,-8.477157,40.562499
25517290,Valadares,Tâmega e Sousa,309,2025-06-12T22:15:00Z,25517290,Em conclusão,3103,Incêndio rural,0,0,0,0,2025-06-12T22:15:00Z,Baião,Porto,Norte,-8.000102,41.137258
25517492,São Gregório e Santa Justa,Alentejo Central,312,2025-06-12T23:37:00Z,25517492,Em curso,3105,Incêndio rural,0,5,0,19,2025-06-12T23:37:00Z,Arraiolos,Évora,Alentejo,-7.941558,38.747499
25517497,Macieira da Lixa e Caramos,Tâmega e Sousa,309,2025-06-12T23:38:00Z,25517497,Em curso,3103,Incêndio rural,0,1,0,5,2025-06-12T23:38:00Z,Felgueiras,Porto,Norte,-8.150232,41.356403
25516987,Ermelo e Pardelhas,Ave,309,2025-06-12T20:40:00Z,25516987,Em despacho,3107,Consolidação de rescaldo de incêndio rural,0,1,0,5,2025-06-12T20:40:00Z,Mondim De Basto,Vila Real,Norte,-7.842792,41.3582
