id,address,subregion,neighborhood,date,id.1,state,nature,nature_description,aerial_means,terrestrial_means,aquatic_means,operational,date.1,Concelho,Distrito,NUTII_DSG,longitude,latitude,state_2
25774883,Arnóia,Tâmega e Sousa,309,2025-08-02T18:20:00Z,25774883,Em Resolução/Conclusão,3103,Incêndio rural,0,1,0,1,2025-08-02T18:20:00Z,Celorico De Basto,Braga,Norte,-7.998983,41.348727,Resolução/Conclusão
25818455,Sobral de São Miguel,Beiras e Serra da Estrela,310,2025-08-10T15:02:00Z,25818455,Em Resolução/Conclusão,3103,Incêndio rural,0,11,0,29,2025-08-10T15:02:00Z,Covilhã,Castelo Branco,Centro,-7.77307,40.200173,Resolução/Conclusão
25846480,Sabugal e Aldeia de Santo António,Beiras e Serra da Estrela,310,2025-08-15T14:41:00Z,25846480,Em Curso,3103,Incêndio rural,0,42,0,144,2025-08-15T14:41:00Z,Sabugal,Guarda,Centro,-7.125037,40.34023,Curso
25848784,Anhões e Luzio,Alto Minho,309,2025-08-15T23:10:00Z,25848784,Em Resolução/Conclusão,3103,Incêndio rural,0,1,0,4,2025-08-15T23:10:00Z,Monção,Viana Do Castelo,Norte,-8.457423,41.973813,Resolução/Conclusão
25850924,Aldeias e Mangualde da Serra,Beiras e Serra da Estrela,310,2025-08-16T11:51:00Z,25850924,Em Resolução/Conclusão,3103,Incêndio rural,0,11,0,30,2025-08-16T11:51:00Z,Gouveia,Guarda,Centro,-7.605542,40.461898,Resolução/Conclusão
25851044,Nevogilde,Tâmega e Sousa,309,2025-08-16T12:17:00Z,25851044,Em Curso,3103,Incêndio rural,0,27,0,83,2025-08-16T12:17:00Z,Lousada,Porto,Norte,-8.33143,41.258203,Curso
25851158,Sarzedo,Douro,309,2025-08-16T12:37:00Z,25851158,Em Resolução/Conclusão,3103,Incêndio rural,0,1,0,2,2025-08-16T12:37:00Z,Moimenta Da Beira,Viseu,Norte,-7.658762,41.006693,Resolução/Conclusão
25851846,"Mamouros, Alva e Ribolhos",Viseu Dão Lafões,310,2025-08-16T14:44:00Z,25851846,Em Resolução/Conclusão,3103,Incêndio rural,0,24,0,86,2025-08-16T14:44:00Z,Castro Daire,Viseu,Centro,-7.965645,40.850267,Resolução/Conclusão
25851895,Sortelha,Beiras e Serra da Estrela,310,2025-08-16T14:53:00Z,25851895,Em Curso,3103,Incêndio rural,5,9,0,43,2025-08-16T14:53:00Z,Sabugal,Guarda,Centro,-7.254367,40.318488,Curso
25851995,Retorta e Tougues,Area M. Porto,309,2025-08-16T15:16:00Z,25851995,Em Resolução/Conclusão,3103,Incêndio rural,0,5,0,17,2025-08-16T15:16:00Z,Vila Do Conde,Porto,Norte,-8.70142,41.36172,Resolução/Conclusão
25852047,Alcantarilha e Pêra,Algarve,313,2025-08-16T15:28:00Z,25852047,Em Resolução/Conclusão,3103,Incêndio rural,2,25,0,78,2025-08-16T15:28:00Z,Silves,Faro,Algarve,-8.34675,37.12881,Resolução/Conclusão
25852278,"Aldeia do Bispo, Águas e Aldeia de João Pires",Beira Baixa,310,2025-08-16T16:11:00Z,25852278,Em Resolução/Conclusão,3103,Incêndio rural,4,35,0,120,2025-08-16T16:11:00Z,Penamacor,Castelo Branco,Centro,-7.146285,40.11777,Resolução/Conclusão
25852378,Lajeosa do Mondego,Beiras e Serra da Estrela,310,2025-08-16T16:29:00Z,25852378,Em Resolução/Conclusão,3103,Incêndio rural,0,2,0,7,2025-08-16T16:29:00Z,Celorico Da Beira,Guarda,Centro,-7.338117,40.62629,Resolução/Conclusão
25852412,Vale,Alto Minho,309,2025-08-16T16:37:00Z,25852412,Em Resolução/Conclusão,3103,Incêndio rural,1,4,0,22,2025-08-16T16:37:00Z,Arcos De Valdevez,Viana Do Castelo,Norte,-8.347398,41.85922,Resolução/Conclusão
25852531,Campolide,Grande Lisboa,311,2025-08-16T16:53:00Z,25852531,Em Curso,3103,Incêndio rural,0,1,0,5,2025-08-16T16:53:00Z,Lisboa,Lisboa,Área Metropolitana De Lisboa,-9.165804,38.731424,Curso
25852580,São João de Tarouca,Douro,309,2025-08-16T17:00:00Z,25852580,Em Despacho,3103,Incêndio rural,0,4,0,16,2025-08-16T17:00:00Z,Tarouca,Viseu,Norte,-7.768326,40.985205,Despacho
25775263,Torgueda,Douro,309,2025-08-02T19:49:00Z,25775263,Em Resolução/Conclusão,3101,Incêndio rural,0,4,0,15,2025-08-02T19:49:00Z,Vila Real,Vila Real,Norte,-7.785983,41.274952,Resolução/Conclusão
25807426,Alvite,Douro,309,2025-08-08T14:31:00Z,25807426,Em Resolução/Conclusão,3103,Incêndio rural,0,4,0,21,2025-08-08T14:31:00Z,Moimenta Da Beira,Viseu,Norte,-7.688727,40.96613,Resolução/Conclusão
25845171,Pêra do Moço,Beiras e Serra da Estrela,310,2025-08-15T10:44:00Z,25845171,Em Curso,3103,Incêndio rural,1,79,0,217,2025-08-15T10:44:00Z,Guarda,Guarda,Centro,-7.20956,40.61267,Curso
25846016,Poiares,Douro,309,2025-08-15T13:17:00Z,25846016,Em Curso,3105,Incêndio rural,0,95,0,278,2025-08-15T13:17:00Z,Freixo De Espada à Cinta,Bragança,Norte,-6.843393,41.075787,Curso
25847211,Campelo,Região de Leiria,310,2025-08-15T17:01:00Z,25847211,Em Resolução/Conclusão,3101,Incêndio rural,0,9,0,32,2025-08-15T17:01:00Z,Figueiró Dos Vinhos,Leiria,Centro,-8.258518,39.952923,Resolução/Conclusão
25847552,"Espírito Santo, Nossa Senhora da Graça e São Simão",Alto Alentejo,312,2025-08-15T18:13:00Z,25847552,Em Curso,3101,Incêndio rural,0,34,0,107,2025-08-15T18:13:00Z,Nisa,Portalegre,Alentejo,-7.676539,39.448501,Curso
25850437,Castelo Rodrigo,Beiras e Serra da Estrela,310,2025-08-16T10:19:00Z,25850437,Em Resolução/Conclusão,3105,Incêndio rural,0,1,0,2,2025-08-16T10:19:00Z,Figueira De Castelo Rodrigo,Guarda,Centro,-6.946172,40.891503,Resolução/Conclusão
25850973,NA,NA,0,2025-08-16T11:55:00Z,25850973,Em Curso,3103,Incêndio rural,0,4,0,13,2025-08-16T11:55:00Z,NA,NA,NA,-6.847433,39.389784,Curso
25851655,Fregim,Tâmega e Sousa,309,2025-08-16T14:12:00Z,25851655,Em Resolução/Conclusão,3103,Incêndio rural,0,7,0,23,2025-08-16T14:12:00Z,Amarante,Porto,Norte,-8.136772,41.270748,Resolução/Conclusão
25851957,Gião,Area M. Porto,309,2025-08-16T15:10:00Z,25851957,Em Resolução/Conclusão,3103,Incêndio rural,1,1,0,11,2025-08-16T15:10:00Z,Vila Do Conde,Porto,Norte,-8.677571,41.31041,Resolução/Conclusão
25852073,Monte e Queimadela,Ave,309,2025-08-16T15:33:00Z,25852073,Em Resolução/Conclusão,3103,Incêndio rural,0,3,0,15,2025-08-16T15:33:00Z,Fafe,Braga,Norte,-8.151799,41.526032,Resolução/Conclusão
25852116,Beire,Area M. Porto,309,2025-08-16T15:38:00Z,25852116,Em Curso,3103,Incêndio rural,0,12,0,37,2025-08-16T15:38:00Z,Paredes,Porto,Norte,-8.31925,41.248553,Curso
25852334,"S.maria, S.miguel, S.martinho, S.pedro Penaferrim",Grande Lisboa,311,2025-08-16T16:20:00Z,25852334,Em Resolução/Conclusão,3103,Incêndio rural,0,2,0,3,2025-08-16T16:20:00Z,Sintra,Lisboa,Área Metropolitana De Lisboa,-9.380105,38.790996,Resolução/Conclusão
25852357,Penafiel,Tâmega e Sousa,309,2025-08-16T16:25:00Z,25852357,Em Resolução/Conclusão,3103,Incêndio rural,0,1,0,5,2025-08-16T16:25:00Z,Penafiel,Porto,Norte,-8.28854,41.21259,Resolução/Conclusão
25852359,Santa Clara,Grande Lisboa,311,2025-08-16T16:25:00Z,25852359,Em Resolução/Conclusão,3103,Incêndio rural,0,0,0,0,2025-08-16T16:25:00Z,Lisboa,Lisboa,Área Metropolitana De Lisboa,-9.15366,38.79085,Resolução/Conclusão
25852373,Fajões,Area M. Porto,309,2025-08-16T16:25:00Z,25852373,Em Resolução/Conclusão,3103,Incêndio rural,0,3,0,10,2025-08-16T16:25:00Z,Oliveira De Azeméis,Aveiro,Norte,-8.406354,40.925562,Resolução/Conclusão
25852434,Alquerubim,Região de Aveiro,310,2025-08-16T16:41:00Z,25852434,Em Resolução/Conclusão,3101,Incêndio rural,0,5,0,19,2025-08-16T16:41:00Z,Albergaria-a-Velha,Aveiro,Centro,-8.518098,40.619535,Resolução/Conclusão
25852457,Pedroso e Seixezelo,Area M. Porto,309,2025-08-16T16:44:00Z,25852457,Em Curso,3103,Incêndio rural,0,4,0,17,2025-08-16T16:44:00Z,Vila Nova De Gaia,Porto,Norte,-8.57473,41.07879,Curso
25852543,Fornos,Tâmega e Sousa,309,2025-08-16T17:00:00Z,25852543,Em Resolução/Conclusão,3103,Incêndio rural,0,1,0,5,2025-08-16T17:00:00Z,Castelo De Paiva,Aveiro,Norte,-8.239768,41.048978,Resolução/Conclusão
25852577,Tabuaço,Douro,309,2025-08-16T17:08:00Z,25852577,Em Despacho,3103,Incêndio rural,0,0,0,0,2025-08-16T17:08:00Z,Tabuaço,Viseu,Norte,-7.56514,41.11606,Despacho
25776263,"Pena, Quintã e Vila Cova",Douro,309,2025-08-02T23:45:00Z,25776263,Em Resolução/Conclusão,3103,Incêndio rural,0,48,0,153,2025-08-02T23:45:00Z,Vila Real,Vila Real,Norte,-7.811902,41.317355,Resolução/Conclusão
25813482,Freches e Torres,Beiras e Serra da Estrela,310,2025-08-09T16:21:00Z,25813482,Em Curso,3103,Incêndio rural,3,145,0,444,2025-08-09T16:21:00Z,Trancoso,Guarda,Centro,-7.363745,40.709022,Curso
25830378,Ermidas-Sado,Alentejo Litoral,312,2025-08-12T16:42:00Z,25830378,Em Resolução/Conclusão,3101,Incêndio rural,0,0,0,0,2025-08-12T16:42:00Z,Santiago Do Cacém,Setúbal,Alentejo,-8.407646,38.059897,Resolução/Conclusão
25832250,Ferreira de Aves,Viseu Dão Lafões,310,2025-08-13T00:03:00Z,25832250,Em Curso,3103,Incêndio rural,4,296,0,912,2025-08-13T00:03:00Z,Sátão,Viseu,Centro,-7.647793,40.79568,Curso
25836309,Cinfães,Tâmega e Sousa,309,2025-08-13T18:17:00Z,25836309,Em Resolução/Conclusão,3103,Incêndio rural,0,21,0,68,2025-08-13T18:17:00Z,Cinfães,Viseu,Norte,-8.071502,41.049757,Resolução/Conclusão
25840505,Ribeira de Nisa e Carreiras,Alto Alentejo,312,2025-08-14T14:01:00Z,25840505,Em Resolução/Conclusão,3101,Incêndio rural,0,28,0,88,2025-08-14T14:01:00Z,Portalegre,Portalegre,Alentejo,-7.47009,39.374707,Resolução/Conclusão
25844050,"Pena, Quintã e Vila Cova",Douro,309,2025-08-15T04:16:00Z,25844050,Em Resolução/Conclusão,3103,Incêndio rural,0,2,0,7,2025-08-15T04:16:00Z,Vila Real,Vila Real,Norte,-7.861022,41.318705,Resolução/Conclusão
25844080,Vale de Espinho,Beiras e Serra da Estrela,310,2025-08-15T04:35:00Z,25844080,Em Resolução/Conclusão,3103,Incêndio rural,0,2,0,4,2025-08-15T04:35:00Z,Sabugal,Guarda,Centro,-6.937728,40.270523,Resolução/Conclusão
25845736,Travancas e Roriz,Alto Tâmega e Barroso,309,2025-08-15T12:20:00Z,25845736,Em Resolução/Conclusão,3103,Incêndio rural,0,8,0,32,2025-08-15T12:20:00Z,Chaves,Vila Real,Norte,-7.316357,41.775985,Resolução/Conclusão
25850200,Santo André,Alto Tâmega e Barroso,309,2025-08-16T09:22:00Z,25850200,Em Resolução/Conclusão,3103,Incêndio rural,0,2,0,10,2025-08-16T09:22:00Z,Montalegre,Vila Real,Norte,-7.68918,41.870293,Resolução/Conclusão
25792058,Cibões e Brufe,Cávado,309,2025-08-05T19:10:00Z,25792058,Em Resolução/Conclusão,3103,Incêndio rural,0,1,0,5,2025-08-05T19:10:00Z,Terras De Bouro,Braga,Norte,-8.293932,41.764918,Resolução/Conclusão
25820422,Távora e Pereiro,Douro,309,2025-08-10T22:27:00Z,25820422,Em Resolução/Conclusão,3103,Incêndio rural,0,31,0,99,2025-08-10T22:27:00Z,Tabuaço,Viseu,Norte,-7.55556,41.097602,Resolução/Conclusão
25832672,Piódão,Região de Coimbra,310,2025-08-13T05:08:00Z,25832672,Em Curso,3103,Incêndio rural,6,306,0,892,2025-08-13T05:08:00Z,Arganil,Coimbra,Centro,-7.81972,40.23083,Curso
25835176,Faíl e Vila Chã de Sá,Viseu Dão Lafões,310,2025-08-13T14:35:00Z,25835176,Em Resolução/Conclusão,3103,Incêndio rural,0,8,0,19,2025-08-13T14:35:00Z,Viseu,Viseu,Centro,-7.951177,40.594167,Resolução/Conclusão
25840417,Lousã e Vilarinho,Região de Coimbra,310,2025-08-14T13:46:00Z,25840417,Em Curso,3101,Incêndio rural,9,154,0,535,2025-08-14T13:46:00Z,Lousã,Coimbra,Centro,-8.201561,40.080016,Curso
25848791,Portela,Alto Minho,309,2025-08-15T23:12:00Z,25848791,Em Resolução/Conclusão,3103,Incêndio rural,0,3,0,14,2025-08-15T23:12:00Z,Monção,Viana Do Castelo,Norte,-8.491353,41.985432,Resolução/Conclusão
25849407,Ervedosa,Terras de Trás-os-Montes,309,2025-08-16T03:33:00Z,25849407,Em Resolução/Conclusão,3103,Incêndio rural,0,4,0,11,2025-08-16T03:33:00Z,Vinhais,Bragança,Norte,-7.095813,41.726347,Resolução/Conclusão
25851122,Pindelo Dos Milagres,Viseu Dão Lafões,310,2025-08-16T12:32:00Z,25851122,Em Resolução/Conclusão,3103,Incêndio rural,0,3,0,9,2025-08-16T12:32:00Z,São Pedro Do Sul,Viseu,Centro,-7.947222,40.80556,Resolução/Conclusão
25851606,"Ardegão, Arnozela e Seidões",Ave,309,2025-08-16T14:03:00Z,25851606,Em Resolução/Conclusão,3101,Incêndio rural,0,2,0,6,2025-08-16T14:03:00Z,Fafe,Braga,Norte,-8.115163,41.405222,Resolução/Conclusão
25852224,"Mamouros, Alva e Ribolhos",Viseu Dão Lafões,310,2025-08-16T15:12:00Z,25852224,Em Resolução/Conclusão,3103,Incêndio rural,0,0,0,0,2025-08-16T15:12:00Z,Castro Daire,Viseu,Centro,-7.957615,40.851477,Resolução/Conclusão
25852235,"Mamouros, Alva e Ribolhos",Viseu Dão Lafões,310,2025-08-16T15:12:00Z,25852235,Em Resolução/Conclusão,3103,Incêndio rural,0,0,0,0,2025-08-16T15:12:00Z,Castro Daire,Viseu,Centro,-7.957615,40.851477,Resolução/Conclusão
25852435,Espinho,Cávado,309,2025-08-16T16:42:00Z,25852435,Em Curso,3103,Incêndio rural,1,12,0,50,2025-08-16T16:42:00Z,Braga,Braga,Norte,-8.359955,41.549823,Curso
25852444,Alvadia,Alto Tâmega e Barroso,309,2025-08-16T16:40:00Z,25852444,Em Resolução/Conclusão,3103,Incêndio rural,0,5,0,16,2025-08-16T16:40:00Z,Ribeira De Pena,Vila Real,Norte,-7.763773,41.449208,Resolução/Conclusão
25851451,"Sandim, Olival, Lever e Crestuma",Area M. Porto,309,2025-08-16T13:36:00Z,25851451,Em Resolução/Conclusão,3103,Incêndio rural,0,3,0,8,2025-08-16T13:36:00Z,Vila Nova De Gaia,Porto,Norte,-8.477632,41.032533,Resolução/Conclusão
25851721,Arnóia,Tâmega e Sousa,309,2025-08-16T14:24:00Z,25851721,Em Curso,3103,Incêndio rural,2,18,0,61,2025-08-16T14:24:00Z,Celorico De Basto,Braga,Norte,-8.00882,41.36745,Curso
25851785,Negrelos (São Tomé),Area M. Porto,309,2025-08-16T14:34:00Z,25851785,Em Resolução/Conclusão,3103,Incêndio rural,0,2,0,7,2025-08-16T14:34:00Z,Santo Tirso,Porto,Norte,-8.403205,41.346137,Resolução/Conclusão
25852438,Campanhó e Paradança,Ave,309,2025-08-16T16:41:00Z,25852438,Em Curso,3103,Incêndio rural,2,18,0,76,2025-08-16T16:41:00Z,Mondim De Basto,Vila Real,Norte,-7.965877,41.391997,Curso
25852522,Ferreira do Zêzere,Médio Tejo,311,2025-08-16T16:58:00Z,25852522,Em Resolução/Conclusão,3103,Incêndio rural,0,8,0,34,2025-08-16T16:58:00Z,Ferreira Do Zêzere,Santarém,Centro,-8.2938,39.69774,Resolução/Conclusão
25852538,"Canedo, Vale e Vila Maior",Area M. Porto,309,2025-08-16T17:01:00Z,25852538,Em Curso,3103,Incêndio rural,0,1,0,5,2025-08-16T17:01:00Z,Santa Maria Da Feira,Aveiro,Norte,-8.49353,41.00628,Curso
