id,address,subregion,neighborhood,date,id.1,state,nature,nature_description,aerial_means,terrestrial_means,aquatic_means,operational,date.1,Concelho,Distrito,NUTII_DSG,longitude,latitude
25518902,Serra e Junceira,Médio Tejo,311,2025-06-13T10:13:00Z,25518902,Em despacho,3109,Gestão de combustível,0,1,0,1,2025-06-13T10:13:00Z,Tomar,Santarém,Centro,-8.275164,39.608725
25519183,"Lemenhe, Mouquim e Jesufrei",Ave,309,2025-06-13T10:52:00Z,25519183,Em conclusão,2201,Incêndio em equipamentos ou produtos,0,2,0,8,2025-06-13T10:52:00Z,Vila Nova De Famalicão,Braga,Norte,-8.519555,41.447557
25519218,Faro (Sé e São Pedro),Algarve,313,2025-06-13T11:07:00Z,25519218,Em conclusão,2301,Incêndio em transporte rodoviário,0,4,0,9,2025-06-13T11:07:00Z,Faro,Faro,Algarve,-7.942032,37.01865
25519025,Fratel,Beira Baixa,310,2025-06-13T10:33:00Z,25519025,Em conclusão,3111,Queima,0,2,0,7,2025-06-13T10:33:00Z,Vila Velha De Ródão,Castelo Branco,Centro,-7.745622,39.649077
25519053,Pedroso e Seixezelo,Area M. Porto,309,2025-06-13T10:34:00Z,25519053,Em curso,3103,Incêndio rural,0,4,0,14,2025-06-13T10:34:00Z,Vila Nova De Gaia,Porto,Norte,-8.55785,41.06333
25519353,Campanhã,Area M. Porto,309,2025-06-13T11:18:00Z,25519353,Em curso,2301,Incêndio em transporte rodoviário,0,1,0,5,2025-06-13T11:18:00Z,Porto,Porto,Norte,-8.571543,41.154223
25519419,Pechão,Algarve,313,2025-06-13T11:42:00Z,25519419,Em curso,2301,Incêndio em transporte rodoviário,0,3,0,6,2025-06-13T11:42:00Z,Olhão,Faro,Algarve,-7.864436,37.03562
