id,address,subregion,neighborhood,date,id.1,state,nature,nature_description,aerial_means,terrestrial_means,aquatic_means,operational,date.1,Concelho,Distrito,NUTII_DSG,longitude,latitude
25056922,Bougado (São Martinho e Santiago),Area M. Porto,309,2025-01-22T10:38:00Z,25056922,Em despacho,1101,Cheia,0,0,0,0,2025-01-22T10:38:00Z,Trofa,Porto,Norte,-8.558796,41.329536
25058374,Marmelete,Algarve,313,2025-03-08T15:14:00Z,25058374,Em despacho,3313,Deslizamento de terras,0,1,0,2,2025-03-08T15:14:00Z,Monchique,Faro,Algarve,-8.674356,37.286973
25058640,"S.maria, S.miguel, S.martinho, S.pedro Penaferrim",Grande Lisboa,311,2025-03-08T16:23:00Z,25058640,Em curso,3301,Queda de árvore,0,2,0,7,2025-03-08T16:23:00Z,Sintra,Lisboa,Área Metropolitana De Lisboa,-9.387899,38.805813
25058660,Campo de Ourique,Grande Lisboa,311,2025-03-08T16:25:00Z,25058660,Em conclusão,3315,Inundação de estruturas por precipitação intensa,0,1,0,5,2025-03-08T16:25:00Z,Lisboa,Lisboa,Área Metropolitana De Lisboa,-9.169863,38.718496
25058758,Almancil,Algarve,313,2025-03-08T17:00:00Z,25058758,Em resolução,3301,Queda de árvore,0,1,0,5,2025-03-08T17:00:00Z,Loulé,Faro,Algarve,-8.028466,37.086336
25058908,Alqueidão,Região de Coimbra,310,2025-03-08T17:43:00Z,25058908,Em despacho,3301,Queda de árvore,0,1,0,3,2025-03-08T17:43:00Z,Figueira Da Foz,Coimbra,Centro,-8.759148,40.077248
25057660,Alpiarça,Lezíria do Tejo,311,2025-03-08T12:46:00Z,25057660,Em despacho,3315,Inundação de estruturas por precipitação intensa,0,0,0,0,2025-03-08T12:46:00Z,Alpiarça,Santarém,Alentejo,-8.595402,39.262022
25058547,Braga (São Vicente),Cávado,309,2025-03-08T16:11:00Z,25058547,Em despacho,3311,Queda de elementos de estruturas edificados,0,2,0,4,2025-03-08T16:11:00Z,Braga,Braga,Norte,-8.42186,41.55393
25058613,Almeirim,Lezíria do Tejo,311,2025-03-08T16:25:00Z,25058613,Em resolução,3301,Queda de árvore,0,4,0,8,2025-03-08T16:25:00Z,Almeirim,Santarém,Alentejo,-8.656655,39.21719
25058744,Melides,Alentejo Litoral,312,2025-03-08T16:58:00Z,25058744,Em despacho,3301,Queda de árvore,0,1,0,2,2025-03-08T16:58:00Z,Grândola,Setúbal,Alentejo,-8.726303,38.148035
25058798,"Sé Nova, Santa Cruz, Almedina e São Bartolomeu",Região de Coimbra,310,2025-03-08T17:18:00Z,25058798,Em despacho,3309,Desabamento de estruturas edificadas,0,1,0,3,2025-03-08T17:18:00Z,Coimbra,Coimbra,Centro,-8.45395,40.243305
25057015,Santa Maria do Castelo e Santiago e Santa Susana,Alentejo Litoral,312,2025-03-08T10:20:00Z,25057015,Em curso,1101,Cheia,0,2,0,3,2025-03-08T10:20:00Z,Alcácer Do Sal,Setúbal,Alentejo,-8.432801,38.398147
25057265,Faro (Sé e São Pedro),Algarve,313,2025-03-08T11:00:00Z,25057265,Em conclusão,3329,Queda de estruturas temporárias ou móveis,0,1,0,2,2025-03-08T11:00:00Z,Faro,Faro,Algarve,-7.942032,37.01865
25057817,Portimão,Algarve,313,2025-03-08T13:11:00Z,25057817,Em conclusão,3317,Inundação de estruturas por água canalizada,0,0,0,0,2025-03-08T13:11:00Z,Portimão,Faro,Algarve,-8.532608,37.137966
25058703,Mina de Água,Grande Lisboa,311,2025-03-08T16:30:00Z,25058703,Em despacho,3301,Queda de árvore,0,1,0,6,2025-03-08T16:30:00Z,Amadora,Lisboa,Área Metropolitana De Lisboa,-9.236908,38.777438
25058704,Sacavém e Prior Velho,Grande Lisboa,311,2025-03-08T16:46:00Z,25058704,Em conclusão,3329,Queda de estruturas temporárias ou móveis,0,1,0,5,2025-03-08T16:46:00Z,Loures,Lisboa,Área Metropolitana De Lisboa,-9.126385,38.791217
25058870,Estômbar e Parchal,Algarve,313,2025-03-08T17:33:00Z,25058870,Em conclusão,3311,Queda de elementos de estruturas edificados,0,1,0,4,2025-03-08T17:33:00Z,Lagoa,Faro,Algarve,-8.505588,37.136252
25058940,Carcavelos e Parede,Grande Lisboa,311,2025-03-08T18:01:00Z,25058940,Em despacho,3301,Queda de árvore,0,1,0,2,2025-03-08T18:01:00Z,Cascais,Lisboa,Área Metropolitana De Lisboa,-9.355169,38.690219
25057228,Carregueira,Lezíria do Tejo,311,2025-03-08T11:12:00Z,25057228,Em despacho,3313,Deslizamento de terras,0,1,0,1,2025-03-08T11:12:00Z,Chamusca,Santarém,Alentejo,-8.411811,39.421134
25058525,"Alto do Seixalinho, Santo André e Verderena",Península de Setúbal,311,2025-03-08T15:53:00Z,25058525,Em despacho,3329,Queda de estruturas temporárias ou móveis,0,1,0,5,2025-03-08T15:53:00Z,Barreiro,Setúbal,Área Metropolitana De Lisboa,-9.061632,38.64534
25058659,Falagueira-Venda Nova,Grande Lisboa,311,2025-03-08T16:33:00Z,25058659,Em curso,3329,Queda de estruturas temporárias ou móveis,0,1,0,6,2025-03-08T16:33:00Z,Amadora,Lisboa,Área Metropolitana De Lisboa,-9.222638,38.763335
