id,address,subregion,neighborhood,date,id.1,state,nature,nature_description,aerial_means,terrestrial_means,aquatic_means,operational,date.1,Concelho,Distrito,NUTII_DSG,longitude,latitude
25063232,Santa Maria do Castelo e Santiago e Santa Susana,Alentejo Litoral,312,2025-03-09T19:02:00Z,25063232,Em curso,1101,Cheia,0,0,0,0,2025-03-09T19:02:00Z,Alcácer Do Sal,Setúbal,Alentejo,-8.48167,38.29806
25109978,Monchique,Algarve,313,2025-03-19T15:11:00Z,25109978,Em curso,3301,Queda de árvore,0,3,0,6,2025-03-19T15:11:00Z,Monchique,Faro,Algarve,-8.559443,37.306366
25110044,Azeitão (São Lourenço e São Simão),Península de Setúbal,311,2025-03-19T15:41:00Z,25110044,Em despacho,3301,Queda de árvore,0,1,0,4,2025-03-19T15:41:00Z,Setúbal,Setúbal,Área Metropolitana De Lisboa,-8.981834,38.539233
25110245,Salto,Alto Tâmega e Barroso,309,2025-03-19T16:13:00Z,25110245,Em despacho,3317,Inundação de estruturas por água canalizada,0,1,0,5,2025-03-19T16:13:00Z,Montalegre,Vila Real,Norte,-7.986688,41.651086
25110295,Olaia e Paço,Médio Tejo,311,2025-03-19T16:30:00Z,25110295,Em despacho,3301,Queda de árvore,0,1,0,2,2025-03-19T16:30:00Z,Torres Novas,Santarém,Centro,-8.513317,39.508212
25087162,Pedrógão,Baixo Alentejo,312,2025-03-14T17:00:00Z,25087162,Em curso,1101,Cheia,0,0,0,0,2025-03-14T17:00:00Z,Vidigueira,Beja,Alentejo,-7.630327,38.110775
25108988,"Alto do Seixalinho, Santo André e Verderena",Península de Setúbal,311,2025-03-19T12:45:00Z,25108988,Em despacho,3329,Queda de estruturas temporárias ou móveis,0,2,0,6,2025-03-19T12:45:00Z,Barreiro,Setúbal,Área Metropolitana De Lisboa,-9.056708,38.653969
25109254,"S.maria, S.miguel, S.martinho, S.pedro Penaferrim",Grande Lisboa,311,2025-03-19T13:30:00Z,25109254,Em conclusão,3301,Queda de árvore,0,1,0,2,2025-03-19T13:30:00Z,Sintra,Lisboa,Área Metropolitana De Lisboa,-9.39664,38.76786
25109867,Espinho,Região de Coimbra,310,2025-03-19T15:02:00Z,25109867,Em curso,3301,Queda de árvore,0,2,0,3,2025-03-19T15:02:00Z,Mortágua,Viseu,Centro,-8.295708,40.413843
25110001,Lousa,Grande Lisboa,311,2025-03-19T15:34:00Z,25110001,Em despacho,3301,Queda de árvore,0,1,0,1,2025-03-19T15:34:00Z,Loures,Lisboa,Área Metropolitana De Lisboa,-9.203808,38.888715
25110081,Vila Nova da Baronia,Baixo Alentejo,312,2025-03-19T15:46:00Z,25110081,Em conclusão,3301,Queda de árvore,0,0,0,0,2025-03-19T15:46:00Z,Alvito,Beja,Alentejo,-8.065497,38.224428
25110106,São Teotónio,Alentejo Litoral,312,2025-03-19T15:54:00Z,25110106,Em resolução,3301,Queda de árvore,0,4,0,9,2025-03-19T15:54:00Z,Odemira,Beja,Alentejo,-8.807968,37.597892
25110345,Avanca,Região de Aveiro,310,2025-03-19T16:35:00Z,25110345,Em curso,3311,Queda de elementos de estruturas edificados,0,1,0,2,2025-03-19T16:35:00Z,Estarreja,Aveiro,Centro,-8.575154,40.804832
25110444,São João Das Lampas e Terrugem,Grande Lisboa,311,2025-03-19T16:34:00Z,25110444,Em despacho,3301,Queda de árvore,0,1,0,2,2025-03-19T16:34:00Z,Sintra,Lisboa,Área Metropolitana De Lisboa,-9.436253,38.869236
25110495,Cascais e Estoril,Grande Lisboa,311,2025-03-19T17:05:00Z,25110495,Em despacho,3301,Queda de árvore,0,1,0,5,2025-03-19T17:05:00Z,Cascais,Lisboa,Área Metropolitana De Lisboa,-9.374686,38.707771
25110131,Espinho,Area M. Porto,309,2025-03-19T15:57:00Z,25110131,Em curso,3311,Queda de elementos de estruturas edificados,0,2,0,5,2025-03-19T15:57:00Z,Espinho,Aveiro,Norte,-8.64903,41.00893
25110183,São Miguel de Poiares,Região de Coimbra,310,2025-03-19T15:50:00Z,25110183,Em despacho,3321,Dano na rede de fornecimento de eletricidade ,0,1,0,2,2025-03-19T15:50:00Z,Vila Nova De Poiares,Coimbra,Centro,-8.217696,40.214903
25110206,"Seixal, Arrentela e Aldeia de Paio Pires",Península de Setúbal,311,2025-03-19T16:10:00Z,25110206,Em despacho,3329,Queda de estruturas temporárias ou móveis,0,1,0,3,2025-03-19T16:10:00Z,Seixal,Setúbal,Área Metropolitana De Lisboa,-9.102119,38.613966
25110215,São João Das Lampas e Terrugem,Grande Lisboa,311,2025-03-19T16:10:00Z,25110215,Em conclusão,3301,Queda de árvore,0,1,0,4,2025-03-19T16:10:00Z,Sintra,Lisboa,Área Metropolitana De Lisboa,-9.442718,38.844843
25110326,Chãos,Médio Tejo,311,2025-03-19T16:39:00Z,25110326,Em despacho,3301,Queda de árvore,0,1,0,2,2025-03-19T16:39:00Z,Ferreira Do Zêzere,Santarém,Centro,-8.397775,39.699476
25110374,Turiz,Cávado,309,2025-03-19T16:45:00Z,25110374,Em curso,3301,Queda de árvore,0,1,0,2,2025-03-19T16:45:00Z,Vila Verde,Braga,Norte,-8.450645,41.632564
25068300,Almeirim,Lezíria do Tejo,311,2025-03-10T20:52:00Z,25068300,Em curso,1101,Cheia,0,0,0,0,2025-03-10T20:52:00Z,Almeirim,Santarém,Alentejo,-8.635002,39.187436
25109482,Algueirão-Mem Martins,Grande Lisboa,311,2025-03-19T13:55:00Z,25109482,Em despacho,3329,Queda de estruturas temporárias ou móveis,0,1,0,2,2025-03-19T13:55:00Z,Sintra,Lisboa,Área Metropolitana De Lisboa,-9.340934,38.801232
25109730,Cela,Oeste,311,2025-03-19T14:44:00Z,25109730,Em conclusão,3301,Queda de árvore,0,2,0,6,2025-03-19T14:44:00Z,Alcobaça,Leiria,Centro,-9.047246,39.526851
25110123,Benfica do Ribatejo,Lezíria do Tejo,311,2025-03-19T15:59:00Z,25110123,Em curso,3301,Queda de árvore,0,2,0,7,2025-03-19T15:59:00Z,Almeirim,Santarém,Alentejo,-8.6634,39.127887
25059714,Torrão,Alentejo Litoral,312,2025-03-08T22:10:00Z,25059714,Em curso,1101,Cheia,0,2,0,3,2025-03-08T22:10:00Z,Alcácer Do Sal,Setúbal,Alentejo,-8.359133,38.252053
25070044,Praia do Ribatejo,Médio Tejo,311,2025-03-10T19:30:00Z,25070044,Em curso,1101,Cheia,0,0,0,0,2025-03-10T19:30:00Z,Vila Nova Da Barquinha,Santarém,Centro,-8.357309,39.485638
25071496,São Manços e São Vicente do Pigeiro,Alentejo Central,312,2025-03-11T13:18:00Z,25071496,Em curso,1101,Cheia,0,2,0,4,2025-03-11T13:18:00Z,Évora,Évora,Alentejo,-7.713313,38.513673
25109169,Brinches,Baixo Alentejo,312,2025-03-19T13:13:00Z,25109169,Em resolução,3301,Queda de árvore,0,0,0,0,2025-03-19T13:13:00Z,Serpa,Beja,Alentejo,-7.609927,38.037268
25110137,Montargil,Alto Alentejo,312,2025-03-19T16:00:00Z,25110137,Em despacho,3301,Queda de árvore,0,1,0,3,2025-03-19T16:00:00Z,Ponte De Sor,Portalegre,Alentejo,-8.167765,39.078287
25110440,Vieira de Leiria,Região de Leiria,310,2025-03-19T16:47:00Z,25110440,Em despacho,3301,Queda de árvore,0,2,0,3,2025-03-19T16:47:00Z,Marinha Grande,Leiria,Centro,-8.944432,39.854382
25110474,Couço,Lezíria do Tejo,311,2025-03-19T17:11:00Z,25110474,Em despacho,3301,Queda de árvore,0,2,0,7,2025-03-19T17:11:00Z,Coruche,Santarém,Alentejo,-8.243862,38.966544
25110471,"Braga (Maximinos, Sé e Cividade)",Cávado,309,2025-03-19T17:04:00Z,25110471,Em despacho,3329,Queda de estruturas temporárias ou móveis,0,2,0,5,2025-03-19T17:04:00Z,Braga,Braga,Norte,-8.436822,41.544605
25110225,"Ovar, São João, Arada e São Vicente de Pereira Jusã",Região de Aveiro,310,2025-03-19T16:18:00Z,25110225,Em curso,3301,Queda de árvore,0,2,0,5,2025-03-19T16:18:00Z,Ovar,Aveiro,Centro,-8.55821,40.86796
25110275,Alvorge,Região de Leiria,310,2025-03-19T16:10:00Z,25110275,Em despacho,3311,Queda de elementos de estruturas edificados,0,1,0,4,2025-03-19T16:10:00Z,Ansião,Leiria,Centro,-8.46216,39.997421
25110359,Arganil,Região de Coimbra,310,2025-03-19T16:38:00Z,25110359,Em despacho,3301,Queda de árvore,0,1,0,4,2025-03-19T16:38:00Z,Arganil,Coimbra,Centro,-8.049044,40.211318
25110382,Gondemaria e Olival,Médio Tejo,311,2025-03-19T16:50:00Z,25110382,Em conclusão,3301,Queda de árvore,0,1,0,4,2025-03-19T16:50:00Z,Ourém,Santarém,Centro,-8.606564,39.71232
25110427,Foz de Arouce e Casal de Ermio,Região de Coimbra,310,2025-03-19T16:59:00Z,25110427,Em despacho,3301,Queda de árvore,0,1,0,3,2025-03-19T16:59:00Z,Lousã,Coimbra,Centro,-8.275534,40.18715
