id,address,subregion,neighborhood,date,id.1,state,nature,nature_description,aerial_means,terrestrial_means,aquatic_means,operational,date.1,Concelho,Distrito,NUTII_DSG,longitude,latitude
25503979,Vieira de Leiria,Região de Leiria,310,2025-06-10T07:20:00Z,25503979,Em conclusão,2101,Incêndio em edifícios habitacionais,0,3,0,9,2025-06-10T07:20:00Z,Marinha Grande,Leiria,Centro,-8.965245,39.87512
25503997,"Marvila, Ribeira Santarém, S.salvador, S.nicolau",Lezíria do Tejo,311,2025-06-10T07:26:00Z,25503997,Em conclusão,3111,Queima,0,0,0,0,2025-06-10T07:26:00Z,Santarém,Santarém,Alentejo,-8.677585,39.244945
25504047,Souto e Tabaçô,Alto Minho,309,2025-06-10T07:50:00Z,25504047,Em despacho,3103,Incêndio rural,0,1,0,3,2025-06-10T07:50:00Z,Arcos De Valdevez,Viana Do Castelo,Norte,-8.441115,41.831149
25504050,Cibões e Brufe,Cávado,309,2025-06-10T07:52:00Z,25504050,Em despacho,3111,Queima,0,0,0,0,2025-06-10T07:52:00Z,Terras De Bouro,Braga,Norte,-8.26342,41.76663
25503556,Portela e Extremo,Alto Minho,309,2025-06-10T00:57:00Z,25503556,Em resolução,3103,Incêndio rural,0,6,0,24,2025-06-10T00:57:00Z,Arcos De Valdevez,Viana Do Castelo,Norte,-8.464202,41.960325
