id,address,subregion,neighborhood,date,id.1,state,nature,nature_description,aerial_means,terrestrial_means,aquatic_means,operational,date.1,Concelho,Distrito,NUTII_DSG,longitude,latitude,state_2
25707554,Santo André de Vagos,Região de Aveiro,310,2025-07-20T18:04:00Z,25707554,Em Resolução/Conclusão,3105,Incêndio rural,0,2,0,10,2025-07-20T18:04:00Z,Vagos,Aveiro,Centro,-8.66071,40.493847,Resolução/Conclusão
25707638,Santa Cruz do Douro e São Tomé de Covelas,Tâmega e Sousa,309,2025-07-20T18:35:00Z,25707638,Em Despacho,3105,Incêndio rural,0,1,0,5,2025-07-20T18:35:00Z,Baião,Porto,Norte,-8.008032,41.10647,Despacho
25707583,Vilarinho,Area M. Porto,309,2025-07-20T18:20:00Z,25707583,Em Despacho,3103,Incêndio rural,0,1,0,5,2025-07-20T18:20:00Z,Santo Tirso,Porto,Norte,-8.329106,41.352084,Despacho
25707684,Pinhel,Beiras e Serra da Estrela,310,2025-07-20T18:48:00Z,25707684,Em Despacho,3103,Incêndio rural,0,0,0,0,2025-07-20T18:48:00Z,Pinhel,Guarda,Centro,-7.081279,40.774787,Despacho
25707530,Âncora,Alto Minho,309,2025-07-20T17:59:00Z,25707530,Em Resolução/Conclusão,3105,Incêndio rural,0,1,0,5,2025-07-20T17:59:00Z,Caminha,Viana Do Castelo,Norte,-8.859643,41.801452,Resolução/Conclusão
25707621,Vilar de Perdizes e Meixide,Alto Tâmega e Barroso,309,2025-07-20T18:24:00Z,25707621,Em Despacho,3103,Incêndio rural,1,3,0,21,2025-07-20T18:24:00Z,Montalegre,Vila Real,Norte,-7.598333,41.87052,Despacho
25686799,Souto Maior,Douro,309,2025-07-16T13:19:00Z,25686799,Em Resolução/Conclusão,3101,Incêndio rural,0,3,0,12,2025-07-16T13:19:00Z,Sabrosa,Vila Real,Norte,-7.57839,41.287518,Resolução/Conclusão
25706620,Forno Telheiro,Beiras e Serra da Estrela,310,2025-07-20T14:06:00Z,25706620,Em Resolução/Conclusão,3103,Incêndio rural,0,4,0,14,2025-07-20T14:06:00Z,Celorico Da Beira,Guarda,Centro,-7.400468,40.6775,Resolução/Conclusão
25706871,Muxagata,Douro,309,2025-07-20T15:06:00Z,25706871,Em Resolução/Conclusão,3103,Incêndio rural,0,10,0,35,2025-07-20T15:06:00Z,Vila Nova De Foz Côa,Guarda,Norte,-7.195613,41.046983,Resolução/Conclusão
25707608,Benavente,Lezíria do Tejo,311,2025-07-20T18:25:00Z,25707608,Em Resolução/Conclusão,3103,Incêndio rural,0,2,0,7,2025-07-20T18:25:00Z,Benavente,Santarém,Alentejo,-8.802393,38.98101,Resolução/Conclusão
