id,address,subregion,neighborhood,date,id.1,state,nature,nature_description,aerial_means,terrestrial_means,aquatic_means,operational,date.1,Concelho,Distrito,NUTII_DSG,longitude,latitude
25592306,Vilarinho Dos Freires,Douro,309,2025-06-28T10:08:00Z,25592306,Em curso,3103,Incêndio rural,1,6,0,33,2025-06-28T10:08:00Z,Peso Da Régua,Vila Real,Norte,-7.733775,41.207972
25592554,Guarda,Beiras e Serra da Estrela,310,2025-06-28T10:55:00Z,25592554,Em conclusão,2301,Incêndio em transporte rodoviário,0,4,0,13,2025-06-28T10:55:00Z,Guarda,Guarda,Centro,-7.234262,40.533685
25592556,São Gregório e Santa Justa,Alentejo Central,312,2025-06-28T10:54:00Z,25592556,Em resolução,3105,Incêndio rural,1,13,0,54,2025-06-28T10:54:00Z,Arraiolos,Évora,Alentejo,-7.885787,38.766733
25592684,Beja (Salvador e Santa Maria da Feira),Baixo Alentejo,312,2025-06-28T11:18:00Z,25592684,Em curso,3105,Incêndio rural,0,5,0,19,2025-06-28T11:18:00Z,Beja,Beja,Alentejo,-7.865993,38.02966
25592686,Sosa,Região de Aveiro,310,2025-06-28T11:20:00Z,25592686,Em curso,2301,Incêndio em transporte rodoviário,0,1,0,5,2025-06-28T11:20:00Z,Vagos,Aveiro,Centro,-8.657173,40.535238
25592716,Rebordainhos e Pombares,Terras de Trás-os-Montes,309,2025-06-28T11:25:00Z,25592716,Em resolução,3103,Incêndio rural,0,2,0,7,2025-06-28T11:25:00Z,Bragança,Bragança,Norte,-6.882622,41.696607
25591942,Folhadela,Douro,309,2025-06-28T08:59:00Z,25591942,Em conclusão,2301,Incêndio em transporte rodoviário,0,2,0,7,2025-06-28T08:59:00Z,Vila Real,Vila Real,Norte,-7.739234,41.281351
25592341,Lomba,Area M. Porto,309,2025-06-28T10:12:00Z,25592341,Em conclusão,3107,Consolidação de rescaldo de incêndio rural,0,2,0,10,2025-06-28T10:12:00Z,Gondomar,Porto,Norte,-8.411494,41.057475
