id,address,subregion,neighborhood,date,id.1,state,nature,nature_description,aerial_means,terrestrial_means,aquatic_means,operational,date.1,Concelho,Distrito,NUTII_DSG,longitude,latitude,state_2
25686799,Souto Maior,Douro,309,2025-07-16T13:19:00Z,25686799,Em Resolução/Conclusão,3101,Incêndio rural,0,12,0,34,2025-07-16T13:19:00Z,Sabrosa,Vila Real,Norte,-7.57839,41.287518,Resolução/Conclusão
25703047,Vila Chã (São João Baptista e Santiago),Alto Minho,309,2025-07-19T18:30:00Z,25703047,Em Resolução/Conclusão,3103,Incêndio rural,0,2,0,7,2025-07-19T18:30:00Z,Ponte Da Barca,Viana Do Castelo,Norte,-8.352668,41.787662,Resolução/Conclusão
25703112,Rio Mau e Arcos,Area M. Porto,309,2025-07-19T18:43:00Z,25703112,Em Resolução/Conclusão,3101,Incêndio rural,0,2,0,7,2025-07-19T18:43:00Z,Vila Do Conde,Porto,Norte,-8.680828,41.401365,Resolução/Conclusão
25703264,Arnóia,Tâmega e Sousa,309,2025-07-19T19:07:00Z,25703264,Em Resolução/Conclusão,3103,Incêndio rural,0,2,0,10,2025-07-19T19:07:00Z,Celorico De Basto,Braga,Norte,-8.017668,41.374917,Resolução/Conclusão
25703428,Fátima,Médio Tejo,311,2025-07-19T20:03:00Z,25703428,Em Resolução/Conclusão,3103,Incêndio rural,0,3,0,12,2025-07-19T20:03:00Z,Ourém,Santarém,Centro,-8.686872,39.639765,Resolução/Conclusão
25703511,"O. Azeméis, Riba-Ul, Ul, Macinhata Seixa, Madail",Area M. Porto,309,2025-07-19T20:20:00Z,25703511,Em Resolução/Conclusão,3101,Incêndio rural,0,2,0,7,2025-07-19T20:20:00Z,Oliveira De Azeméis,Aveiro,Norte,-8.482939,40.836334,Resolução/Conclusão
25701864,Bordonhos,Viseu Dão Lafões,310,2025-07-19T13:53:00Z,25701864,Em Resolução/Conclusão,3103,Incêndio rural,0,2,0,7,2025-07-19T13:53:00Z,São Pedro Do Sul,Viseu,Centro,-8.088672,40.765902,Resolução/Conclusão
25702273,Selmes,Baixo Alentejo,312,2025-07-19T15:16:00Z,25702273,Em Resolução/Conclusão,3105,Incêndio rural,0,10,0,32,2025-07-19T15:16:00Z,Vidigueira,Beja,Alentejo,-7.771817,38.209072,Resolução/Conclusão
25703323,Costa da Caparica,Península de Setúbal,311,2025-07-19T19:42:00Z,25703323,Em Resolução/Conclusão,3103,Incêndio rural,0,2,0,10,2025-07-19T19:42:00Z,Almada,Setúbal,Área Metropolitana De Lisboa,-9.2294,38.64034,Resolução/Conclusão
25703391,Albergaria-a-Velha e Valmaior,Região de Aveiro,310,2025-07-19T19:54:00Z,25703391,Em Resolução/Conclusão,3103,Incêndio rural,0,2,0,10,2025-07-19T19:54:00Z,Albergaria-a-Velha,Aveiro,Centro,-8.479745,40.688997,Resolução/Conclusão
25703459,Pinhal Novo,Península de Setúbal,311,2025-07-19T20:12:00Z,25703459,Em Despacho,3103,Incêndio rural,0,3,0,15,2025-07-19T20:12:00Z,Palmela,Setúbal,Área Metropolitana De Lisboa,-8.85817,38.673386,Despacho
25703474,Nossa Senhora Das Misericórdias,Médio Tejo,311,2025-07-19T20:17:00Z,25703474,Em Curso,3103,Incêndio rural,0,2,0,7,2025-07-19T20:17:00Z,Ourém,Santarém,Centro,-8.606151,39.651978,Curso
25703020,Alcanede,Lezíria do Tejo,311,2025-07-19T18:24:00Z,25703020,Em Resolução/Conclusão,3103,Incêndio rural,0,27,0,99,2025-07-19T18:24:00Z,Santarém,Santarém,Alentejo,-8.8021,39.403117,Resolução/Conclusão
25703086,"Ponte da Barca, V. N. Muía e Paço Vedro Magalhães",Alto Minho,309,2025-07-19T18:45:00Z,25703086,Em Resolução/Conclusão,3103,Incêndio rural,0,2,0,7,2025-07-19T18:45:00Z,Ponte Da Barca,Viana Do Castelo,Norte,-8.393265,41.801573,Resolução/Conclusão
25703306,Batalha,Região de Leiria,310,2025-07-19T19:30:00Z,25703306,Em Resolução/Conclusão,3111,Queima,0,1,0,2,2025-07-19T19:30:00Z,Batalha,Leiria,Centro,-8.829688,39.677072,Resolução/Conclusão
25703505,Revinhade,Tâmega e Sousa,309,2025-07-19T20:24:00Z,25703505,Em Despacho,3103,Incêndio rural,0,2,0,10,2025-07-19T20:24:00Z,Felgueiras,Porto,Norte,-8.2662,41.346974,Despacho
