id,address,subregion,neighborhood,date,id.1,state,nature,nature_description,aerial_means,terrestrial_means,aquatic_means,operational,date.1,Concelho,Distrito,NUTII_DSG,longitude,latitude
24888293,Pernes,Lezíria do Tejo,311,2025-01-29T16:41:00Z,24888293,Em curso,3301,Queda de árvore,0,0,0,0,2025-01-29T16:41:00Z,Santarém,Santarém,Alentejo,-8.658865,39.381547
25017102,Encarnação,Grande Lisboa,311,2025-02-27T10:52:00Z,25017102,Em despacho,3315,Inundação de estruturas por precipitação intensa,0,1,0,4,2025-02-27T10:52:00Z,Mafra,Lisboa,Área Metropolitana De Lisboa,-9.37183,39.05481
25017579,Alcabideche,Grande Lisboa,311,2025-02-27T12:14:00Z,25017579,Em conclusão,3315,Inundação de estruturas por precipitação intensa,0,1,0,4,2025-02-27T12:14:00Z,Cascais,Lisboa,Área Metropolitana De Lisboa,-9.385597,38.740082
25017523,Alcabideche,Grande Lisboa,311,2025-02-27T12:03:00Z,25017523,Em conclusão,3315,Inundação de estruturas por precipitação intensa,0,1,0,3,2025-02-27T12:03:00Z,Cascais,Lisboa,Área Metropolitana De Lisboa,-9.370587,38.736639
25017526,Cascais e Estoril,Grande Lisboa,311,2025-02-27T11:55:00Z,25017526,Em despacho,3315,Inundação de estruturas por precipitação intensa,0,1,0,2,2025-02-27T11:55:00Z,Cascais,Lisboa,Área Metropolitana De Lisboa,-9.398759,38.70391
24877003,Malagueira e Horta Das Figueiras,Alentejo Central,312,2025-01-27T11:41:00Z,24877003,Em conclusão,3315,Inundação de estruturas por precipitação intensa,0,0,0,0,2025-01-27T11:41:00Z,Évora,Évora,Alentejo,-7.924277,38.57285
25017555,Cascais e Estoril,Grande Lisboa,311,2025-02-27T11:50:00Z,25017555,Em despacho,3315,Inundação de estruturas por precipitação intensa,0,1,0,4,2025-02-27T11:50:00Z,Cascais,Lisboa,Área Metropolitana De Lisboa,-9.419397,38.700982
25017664,Algueirão-Mem Martins,Grande Lisboa,311,2025-02-27T12:34:00Z,25017664,Em despacho,3315,Inundação de estruturas por precipitação intensa,0,1,0,2,2025-02-27T12:34:00Z,Sintra,Lisboa,Área Metropolitana De Lisboa,-9.345795,38.786998
25005550,Sines,Alentejo Litoral,312,2025-02-24T19:12:00Z,25005550,Em conclusão,3313,Deslizamento de terras,0,0,0,0,2025-02-24T19:12:00Z,Sines,Setúbal,Alentejo,-8.849778,37.961314
