id,address,subregion,neighborhood,date,id.1,state,nature,nature_description,aerial_means,terrestrial_means,aquatic_means,operational,date.1,Concelho,Distrito,NUTII_DSG,longitude,latitude
24877003,Malagueira e Horta Das Figueiras,Alentejo Central,312,2025-01-27T11:41:00Z,24877003,Em conclusão,3315,Inundação de estruturas por precipitação intensa,0,0,0,0,2025-01-27T11:41:00Z,Évora,Évora,Alentejo,-7.924277,38.57285
24906624,Mafamude e Vilar do Paraíso,Area M. Porto,309,2025-02-02T18:06:00Z,24906624,Em despacho,3311,Queda de elementos de estruturas edificados,0,1,0,3,2025-02-02T18:06:00Z,Vila Nova De Gaia,Porto,Norte,-8.601126,41.126193
24906800,"O. Azeméis, Riba-Ul, Ul, Macinhata Seixa, Madail",Area M. Porto,309,2025-02-02T19:35:00Z,24906800,Em despacho,3301,Queda de árvore,0,1,0,2,2025-02-02T19:35:00Z,Oliveira De Azeméis,Aveiro,Norte,-8.487606,40.83215
24851780,"São Miguel, Santa Eufémia e Rabaçal",Região de Coimbra,310,2025-01-21T23:25:00Z,24851780,Em curso,3315,Inundação de estruturas por precipitação intensa,0,0,0,0,2025-01-21T23:25:00Z,Penela,Coimbra,Centro,-8.399036,40.025502
24906671,Glória e Vera Cruz,Região de Aveiro,310,2025-02-02T18:57:00Z,24906671,Em curso,3317,Inundação de estruturas por água canalizada,0,1,0,2,2025-02-02T18:57:00Z,Aveiro,Aveiro,Centro,-8.659223,40.645992
