id,address,subregion,neighborhood,date,id.1,state,nature,nature_description,aerial_means,terrestrial_means,aquatic_means,operational,date.1,Concelho,Distrito,NUTII_DSG,longitude,latitude,state_2
25737064,Calde,Viseu Dão Lafões,310,2025-07-26T15:40:00Z,25737064,Em Resolução/Conclusão,3105,Incêndio rural,0,2,0,6,2025-07-26T15:40:00Z,Viseu,Viseu,Centro,-7.902173,40.765834,Resolução/Conclusão
25737195,Armamar,Douro,309,2025-07-26T16:07:00Z,25737195,Em Resolução/Conclusão,3103,Incêndio rural,0,10,0,38,2025-07-26T16:07:00Z,Armamar,Viseu,Norte,-7.649752,41.158315,Resolução/Conclusão
25737481,Poiares (Santo André),Região de Coimbra,310,2025-07-26T17:10:00Z,25737481,Em Resolução/Conclusão,3105,Incêndio rural,0,0,0,0,2025-07-26T17:10:00Z,Vila Nova De Poiares,Coimbra,Centro,-8.25056,40.21389,Resolução/Conclusão
25737663,Rans,Tâmega e Sousa,309,2025-07-26T18:00:00Z,25737663,Em Resolução/Conclusão,3103,Incêndio rural,1,1,0,11,2025-07-26T18:00:00Z,Penafiel,Porto,Norte,-8.3055,41.1685,Resolução/Conclusão
25737830,Santa Maria do Castelo e Santiago e Santa Susana,Alentejo Litoral,312,2025-07-26T18:32:00Z,25737830,Em Curso,3103,Incêndio rural,0,4,0,17,2025-07-26T18:32:00Z,Alcácer Do Sal,Setúbal,Alentejo,-8.51465,38.27207,Curso
25729082,São Jorge e Ermelo,Alto Minho,309,2025-07-25T04:45:00Z,25729082,Em Resolução/Conclusão,3101,Incêndio rural,0,4,0,14,2025-07-25T04:45:00Z,Arcos De Valdevez,Viana Do Castelo,Norte,-8.356835,41.818005,Resolução/Conclusão
25735885,Miranda do Douro,Terras de Trás-os-Montes,309,2025-07-26T11:25:00Z,25735885,Em Resolução/Conclusão,3105,Incêndio rural,0,3,0,11,2025-07-26T11:25:00Z,Miranda Do Douro,Bragança,Norte,-6.245727,41.563985,Resolução/Conclusão
25736569,Turcifal,Oeste,311,2025-07-26T13:49:00Z,25736569,Em Resolução/Conclusão,3103,Incêndio rural,0,0,0,0,2025-07-26T13:49:00Z,Torres Vedras,Lisboa,Centro,-9.240779,39.019309,Resolução/Conclusão
25736820,Âncora,Alto Minho,309,2025-07-26T14:43:00Z,25736820,Em Resolução/Conclusão,3105,Incêndio rural,0,1,0,5,2025-07-26T14:43:00Z,Caminha,Viana Do Castelo,Norte,-8.860453,41.800523,Resolução/Conclusão
25736989,Adorigo,Douro,309,2025-07-26T15:20:00Z,25736989,Em Resolução/Conclusão,3103,Incêndio rural,0,5,0,14,2025-07-26T15:20:00Z,Tabuaço,Viseu,Norte,-7.63284,41.157115,Resolução/Conclusão
25737173,Eixo e Eirol,Região de Aveiro,310,2025-07-26T16:02:00Z,25737173,Em Resolução/Conclusão,3105,Incêndio rural,0,5,0,15,2025-07-26T16:02:00Z,Aveiro,Aveiro,Centro,-8.565967,40.632687,Resolução/Conclusão
25737274,Caparica e Trafaria,Península de Setúbal,311,2025-07-26T16:23:00Z,25737274,Em Resolução/Conclusão,3103,Incêndio rural,0,16,0,60,2025-07-26T16:23:00Z,Almada,Setúbal,Área Metropolitana De Lisboa,-9.203688,38.66837,Resolução/Conclusão
25737357,Pedralva,Cávado,309,2025-07-26T16:45:00Z,25737357,Em Resolução/Conclusão,3103,Incêndio rural,0,0,0,0,2025-07-26T16:45:00Z,Braga,Braga,Norte,-8.315349,41.561402,Resolução/Conclusão
25737390,Bougado (São Martinho e Santiago),Area M. Porto,309,2025-07-26T16:50:00Z,25737390,Em Resolução/Conclusão,3103,Incêndio rural,0,2,0,5,2025-07-26T16:50:00Z,Trofa,Porto,Norte,-8.562625,41.320962,Resolução/Conclusão
25737424,Gamil e Midões,Cávado,309,2025-07-26T16:58:00Z,25737424,Em Resolução/Conclusão,3103,Incêndio rural,0,0,0,0,2025-07-26T16:58:00Z,Barcelos,Braga,Norte,-8.585763,41.520097,Resolução/Conclusão
25727257,Santiago de Piães,Tâmega e Sousa,309,2025-07-24T17:40:00Z,25727257,Em Resolução/Conclusão,3103,Incêndio rural,0,1,0,5,2025-07-24T17:40:00Z,Cinfães,Viseu,Norte,-8.173138,41.025392,Resolução/Conclusão
25736835,Couço,Lezíria do Tejo,311,2025-07-26T14:48:00Z,25736835,Em Resolução/Conclusão,3105,Incêndio rural,0,6,0,19,2025-07-26T14:48:00Z,Coruche,Santarém,Alentejo,-8.14717,38.785778,Resolução/Conclusão
25736915,Vacalar,Douro,309,2025-07-26T15:04:00Z,25736915,Em Resolução/Conclusão,3103,Incêndio rural,0,1,0,5,2025-07-26T15:04:00Z,Peso Da Régua,Vila Real,Norte,-7.708598,41.143832,Resolução/Conclusão
25737026,Penamacor,Beira Baixa,310,2025-07-26T15:29:00Z,25737026,Em Resolução/Conclusão,3103,Incêndio rural,0,23,0,66,2025-07-26T15:29:00Z,Penamacor,Castelo Branco,Centro,-7.164702,40.165298,Resolução/Conclusão
25737642,Aboim da Nóbrega e Gondomar,Cávado,309,2025-07-26T17:54:00Z,25737642,Em Curso,3103,Incêndio rural,8,13,0,69,2025-07-26T17:54:00Z,Vila Verde,Braga,Norte,-8.38607,41.734402,Curso
25730832,Aveleda e Rio de Onor,Terras de Trás-os-Montes,309,2025-07-25T12:07:00Z,25730832,Em Resolução/Conclusão,3103,Incêndio rural,0,21,0,73,2025-07-25T12:07:00Z,Bragança,Bragança,Norte,-6.707873,41.891435,Resolução/Conclusão
25734678,Quintiães e Aguiar,Cávado,309,2025-07-26T06:15:00Z,25734678,Em Resolução/Conclusão,3103,Incêndio rural,0,3,0,10,2025-07-26T06:15:00Z,Barcelos,Braga,Norte,-8.660918,41.629673,Resolução/Conclusão
25736248,Azambujeira e Malaqueijo,Lezíria do Tejo,311,2025-07-26T12:46:00Z,25736248,Em Curso,3105,Incêndio rural,0,0,0,0,2025-07-26T12:46:00Z,Rio Maior,Santarém,Alentejo,-8.84,39.297432,Curso
25736775,Poiares e Canelas,Douro,309,2025-07-26T14:33:00Z,25736775,Em Resolução/Conclusão,3103,Incêndio rural,0,6,0,22,2025-07-26T14:33:00Z,Peso Da Régua,Vila Real,Norte,-7.724475,41.19404,Resolução/Conclusão
25737100,Portel,Alentejo Central,312,2025-07-26T15:46:00Z,25737100,Em Resolução/Conclusão,3103,Incêndio rural,0,12,0,44,2025-07-26T15:46:00Z,Portel,Évora,Alentejo,-7.710267,38.303435,Resolução/Conclusão
25737325,Pinhel,Beiras e Serra da Estrela,310,2025-07-26T16:37:00Z,25737325,Em Resolução/Conclusão,3105,Incêndio rural,0,5,0,13,2025-07-26T16:37:00Z,Pinhel,Guarda,Centro,-7.061915,40.77885,Resolução/Conclusão
25737434,Darque,Alto Minho,309,2025-07-26T17:00:00Z,25737434,Em Resolução/Conclusão,3103,Incêndio rural,0,1,0,5,2025-07-26T17:00:00Z,Viana Do Castelo,Viana Do Castelo,Norte,-8.777552,41.683385,Resolução/Conclusão
25737888,Valdreu,Cávado,309,2025-07-26T18:45:00Z,25737888,Em Despacho,3103,Incêndio rural,0,1,0,4,2025-07-26T18:45:00Z,Vila Verde,Braga,Norte,-8.34571,41.746821,Despacho
25737773,Sobretâmega,Tâmega e Sousa,309,2025-07-26T18:21:00Z,25737773,Em Resolução/Conclusão,3103,Incêndio rural,1,4,0,24,2025-07-26T18:21:00Z,Marco De Canaveses,Porto,Norte,-8.164128,41.195576,Resolução/Conclusão
25737728,Valadares,Tâmega e Sousa,309,2025-07-26T18:11:00Z,25737728,Em Resolução/Conclusão,3103,Incêndio rural,0,2,0,10,2025-07-26T18:11:00Z,Baião,Porto,Norte,-7.971115,41.15738,Resolução/Conclusão
25737785,Carvalhal,Oeste,311,2025-07-26T18:24:00Z,25737785,Em Curso,3103,Incêndio rural,1,8,0,37,2025-07-26T18:24:00Z,Bombarral,Leiria,Centro,-9.14145,39.31448,Curso
25737794,Alfena,Area M. Porto,309,2025-07-26T18:26:00Z,25737794,Em Resolução/Conclusão,3101,Incêndio rural,0,2,0,7,2025-07-26T18:26:00Z,Valongo,Porto,Norte,-8.535897,41.238833,Resolução/Conclusão
25737796,Ermesinde,Area M. Porto,309,2025-07-26T18:26:00Z,25737796,Em Resolução/Conclusão,3103,Incêndio rural,0,2,0,8,2025-07-26T18:26:00Z,Valongo,Porto,Norte,-8.55081,41.221953,Resolução/Conclusão
