id,address,subregion,neighborhood,date,id.1,state,nature,nature_description,aerial_means,terrestrial_means,aquatic_means,operational,date.1,Concelho,Distrito,NUTII_DSG,longitude,latitude,state_2
26139342,Cascais e Estoril,Grande Lisboa,311,2025-10-15T09:26:00Z,26139342,Em Despacho,3103,Incêndio rural,0,3,0,15,2025-10-15T09:26:00Z,Cascais,Lisboa,Área Metropolitana De Lisboa,-9.389433,38.721326,Despacho
26138653,Calvos e Frades,Ave,309,2025-10-15T05:54:00Z,26138653,Em Resolução/Conclusão,3103,Incêndio rural,0,8,0,30,2025-10-15T05:54:00Z,Póvoa De Lanhoso,Braga,Norte,-8.24277,41.614365,Resolução/Conclusão
26138837,Esperança e Brunhais,Ave,309,2025-10-15T07:36:00Z,26138837,Em Resolução/Conclusão,3103,Incêndio rural,0,2,0,5,2025-10-15T07:36:00Z,Póvoa De Lanhoso,Braga,Norte,-8.169653,41.58005,Resolução/Conclusão
26137682,Cabril,Viseu Dão Lafões,310,2025-10-14T20:26:00Z,26137682,Em Resolução/Conclusão,3103,Incêndio rural,0,1,0,5,2025-10-14T20:26:00Z,Castro Daire,Viseu,Centro,-8.09192,40.961935,Resolução/Conclusão
26137442,Cabril,Viseu Dão Lafões,310,2025-10-14T19:16:00Z,26137442,Em Resolução/Conclusão,3103,Incêndio rural,0,0,0,0,2025-10-14T19:16:00Z,Castro Daire,Viseu,Centro,-8.059472,40.970448,Resolução/Conclusão
26138113,"S.maria, S.miguel, S.martinho, S.pedro Penaferrim",Grande Lisboa,311,2025-10-14T22:44:00Z,26138113,Em Resolução/Conclusão,3101,Incêndio rural,0,2,0,7,2025-10-14T22:44:00Z,Sintra,Lisboa,Área Metropolitana De Lisboa,-9.398293,38.767585,Resolução/Conclusão
