id,address,subregion,neighborhood,date,id.1,state,nature,nature_description,aerial_means,terrestrial_means,aquatic_means,operational,date.1,Concelho,Distrito,NUTII_DSG,longitude,latitude,state_2
25662814,Soajo,Alto Minho,309,2025-07-11T15:16:00Z,25662814,Em Resolução/Conclusão,3103,Incêndio rural,0,4,0,14,2025-07-11T15:16:00Z,Arcos De Valdevez,Viana Do Castelo,Norte,-8.22891,41.87654,Resolução/Conclusão
25670035,Esporões,Cávado,309,2025-07-13T06:38:00Z,25670035,Em Resolução/Conclusão,3103,Incêndio rural,0,2,0,8,2025-07-13T06:38:00Z,Braga,Braga,Norte,-8.394542,41.518588,Resolução/Conclusão
25670253,Panque,Cávado,309,2025-07-13T08:05:00Z,25670253,Em Curso,3103,Incêndio rural,0,2,0,7,2025-07-13T08:05:00Z,Barcelos,Braga,Norte,-8.579535,41.642698,Curso
25665133,Lindoso,Alto Minho,309,2025-07-12T02:50:00Z,25665133,Em Resolução/Conclusão,3103,Incêndio rural,0,20,0,68,2025-07-12T02:50:00Z,Ponte Da Barca,Viana Do Castelo,Norte,-8.224007,41.852543,Resolução/Conclusão
25667313,Santa Eufémia e Boa Vista,Região de Leiria,310,2025-07-12T14:36:00Z,25667313,Em Resolução/Conclusão,3103,Incêndio rural,0,1,0,2,2025-07-12T14:36:00Z,Leiria,Leiria,Centro,-8.761077,39.76109,Resolução/Conclusão
