id,address,subregion,neighborhood,date,id.1,state,nature,nature_description,aerial_means,terrestrial_means,aquatic_means,operational,date.1,Concelho,Distrito,NUTII_DSG,longitude,latitude,state_2
25738747,Lindoso,Alto Minho,309,2025-07-26T21:47:00Z,25738747,Em Curso,3103,Incêndio rural,10,103,0,328,2025-07-26T21:47:00Z,Ponte Da Barca,Viana Do Castelo,Norte,-8.220528,41.865272,Curso
25741880,Benavila e Valongo,Alto Alentejo,312,2025-07-27T14:31:00Z,25741880,Em Resolução/Conclusão,3101,Incêndio rural,0,8,0,29,2025-07-27T14:31:00Z,Avis,Portalegre,Alentejo,-7.866293,39.19533,Resolução/Conclusão
25743677,Portela,Alto Minho,309,2025-07-27T22:05:00Z,25743677,Em Resolução/Conclusão,3101,Incêndio rural,0,6,0,11,2025-07-27T22:05:00Z,Monção,Viana Do Castelo,Norte,-8.481475,41.977915,Resolução/Conclusão
25743786,Portela,Alto Minho,309,2025-07-28T00:13:00Z,25743786,Em Curso,3101,Incêndio rural,0,23,0,70,2025-07-28T00:13:00Z,Monção,Viana Do Castelo,Norte,-8.480967,41.97155,Curso
25745576,Colmeal e Vilar Torpim,Beiras e Serra da Estrela,310,2025-07-28T10:23:00Z,25745576,Em Resolução/Conclusão,3105,Incêndio rural,0,12,0,43,2025-07-28T10:23:00Z,Figueira De Castelo Rodrigo,Guarda,Centro,-6.916033,40.829685,Resolução/Conclusão
25741525,Vela,Beiras e Serra da Estrela,310,2025-07-27T13:16:00Z,25741525,Em Resolução/Conclusão,3103,Incêndio rural,0,3,0,11,2025-07-27T13:16:00Z,Guarda,Guarda,Centro,-7.287277,40.438025,Resolução/Conclusão
25745468,Alcaria,Beiras e Serra da Estrela,310,2025-07-28T10:09:00Z,25745468,Em Resolução/Conclusão,3105,Incêndio rural,0,3,0,9,2025-07-28T10:09:00Z,Fundão,Castelo Branco,Centro,-7.507897,40.202007,Resolução/Conclusão
25746206,Recarei,Area M. Porto,309,2025-07-28T11:55:00Z,25746206,Em Resolução/Conclusão,3103,Incêndio rural,0,2,0,7,2025-07-28T11:55:00Z,Paredes,Porto,Norte,-8.413702,41.145152,Resolução/Conclusão
25746591,Figueira Dos Cavaleiros,Baixo Alentejo,312,2025-07-28T13:12:00Z,25746591,Em Resolução/Conclusão,3105,Incêndio rural,0,8,0,28,2025-07-28T13:12:00Z,Ferreira Do Alentejo,Beja,Alentejo,-8.20376,38.095463,Resolução/Conclusão
25746605,"Crasto, Ruivos e Grovelas",Alto Minho,309,2025-07-28T13:13:00Z,25746605,Em Resolução/Conclusão,3103,Incêndio rural,0,1,0,4,2025-07-28T13:13:00Z,Ponte Da Barca,Viana Do Castelo,Norte,-8.430447,41.762412,Resolução/Conclusão
25737642,Aboim da Nóbrega e Gondomar,Cávado,309,2025-07-26T17:54:00Z,25737642,Em Resolução/Conclusão,3103,Incêndio rural,0,2,0,10,2025-07-26T17:54:00Z,Vila Verde,Braga,Norte,-8.38607,41.734402,Resolução/Conclusão
25741940,"Aldeia do Bispo, Águas e Aldeia de João Pires",Beira Baixa,310,2025-07-27T14:45:00Z,25741940,Em Resolução/Conclusão,3105,Incêndio rural,0,4,0,20,2025-07-27T14:45:00Z,Penamacor,Castelo Branco,Centro,-7.213632,40.123598,Resolução/Conclusão
25742517,Anhões e Luzio,Alto Minho,309,2025-07-27T17:08:00Z,25742517,Em Resolução/Conclusão,3103,Incêndio rural,0,3,0,4,2025-07-27T17:08:00Z,Monção,Viana Do Castelo,Norte,-8.452967,41.97745,Resolução/Conclusão
25744321,Gestaçô,Tâmega e Sousa,309,2025-07-28T03:55:00Z,25744321,Em Resolução/Conclusão,3103,Incêndio rural,0,2,0,7,2025-07-28T03:55:00Z,Baião,Porto,Norte,-7.951497,41.164208,Resolução/Conclusão
25744328,Vila Facaia,Região de Leiria,310,2025-07-28T04:00:00Z,25744328,Em Resolução/Conclusão,3101,Incêndio rural,0,1,0,2,2025-07-28T04:00:00Z,Pedrógão Grande,Leiria,Centro,-8.197592,39.93944,Resolução/Conclusão
25744346,Pedrógão Grande,Região de Leiria,310,2025-07-28T04:18:00Z,25744346,Em Resolução/Conclusão,3101,Incêndio rural,0,1,0,2,2025-07-28T04:18:00Z,Pedrógão Grande,Leiria,Centro,-8.18142,39.926725,Resolução/Conclusão
25746577,Albufeira e Olhos de Água,Algarve,313,2025-07-28T13:09:00Z,25746577,Em Resolução/Conclusão,3103,Incêndio rural,0,3,0,11,2025-07-28T13:09:00Z,Albufeira,Faro,Algarve,-8.240043,37.086155,Resolução/Conclusão
25744340,"Lebução, Fiães e Nozelos",Alto Tâmega e Barroso,309,2025-07-28T04:18:00Z,25744340,Em Resolução/Conclusão,3103,Incêndio rural,0,4,0,11,2025-07-28T04:18:00Z,Valpaços,Vila Real,Norte,-7.240383,41.755678,Resolução/Conclusão
25746063,Moreira,Area M. Porto,309,2025-07-28T11:30:00Z,25746063,Em Resolução/Conclusão,3103,Incêndio rural,0,2,0,7,2025-07-28T11:30:00Z,Maia,Porto,Norte,-8.634895,41.248952,Resolução/Conclusão
25746280,Lavradas,Alto Minho,309,2025-07-28T12:09:00Z,25746280,Em Resolução/Conclusão,3103,Incêndio rural,0,1,0,3,2025-07-28T12:09:00Z,Ponte Da Barca,Viana Do Castelo,Norte,-8.468568,41.796737,Resolução/Conclusão
25746297,Venteira,Grande Lisboa,311,2025-07-28T12:17:00Z,25746297,Em Curso,3103,Incêndio rural,1,16,0,59,2025-07-28T12:17:00Z,Amadora,Lisboa,Área Metropolitana De Lisboa,-9.254356,38.738829,Curso
25746535,Caparica e Trafaria,Península de Setúbal,311,2025-07-28T13:02:00Z,25746535,Em Resolução/Conclusão,3103,Incêndio rural,0,1,0,5,2025-07-28T13:02:00Z,Almada,Setúbal,Área Metropolitana De Lisboa,-9.20482,38.66512,Resolução/Conclusão
25746553,"Souto Santa Maria, Souto São Salvador e Gondomar",Ave,309,2025-07-28T13:05:00Z,25746553,Em Resolução/Conclusão,3103,Incêndio rural,0,2,0,7,2025-07-28T13:05:00Z,Guimarães,Braga,Norte,-8.288703,41.489153,Resolução/Conclusão
25746578,Soure,Região de Coimbra,310,2025-07-28T13:02:00Z,25746578,Em Resolução/Conclusão,3105,Incêndio rural,0,2,0,6,2025-07-28T13:02:00Z,Soure,Coimbra,Centro,-8.612815,40.053098,Resolução/Conclusão
25746717,Caria,Beiras e Serra da Estrela,310,2025-07-28T13:33:00Z,25746717,Em Curso,3103,Incêndio rural,2,10,0,55,2025-07-28T13:33:00Z,Belmonte,Castelo Branco,Centro,-7.33627,40.248223,Curso
25746771,Folgosa,Douro,309,2025-07-28T13:41:00Z,25746771,Em Despacho,3101,Incêndio rural,1,4,0,26,2025-07-28T13:41:00Z,Armamar,Viseu,Norte,-7.68391,41.15023,Despacho
25746821,Águas Livres,Grande Lisboa,311,2025-07-28T13:52:00Z,25746821,Em Despacho,3103,Incêndio rural,0,0,0,0,2025-07-28T13:52:00Z,Amadora,Lisboa,Área Metropolitana De Lisboa,-9.222599,38.74267,Despacho
25746607,Poiares e Canelas,Douro,309,2025-07-28T13:17:00Z,25746607,Em Resolução/Conclusão,3103,Incêndio rural,1,3,0,18,2025-07-28T13:17:00Z,Peso Da Régua,Vila Real,Norte,-7.726097,41.192663,Resolução/Conclusão
25746822,"Lobão, Gião, Louredo e Guisande",Area M. Porto,309,2025-07-28T13:52:00Z,25746822,Em Despacho,3103,Incêndio rural,0,0,0,0,2025-07-28T13:52:00Z,Santa Maria Da Feira,Aveiro,Norte,-8.497655,40.98024,Despacho
25746841,Tamel (São Veríssimo),Cávado,309,2025-07-28T13:57:00Z,25746841,Em Despacho,3105,Incêndio rural,0,0,0,0,2025-07-28T13:57:00Z,Barcelos,Braga,Norte,-8.59718,41.54983,Despacho
25746643,Cortiçô e Vila Chã,Beiras e Serra da Estrela,310,2025-07-28T13:20:00Z,25746643,Em Resolução/Conclusão,3103,Incêndio rural,1,11,0,44,2025-07-28T13:20:00Z,Fornos De Algodres,Guarda,Centro,-7.487027,40.660237,Resolução/Conclusão
25746546,Antas e Abade de Vermoim,Ave,309,2025-07-28T13:04:00Z,25746546,Em Resolução/Conclusão,3103,Incêndio rural,0,2,0,6,2025-07-28T13:04:00Z,Vila Nova De Famalicão,Braga,Norte,-8.499465,41.417902,Resolução/Conclusão
25746615,Alvarenga,Area M. Porto,309,2025-07-28T13:15:00Z,25746615,Em Curso,3103,Incêndio rural,3,15,0,71,2025-07-28T13:15:00Z,Arouca,Aveiro,Norte,-8.172332,40.966861,Curso
25746680,São Jorge e Ermelo,Alto Minho,309,2025-07-28T13:26:00Z,25746680,Em Curso,3103,Incêndio rural,1,2,0,14,2025-07-28T13:26:00Z,Arcos De Valdevez,Viana Do Castelo,Norte,-8.331616,41.836845,Curso
25746764,Campanhã,Area M. Porto,309,2025-07-28T13:40:00Z,25746764,Em Despacho,3103,Incêndio rural,0,1,0,5,2025-07-28T13:40:00Z,Porto,Porto,Norte,-8.58927,41.15285,Despacho
