id,address,subregion,neighborhood,date,id.1,state,nature,nature_description,aerial_means,terrestrial_means,aquatic_means,operational,date.1,Concelho,Distrito,NUTII_DSG,longitude,latitude
25512610,Figueiró Dos Vinhos e Bairradas,Região de Leiria,310,2025-06-11T23:08:00Z,25512610,Em conclusão,3105,Incêndio rural,0,3,0,12,2025-06-11T23:08:00Z,Figueiró Dos Vinhos,Leiria,Centro,-8.236982,39.866612
25512509,Abação e Gémeos,Ave,309,2025-06-11T22:26:00Z,25512509,Em conclusão,3103,Incêndio rural,0,3,0,16,2025-06-11T22:26:00Z,Guimarães,Braga,Norte,-8.254847,41.416252
25512534,"Sandim, Olival, Lever e Crestuma",Area M. Porto,309,2025-06-11T22:31:00Z,25512534,Em conclusão,3103,Incêndio rural,0,0,0,0,2025-06-11T22:31:00Z,Vila Nova De Gaia,Porto,Norte,-8.524079,41.053207
25508203,Ermelo e Pardelhas,Ave,309,2025-06-11T07:30:00Z,25508203,Em conclusão,3103,Incêndio rural,0,1,0,5,2025-06-11T07:30:00Z,Mondim De Basto,Vila Real,Norte,-7.842792,41.3582
25512680,Santo António Dos Olivais,Região de Coimbra,310,2025-06-11T23:52:00Z,25512680,Em despacho,2101,Incêndio em edifícios habitacionais,0,1,0,2,2025-06-11T23:52:00Z,Coimbra,Coimbra,Centro,-8.40901,40.1972
