id,address,subregion,neighborhood,date,id.1,state,nature,nature_description,aerial_means,terrestrial_means,aquatic_means,operational,date.1,Concelho,Distrito,NUTII_DSG,longitude,latitude,state_2
25636341,Navió e Vitorino Dos Piães,Alto Minho,309,2025-07-06T13:36:00Z,25636341,Em Resolução/Conclusão,3103,Incêndio rural,0,40,0,121,2025-07-06T13:36:00Z,Ponte De Lima,Viana Do Castelo,Norte,-8.636015,41.674557,Resolução/Conclusão
25636995,Graça,Região de Leiria,310,2025-07-06T16:00:00Z,25636995,Em Resolução/Conclusão,3101,Incêndio rural,0,1,0,2,2025-07-06T16:00:00Z,Pedrógão Grande,Leiria,Centro,-8.220789,39.883478,Resolução/Conclusão
25637334,São Miguel de Acha,Beira Baixa,310,2025-07-06T17:22:00Z,25637334,Em Resolução/Conclusão,3105,Incêndio rural,0,31,0,100,2025-07-06T17:22:00Z,Idanha-a-Nova,Castelo Branco,Centro,-7.277732,39.997078,Resolução/Conclusão
25638699,Santa Cruz,Baixo Alentejo,312,2025-07-06T23:21:00Z,25638699,Em Resolução/Conclusão,3105,Incêndio rural,0,0,0,0,2025-07-06T23:21:00Z,Almodôvar,Beja,Alentejo,-8.016937,37.433023,Resolução/Conclusão
25638833,Braga (São José de São Lázaro e São João do Souto),Cávado,309,2025-07-07T00:23:00Z,25638833,Em Despacho,3103,Incêndio rural,0,2,0,9,2025-07-07T00:23:00Z,Braga,Braga,Norte,-8.413956,41.53771,Despacho
25637403,Recezinhos (São Mamede),Tâmega e Sousa,309,2025-07-06T17:37:00Z,25637403,Em Resolução/Conclusão,3103,Incêndio rural,0,10,0,30,2025-07-06T17:37:00Z,Penafiel,Porto,Norte,-8.216137,41.234408,Resolução/Conclusão
25638830,Vila Franca de Xira,Grande Lisboa,311,2025-07-07T00:10:00Z,25638830,Em Curso,3103,Incêndio rural,0,10,0,35,2025-07-07T00:10:00Z,Vila Franca De Xira,Lisboa,Área Metropolitana De Lisboa,-8.989293,38.955728,Curso
25637617,São Cristóvão,Alentejo Central,312,2025-07-06T18:31:00Z,25637617,Em Resolução/Conclusão,3105,Incêndio rural,0,15,0,35,2025-07-06T18:31:00Z,Montemor-o-Novo,Évora,Alentejo,-8.325967,38.563653,Resolução/Conclusão
25638351,Valongo de Milhais,Douro,309,2025-07-06T21:38:00Z,25638351,Em Resolução/Conclusão,3103,Incêndio rural,0,3,0,15,2025-07-06T21:38:00Z,Murça,Vila Real,Norte,-7.430604,41.455461,Resolução/Conclusão
