id,address,subregion,neighborhood,date,id.1,state,nature,nature_description,aerial_means,terrestrial_means,aquatic_means,operational,date.1,Concelho,Distrito,NUTII_DSG,longitude,latitude,state_2
25636341,Navió e Vitorino Dos Piães,Alto Minho,309,2025-07-06T13:36:00Z,25636341,Em Resolução/Conclusão,3103,Incêndio rural,0,21,0,63,2025-07-06T13:36:00Z,Ponte De Lima,Viana Do Castelo,Norte,-8.636015,41.674557,Resolução/Conclusão
25636995,Graça,Região de Leiria,310,2025-07-06T16:00:00Z,25636995,Em Resolução/Conclusão,3101,Incêndio rural,0,1,0,2,2025-07-06T16:00:00Z,Pedrógão Grande,Leiria,Centro,-8.220789,39.883478,Resolução/Conclusão
25637334,São Miguel de Acha,Beira Baixa,310,2025-07-06T17:22:00Z,25637334,Em Resolução/Conclusão,3105,Incêndio rural,0,3,0,14,2025-07-06T17:22:00Z,Idanha-a-Nova,Castelo Branco,Centro,-7.277732,39.997078,Resolução/Conclusão
25640880,Loureira,Cávado,309,2025-07-07T11:39:00Z,25640880,Em Resolução/Conclusão,3103,Incêndio rural,0,6,0,23,2025-07-07T11:39:00Z,Vila Verde,Braga,Norte,-8.42475,41.626072,Resolução/Conclusão
25641805,Cimo de Vila da Castanheira,Alto Tâmega e Barroso,309,2025-07-07T14:29:00Z,25641805,Em Resolução/Conclusão,3103,Incêndio rural,0,1,0,4,2025-07-07T14:29:00Z,Chaves,Vila Real,Norte,-7.254943,41.792873,Resolução/Conclusão
25641948,Figueira Dos Cavaleiros,Baixo Alentejo,312,2025-07-07T14:53:00Z,25641948,Em Curso,3105,Incêndio rural,0,2,0,4,2025-07-07T14:53:00Z,Ferreira Do Alentejo,Beja,Alentejo,-8.234905,38.078518,Curso
25642207,Forjães,Cávado,309,2025-07-07T15:47:00Z,25642207,Em Resolução/Conclusão,3103,Incêndio rural,0,4,0,18,2025-07-07T15:47:00Z,Esposende,Braga,Norte,-8.741043,41.605267,Resolução/Conclusão
25640258,Andrães,Douro,309,2025-07-07T10:02:00Z,25640258,Em Resolução/Conclusão,3103,Incêndio rural,0,6,0,17,2025-07-07T10:02:00Z,Vila Real,Vila Real,Norte,-7.719448,41.248428,Resolução/Conclusão
25641261,"Crato e Mártires, Flor da Rosa e Vale do Peso",Alto Alentejo,312,2025-07-07T12:51:00Z,25641261,Em Resolução/Conclusão,3105,Incêndio rural,0,5,0,22,2025-07-07T12:51:00Z,Crato,Portalegre,Alentejo,-7.558015,39.310169,Resolução/Conclusão
25642026,Caíde de Rei,Tâmega e Sousa,309,2025-07-07T15:01:00Z,25642026,Em Resolução/Conclusão,3103,Incêndio rural,0,1,0,5,2025-07-07T15:01:00Z,Lousada,Porto,Norte,-8.215102,41.270737,Resolução/Conclusão
25642195,"St.tirso, Couto (S.cristina e S.miguel) e Burgães",Area M. Porto,309,2025-07-07T15:41:00Z,25642195,Em Resolução/Conclusão,3103,Incêndio rural,0,1,0,5,2025-07-07T15:41:00Z,Santo Tirso,Porto,Norte,-8.49903,41.350597,Resolução/Conclusão
25641335,"Crato e Mártires, Flor da Rosa e Vale do Peso",Alto Alentejo,312,2025-07-07T13:08:00Z,25641335,Em Resolução/Conclusão,3103,Incêndio rural,0,1,0,2,2025-07-07T13:08:00Z,Crato,Portalegre,Alentejo,-7.605477,39.258982,Resolução/Conclusão
25641383,Mafra,Grande Lisboa,311,2025-07-07T13:13:00Z,25641383,Em Resolução/Conclusão,3101,Incêndio rural,0,16,0,52,2025-07-07T13:13:00Z,Mafra,Lisboa,Área Metropolitana De Lisboa,-9.325207,38.929228,Resolução/Conclusão
25641484,Serpa (Salvador e Santa Maria),Baixo Alentejo,312,2025-07-07T13:29:00Z,25641484,Em Resolução/Conclusão,3105,Incêndio rural,0,0,0,0,2025-07-07T13:29:00Z,Serpa,Beja,Alentejo,-7.53462,37.895487,Resolução/Conclusão
25641584,Cidade da Maia,Area M. Porto,309,2025-07-07T13:52:00Z,25641584,Em Resolução/Conclusão,3103,Incêndio rural,0,1,0,4,2025-07-07T13:52:00Z,Maia,Porto,Norte,-8.599655,41.23267,Resolução/Conclusão
25641687,Cidade da Maia,Area M. Porto,309,2025-07-07T14:12:00Z,25641687,Em Resolução/Conclusão,3103,Incêndio rural,0,1,0,3,2025-07-07T14:12:00Z,Maia,Porto,Norte,-8.633167,41.233675,Resolução/Conclusão
25641870,"Crato e Mártires, Flor da Rosa e Vale do Peso",Alto Alentejo,312,2025-07-07T14:40:00Z,25641870,Em Resolução/Conclusão,3105,Incêndio rural,0,8,0,28,2025-07-07T14:40:00Z,Crato,Portalegre,Alentejo,-7.57582,39.248888,Resolução/Conclusão
25641968,Cervães,Cávado,309,2025-07-07T15:01:00Z,25641968,Em Resolução/Conclusão,3103,Incêndio rural,0,3,0,9,2025-07-07T15:01:00Z,Vila Verde,Braga,Norte,-8.513801,41.595037,Resolução/Conclusão
25642019,Negrelos (São Tomé),Area M. Porto,309,2025-07-07T15:08:00Z,25642019,Em Resolução/Conclusão,3103,Incêndio rural,0,1,0,5,2025-07-07T15:08:00Z,Santo Tirso,Porto,Norte,-8.407967,41.33511,Resolução/Conclusão
25642088,Castêlo da Maia,Area M. Porto,309,2025-07-07T15:14:00Z,25642088,Em Curso,3101,Incêndio rural,1,13,0,56,2025-07-07T15:14:00Z,Maia,Porto,Norte,-8.637555,41.27565,Curso
25640886,Póvoa do Concelho,Beiras e Serra da Estrela,310,2025-07-07T11:39:00Z,25640886,Em Resolução/Conclusão,3103,Incêndio rural,0,4,0,14,2025-07-07T11:39:00Z,Trancoso,Guarda,Centro,-7.265382,40.770737,Resolução/Conclusão
25641081,"Crato e Mártires, Flor da Rosa e Vale do Peso",Alto Alentejo,312,2025-07-07T12:10:00Z,25641081,Em Resolução/Conclusão,3103,Incêndio rural,0,3,0,12,2025-07-07T12:10:00Z,Crato,Portalegre,Alentejo,-7.651358,39.265818,Resolução/Conclusão
25641154,Urra,Alto Alentejo,312,2025-07-07T12:29:00Z,25641154,Em Resolução/Conclusão,3105,Incêndio rural,0,23,0,68,2025-07-07T12:29:00Z,Portalegre,Portalegre,Alentejo,-7.46314,39.23684,Resolução/Conclusão
25641624,Figueiró da Serra e Freixo da Serra,Beiras e Serra da Estrela,310,2025-07-07T13:59:00Z,25641624,Em Resolução/Conclusão,3103,Incêndio rural,0,3,0,8,2025-07-07T13:59:00Z,Gouveia,Guarda,Centro,-7.501097,40.53297,Resolução/Conclusão
25642015,Lomba,Area M. Porto,309,2025-07-07T15:09:00Z,25642015,Em Resolução/Conclusão,3103,Incêndio rural,0,4,0,20,2025-07-07T15:09:00Z,Gondomar,Porto,Norte,-8.42681,41.03273,Resolução/Conclusão
25642233,Paredes de Viadores e Manhuncelos,Tâmega e Sousa,309,2025-07-07T15:45:00Z,25642233,Em Resolução/Conclusão,3103,Incêndio rural,0,1,0,5,2025-07-07T15:45:00Z,Marco De Canaveses,Porto,Norte,-8.150765,41.132192,Resolução/Conclusão
25642377,Vila Nova de Foz Côa,Douro,309,2025-07-07T16:11:00Z,25642377,Em Resolução/Conclusão,3103,Incêndio rural,0,2,0,10,2025-07-07T16:11:00Z,Vila Nova De Foz Côa,Guarda,Norte,-7.123463,41.11159,Resolução/Conclusão
25642235,Campos e Vila Meã,Alto Minho,309,2025-07-07T15:43:00Z,25642235,Em Resolução/Conclusão,3103,Incêndio rural,0,5,0,18,2025-07-07T15:43:00Z,Vila Nova De Cerveira,Viana Do Castelo,Norte,-8.700982,41.965258,Resolução/Conclusão
25642369,Folgosa,Area M. Porto,309,2025-07-07T16:16:00Z,25642369,Em Despacho,3103,Incêndio rural,1,2,0,14,2025-07-07T16:16:00Z,Maia,Porto,Norte,-8.54748,41.23558,Despacho
25642454,Quintela de Azurara,Viseu Dão Lafões,310,2025-07-07T16:33:00Z,25642454,Em Despacho,3103,Incêndio rural,0,1,0,5,2025-07-07T16:33:00Z,Mangualde,Viseu,Centro,-7.715899,40.628437,Despacho
