id,address,subregion,neighborhood,date,id.1,state,nature,nature_description,aerial_means,terrestrial_means,aquatic_means,operational,date.1,Concelho,Distrito,NUTII_DSG,longitude,latitude
25059714,Torrão,Alentejo Litoral,312,2025-03-08T22:10:00Z,25059714,Em curso,1101,Cheia,0,1,0,2,2025-03-08T22:10:00Z,Alcácer Do Sal,Setúbal,Alentejo,-8.359133,38.252053
25070044,Praia do Ribatejo,Médio Tejo,311,2025-03-10T19:30:00Z,25070044,Em curso,1101,Cheia,0,0,0,0,2025-03-10T19:30:00Z,Vila Nova Da Barquinha,Santarém,Centro,-8.357309,39.485638
25071496,São Manços e São Vicente do Pigeiro,Alentejo Central,312,2025-03-11T13:18:00Z,25071496,Em curso,1101,Cheia,0,2,0,4,2025-03-11T13:18:00Z,Évora,Évora,Alentejo,-7.713313,38.513673
25126246,Corval,Alentejo Central,312,2025-03-21T09:54:00Z,25126246,Em despacho,3311,Queda de elementos de estruturas edificados,0,1,0,2,2025-03-21T09:54:00Z,Reguengos De Monsaraz,Évora,Alentejo,-7.465278,38.444932
25126948,Charneca de Caparica e Sobreda,Península de Setúbal,311,2025-03-21T11:43:00Z,25126948,Em curso,3301,Queda de árvore,0,0,0,0,2025-03-21T11:43:00Z,Almada,Setúbal,Área Metropolitana De Lisboa,-9.17738,38.58114
25126998,Arruda Dos Vinhos,Oeste,311,2025-03-21T11:45:00Z,25126998,Em despacho,3301,Queda de árvore,0,1,0,1,2025-03-21T11:45:00Z,Arruda Dos Vinhos,Lisboa,Centro,-9.074841,38.984407
25127102,Cascais e Estoril,Grande Lisboa,311,2025-03-21T10:55:00Z,25127102,Em despacho,3301,Queda de árvore,0,1,0,4,2025-03-21T10:55:00Z,Cascais,Lisboa,Área Metropolitana De Lisboa,-9.444181,38.698838
25127133,"S.julião, N.s. da Anunciada e S. Maria da Graça",Península de Setúbal,311,2025-03-21T12:04:00Z,25127133,Em despacho,3301,Queda de árvore,0,1,0,5,2025-03-21T12:04:00Z,Setúbal,Setúbal,Área Metropolitana De Lisboa,-8.889983,38.529955
25127367,"Cedofeita, Ildefonso, Sé, Miragaia, Nicolau e Vitória",Area M. Porto,309,2025-03-21T12:50:00Z,25127367,Em conclusão,3311,Queda de elementos de estruturas edificados,0,1,0,2,2025-03-21T12:50:00Z,Porto,Porto,Norte,-8.615939,41.15359
25127616,"Almada, Cova da Piedade, Pragal e Cacilhas",Península de Setúbal,311,2025-03-21T13:41:00Z,25127616,Em despacho,3301,Queda de árvore,0,1,0,5,2025-03-21T13:41:00Z,Almada,Setúbal,Área Metropolitana De Lisboa,-9.16695,38.67342
25127668,Arez e Amieira do Tejo,Alto Alentejo,312,2025-03-21T13:50:00Z,25127668,Em despacho,3313,Deslizamento de terras,0,1,0,5,2025-03-21T13:50:00Z,Nisa,Portalegre,Alentejo,-7.771759,39.483483
25127801,"S.maria, S.miguel, S.martinho, S.pedro Penaferrim",Grande Lisboa,311,2025-03-21T14:00:00Z,25127801,Em despacho,3301,Queda de árvore,0,1,0,2,2025-03-21T14:00:00Z,Sintra,Lisboa,Área Metropolitana De Lisboa,-9.414924,38.772191
25127836,"Espírito Santo, Nossa Senhora da Graça e São Simão",Alto Alentejo,312,2025-03-21T14:15:00Z,25127836,Em conclusão,3321,Dano na rede de fornecimento de eletricidade ,0,1,0,4,2025-03-21T14:15:00Z,Nisa,Portalegre,Alentejo,-7.66724,39.443353
25127851,Colares,Grande Lisboa,311,2025-03-21T14:14:00Z,25127851,Em despacho,3301,Queda de árvore,0,1,0,3,2025-03-21T14:14:00Z,Sintra,Lisboa,Área Metropolitana De Lisboa,-9.460673,38.81942
25127886,Chave,Area M. Porto,309,2025-03-21T14:25:00Z,25127886,Em despacho,3301,Queda de árvore,0,1,0,2,2025-03-21T14:25:00Z,Arouca,Aveiro,Norte,-8.356991,40.89663
25127967,"S.pedro e Santiago, S.maria e S.miguel e Matacães",Oeste,311,2025-03-21T14:38:00Z,25127967,Em despacho,3321,Dano na rede de fornecimento de eletricidade ,0,2,0,5,2025-03-21T14:38:00Z,Torres Vedras,Lisboa,Centro,-9.234502,39.10815
25127986,Sesimbra (Castelo),Península de Setúbal,311,2025-03-21T14:38:00Z,25127986,Em despacho,3315,Inundação de estruturas por precipitação intensa,0,1,0,5,2025-03-21T14:38:00Z,Sesimbra,Setúbal,Área Metropolitana De Lisboa,-9.124133,38.461545
25128036,Alcoentre,Lezíria do Tejo,311,2025-03-21T14:48:00Z,25128036,Em conclusão,3301,Queda de árvore,0,1,0,4,2025-03-21T14:48:00Z,Azambuja,Lisboa,Alentejo,-8.967135,39.181895
25128071,Carnaxide e Queijas,Grande Lisboa,311,2025-03-21T13:30:00Z,25128071,Em despacho,3311,Queda de elementos de estruturas edificados,0,2,0,6,2025-03-21T13:30:00Z,Oeiras,Lisboa,Área Metropolitana De Lisboa,-9.259903,38.718843
25128086,Pataias e Martingança,Oeste,311,2025-03-21T14:55:00Z,25128086,Em curso,3301,Queda de árvore,0,1,0,4,2025-03-21T14:55:00Z,Alcobaça,Leiria,Centro,-9.005079,39.688392
25087162,Pedrógão,Baixo Alentejo,312,2025-03-14T17:00:00Z,25087162,Em curso,1101,Cheia,0,0,0,0,2025-03-14T17:00:00Z,Vidigueira,Beja,Alentejo,-7.630327,38.110775
25116192,Charneca de Caparica e Sobreda,Península de Setúbal,311,2025-03-20T06:59:00Z,25116192,Em curso,3301,Queda de árvore,0,1,0,3,2025-03-20T06:59:00Z,Almada,Setúbal,Área Metropolitana De Lisboa,-9.179431,38.58817
25125459,Massamá e Monte Abraão,Grande Lisboa,311,2025-03-21T07:28:00Z,25125459,Em despacho,3301,Queda de árvore,0,1,0,2,2025-03-21T07:28:00Z,Sintra,Lisboa,Área Metropolitana De Lisboa,-9.27045,38.75541
25126336,Manteigas (Santa Maria),Beiras e Serra da Estrela,310,2025-03-21T10:00:00Z,25126336,Em despacho,3301,Queda de árvore,0,2,0,4,2025-03-21T10:00:00Z,Manteigas,Guarda,Centro,-7.537826,40.403513
25126454,Queluz e Belas,Grande Lisboa,311,2025-03-21T10:30:00Z,25126454,Em conclusão,3301,Queda de árvore,0,0,0,0,2025-03-21T10:30:00Z,Sintra,Lisboa,Área Metropolitana De Lisboa,-9.271667,38.786881
25126702,São João Das Lampas e Terrugem,Grande Lisboa,311,2025-03-21T11:01:00Z,25126702,Em despacho,3301,Queda de árvore,0,1,0,1,2025-03-21T11:01:00Z,Sintra,Lisboa,Área Metropolitana De Lisboa,-9.442718,38.844843
25126795,Sarzedas,Beira Baixa,310,2025-03-21T11:17:00Z,25126795,Em despacho,3313,Deslizamento de terras,0,3,0,5,2025-03-21T11:17:00Z,Castelo Branco,Castelo Branco,Centro,-7.61616,39.847017
25126797,Marinhais,Lezíria do Tejo,311,2025-03-21T11:18:00Z,25126797,Em resolução,3315,Inundação de estruturas por precipitação intensa,0,2,0,9,2025-03-21T11:18:00Z,Salvaterra De Magos,Santarém,Alentejo,-8.704894,39.048061
25126986,São Pedro e Santa Maria e Vila Boa do Mondego,Beiras e Serra da Estrela,310,2025-03-21T11:40:00Z,25126986,Em despacho,3301,Queda de árvore,0,1,0,2,2025-03-21T11:40:00Z,Celorico Da Beira,Guarda,Centro,-7.39057,40.639156
25128088,Marinhais,Lezíria do Tejo,311,2025-03-21T14:57:00Z,25128088,Em conclusão,3315,Inundação de estruturas por precipitação intensa,0,1,0,4,2025-03-21T14:57:00Z,Salvaterra De Magos,Santarém,Alentejo,-8.704894,39.048061
25128118,"Almada, Cova da Piedade, Pragal e Cacilhas",Península de Setúbal,311,2025-03-21T14:50:00Z,25128118,Em despacho,3311,Queda de elementos de estruturas edificados,0,1,0,5,2025-03-21T14:50:00Z,Almada,Setúbal,Área Metropolitana De Lisboa,-9.164498,38.675268
25128120,Rio de Mouro,Grande Lisboa,311,2025-03-21T14:59:00Z,25128120,Em despacho,3315,Inundação de estruturas por precipitação intensa,0,1,0,4,2025-03-21T14:59:00Z,Sintra,Lisboa,Área Metropolitana De Lisboa,-9.344491,38.75763
25128135,Aljubarrota,Oeste,311,2025-03-21T15:00:00Z,25128135,Em despacho,3301,Queda de árvore,0,1,0,3,2025-03-21T15:00:00Z,Alcobaça,Leiria,Centro,-8.941861,39.565461
25128154,Zibreira,Médio Tejo,311,2025-03-21T15:07:00Z,25128154,Em despacho,3301,Queda de árvore,0,1,0,2,2025-03-21T15:07:00Z,Torres Novas,Santarém,Centro,-8.621372,39.496999
25128171,Carcavelos e Parede,Grande Lisboa,311,2025-03-21T15:00:00Z,25128171,Em despacho,3301,Queda de árvore,0,1,0,3,2025-03-21T15:00:00Z,Cascais,Lisboa,Área Metropolitana De Lisboa,-9.337574,38.688343
25128185,Quinta do Anjo,Península de Setúbal,311,2025-03-21T13:40:00Z,25128185,Em despacho,3301,Queda de árvore,0,1,0,3,2025-03-21T13:40:00Z,Palmela,Setúbal,Área Metropolitana De Lisboa,-8.938536,38.564763
25128187,Carnaxide e Queijas,Grande Lisboa,311,2025-03-21T15:02:00Z,25128187,Em despacho,3311,Queda de elementos de estruturas edificados,0,1,0,2,2025-03-21T15:02:00Z,Oeiras,Lisboa,Área Metropolitana De Lisboa,-9.259903,38.718843
25128188,Carregal do Sal,Viseu Dão Lafões,310,2025-03-21T15:09:00Z,25128188,Em despacho,3311,Queda de elementos de estruturas edificados,0,1,0,1,2025-03-21T15:09:00Z,Carregal Do Sal,Viseu,Centro,-7.999939,40.437298
25068300,Almeirim,Lezíria do Tejo,311,2025-03-10T20:52:00Z,25068300,Em curso,1101,Cheia,0,0,0,0,2025-03-10T20:52:00Z,Almeirim,Santarém,Alentejo,-8.635002,39.187436
25121298,Gafanhoeira (São Pedro) e Sabugueiro,Alentejo Central,312,2025-03-20T14:26:00Z,25121298,Em resolução,3301,Queda de árvore,0,0,0,0,2025-03-20T14:26:00Z,Arraiolos,Évora,Alentejo,-8.088754,38.754507
25125415,Cascais e Estoril,Grande Lisboa,311,2025-03-21T07:23:00Z,25125415,Em curso,3301,Queda de árvore,0,1,0,2,2025-03-21T07:23:00Z,Cascais,Lisboa,Área Metropolitana De Lisboa,-9.419397,38.700982
25126312,Cascais e Estoril,Grande Lisboa,311,2025-03-21T10:12:00Z,25126312,Em despacho,3301,Queda de árvore,0,3,0,9,2025-03-21T10:12:00Z,Cascais,Lisboa,Área Metropolitana De Lisboa,-9.40005,38.71304
25127153,Algueirão-Mem Martins,Grande Lisboa,311,2025-03-21T09:48:00Z,25127153,Em conclusão,3301,Queda de árvore,0,1,0,4,2025-03-21T09:48:00Z,Sintra,Lisboa,Área Metropolitana De Lisboa,-9.340934,38.801232
25127348,Sobral de Monte Agraço,Oeste,311,2025-03-21T12:50:00Z,25127348,Em despacho,3301,Queda de árvore,0,1,0,1,2025-03-21T12:50:00Z,Sobral De Monte Agraço,Lisboa,Centro,-9.145899,39.030649
25127396,"Santa Iria de Azoia, São João da Talha e Bobadela",Grande Lisboa,311,2025-03-21T12:45:00Z,25127396,Em despacho,3301,Queda de árvore,0,3,0,6,2025-03-21T12:45:00Z,Loures,Lisboa,Área Metropolitana De Lisboa,-9.098065,38.824783
25127457,"S.maria, S.miguel, S.martinho, S.pedro Penaferrim",Grande Lisboa,311,2025-03-21T13:10:00Z,25127457,Em curso,3313,Deslizamento de terras,0,1,0,4,2025-03-21T13:10:00Z,Sintra,Lisboa,Área Metropolitana De Lisboa,-9.372641,38.788861
25063232,Santa Maria do Castelo e Santiago e Santa Susana,Alentejo Litoral,312,2025-03-09T19:02:00Z,25063232,Em conclusão,1101,Cheia,0,0,0,0,2025-03-09T19:02:00Z,Alcácer Do Sal,Setúbal,Alentejo,-8.48167,38.29806
25113469,Arruda Dos Vinhos,Oeste,311,2025-03-20T01:39:00Z,25113469,Em resolução,3301,Queda de árvore,0,3,0,3,2025-03-20T01:39:00Z,Arruda Dos Vinhos,Lisboa,Centro,-9.074841,38.984407
25117648,Costa da Caparica,Península de Setúbal,311,2025-03-20T09:07:00Z,25117648,Em curso,3301,Queda de árvore,0,0,0,0,2025-03-20T09:07:00Z,Almada,Setúbal,Área Metropolitana De Lisboa,-9.23527,38.6523
25126689,Santo Estêvão,Lezíria do Tejo,311,2025-03-21T11:03:00Z,25126689,Em resolução,3301,Queda de árvore,0,2,0,5,2025-03-21T11:03:00Z,Benavente,Santarém,Alentejo,-8.712798,38.852863
25126874,Santana da Azinha,Beiras e Serra da Estrela,310,2025-03-21T11:27:00Z,25126874,Em despacho,3311,Queda de elementos de estruturas edificados,0,1,0,2,2025-03-21T11:27:00Z,Guarda,Guarda,Centro,-7.226578,40.45364
25126959,São Domingos de Rana,Grande Lisboa,311,2025-03-21T11:45:00Z,25126959,Em despacho,3329,Queda de estruturas temporárias ou móveis,0,0,0,0,2025-03-21T11:45:00Z,Cascais,Lisboa,Área Metropolitana De Lisboa,-9.33506,38.72761
25127058,Antuzede e Vil de Matos,Região de Coimbra,310,2025-03-21T11:55:00Z,25127058,Em despacho,3321,Dano na rede de fornecimento de eletricidade ,0,1,0,2,2025-03-21T11:55:00Z,Coimbra,Coimbra,Centro,-8.479878,40.257639
25127360,Sapataria,Oeste,311,2025-03-21T12:50:00Z,25127360,Em despacho,3301,Queda de árvore,0,1,0,3,2025-03-21T12:50:00Z,Sobral De Monte Agraço,Lisboa,Centro,-9.198763,38.989698
25127442,Cascais e Estoril,Grande Lisboa,311,2025-03-21T13:09:00Z,25127442,Em despacho,3301,Queda de árvore,0,0,0,0,2025-03-21T13:09:00Z,Cascais,Lisboa,Área Metropolitana De Lisboa,-9.44074,38.71857
25127511,Moita,Península de Setúbal,311,2025-03-21T13:17:00Z,25127511,Em despacho,3301,Queda de árvore,0,1,0,5,2025-03-21T13:17:00Z,Moita,Setúbal,Área Metropolitana De Lisboa,-8.9759620000000009,38.642311
25128204,Matosinhos e Leça da Palmeira,Area M. Porto,309,2025-03-21T14:55:00Z,25128204,Em despacho,3311,Queda de elementos de estruturas edificados,0,1,0,3,2025-03-21T14:55:00Z,Matosinhos,Porto,Norte,-8.692583,41.193749
25127322,Caldas da Rainha - Santo Onofre e Serra do Bouro,Oeste,311,2025-03-21T12:44:00Z,25127322,Em curso,3301,Queda de árvore,0,2,0,10,2025-03-21T12:44:00Z,Caldas Da Rainha,Leiria,Centro,-9.173623,39.439262
25127599,Carcavelos e Parede,Grande Lisboa,311,2025-03-21T13:25:00Z,25127599,Em despacho,3301,Queda de árvore,0,2,0,6,2025-03-21T13:25:00Z,Cascais,Lisboa,Área Metropolitana De Lisboa,-9.337574,38.688343
25127615,Alcabideche,Grande Lisboa,311,2025-03-21T13:35:00Z,25127615,Em despacho,3301,Queda de árvore,0,1,0,5,2025-03-21T13:35:00Z,Cascais,Lisboa,Área Metropolitana De Lisboa,-9.438785,38.755713
25127731,Fânzeres e São Pedro da Cova,Area M. Porto,309,2025-03-21T13:54:00Z,25127731,Em resolução,3301,Queda de árvore,0,2,0,4,2025-03-21T13:54:00Z,Gondomar,Porto,Norte,-8.512325,41.150617
25127772,Queluz e Belas,Grande Lisboa,311,2025-03-21T14:05:00Z,25127772,Em conclusão,3321,Dano na rede de fornecimento de eletricidade ,0,1,0,2,2025-03-21T14:05:00Z,Sintra,Lisboa,Área Metropolitana De Lisboa,-9.271667,38.786881
25127783,Colares,Grande Lisboa,311,2025-03-21T13:55:00Z,25127783,Em despacho,3315,Inundação de estruturas por precipitação intensa,0,1,0,3,2025-03-21T13:55:00Z,Sintra,Lisboa,Área Metropolitana De Lisboa,-9.464841,38.795953
25127788,Casteleiro,Beiras e Serra da Estrela,310,2025-03-21T14:07:00Z,25127788,Em despacho,3301,Queda de árvore,0,1,0,2,2025-03-21T14:07:00Z,Sabugal,Guarda,Centro,-7.231799,40.301689
25127806,São Miguel do Rio Torto e Rossio Ao Sul do Tejo,Médio Tejo,311,2025-03-21T14:13:00Z,25127806,Em despacho,3311,Queda de elementos de estruturas edificados,0,1,0,1,2025-03-21T14:13:00Z,Abrantes,Santarém,Centro,-8.208589,39.424147
25127523,"S.maria, S.miguel, S.martinho, S.pedro Penaferrim",Grande Lisboa,311,2025-03-21T13:24:00Z,25127523,Em despacho,3301,Queda de árvore,0,1,0,4,2025-03-21T13:24:00Z,Sintra,Lisboa,Área Metropolitana De Lisboa,-9.380105,38.790996
25127562,Sabóia,Alentejo Litoral,312,2025-03-21T13:20:00Z,25127562,Em despacho,3301,Queda de árvore,0,1,0,2,2025-03-21T13:20:00Z,Odemira,Beja,Alentejo,-8.502858,37.49757
25127746,Cumeeira,Região de Coimbra,310,2025-03-21T13:45:00Z,25127746,Em despacho,3311,Queda de elementos de estruturas edificados,0,1,0,2,2025-03-21T13:45:00Z,Penela,Coimbra,Centro,-8.337957,39.97159
25127764,Porches,Algarve,313,2025-03-21T13:00:00Z,25127764,Em despacho,3301,Queda de árvore,0,1,0,2,2025-03-21T13:00:00Z,Lagoa,Faro,Algarve,-8.391963,37.14917
25127791,Colares,Grande Lisboa,311,2025-03-21T13:57:00Z,25127791,Em despacho,3301,Queda de árvore,0,1,0,2,2025-03-21T13:57:00Z,Sintra,Lisboa,Área Metropolitana De Lisboa,-9.474758,38.77242
25127898,Pegões,Península de Setúbal,311,2025-03-21T14:15:00Z,25127898,Em despacho,3315,Inundação de estruturas por precipitação intensa,0,1,0,5,2025-03-21T14:15:00Z,Montijo,Setúbal,Área Metropolitana De Lisboa,-8.618044,38.678234
25127900,Lourinhã e Atalaia,Oeste,311,2025-03-21T14:15:00Z,25127900,Em despacho,3321,Dano na rede de fornecimento de eletricidade ,0,1,0,3,2025-03-21T14:15:00Z,Lourinhã,Lisboa,Centro,-9.298528,39.277104
25127905,Fazendas de Almeirim,Lezíria do Tejo,311,2025-03-21T14:28:00Z,25127905,Em conclusão,3301,Queda de árvore,0,2,0,6,2025-03-21T14:28:00Z,Almeirim,Santarém,Alentejo,-8.515362,39.13728
25127907,Águeda e Borralha,Região de Aveiro,310,2025-03-21T14:25:00Z,25127907,Em despacho,1101,Cheia,0,1,0,1,2025-03-21T14:25:00Z,Águeda,Aveiro,Centro,-8.444879,40.569328
25127939,"Leiria, Pousos, Barreira e Cortes",Região de Leiria,310,2025-03-21T14:28:00Z,25127939,Em despacho,3313,Deslizamento de terras,0,1,0,2,2025-03-21T14:28:00Z,Leiria,Leiria,Centro,-8.777233,39.756529
25127528,Carvalhosa,Tâmega e Sousa,309,2025-03-21T13:27:00Z,25127528,Em curso,3301,Queda de árvore,0,4,0,9,2025-03-21T13:27:00Z,Paços De Ferreira,Porto,Norte,-8.36104,41.30634
25127912,Vila Nova da Baronia,Baixo Alentejo,312,2025-03-21T14:29:00Z,25127912,Em conclusão,3311,Queda de elementos de estruturas edificados,0,2,0,3,2025-03-21T14:29:00Z,Alvito,Beja,Alentejo,-8.03884,38.288712
25127944,"S.maria, S.miguel, S.martinho, S.pedro Penaferrim",Grande Lisboa,311,2025-03-21T14:29:00Z,25127944,Em despacho,3301,Queda de árvore,0,3,0,11,2025-03-21T14:29:00Z,Sintra,Lisboa,Área Metropolitana De Lisboa,-9.402206,38.768727
25127960,Sagres,Algarve,313,2025-03-21T14:28:00Z,25127960,Em despacho,3311,Queda de elementos de estruturas edificados,0,3,0,6,2025-03-21T14:28:00Z,Vila Do Bispo,Faro,Algarve,-8.943145,37.00882
25127978,Azeitão (São Lourenço e São Simão),Península de Setúbal,311,2025-03-21T14:21:00Z,25127978,Em despacho,3301,Queda de árvore,0,1,0,4,2025-03-21T14:21:00Z,Setúbal,Setúbal,Área Metropolitana De Lisboa,-9.04265,38.541479
25127992,Loures,Grande Lisboa,311,2025-03-21T14:31:00Z,25127992,Em despacho,3301,Queda de árvore,0,1,0,6,2025-03-21T14:31:00Z,Loures,Lisboa,Área Metropolitana De Lisboa,-9.176421,38.828612
25127993,Santo Isidoro,Grande Lisboa,311,2025-03-21T14:25:00Z,25127993,Em despacho,3321,Dano na rede de fornecimento de eletricidade ,0,1,0,5,2025-03-21T14:25:00Z,Mafra,Lisboa,Área Metropolitana De Lisboa,-9.415681,39.006374
25127815,Avintes,Area M. Porto,309,2025-03-21T14:12:00Z,25127815,Em despacho,3329,Queda de estruturas temporárias ou móveis,0,1,0,3,2025-03-21T14:12:00Z,Vila Nova De Gaia,Porto,Norte,-8.547155,41.105347
25127822,Souselas e Botão,Região de Coimbra,310,2025-03-21T14:10:00Z,25127822,Em despacho,3329,Queda de estruturas temporárias ou móveis,0,1,0,5,2025-03-21T14:10:00Z,Coimbra,Coimbra,Centro,-8.42946,40.286598
25127940,Portimão,Algarve,313,2025-03-21T14:26:00Z,25127940,Em despacho,3301,Queda de árvore,0,1,0,5,2025-03-21T14:26:00Z,Portimão,Faro,Algarve,-8.541412,37.183837
25127963,Alcabideche,Grande Lisboa,311,2025-03-21T14:32:00Z,25127963,Em despacho,3301,Queda de árvore,0,1,0,5,2025-03-21T14:32:00Z,Cascais,Lisboa,Área Metropolitana De Lisboa,-9.438785,38.755713
25128008,"Cedofeita, Ildefonso, Sé, Miragaia, Nicolau e Vitória",Area M. Porto,309,2025-03-21T14:38:00Z,25128008,Em despacho,3315,Inundação de estruturas por precipitação intensa,0,1,0,5,2025-03-21T14:38:00Z,Porto,Porto,Norte,-8.615939,41.15359
25128033,"S.maria, S.miguel, S.martinho, S.pedro Penaferrim",Grande Lisboa,311,2025-03-21T14:46:00Z,25128033,Em despacho,3301,Queda de árvore,0,1,0,2,2025-03-21T14:46:00Z,Sintra,Lisboa,Área Metropolitana De Lisboa,-9.366763,38.781718
25128038,São Bartolomeu de Messines,Algarve,313,2025-03-21T14:40:00Z,25128038,Em despacho,3301,Queda de árvore,0,1,0,3,2025-03-21T14:40:00Z,Silves,Faro,Algarve,-8.287502,37.25838
25128056,Santa Maria do Castelo e Santiago e Santa Susana,Alentejo Litoral,312,2025-03-21T14:41:00Z,25128056,Em curso,1101,Cheia,0,0,0,0,2025-03-21T14:41:00Z,Alcácer Do Sal,Setúbal,Alentejo,-8.434671,38.401157
25128067,Meimão,Beira Baixa,310,2025-03-21T14:51:00Z,25128067,Em curso,3313,Deslizamento de terras,0,2,0,4,2025-03-21T14:51:00Z,Penamacor,Castelo Branco,Centro,-7.118335,40.282541
25128099,"Alhandra, São João Dos Montes e Calhandriz",Grande Lisboa,311,2025-03-21T14:50:00Z,25128099,Em despacho,3311,Queda de elementos de estruturas edificados,0,1,0,4,2025-03-21T14:50:00Z,Vila Franca De Xira,Lisboa,Área Metropolitana De Lisboa,-9.006082,38.929996
25127955,Carnide,Grande Lisboa,311,2025-03-21T14:19:00Z,25127955,Em despacho,3301,Queda de árvore,0,2,0,5,2025-03-21T14:19:00Z,Lisboa,Lisboa,Área Metropolitana De Lisboa,-9.196248,38.768082
25128000,São João Das Lampas e Terrugem,Grande Lisboa,311,2025-03-21T13:22:00Z,25128000,Em despacho,3301,Queda de árvore,0,1,0,2,2025-03-21T13:22:00Z,Sintra,Lisboa,Área Metropolitana De Lisboa,-9.389956,38.923794
25128030,Montijo e Afonsoeiro,Península de Setúbal,311,2025-03-21T14:48:00Z,25128030,Em despacho,3311,Queda de elementos de estruturas edificados,0,1,0,5,2025-03-21T14:48:00Z,Montijo,Setúbal,Área Metropolitana De Lisboa,-8.97051,38.70296
25128048,Fernão Ferro,Península de Setúbal,311,2025-03-21T14:46:00Z,25128048,Em despacho,3301,Queda de árvore,0,1,0,3,2025-03-21T14:46:00Z,Seixal,Setúbal,Área Metropolitana De Lisboa,-9.115329,38.572419
25128055,Rio Maior,Lezíria do Tejo,311,2025-03-21T14:51:00Z,25128055,Em conclusão,3301,Queda de árvore,0,2,0,6,2025-03-21T14:51:00Z,Rio Maior,Santarém,Alentejo,-8.95426,39.333899
25128073,Alcabideche,Grande Lisboa,311,2025-03-21T14:53:00Z,25128073,Em despacho,3301,Queda de árvore,0,1,0,2,2025-03-21T14:53:00Z,Cascais,Lisboa,Área Metropolitana De Lisboa,-9.438785,38.755713
25128123,Santa Clara,Grande Lisboa,311,2025-03-21T14:55:00Z,25128123,Em despacho,3311,Queda de elementos de estruturas edificados,0,1,0,3,2025-03-21T14:55:00Z,Lisboa,Lisboa,Área Metropolitana De Lisboa,-9.150603,38.794611
25128009,Pedroso e Seixezelo,Area M. Porto,309,2025-03-21T14:37:00Z,25128009,Em despacho,3301,Queda de árvore,0,1,0,3,2025-03-21T14:37:00Z,Vila Nova De Gaia,Porto,Norte,-8.563869,41.074113
25128127,Azeitão (São Lourenço e São Simão),Península de Setúbal,311,2025-03-21T14:59:00Z,25128127,Em despacho,3301,Queda de árvore,0,1,0,5,2025-03-21T14:59:00Z,Setúbal,Setúbal,Área Metropolitana De Lisboa,-9.004314,38.501234
25128160,"Santa Iria de Azoia, São João da Talha e Bobadela",Grande Lisboa,311,2025-03-21T11:49:00Z,25128160,Em despacho,3301,Queda de árvore,0,1,0,4,2025-03-21T11:49:00Z,Loures,Lisboa,Área Metropolitana De Lisboa,-9.093217,38.806807
25128106,Repeses e São Salvador,Viseu Dão Lafões,310,2025-03-21T14:23:00Z,25128106,Em despacho,3315,Inundação de estruturas por precipitação intensa,0,1,0,2,2025-03-21T14:23:00Z,Viseu,Viseu,Centro,-7.923871,40.644307
25128117,"Amoreira da Gândara, Paredes do Bairro e Ancas",Região de Aveiro,310,2025-03-21T14:58:00Z,25128117,Em despacho,3301,Queda de árvore,0,1,0,3,2025-03-21T14:58:00Z,Anadia,Aveiro,Centro,-8.542364,40.482572
25128142,Rio Frio,Alto Minho,309,2025-03-21T15:00:00Z,25128142,Em despacho,3301,Queda de árvore,0,1,0,2,2025-03-21T15:00:00Z,Arcos De Valdevez,Viana Do Castelo,Norte,-8.489703,41.873003
25128158,Moscavide e Portela,Grande Lisboa,311,2025-03-21T15:05:00Z,25128158,Em despacho,3301,Queda de árvore,0,1,0,4,2025-03-21T15:05:00Z,Loures,Lisboa,Área Metropolitana De Lisboa,-9.114803,38.78591
25128181,Bombarral e Vale Covo,Oeste,311,2025-03-21T15:09:00Z,25128181,Em despacho,3301,Queda de árvore,0,1,0,4,2025-03-21T15:09:00Z,Bombarral,Leiria,Centro,-9.184976,39.250978
25128190,Vila Franca de Xira,Grande Lisboa,311,2025-03-21T14:35:00Z,25128190,Em despacho,3315,Inundação de estruturas por precipitação intensa,0,1,0,2,2025-03-21T14:35:00Z,Vila Franca De Xira,Lisboa,Área Metropolitana De Lisboa,-8.989293,38.955728
25128208,Campanhã,Area M. Porto,309,2025-03-21T15:10:00Z,25128208,Em despacho,3315,Inundação de estruturas por precipitação intensa,0,1,0,5,2025-03-21T15:10:00Z,Porto,Porto,Norte,-8.571543,41.154223
25128139,Peniche,Oeste,311,2025-03-21T14:44:00Z,25128139,Em despacho,3329,Queda de estruturas temporárias ou móveis,0,2,0,4,2025-03-21T14:44:00Z,Peniche,Leiria,Centro,-9.376833,39.357166
25128148,Igreja Nova e Cheleiros,Grande Lisboa,311,2025-03-21T15:02:00Z,25128148,Em despacho,3301,Queda de árvore,0,1,0,5,2025-03-21T15:02:00Z,Mafra,Lisboa,Área Metropolitana De Lisboa,-9.321884,38.919998
25128175,Ferreira do Zêzere,Médio Tejo,311,2025-03-21T15:10:00Z,25128175,Em despacho,3309,Desabamento de estruturas edificadas,0,2,0,2,2025-03-21T15:10:00Z,Ferreira Do Zêzere,Santarém,Centro,-8.270681,39.696095
25128182,Vila Franca de Xira,Grande Lisboa,311,2025-03-21T14:48:00Z,25128182,Em despacho,3301,Queda de árvore,0,1,0,5,2025-03-21T14:48:00Z,Vila Franca De Xira,Lisboa,Área Metropolitana De Lisboa,-8.989293,38.955728
25128198,"Guia, Ilha e Mata Mourisca",Região de Leiria,310,2025-03-21T15:10:00Z,25128198,Em despacho,3301,Queda de árvore,0,1,0,2,2025-03-21T15:10:00Z,Pombal,Leiria,Centro,-8.753282,39.947593
25128200,Póvoa de Santa Iria e Forte da Casa,Grande Lisboa,311,2025-03-21T14:06:00Z,25128200,Em despacho,3301,Queda de árvore,0,1,0,2,2025-03-21T14:06:00Z,Vila Franca De Xira,Lisboa,Área Metropolitana De Lisboa,-9.051508,38.875602
