id,address,subregion,neighborhood,date,id.1,state,nature,nature_description,aerial_means,terrestrial_means,aquatic_means,operational,date.1,Concelho,Distrito,NUTII_DSG,longitude,latitude,state_2
25836309,Cinfães,Tâmega e Sousa,309,2025-08-13T18:17:00Z,25836309,Em Resolução/Conclusão,3103,Incêndio rural,0,1,0,2,2025-08-13T18:17:00Z,Cinfães,Viseu,Norte,-8.071502,41.049757,Resolução/Conclusão
25928763,Calvão e Soutelinho da Raia,Alto Tâmega e Barroso,309,2025-09-01T13:46:00Z,25928763,Em Curso,3103,Incêndio rural,2,11,0,53,2025-09-01T13:46:00Z,Chaves,Vila Real,Norte,-7.570508,41.805473,Curso
25832672,Piódão,Região de Coimbra,310,2025-08-13T05:08:00Z,25832672,Em Resolução/Conclusão,3103,Incêndio rural,0,17,0,47,2025-08-13T05:08:00Z,Arganil,Coimbra,Centro,-7.81972,40.23083,Resolução/Conclusão
25840417,Lousã e Vilarinho,Região de Coimbra,310,2025-08-14T13:46:00Z,25840417,Em Resolução/Conclusão,3101,Incêndio rural,0,1,0,1,2025-08-14T13:46:00Z,Lousã,Coimbra,Centro,-8.201561,40.080016,Resolução/Conclusão
25928602,Viana do Alentejo,Alentejo Central,312,2025-09-01T13:18:00Z,25928602,Em Resolução/Conclusão,3103,Incêndio rural,0,1,0,5,2025-09-01T13:18:00Z,Viana Do Alentejo,Évora,Alentejo,-7.999165,38.35106,Resolução/Conclusão
25928641,Panoias e Conceição,Baixo Alentejo,312,2025-09-01T13:20:00Z,25928641,Em Resolução/Conclusão,3103,Incêndio rural,0,2,0,7,2025-09-01T13:20:00Z,Ourique,Beja,Alentejo,-8.288035,37.769373,Resolução/Conclusão
25928727,Telhado,Beiras e Serra da Estrela,310,2025-09-01T13:40:00Z,25928727,Em Resolução/Conclusão,3105,Incêndio rural,0,6,0,19,2025-09-01T13:40:00Z,Fundão,Castelo Branco,Centro,-7.533892,40.15964,Resolução/Conclusão
25928777,Ourique,Baixo Alentejo,312,2025-09-01T13:29:00Z,25928777,Em Resolução/Conclusão,3105,Incêndio rural,0,7,0,21,2025-09-01T13:29:00Z,Ourique,Beja,Alentejo,-8.222596,37.653088,Resolução/Conclusão
25846480,Sabugal e Aldeia de Santo António,Beiras e Serra da Estrela,310,2025-08-15T14:41:00Z,25846480,Em Resolução/Conclusão,3103,Incêndio rural,0,4,0,15,2025-08-15T14:41:00Z,Sabugal,Guarda,Centro,-7.125037,40.34023,Resolução/Conclusão
25851895,Sortelha,Beiras e Serra da Estrela,310,2025-08-16T14:53:00Z,25851895,Em Resolução/Conclusão,3103,Incêndio rural,0,2,0,10,2025-08-16T14:53:00Z,Sabugal,Guarda,Centro,-7.254367,40.318488,Resolução/Conclusão
25928907,Vilas Boas e Vilarinho Das Azenhas,Terras de Trás-os-Montes,309,2025-09-01T14:14:00Z,25928907,Em Resolução/Conclusão,3103,Incêndio rural,0,3,0,8,2025-09-01T14:14:00Z,Vila Flor,Bragança,Norte,-7.177402,41.358002,Resolução/Conclusão
25928934,Vila Nova de São Bento e Vale de Vargo,Baixo Alentejo,312,2025-09-01T14:19:00Z,25928934,Em Resolução/Conclusão,3105,Incêndio rural,0,11,0,35,2025-09-01T14:19:00Z,Serpa,Beja,Alentejo,-7.421938,37.955502,Resolução/Conclusão
25887019,Pedrógão Grande,Região de Leiria,310,2025-08-23T14:27:00Z,25887019,Em Resolução/Conclusão,3101,Incêndio rural,0,4,0,14,2025-08-23T14:27:00Z,Pedrógão Grande,Leiria,Centro,-8.15364,39.9136,Resolução/Conclusão
25928385,São Marcos da Ataboeira,Baixo Alentejo,312,2025-09-01T12:25:00Z,25928385,Em Resolução/Conclusão,3103,Incêndio rural,0,4,0,11,2025-09-01T12:25:00Z,Mértola,Beja,Alentejo,-7.86702,37.717972,Resolução/Conclusão
25928842,São Salvador,Terras de Trás-os-Montes,309,2025-09-01T14:03:00Z,25928842,Em Curso,3103,Incêndio rural,3,18,0,70,2025-09-01T14:03:00Z,Mirandela,Bragança,Norte,-7.158767,41.449487,Curso
25928978,Vilar de Mouros,Alto Minho,309,2025-09-01T14:27:00Z,25928978,Em Resolução/Conclusão,3103,Incêndio rural,0,3,0,9,2025-09-01T14:27:00Z,Caminha,Viana Do Castelo,Norte,-8.793888,41.893017,Resolução/Conclusão
