id,address,subregion,neighborhood,date,id.1,state,nature,nature_description,aerial_means,terrestrial_means,aquatic_means,operational,date.1,Concelho,Distrito,NUTII_DSG,longitude,latitude,state_2
25610143,Nossa Senhora Das Misericórdias,Médio Tejo,311,2025-07-01T15:32:00Z,25610143,Em Resolução/Conclusão,3103,Incêndio rural,0,1,0,5,2025-07-01T15:32:00Z,Ourém,Santarém,Centro,-8.600277,39.655883,Resolução/Conclusão
25620664,Côja e Barril de Alva,Região de Coimbra,310,2025-07-03T14:22:00Z,25620664,Em Resolução/Conclusão,3101,Incêndio rural,0,3,0,11,2025-07-03T14:22:00Z,Arganil,Coimbra,Centro,-7.95667,40.2725,Resolução/Conclusão
25627000,Aião,Tâmega e Sousa,309,2025-07-04T16:45:00Z,25627000,Em Resolução/Conclusão,3103,Incêndio rural,0,1,0,5,2025-07-04T16:45:00Z,Felgueiras,Porto,Norte,-8.204774,41.300006,Resolução/Conclusão
25629483,Loureira,Cávado,309,2025-07-05T06:20:00Z,25629483,Em Resolução/Conclusão,3103,Incêndio rural,0,3,0,11,2025-07-05T06:20:00Z,Vila Verde,Braga,Norte,-8.424727,41.625687,Resolução/Conclusão
25629553,Ribeirão,Ave,309,2025-07-05T07:25:00Z,25629553,Em Resolução/Conclusão,3103,Incêndio rural,0,1,0,5,2025-07-05T07:25:00Z,Vila Nova De Famalicão,Braga,Norte,-8.55952,41.35707,Resolução/Conclusão
25625983,Vilarinho,Area M. Porto,309,2025-07-04T13:45:00Z,25625983,Em Resolução/Conclusão,3103,Incêndio rural,0,3,0,14,2025-07-04T13:45:00Z,Santo Tirso,Porto,Norte,-8.325352,41.343782,Resolução/Conclusão
