id,address,subregion,neighborhood,date,id.1,state,nature,nature_description,aerial_means,terrestrial_means,aquatic_means,operational,date.1,Concelho,Distrito,NUTII_DSG,longitude,latitude
25017777,Carnaxide e Queijas,Grande Lisboa,311,2025-02-27T12:59:00Z,25017777,Em conclusão,3315,Inundação de estruturas por precipitação intensa,0,2,0,5,2025-02-27T12:59:00Z,Oeiras,Lisboa,Área Metropolitana De Lisboa,-9.259903,38.718843
25017790,Carnaxide e Queijas,Grande Lisboa,311,2025-02-27T13:06:00Z,25017790,Em despacho,3315,Inundação de estruturas por precipitação intensa,0,1,0,5,2025-02-27T13:06:00Z,Oeiras,Lisboa,Área Metropolitana De Lisboa,-9.233587,38.727201
25017807,Cascais e Estoril,Grande Lisboa,311,2025-02-27T12:30:00Z,25017807,Em despacho,3315,Inundação de estruturas por precipitação intensa,0,4,0,10,2025-02-27T12:30:00Z,Cascais,Lisboa,Área Metropolitana De Lisboa,-9.419397,38.700982
24888293,Pernes,Lezíria do Tejo,311,2025-01-29T16:41:00Z,24888293,Em curso,3301,Queda de árvore,0,0,0,0,2025-01-29T16:41:00Z,Santarém,Santarém,Alentejo,-8.658865,39.381547
25017929,Rio de Mouro,Grande Lisboa,311,2025-02-27T12:08:00Z,25017929,Em despacho,3301,Queda de árvore,0,1,0,2,2025-02-27T12:08:00Z,Sintra,Lisboa,Área Metropolitana De Lisboa,-9.336724,38.769147
25017963,"Oeiras e S. Julião da Barra, Paço de Arcos e Caxias",Grande Lisboa,311,2025-02-27T13:34:00Z,25017963,Em despacho,3315,Inundação de estruturas por precipitação intensa,0,1,0,2,2025-02-27T13:34:00Z,Oeiras,Lisboa,Área Metropolitana De Lisboa,-9.290593,38.696925
24877003,Malagueira e Horta Das Figueiras,Alentejo Central,312,2025-01-27T11:41:00Z,24877003,Em conclusão,3315,Inundação de estruturas por precipitação intensa,0,0,0,0,2025-01-27T11:41:00Z,Évora,Évora,Alentejo,-7.924277,38.57285
25017830,Carnaxide e Queijas,Grande Lisboa,311,2025-02-27T13:06:00Z,25017830,Em despacho,3315,Inundação de estruturas por precipitação intensa,0,1,0,2,2025-02-27T13:06:00Z,Oeiras,Lisboa,Área Metropolitana De Lisboa,-9.25881,38.722457
25017873,Águas Livres,Grande Lisboa,311,2025-02-27T13:20:00Z,25017873,Em curso,3315,Inundação de estruturas por precipitação intensa,0,1,0,3,2025-02-27T13:20:00Z,Amadora,Lisboa,Área Metropolitana De Lisboa,-9.219508,38.745534
25017930,São Domingos de Rana,Grande Lisboa,311,2025-02-27T13:31:00Z,25017930,Em despacho,3315,Inundação de estruturas por precipitação intensa,0,1,0,1,2025-02-27T13:31:00Z,Cascais,Lisboa,Área Metropolitana De Lisboa,-9.340115,38.702729
25005550,Sines,Alentejo Litoral,312,2025-02-24T19:12:00Z,25005550,Em conclusão,3313,Deslizamento de terras,0,0,0,0,2025-02-24T19:12:00Z,Sines,Setúbal,Alentejo,-8.849778,37.961314
25017867,Cascais e Estoril,Grande Lisboa,311,2025-02-27T13:17:00Z,25017867,Em despacho,3315,Inundação de estruturas por precipitação intensa,0,1,0,1,2025-02-27T13:17:00Z,Cascais,Lisboa,Área Metropolitana De Lisboa,-9.398759,38.70391
