id,address,subregion,neighborhood,date,id.1,state,nature,nature_description,aerial_means,terrestrial_means,aquatic_means,operational,date.1,Concelho,Distrito,NUTII_DSG,longitude,latitude,state_2
25665133,Lindoso,Alto Minho,309,2025-07-12T02:50:00Z,25665133,Em Resolução/Conclusão,3103,Incêndio rural,0,3,0,12,2025-07-12T02:50:00Z,Ponte Da Barca,Viana Do Castelo,Norte,-8.224007,41.852543,Resolução/Conclusão
25677014,Alcórrego e Maranhão,Alto Alentejo,312,2025-07-14T15:07:00Z,25677014,Em Resolução/Conclusão,3101,Incêndio rural,0,11,0,37,2025-07-14T15:07:00Z,Avis,Portalegre,Alentejo,-7.895798,38.982193,Resolução/Conclusão
25682131,Borba de Montanha,Tâmega e Sousa,309,2025-07-15T15:07:00Z,25682131,Em Resolução/Conclusão,3103,Incêndio rural,0,4,0,14,2025-07-15T15:07:00Z,Celorico De Basto,Braga,Norte,-8.099957,41.379852,Resolução/Conclusão
25682330,Raposa,Lezíria do Tejo,311,2025-07-15T15:46:00Z,25682330,Em Resolução/Conclusão,3103,Incêndio rural,0,1,0,2,2025-07-15T15:46:00Z,Almeirim,Santarém,Alentejo,-8.578585,39.10026,Resolução/Conclusão
25682362,Quinchães,Ave,309,2025-07-15T15:52:00Z,25682362,Em Resolução/Conclusão,3103,Incêndio rural,0,1,0,5,2025-07-15T15:52:00Z,Fafe,Braga,Norte,-8.138345,41.419462,Resolução/Conclusão
25682680,Rebolosa,Beiras e Serra da Estrela,310,2025-07-15T16:53:00Z,25682680,Em Resolução/Conclusão,3103,Incêndio rural,0,10,0,38,2025-07-15T16:53:00Z,Sabugal,Guarda,Centro,-6.907657,40.422159,Resolução/Conclusão
25681100,Sendim e Atenor,Terras de Trás-os-Montes,309,2025-07-15T11:45:00Z,25681100,Em Resolução/Conclusão,3103,Incêndio rural,0,7,0,22,2025-07-15T11:45:00Z,Miranda Do Douro,Bragança,Norte,-6.433873,41.404508,Resolução/Conclusão
25681570,Nespereira,Tâmega e Sousa,309,2025-07-15T13:27:00Z,25681570,Em Resolução/Conclusão,3101,Incêndio rural,0,10,0,36,2025-07-15T13:27:00Z,Cinfães,Viseu,Norte,-8.17601,41.008988,Resolução/Conclusão
25681786,Sobrosa,Area M. Porto,309,2025-07-15T14:07:00Z,25681786,Em Resolução/Conclusão,3103,Incêndio rural,1,0,0,6,2025-07-15T14:07:00Z,Paredes,Porto,Norte,-8.340574,41.25571,Resolução/Conclusão
25682037,"Aver-o-Mar, Amorim e Terroso",Area M. Porto,309,2025-07-15T14:47:00Z,25682037,Em Resolução/Conclusão,3103,Incêndio rural,0,3,0,8,2025-07-15T14:47:00Z,Póvoa De Varzim,Porto,Norte,-8.734177,41.422432,Resolução/Conclusão
25682254,Panque,Cávado,309,2025-07-15T15:31:00Z,25682254,Em Curso,3103,Incêndio rural,2,20,0,69,2025-07-15T15:31:00Z,Barcelos,Braga,Norte,-8.603844,41.62685,Curso
25682256,Pedome,Ave,309,2025-07-15T15:30:00Z,25682256,Em Resolução/Conclusão,3105,Incêndio rural,0,1,0,5,2025-07-15T15:30:00Z,Vila Nova De Famalicão,Braga,Norte,-8.377333,41.419982,Resolução/Conclusão
25682406,"S.maria, S.miguel, S.martinho, S.pedro Penaferrim",Grande Lisboa,311,2025-07-15T16:00:00Z,25682406,Em Resolução/Conclusão,3103,Incêndio rural,0,4,0,17,2025-07-15T16:00:00Z,Sintra,Lisboa,Área Metropolitana De Lisboa,-9.436325,38.817928,Resolução/Conclusão
25682439,Milharado,Grande Lisboa,311,2025-07-15T16:06:00Z,25682439,Em Resolução/Conclusão,3103,Incêndio rural,0,2,0,10,2025-07-15T16:06:00Z,Mafra,Lisboa,Área Metropolitana De Lisboa,-9.184158,38.919695,Resolução/Conclusão
25682051,Alfeizerão,Oeste,311,2025-07-15T14:50:00Z,25682051,Em Resolução/Conclusão,3111,Queima,0,0,0,0,2025-07-15T14:50:00Z,Alcobaça,Leiria,Centro,-9.111769,39.47104,Resolução/Conclusão
25682076,Alfena,Area M. Porto,309,2025-07-15T14:56:00Z,25682076,Em Resolução/Conclusão,3103,Incêndio rural,0,1,0,5,2025-07-15T14:56:00Z,Valongo,Porto,Norte,-8.527778,41.228322,Resolução/Conclusão
25682108,Lanhelas,Alto Minho,309,2025-07-15T15:02:00Z,25682108,Em Curso,3103,Incêndio rural,1,11,0,36,2025-07-15T15:02:00Z,Caminha,Viana Do Castelo,Norte,-8.783442,41.9107,Curso
25682283,Loivo,Alto Minho,309,2025-07-15T15:34:00Z,25682283,Em Resolução/Conclusão,3105,Incêndio rural,0,0,0,0,2025-07-15T15:34:00Z,Vila Nova De Cerveira,Viana Do Castelo,Norte,-8.726353,41.929183,Resolução/Conclusão
25682394,Vila Cova da Lixa e Borba de Godim,Tâmega e Sousa,309,2025-07-15T15:57:00Z,25682394,Em Resolução/Conclusão,3103,Incêndio rural,0,2,0,6,2025-07-15T15:57:00Z,Felgueiras,Porto,Norte,-8.145007,41.334813,Resolução/Conclusão
25681114,"S. Mig. Pinheiro, S. Pedro Solis e S. Sebastião Carros",Baixo Alentejo,312,2025-07-15T11:44:00Z,25681114,Em Resolução/Conclusão,3105,Incêndio rural,0,1,0,5,2025-07-15T11:44:00Z,Mértola,Beja,Alentejo,-7.901305,37.480835,Resolução/Conclusão
25682332,Poiares,Alto Minho,309,2025-07-15T15:45:00Z,25682332,Em Resolução/Conclusão,3103,Incêndio rural,0,1,0,5,2025-07-15T15:45:00Z,Ponte De Lima,Viana Do Castelo,Norte,-8.633653,41.659273,Resolução/Conclusão
25682486,Balazar,Area M. Porto,309,2025-07-15T16:11:00Z,25682486,Em Resolução/Conclusão,3101,Incêndio rural,0,2,0,7,2025-07-15T16:11:00Z,Póvoa De Varzim,Porto,Norte,-8.624487,41.402142,Resolução/Conclusão
25682669,"Marvila, Ribeira Santarém, S.salvador, S.nicolau",Lezíria do Tejo,311,2025-07-15T16:52:00Z,25682669,Em Curso,3103,Incêndio rural,1,0,0,6,2025-07-15T16:52:00Z,Santarém,Santarém,Alentejo,-8.695527,39.245783,Curso
25682488,Ançã,Região de Coimbra,310,2025-07-15T16:14:00Z,25682488,Em Resolução/Conclusão,3105,Incêndio rural,0,3,0,10,2025-07-15T16:14:00Z,Cantanhede,Coimbra,Centro,-8.50001,40.267415,Resolução/Conclusão
25682605,São Bento,Região de Leiria,310,2025-07-15T16:37:00Z,25682605,Em Resolução/Conclusão,3103,Incêndio rural,0,1,0,2,2025-07-15T16:37:00Z,Porto De Mós,Leiria,Centro,-8.745546,39.52399,Resolução/Conclusão
25682641,Serra de Santo António,Médio Tejo,311,2025-07-15T16:44:00Z,25682641,Em Curso,3103,Incêndio rural,4,26,0,108,2025-07-15T16:44:00Z,Alcanena,Santarém,Centro,-8.734273,39.512682,Curso
25682652,"Labrujó, Rendufe e Vilar do Monte",Alto Minho,309,2025-07-15T16:48:00Z,25682652,Em Curso,3105,Incêndio rural,0,2,0,10,2025-07-15T16:48:00Z,Ponte De Lima,Viana Do Castelo,Norte,-8.547408,41.850721,Curso
