id,address,subregion,neighborhood,date,id.1,state,nature,nature_description,aerial_means,terrestrial_means,aquatic_means,operational,date.1,Concelho,Distrito,NUTII_DSG,longitude,latitude
25487371,São João Dos Caldeireiros,Baixo Alentejo,312,2025-06-06T18:02:00Z,25487371,Em conclusão,3105,Incêndio rural,0,22,0,54,2025-06-06T18:02:00Z,Mértola,Beja,Alentejo,-7.804608,37.600808
25487365,Fátima,Médio Tejo,311,2025-06-06T18:05:00Z,25487365,Em conclusão,3103,Incêndio rural,0,2,0,7,2025-06-06T18:05:00Z,Ourém,Santarém,Centro,-8.654562,39.586845
25488060,Nogueira e Silva Escura,Area M. Porto,309,2025-06-06T20:37:00Z,25488060,Em despacho,3103,Incêndio rural,0,2,0,9,2025-06-06T20:37:00Z,Maia,Porto,Norte,-8.583952,41.25995
25488085,Gulpilhares e Valadares,Area M. Porto,309,2025-06-06T20:41:00Z,25488085,Em resolução,3103,Incêndio rural,0,1,0,5,2025-06-06T20:41:00Z,Vila Nova De Gaia,Porto,Norte,-8.636051,41.09964
25487891,Valdreu,Cávado,309,2025-06-06T19:21:00Z,25487891,Em conclusão,2301,Incêndio em transporte rodoviário,0,1,0,5,2025-06-06T19:21:00Z,Vila Verde,Braga,Norte,-8.333127,41.740422
25486979,Caparica e Trafaria,Península de Setúbal,311,2025-06-06T16:34:00Z,25486979,Em conclusão,2127,"Incêndio em edifícios e recintos industriais, oficinas e armazéns",0,4,0,12,2025-06-06T16:34:00Z,Almada,Setúbal,Área Metropolitana De Lisboa,-9.198172,38.665376
25487879,Alcabideche,Grande Lisboa,311,2025-06-06T19:55:00Z,25487879,Em resolução,3103,Incêndio rural,0,7,0,26,2025-06-06T19:55:00Z,Sintra,Lisboa,Área Metropolitana De Lisboa,-9.375643,38.750903
25488182,Angeja,Região de Aveiro,310,2025-06-06T21:02:00Z,25488182,Em despacho,3105,Incêndio rural,0,0,0,0,2025-06-06T21:02:00Z,Albergaria-a-Velha,Aveiro,Centro,-8.56369,40.681509
