id,address,subregion,neighborhood,date,id.1,state,nature,nature_description,aerial_means,terrestrial_means,aquatic_means,operational,date.1,Concelho,Distrito,NUTII_DSG,longitude,latitude,state_2
25748118,Canelas e Espiunca,Area M. Porto,309,2025-07-28T17:16:00Z,25748118,Em Resolução/Conclusão,3101,Incêndio rural,0,6,0,23,2025-07-28T17:16:00Z,Arouca,Aveiro,Norte,-8.212231,40.969918,Resolução/Conclusão
25749320,Rebordões (Santa Maria),Alto Minho,309,2025-07-28T22:47:00Z,25749320,Em Resolução/Conclusão,3103,Incêndio rural,0,0,0,0,2025-07-28T22:47:00Z,Ponte De Lima,Viana Do Castelo,Norte,-8.588365,41.729993,Resolução/Conclusão
25776263,"Pena, Quintã e Vila Cova",Douro,309,2025-08-02T23:45:00Z,25776263,Em Curso,3103,Incêndio rural,0,179,0,505,2025-08-02T23:45:00Z,Vila Real,Vila Real,Norte,-7.811902,41.317355,Curso
25779639,Senhorim,Viseu Dão Lafões,310,2025-08-03T16:28:00Z,25779639,Em Resolução/Conclusão,3103,Incêndio rural,0,2,0,6,2025-08-03T16:28:00Z,Nelas,Viseu,Centro,-7.81226,40.511713,Resolução/Conclusão
25783717,Cunha Baixa,Viseu Dão Lafões,310,2025-08-04T11:48:00Z,25783717,Em Resolução/Conclusão,3101,Incêndio rural,0,1,0,2,2025-08-04T11:48:00Z,Mangualde,Viseu,Centro,-7.764411,40.559738,Resolução/Conclusão
25784751,"São Pedro do Sul, Várzea e Baiões",Viseu Dão Lafões,310,2025-08-04T14:36:00Z,25784751,Em Resolução/Conclusão,3103,Incêndio rural,0,2,0,5,2025-08-04T14:36:00Z,São Pedro Do Sul,Viseu,Centro,-8.098667,40.75791,Resolução/Conclusão
25784920,Castro Daire,Viseu Dão Lafões,310,2025-08-04T15:03:00Z,25784920,Em Resolução/Conclusão,3103,Incêndio rural,0,0,0,0,2025-08-04T15:03:00Z,Castro Daire,Viseu,Centro,-7.945405,40.912732,Resolução/Conclusão
25785204,Ribas,Tâmega e Sousa,309,2025-08-04T16:03:00Z,25785204,Em Resolução/Conclusão,3103,Incêndio rural,0,4,0,9,2025-08-04T16:03:00Z,Celorico De Basto,Braga,Norte,-8.022547,41.449583,Resolução/Conclusão
25787860,Faíl e Vila Chã de Sá,Viseu Dão Lafões,310,2025-08-05T05:55:00Z,25787860,Em Resolução/Conclusão,3103,Incêndio rural,0,0,0,0,2025-08-05T05:55:00Z,Viseu,Viseu,Centro,-7.987877,40.601342,Resolução/Conclusão
25792622,Arnóia,Tâmega e Sousa,309,2025-08-05T21:35:00Z,25792622,Em Curso,3103,Incêndio rural,0,13,0,44,2025-08-05T21:35:00Z,Celorico De Basto,Braga,Norte,-8.003685,41.362298,Curso
25793141,Beiral do Lima,Alto Minho,309,2025-08-05T23:55:00Z,25793141,Em Resolução/Conclusão,3103,Incêndio rural,0,4,0,13,2025-08-05T23:55:00Z,Ponte De Lima,Viana Do Castelo,Norte,-8.482547,41.757582,Resolução/Conclusão
25793342,Recezinhos (São Martinho),Tâmega e Sousa,309,2025-08-06T01:32:00Z,25793342,Em Resolução/Conclusão,3103,Incêndio rural,0,3,0,12,2025-08-06T01:32:00Z,Penafiel,Porto,Norte,-8.22278,41.220425,Resolução/Conclusão
25793427,Vila Boa de Quires e Maureles,Tâmega e Sousa,309,2025-08-06T02:34:00Z,25793427,Em Despacho,3103,Incêndio rural,0,1,0,5,2025-08-06T02:34:00Z,Marco De Canaveses,Porto,Norte,-8.201095,41.207266,Despacho
25793428,"Pinheiro da Bemposta, Travanca e Palmaz",Area M. Porto,309,2025-08-06T02:32:00Z,25793428,Em Despacho,3101,Incêndio rural,0,2,0,7,2025-08-06T02:32:00Z,Oliveira De Azeméis,Aveiro,Norte,-8.478028,40.814169,Despacho
25773830,Andrães,Douro,309,2025-08-02T14:23:00Z,25773830,Em Resolução/Conclusão,3103,Incêndio rural,0,18,0,69,2025-08-02T14:23:00Z,Vila Real,Vila Real,Norte,-7.671293,41.267593,Resolução/Conclusão
25774883,Arnóia,Tâmega e Sousa,309,2025-08-02T18:20:00Z,25774883,Em Resolução/Conclusão,3103,Incêndio rural,0,18,0,59,2025-08-02T18:20:00Z,Celorico De Basto,Braga,Norte,-7.998983,41.348727,Resolução/Conclusão
25775734,Sequeiros e Gradiz,Viseu Dão Lafões,310,2025-08-02T21:35:00Z,25775734,Em Resolução/Conclusão,3103,Incêndio rural,0,0,0,0,2025-08-02T21:35:00Z,Aguiar Da Beira,Guarda,Centro,-7.564515,40.858278,Resolução/Conclusão
25787199,Castro Daire,Viseu Dão Lafões,310,2025-08-04T22:56:00Z,25787199,Em Resolução/Conclusão,3103,Incêndio rural,0,1,0,2,2025-08-04T22:56:00Z,Castro Daire,Viseu,Centro,-7.943425,40.911315,Resolução/Conclusão
25791046,Rio Frio,Alto Minho,309,2025-08-05T16:10:00Z,25791046,Em Resolução/Conclusão,3103,Incêndio rural,0,5,0,17,2025-08-05T16:10:00Z,Arcos De Valdevez,Viana Do Castelo,Norte,-8.507005,41.863488,Resolução/Conclusão
25792649,São Gens,Ave,309,2025-08-05T21:43:00Z,25792649,Em Resolução/Conclusão,3103,Incêndio rural,0,2,0,7,2025-08-05T21:43:00Z,Fafe,Braga,Norte,-8.117613,41.445497,Resolução/Conclusão
25793199,"Ovar, São João, Arada e São Vicente de Pereira Jusã",Região de Aveiro,310,2025-08-06T00:13:00Z,25793199,Em Resolução/Conclusão,3103,Incêndio rural,0,1,0,2,2025-08-06T00:13:00Z,Ovar,Aveiro,Centro,-8.614882,40.848287,Resolução/Conclusão
25793399,Laranjeiro e Feijó,Península de Setúbal,311,2025-08-06T02:19:00Z,25793399,Em Resolução/Conclusão,3103,Incêndio rural,0,5,0,22,2025-08-06T02:19:00Z,Almada,Setúbal,Área Metropolitana De Lisboa,-9.172089,38.66187,Resolução/Conclusão
25738747,Lindoso,Alto Minho,309,2025-07-26T21:47:00Z,25738747,Em Resolução/Conclusão,3103,Incêndio rural,0,24,0,67,2025-07-26T21:47:00Z,Ponte Da Barca,Viana Do Castelo,Norte,-8.220528,41.865272,Resolução/Conclusão
25747773,Aranhas,Beira Baixa,310,2025-07-28T16:36:00Z,25747773,Em Resolução/Conclusão,3103,Incêndio rural,0,2,0,6,2025-07-28T16:36:00Z,Penamacor,Castelo Branco,Centro,-7.14438,40.117542,Resolução/Conclusão
25775263,Torgueda,Douro,309,2025-08-02T19:49:00Z,25775263,Em Resolução/Conclusão,3101,Incêndio rural,0,13,0,42,2025-08-02T19:49:00Z,Vila Real,Vila Real,Norte,-7.785983,41.274952,Resolução/Conclusão
25778337,Senhorim,Viseu Dão Lafões,310,2025-08-03T11:59:00Z,25778337,Em Resolução/Conclusão,3103,Incêndio rural,0,0,0,0,2025-08-03T11:59:00Z,Nelas,Viseu,Centro,-7.825723,40.54384,Resolução/Conclusão
25780604,Rio Frio,Alto Minho,309,2025-08-03T20:13:00Z,25780604,Em Resolução/Conclusão,3103,Incêndio rural,0,3,0,5,2025-08-03T20:13:00Z,Arcos De Valdevez,Viana Do Castelo,Norte,-8.492232,41.868325,Resolução/Conclusão
25785466,Caçarilhe e Infesta,Tâmega e Sousa,309,2025-08-04T16:48:00Z,25785466,Em Resolução/Conclusão,3103,Incêndio rural,0,1,0,19,2025-08-04T16:48:00Z,Celorico De Basto,Braga,Norte,-8.035342,41.42903,Resolução/Conclusão
25790096,"Leomil, Mido, Senouras e Aldeia Nova",Beiras e Serra da Estrela,310,2025-08-05T13:37:00Z,25790096,Em Resolução/Conclusão,3103,Incêndio rural,0,6,0,21,2025-08-05T13:37:00Z,Almeida,Guarda,Centro,-6.951735,40.680123,Resolução/Conclusão
25790682,Mancelos,Tâmega e Sousa,309,2025-08-05T15:06:00Z,25790682,Em Resolução/Conclusão,3103,Incêndio rural,0,8,0,25,2025-08-05T15:06:00Z,Amarante,Porto,Norte,-8.160586,41.275715,Resolução/Conclusão
25791761,Santa Cruz do Douro e São Tomé de Covelas,Tâmega e Sousa,309,2025-08-05T18:32:00Z,25791761,Em Resolução/Conclusão,3103,Incêndio rural,1,0,0,1,2025-08-05T18:32:00Z,Baião,Porto,Norte,-7.998456,41.123167,Resolução/Conclusão
25793419,Lustosa e Barrosas (Santo Estêvão),Tâmega e Sousa,309,2025-08-06T02:31:00Z,25793419,Em Despacho,3103,Incêndio rural,0,1,0,5,2025-08-06T02:31:00Z,Lousada,Porto,Norte,-8.27822,41.32483,Despacho
25793434,"Lobão, Gião, Louredo e Guisande",Area M. Porto,309,2025-08-06T02:40:00Z,25793434,Em Despacho,3103,Incêndio rural,0,0,0,0,2025-08-06T02:40:00Z,Santa Maria Da Feira,Aveiro,Norte,-8.46879,40.97968,Despacho
25793436,Vila Velha de Ródão,Beira Baixa,310,2025-08-06T02:41:00Z,25793436,Em Despacho,3103,Incêndio rural,0,0,0,0,2025-08-06T02:41:00Z,Vila Velha De Ródão,Castelo Branco,Centro,-7.676941,39.64758,Despacho
25763650,Milagres,Região de Leiria,310,2025-07-31T15:58:00Z,25763650,Em Resolução/Conclusão,3101,Incêndio rural,0,1,0,2,2025-07-31T15:58:00Z,Leiria,Leiria,Centro,-8.792217,39.793427,Resolução/Conclusão
25785983,Caçarilhe e Infesta,Tâmega e Sousa,309,2025-08-04T18:22:00Z,25785983,Em Curso,3103,Incêndio rural,0,86,0,269,2025-08-04T18:22:00Z,Celorico De Basto,Braga,Norte,-8.035942,41.421017,Curso
25786312,Mões,Viseu Dão Lafões,310,2025-08-04T19:31:00Z,25786312,Em Resolução/Conclusão,3105,Incêndio rural,0,0,0,0,2025-08-04T19:31:00Z,Castro Daire,Viseu,Centro,-7.888317,40.866883,Resolução/Conclusão
25790229,Galegos,Tâmega e Sousa,309,2025-08-05T13:59:00Z,25790229,Em Curso,3103,Incêndio rural,0,19,0,60,2025-08-05T13:59:00Z,Penafiel,Porto,Norte,-8.31029,41.153427,Curso
25790490,Foz do Sousa e Covelo,Area M. Porto,309,2025-08-05T14:41:00Z,25790490,Em Resolução/Conclusão,3103,Incêndio rural,0,5,0,7,2025-08-05T14:41:00Z,Gondomar,Porto,Norte,-8.505977,41.084027,Resolução/Conclusão
25791867,Alvarenga,Area M. Porto,309,2025-08-05T18:50:00Z,25791867,Em Resolução/Conclusão,3103,Incêndio rural,0,3,0,10,2025-08-05T18:50:00Z,Arouca,Aveiro,Norte,-8.16923,40.96044,Resolução/Conclusão
25793228,Vila Seca,Cávado,309,2025-08-06T00:29:00Z,25793228,Em Resolução/Conclusão,3103,Incêndio rural,0,1,0,5,2025-08-06T00:29:00Z,Barcelos,Braga,Norte,-8.682305,41.495102,Resolução/Conclusão
25793348,Guarda,Beiras e Serra da Estrela,310,2025-08-06T01:35:00Z,25793348,Em Resolução/Conclusão,3103,Incêndio rural,0,7,0,26,2025-08-06T01:35:00Z,Guarda,Guarda,Centro,-7.225495,40.561345,Resolução/Conclusão
25793354,Vila Boa de Quires e Maureles,Tâmega e Sousa,309,2025-08-06T01:41:00Z,25793354,Em Resolução/Conclusão,3103,Incêndio rural,0,1,0,5,2025-08-06T01:41:00Z,Marco De Canaveses,Porto,Norte,-8.201095,41.207266,Resolução/Conclusão
25793390,Bravães,Alto Minho,309,2025-08-06T02:09:00Z,25793390,Em Resolução/Conclusão,3103,Incêndio rural,0,2,0,5,2025-08-06T02:09:00Z,Ponte Da Barca,Viana Do Castelo,Norte,-8.45952,41.79856,Resolução/Conclusão
25793429,Quirás e Pinheiro Novo,Terras de Trás-os-Montes,309,2025-08-06T02:38:00Z,25793429,Em Despacho,3103,Incêndio rural,0,4,0,17,2025-08-06T02:38:00Z,Vinhais,Bragança,Norte,-7.169956,41.9507,Despacho
25793438,Gandra,Area M. Porto,309,2025-08-06T02:42:00Z,25793438,Em Despacho,3103,Incêndio rural,0,0,0,0,2025-08-06T02:42:00Z,Paredes,Porto,Norte,-8.43613,41.19805,Despacho
