id,address,subregion,neighborhood,date,id.1,state,nature,nature_description,aerial_means,terrestrial_means,aquatic_means,operational,date.1,Concelho,Distrito,NUTII_DSG,longitude,latitude,state_2
26077823,São Cipriano e Vil de Souto,Viseu Dão Lafões,310,2025-10-02T14:18:00Z,26077823,Em Resolução/Conclusão,3103,Incêndio rural,0,1,0,2,2025-10-02T14:18:00Z,Viseu,Viseu,Centro,-7.953868,40.632302,Resolução/Conclusão
26086543,"St.tirso, Couto (S.cristina e S.miguel) e Burgães",Area M. Porto,309,2025-10-04T11:02:00Z,26086543,Em Resolução/Conclusão,3103,Incêndio rural,0,1,0,5,2025-10-04T11:02:00Z,Santo Tirso,Porto,Norte,-8.45548,41.32946,Resolução/Conclusão
26078806,"Tavares (Chãs, Várzea e Travanca)",Viseu Dão Lafões,310,2025-10-02T17:31:00Z,26078806,Em Resolução/Conclusão,3103,Incêndio rural,0,2,0,7,2025-10-02T17:31:00Z,Mangualde,Viseu,Centro,-7.638958,40.609205,Resolução/Conclusão
26086390,Prado e Remoães,Alto Minho,309,2025-10-04T10:21:00Z,26086390,Em Resolução/Conclusão,3111,Queima,0,2,0,6,2025-10-04T10:21:00Z,Melgaço,Viana Do Castelo,Norte,-8.287622,42.111912,Resolução/Conclusão
26086458,Mondrões,Douro,309,2025-10-04T10:37:00Z,26086458,Em Resolução/Conclusão,3103,Incêndio rural,1,5,0,25,2025-10-04T10:37:00Z,Vila Real,Vila Real,Norte,-7.796993,41.305473,Resolução/Conclusão
26086719,"Gondomar (São Cosme), Valbom e Jovim",Area M. Porto,309,2025-10-04T11:38:00Z,26086719,Em Despacho,3103,Incêndio rural,0,1,0,5,2025-10-04T11:38:00Z,Gondomar,Porto,Norte,-8.53336,41.14974,Despacho
26022995,Bordeira,Algarve,313,2025-09-21T12:21:00Z,26022995,Em Resolução/Conclusão,3103,Incêndio rural,0,4,0,13,2025-09-21T12:21:00Z,Aljezur,Faro,Algarve,-8.825374,37.23495,Resolução/Conclusão
