id,address,subregion,neighborhood,date,id.1,state,nature,nature_description,aerial_means,terrestrial_means,aquatic_means,operational,date.1,Concelho,Distrito,NUTII_DSG,longitude,latitude
25481020,Recezinhos (São Martinho),Tâmega e Sousa,309,2025-06-05T13:00:00Z,25481020,Em despacho,3107,Consolidação de rescaldo de incêndio rural,0,4,0,12,2025-06-05T13:00:00Z,Penafiel,Porto,Norte,-8.21901,41.230664
25481152,"Cedofeita, Ildefonso, Sé, Miragaia, Nicolau e Vitória",Area M. Porto,309,2025-06-05T13:50:00Z,25481152,Em curso,2101,Incêndio em edifícios habitacionais,0,1,0,3,2025-06-05T13:50:00Z,Porto,Porto,Norte,-8.62524,41.15948
25481405,Pinhal Novo,Península de Setúbal,311,2025-06-05T14:37:00Z,25481405,Em conclusão,3107,Consolidação de rescaldo de incêndio rural,0,3,0,12,2025-06-05T14:37:00Z,Palmela,Setúbal,Área Metropolitana De Lisboa,-8.864522,38.66992
25479771,Muxagata,Douro,309,2025-06-05T09:43:00Z,25479771,Em despacho,3109,Gestão de combustível,0,2,0,10,2025-06-05T09:43:00Z,Vila Nova De Foz Côa,Guarda,Norte,-7.168678,41.037581
25480909,"Cedofeita, Ildefonso, Sé, Miragaia, Nicolau e Vitória",Area M. Porto,309,2025-06-05T13:06:00Z,25480909,Em conclusão,2101,Incêndio em edifícios habitacionais,0,1,0,2,2025-06-05T13:06:00Z,Porto,Porto,Norte,-8.60763,41.15248
25481148,Fátima,Médio Tejo,311,2025-06-05T13:49:00Z,25481148,Em resolução,3103,Incêndio rural,0,6,0,19,2025-06-05T13:49:00Z,Ourém,Santarém,Centro,-8.631235,39.55178
25481418,Bemposta,Médio Tejo,311,2025-06-05T14:38:00Z,25481418,Em conclusão,3103,Incêndio rural,0,1,0,1,2025-06-05T14:38:00Z,Abrantes,Santarém,Centro,-8.157133,39.389695
25481739,Alcochete,Península de Setúbal,311,2025-06-05T15:36:00Z,25481739,Em despacho,3103,Incêndio rural,0,1,0,5,2025-06-05T15:36:00Z,Alcochete,Setúbal,Área Metropolitana De Lisboa,-8.962464,38.749259
25480740,Torre de Coelheiros,Alentejo Central,312,2025-06-05T12:32:00Z,25480740,Em resolução,3105,Incêndio rural,1,21,0,67,2025-06-05T12:32:00Z,Évora,Évora,Alentejo,-7.799997,38.46965
25481769,Conceição e Estoi,Algarve,313,2025-06-05T15:44:00Z,25481769,Em despacho,3103,Incêndio rural,0,5,0,18,2025-06-05T15:44:00Z,Faro,Faro,Algarve,-7.9034,37.04527
