id,address,subregion,neighborhood,date,id.1,state,nature,nature_description,aerial_means,terrestrial_means,aquatic_means,operational,date.1,Concelho,Distrito,NUTII_DSG,longitude,latitude
25087162,Pedrógão,Baixo Alentejo,312,2025-03-14T17:00:00Z,25087162,Em curso,1101,Cheia,0,0,0,0,2025-03-14T17:00:00Z,Vidigueira,Beja,Alentejo,-7.630327,38.110775
25128056,Santa Maria do Castelo e Santiago e Santa Susana,Alentejo Litoral,312,2025-03-21T14:41:00Z,25128056,Em curso,1101,Cheia,0,0,0,0,2025-03-21T14:41:00Z,Alcácer Do Sal,Setúbal,Alentejo,-8.434671,38.401157
25131298,Luso,Região de Coimbra,310,2025-03-22T08:24:00Z,25131298,Em despacho,3301,Queda de árvore,0,1,0,2,2025-03-22T08:24:00Z,Mealhada,Aveiro,Centro,-8.374509,40.375881
25131407,São Romão de Neiva,Alto Minho,309,2025-03-22T08:47:00Z,25131407,Em despacho,3315,Inundação de estruturas por precipitação intensa,0,0,0,0,2025-03-22T08:47:00Z,Viana Do Castelo,Viana Do Castelo,Norte,-8.76857,41.63968
25132043,Miranda do Corvo,Região de Coimbra,310,2025-03-22T10:30:00Z,25132043,Em curso,3315,Inundação de estruturas por precipitação intensa,0,0,0,0,2025-03-22T10:30:00Z,Miranda Do Corvo,Coimbra,Centro,-8.339499,40.09407
25132220,"Bigorne, Magueija e Pretarouca",Douro,309,2025-03-22T11:13:00Z,25132220,Em curso,3313,Deslizamento de terras,0,2,0,3,2025-03-22T11:13:00Z,Lamego,Viseu,Norte,-7.8684,41.03566
25132236,São Vicente do Paul e Vale de Figueira,Lezíria do Tejo,311,2025-03-22T11:15:00Z,25132236,Em resolução,3301,Queda de árvore,0,1,0,5,2025-03-22T11:15:00Z,Santarém,Santarém,Alentejo,-8.656035,39.350473
25132479,Arruda Dos Vinhos,Oeste,311,2025-03-22T11:40:00Z,25132479,Em curso,3315,Inundação de estruturas por precipitação intensa,0,2,0,3,2025-03-22T11:40:00Z,Arruda Dos Vinhos,Lisboa,Centro,-9.06983,38.993124
25132586,Alenquer (Santo Estêvão e Triana),Oeste,311,2025-03-22T11:50:00Z,25132586,Em curso,3311,Queda de elementos de estruturas edificados,0,4,0,6,2025-03-22T11:50:00Z,Alenquer,Lisboa,Centro,-9.007918,39.054242
25132786,"Oeiras e S. Julião da Barra, Paço de Arcos e Caxias",Grande Lisboa,311,2025-03-22T12:54:00Z,25132786,Em despacho,3301,Queda de árvore,0,1,0,3,2025-03-22T12:54:00Z,Oeiras,Lisboa,Área Metropolitana De Lisboa,-9.310159,38.698531
25133011,Vialonga,Grande Lisboa,311,2025-03-22T13:30:00Z,25133011,Em curso,3329,Queda de estruturas temporárias ou móveis,0,1,0,3,2025-03-22T13:30:00Z,Vila Franca De Xira,Lisboa,Área Metropolitana De Lisboa,-9.087262,38.878017
25133104,Bonfim,Area M. Porto,309,2025-03-22T14:01:00Z,25133104,Em despacho,3311,Queda de elementos de estruturas edificados,0,1,0,4,2025-03-22T14:01:00Z,Porto,Porto,Norte,-8.60267,41.15345
25133170,Seiça,Médio Tejo,311,2025-03-22T14:15:00Z,25133170,Em resolução,3301,Queda de árvore,0,1,0,4,2025-03-22T14:15:00Z,Ourém,Santarém,Centro,-8.480657,39.704132
25133204,Caldas da Rainha - Santo Onofre e Serra do Bouro,Oeste,311,2025-03-22T14:19:00Z,25133204,Em despacho,3301,Queda de árvore,0,2,0,6,2025-03-22T14:19:00Z,Caldas Da Rainha,Leiria,Centro,-9.184578,39.456337
25133263,Parceiros e Azoia,Região de Leiria,310,2025-03-22T14:48:00Z,25133263,Em despacho,3301,Queda de árvore,0,1,0,5,2025-03-22T14:48:00Z,Leiria,Leiria,Centro,-8.838686,39.73158
25133297,Pampilhosa da Serra,Região de Coimbra,310,2025-03-22T14:34:00Z,25133297,Em despacho,3315,Inundação de estruturas por precipitação intensa,0,1,0,3,2025-03-22T14:34:00Z,Pampilhosa Da Serra,Coimbra,Centro,-7.973746,40.045515
25133304,Rogil,Algarve,313,2025-03-22T14:31:00Z,25133304,Em despacho,3301,Queda de árvore,0,1,0,2,2025-03-22T14:31:00Z,Aljezur,Faro,Algarve,-8.79915,37.371931
25133311,Póvoa de Santa Iria e Forte da Casa,Grande Lisboa,311,2025-03-22T14:25:00Z,25133311,Em despacho,3301,Queda de árvore,0,1,0,2,2025-03-22T14:25:00Z,Vila Franca De Xira,Lisboa,Área Metropolitana De Lisboa,-9.051508,38.875602
25133354,"O. Azeméis, Riba-Ul, Ul, Macinhata Seixa, Madail",Area M. Porto,309,2025-03-22T14:27:00Z,25133354,Em despacho,3301,Queda de árvore,0,1,0,2,2025-03-22T14:27:00Z,Oliveira De Azeméis,Aveiro,Norte,-8.485893,40.835398
25133356,Garvão e Santa Luzia,Baixo Alentejo,312,2025-03-22T14:48:00Z,25133356,Em curso,3301,Queda de árvore,0,3,0,8,2025-03-22T14:48:00Z,Ourique,Beja,Alentejo,-8.364935,37.716402
25133365,"Brogueira, Parceiros de Igreja e Alcorochel",Médio Tejo,311,2025-03-22T14:50:00Z,25133365,Em despacho,3301,Queda de árvore,0,1,0,2,2025-03-22T14:50:00Z,Torres Novas,Santarém,Centro,-8.569888,39.444064
25068300,Almeirim,Lezíria do Tejo,311,2025-03-10T20:52:00Z,25068300,Em curso,1101,Cheia,0,0,0,0,2025-03-10T20:52:00Z,Almeirim,Santarém,Alentejo,-8.635002,39.187436
25121298,Gafanhoeira (São Pedro) e Sabugueiro,Alentejo Central,312,2025-03-20T14:26:00Z,25121298,Em resolução,3301,Queda de árvore,0,0,0,0,2025-03-20T14:26:00Z,Arraiolos,Évora,Alentejo,-8.088754,38.754507
25129636,"S.maria, S.miguel, S.martinho, S.pedro Penaferrim",Grande Lisboa,311,2025-03-21T19:25:00Z,25129636,Em despacho,3301,Queda de árvore,0,1,0,5,2025-03-21T19:25:00Z,Sintra,Lisboa,Área Metropolitana De Lisboa,-9.366763,38.781718
25130479,"S.maria, S.miguel, S.martinho, S.pedro Penaferrim",Grande Lisboa,311,2025-03-21T23:50:00Z,25130479,Em curso,3301,Queda de árvore,0,2,0,10,2025-03-21T23:50:00Z,Sintra,Lisboa,Área Metropolitana De Lisboa,-9.366763,38.781718
25131147,Covilhã e Canhoso,Beiras e Serra da Estrela,310,2025-03-22T07:51:00Z,25131147,Em despacho,3313,Deslizamento de terras,0,2,0,4,2025-03-22T07:51:00Z,Covilhã,Castelo Branco,Centro,-7.50305,40.28619
25131769,"S.maria, S.miguel, S.martinho, S.pedro Penaferrim",Grande Lisboa,311,2025-03-22T09:40:00Z,25131769,Em despacho,3301,Queda de árvore,0,1,0,4,2025-03-22T09:40:00Z,Sintra,Lisboa,Área Metropolitana De Lisboa,-9.380105,38.790996
25132058,Orvalho,Beira Baixa,310,2025-03-22T10:44:00Z,25132058,Em despacho,3311,Queda de elementos de estruturas edificados,0,1,0,2,2025-03-22T10:44:00Z,Oleiros,Castelo Branco,Centro,-7.791058,40.022607
25132971,Pombal,Região de Leiria,310,2025-03-22T13:34:00Z,25132971,Em despacho,3321,Dano na rede de fornecimento de eletricidade ,0,1,0,2,2025-03-22T13:34:00Z,Pombal,Leiria,Centro,-8.61098,39.87971
25063232,Santa Maria do Castelo e Santiago e Santa Susana,Alentejo Litoral,312,2025-03-09T19:02:00Z,25063232,Em conclusão,1101,Cheia,0,0,0,0,2025-03-09T19:02:00Z,Alcácer Do Sal,Setúbal,Alentejo,-8.48167,38.29806
25127944,Colares,Grande Lisboa,311,2025-03-21T14:29:00Z,25127944,Em curso,3301,Queda de árvore,0,1,0,5,2025-03-21T14:29:00Z,Sintra,Lisboa,Área Metropolitana De Lisboa,-9.432326,38.780106
25130567,Manteigas (Santa Maria),Beiras e Serra da Estrela,310,2025-03-22T00:50:00Z,25130567,Em curso,3313,Deslizamento de terras,0,1,0,2,2025-03-22T00:50:00Z,Manteigas,Guarda,Centro,-7.537826,40.403513
25131201,Cernache,Região de Coimbra,310,2025-03-22T08:07:00Z,25131201,Em despacho,3313,Deslizamento de terras,0,0,0,0,2025-03-22T08:07:00Z,Coimbra,Coimbra,Centro,-8.473586,40.13779
25131689,Cascais e Estoril,Grande Lisboa,311,2025-03-22T09:38:00Z,25131689,Em resolução,3301,Queda de árvore,0,2,0,6,2025-03-22T09:38:00Z,Cascais,Lisboa,Área Metropolitana De Lisboa,-9.408908,38.704814
25131805,Midões,Região de Coimbra,310,2025-03-22T10:01:00Z,25131805,Em curso,3301,Queda de árvore,0,2,0,3,2025-03-22T10:01:00Z,Tábua,Coimbra,Centro,-7.959948,40.405726
25132606,Sesimbra (Castelo),Península de Setúbal,311,2025-03-22T12:22:00Z,25132606,Em despacho,3301,Queda de árvore,0,1,0,5,2025-03-22T12:22:00Z,Sesimbra,Setúbal,Área Metropolitana De Lisboa,-9.15932,38.48411
25132775,Sertã,Beira Baixa,310,2025-03-22T12:52:00Z,25132775,Em resolução,3313,Deslizamento de terras,0,2,0,5,2025-03-22T12:52:00Z,Sertã,Castelo Branco,Centro,-8.090122,39.808208
25132876,Água Longa,Area M. Porto,309,2025-03-22T13:05:00Z,25132876,Em despacho,3315,Inundação de estruturas por precipitação intensa,0,1,0,2,2025-03-22T13:05:00Z,Santo Tirso,Porto,Norte,-8.501849,41.259817
25133438,Venteira,Grande Lisboa,311,2025-03-22T15:07:00Z,25133438,Em despacho,3329,Queda de estruturas temporárias ou móveis,0,0,0,0,2025-03-22T15:07:00Z,Amadora,Lisboa,Área Metropolitana De Lisboa,-9.23333,38.75672
25133445,Rocas do Vouga,Região de Aveiro,310,2025-03-22T15:08:00Z,25133445,Em despacho,3321,Dano na rede de fornecimento de eletricidade ,0,0,0,0,2025-03-22T15:08:00Z,Sever Do Vouga,Aveiro,Centro,-8.34199,40.76042
25133472,Amora,Península de Setúbal,311,2025-03-22T15:05:00Z,25133472,Em curso,3311,Queda de elementos de estruturas edificados,0,1,0,6,2025-03-22T15:05:00Z,Seixal,Setúbal,Área Metropolitana De Lisboa,-9.125264,38.627284
25133488,Lagos (São Sebastião e Santa Maria),Algarve,313,2025-03-22T15:04:00Z,25133488,Em despacho,3301,Queda de árvore,0,1,0,4,2025-03-22T15:04:00Z,Lagos,Faro,Algarve,-8.668524,37.100485
25059714,Torrão,Alentejo Litoral,312,2025-03-08T22:10:00Z,25059714,Em curso,1101,Cheia,0,1,0,2,2025-03-08T22:10:00Z,Alcácer Do Sal,Setúbal,Alentejo,-8.359133,38.252053
25070044,Praia do Ribatejo,Médio Tejo,311,2025-03-10T19:30:00Z,25070044,Em curso,1101,Cheia,0,0,0,0,2025-03-10T19:30:00Z,Vila Nova Da Barquinha,Santarém,Centro,-8.357309,39.485638
25071496,São Manços e São Vicente do Pigeiro,Alentejo Central,312,2025-03-11T13:18:00Z,25071496,Em curso,1101,Cheia,0,2,0,4,2025-03-11T13:18:00Z,Évora,Évora,Alentejo,-7.713313,38.513673
25130358,Grândola e Santa Margarida da Serra,Alentejo Litoral,312,2025-03-21T22:53:00Z,25130358,Em curso,3313,Deslizamento de terras,0,0,0,0,2025-03-21T22:53:00Z,Grândola,Setúbal,Alentejo,-8.621172,38.121494
25131211,"Custóias, Leça do Balio e Guifões",Area M. Porto,309,2025-03-22T07:57:00Z,25131211,Em curso,3315,Inundação de estruturas por precipitação intensa,0,8,0,12,2025-03-22T07:57:00Z,Matosinhos,Porto,Norte,-8.632716,41.208899
25131444,Cumeeira,Região de Coimbra,310,2025-03-22T08:50:00Z,25131444,Em despacho,3301,Queda de árvore,0,1,0,4,2025-03-22T08:50:00Z,Penela,Coimbra,Centro,-8.36246,39.948128
25131513,Louriçal,Região de Leiria,310,2025-03-22T08:45:00Z,25131513,Em despacho,3315,Inundação de estruturas por precipitação intensa,0,1,0,2,2025-03-22T08:45:00Z,Pombal,Leiria,Centro,-8.745623,40.007074
25131696,Matas e Cercal,Médio Tejo,311,2025-03-22T09:44:00Z,25131696,Em resolução,3311,Queda de elementos de estruturas edificados,0,5,0,7,2025-03-22T09:44:00Z,Ourém,Santarém,Centro,-8.641594,39.718476
25132180,Chamusca e Pinheiro Grande,Lezíria do Tejo,311,2025-03-22T11:06:00Z,25132180,Em despacho,3301,Queda de árvore,0,1,0,2,2025-03-22T11:06:00Z,Chamusca,Santarém,Alentejo,-8.450018,39.395816
25132280,Darque,Alto Minho,309,2025-03-22T11:10:00Z,25132280,Em curso,3315,Inundação de estruturas por precipitação intensa,0,1,0,2,2025-03-22T11:10:00Z,Viana Do Castelo,Viana Do Castelo,Norte,-8.79826,41.683928
25133112,Ourique,Baixo Alentejo,312,2025-03-22T14:03:00Z,25133112,Em conclusão,3309,Desabamento de estruturas edificadas,0,1,0,1,2025-03-22T14:03:00Z,Ourique,Beja,Alentejo,-8.235187,37.659223
25133180,Azeitão (São Lourenço e São Simão),Península de Setúbal,311,2025-03-22T14:11:00Z,25133180,Em despacho,3301,Queda de árvore,0,1,0,2,2025-03-22T14:11:00Z,Setúbal,Setúbal,Área Metropolitana De Lisboa,-9.002401,38.532777
25133219,"Cortiçô da Serra, Vide Entre Vinhas e Salgueirais",Beiras e Serra da Estrela,310,2025-03-22T14:20:00Z,25133219,Em conclusão,3311,Queda de elementos de estruturas edificados,0,1,0,2,2025-03-22T14:20:00Z,Celorico Da Beira,Guarda,Centro,-7.423168,40.591891
25133287,Lanhoso,Ave,309,2025-03-22T14:01:00Z,25133287,Em despacho,3301,Queda de árvore,0,1,0,2,2025-03-22T14:01:00Z,Póvoa De Lanhoso,Braga,Norte,-8.295937,41.575819
25133192,Arcozelo,Area M. Porto,309,2025-03-22T14:10:00Z,25133192,Em despacho,3311,Queda de elementos de estruturas edificados,0,1,0,3,2025-03-22T14:10:00Z,Vila Nova De Gaia,Porto,Norte,-8.640388,41.056331
25133291,Lustosa e Barrosas (Santo Estêvão),Tâmega e Sousa,309,2025-03-22T14:31:00Z,25133291,Em despacho,3313,Deslizamento de terras,0,1,0,1,2025-03-22T14:31:00Z,Lousada,Porto,Norte,-8.302378,41.330895
25133294,Caparica e Trafaria,Península de Setúbal,311,2025-03-22T14:32:00Z,25133294,Em curso,3301,Queda de árvore,0,1,0,5,2025-03-22T14:32:00Z,Almada,Setúbal,Área Metropolitana De Lisboa,-9.231582,38.671372
25133342,"S.julião, N.s. da Anunciada e S. Maria da Graça",Península de Setúbal,311,2025-03-22T12:50:00Z,25133342,Em curso,3301,Queda de árvore,0,1,0,2,2025-03-22T12:50:00Z,Setúbal,Setúbal,Área Metropolitana De Lisboa,-8.889983,38.529955
25133391,São João Das Lampas e Terrugem,Grande Lisboa,311,2025-03-22T14:30:00Z,25133391,Em despacho,3321,Dano na rede de fornecimento de eletricidade ,0,1,0,2,2025-03-22T14:30:00Z,Sintra,Lisboa,Área Metropolitana De Lisboa,-9.442718,38.844843
25133408,Massamá e Monte Abraão,Grande Lisboa,311,2025-03-22T14:31:00Z,25133408,Em despacho,3321,Dano na rede de fornecimento de eletricidade ,0,1,0,2,2025-03-22T14:31:00Z,Sintra,Lisboa,Área Metropolitana De Lisboa,-9.27045,38.75541
25133441,Rocas do Vouga,Região de Aveiro,310,2025-03-22T15:00:00Z,25133441,Em despacho,3315,Inundação de estruturas por precipitação intensa,0,1,0,4,2025-03-22T15:00:00Z,Sever Do Vouga,Aveiro,Centro,-8.332092,40.763187
25132347,Trouxemil e Torre de Vilela,Região de Coimbra,310,2025-03-22T11:34:00Z,25132347,Em curso,3315,Inundação de estruturas por precipitação intensa,0,2,0,3,2025-03-22T11:34:00Z,Coimbra,Coimbra,Centro,-8.452804,40.249612
25132447,Lamas e Cercal,Oeste,311,2025-03-22T11:50:00Z,25132447,Em despacho,3301,Queda de árvore,0,1,0,1,2025-03-22T11:50:00Z,Cadaval,Lisboa,Centro,-9.069874,39.219536
25132563,Azeitão (São Lourenço e São Simão),Península de Setúbal,311,2025-03-22T12:01:00Z,25132563,Em despacho,3301,Queda de árvore,0,1,0,5,2025-03-22T12:01:00Z,Setúbal,Setúbal,Área Metropolitana De Lisboa,-9.023955,38.513697
25132732,Alhos Vedros,Península de Setúbal,311,2025-03-22T12:42:00Z,25132732,Em curso,3329,Queda de estruturas temporárias ou móveis,0,1,0,4,2025-03-22T12:42:00Z,Moita,Setúbal,Área Metropolitana De Lisboa,-9.026889,38.657804
25132816,Parreira e Chouto,Lezíria do Tejo,311,2025-03-22T13:03:00Z,25132816,Em conclusão,3301,Queda de árvore,0,1,0,5,2025-03-22T13:03:00Z,Chamusca,Santarém,Alentejo,-8.327738,39.256475
25133017,Manteigas (São Pedro),Beiras e Serra da Estrela,310,2025-03-22T13:44:00Z,25133017,Em curso,3313,Deslizamento de terras,0,3,0,4,2025-03-22T13:44:00Z,Manteigas,Guarda,Centro,-7.564456,40.34211
25133032,Ferrel,Oeste,311,2025-03-22T13:40:00Z,25133032,Em despacho,3301,Queda de árvore,0,1,0,2,2025-03-22T13:40:00Z,Peniche,Leiria,Centro,-9.312058,39.368649
25133084,Azeitão (São Lourenço e São Simão),Península de Setúbal,311,2025-03-22T09:59:00Z,25133084,Em despacho,3301,Queda de árvore,0,1,0,4,2025-03-22T09:59:00Z,Setúbal,Setúbal,Área Metropolitana De Lisboa,-9.008871,38.513402
25133328,Milheirós de Poiares,Area M. Porto,309,2025-03-22T14:43:00Z,25133328,Em conclusão,3321,Dano na rede de fornecimento de eletricidade ,0,2,0,5,2025-03-22T14:43:00Z,Santa Maria Da Feira,Aveiro,Norte,-8.48759,40.92089
25133348,Charneca de Caparica e Sobreda,Península de Setúbal,311,2025-03-22T14:41:00Z,25133348,Em despacho,3301,Queda de árvore,0,1,0,6,2025-03-22T14:41:00Z,Almada,Setúbal,Área Metropolitana De Lisboa,-9.194473,38.648295
25133387,Costa da Caparica,Península de Setúbal,311,2025-03-22T14:40:00Z,25133387,Em curso,3329,Queda de estruturas temporárias ou móveis,0,1,0,3,2025-03-22T14:40:00Z,Almada,Setúbal,Área Metropolitana De Lisboa,-9.227696,38.642583
25133437,Azeitão (São Lourenço e São Simão),Península de Setúbal,311,2025-03-22T14:45:00Z,25133437,Em despacho,3301,Queda de árvore,0,1,0,5,2025-03-22T14:45:00Z,Setúbal,Setúbal,Área Metropolitana De Lisboa,-9.04265,38.541479
25133439,Marinhais,Lezíria do Tejo,311,2025-03-22T15:06:00Z,25133439,Em despacho,3301,Queda de árvore,0,1,0,5,2025-03-22T15:06:00Z,Salvaterra De Magos,Santarém,Alentejo,-8.704894,39.048061
25133487,Maceira,Região de Leiria,310,2025-03-22T15:11:00Z,25133487,Em despacho,3315,Inundação de estruturas por precipitação intensa,0,1,0,2,2025-03-22T15:11:00Z,Leiria,Leiria,Centro,-8.902034,39.646791
25133459,"Oeiras e S. Julião da Barra, Paço de Arcos e Caxias",Grande Lisboa,311,2025-03-22T15:05:00Z,25133459,Em despacho,3301,Queda de árvore,0,1,0,4,2025-03-22T15:05:00Z,Oeiras,Lisboa,Área Metropolitana De Lisboa,-9.275682,38.698873
25133477,"Santa Maria da Feira, Travanca, Sanfins e Espargo",Area M. Porto,309,2025-03-22T15:05:00Z,25133477,Em despacho,3301,Queda de árvore,0,1,0,2,2025-03-22T15:05:00Z,Santa Maria Da Feira,Aveiro,Norte,-8.555837,40.9255
25133168,Santo António Dos Olivais,Região de Coimbra,310,2025-03-22T14:13:00Z,25133168,Em despacho,3301,Queda de árvore,0,1,0,2,2025-03-22T14:13:00Z,Coimbra,Coimbra,Centro,-8.408011,40.217307
25133218,Colares,Grande Lisboa,311,2025-03-22T14:20:00Z,25133218,Em despacho,3301,Queda de árvore,0,2,0,10,2025-03-22T14:20:00Z,Sintra,Lisboa,Área Metropolitana De Lisboa,-9.462038,38.768962
25133232,Paredes,Area M. Porto,309,2025-03-22T14:11:00Z,25133232,Em despacho,3311,Queda de elementos de estruturas edificados,0,1,0,2,2025-03-22T14:11:00Z,Paredes,Porto,Norte,-8.321586,41.231442
25133283,Bidoeira de Cima,Região de Leiria,310,2025-03-22T14:34:00Z,25133283,Em despacho,3301,Queda de árvore,0,1,0,2,2025-03-22T14:34:00Z,Leiria,Leiria,Centro,-8.759439,39.852995
25133333,Carvalhal,Alentejo Litoral,312,2025-03-22T14:17:00Z,25133333,Em despacho,3301,Queda de árvore,0,2,0,6,2025-03-22T14:17:00Z,Grândola,Setúbal,Alentejo,-8.853697,38.456316
25133434,Rocas do Vouga,Região de Aveiro,310,2025-03-22T14:50:00Z,25133434,Em despacho,3313,Deslizamento de terras,0,1,0,1,2025-03-22T14:50:00Z,Sever Do Vouga,Aveiro,Centro,-8.353407,40.762248
25133435,Póvoa de Santo Adrião e Olival Basto,Grande Lisboa,311,2025-03-22T14:54:00Z,25133435,Em curso,3301,Queda de árvore,0,1,0,5,2025-03-22T14:54:00Z,Odivelas,Lisboa,Área Metropolitana De Lisboa,-9.159939,38.803537
25133483,"S.pedro e Santiago, S.maria e S.miguel e Matacães",Oeste,311,2025-03-22T15:09:00Z,25133483,Em despacho,3329,Queda de estruturas temporárias ou móveis,0,1,0,4,2025-03-22T15:09:00Z,Torres Vedras,Lisboa,Centro,-9.251952,39.091829
25133484,Setúbal (São Sebastião),Península de Setúbal,311,2025-03-22T15:10:00Z,25133484,Em despacho,3329,Queda de estruturas temporárias ou móveis,0,1,0,5,2025-03-22T15:10:00Z,Setúbal,Setúbal,Área Metropolitana De Lisboa,-8.862337,38.527365
