id,address,subregion,neighborhood,date,id.1,state,nature,nature_description,aerial_means,terrestrial_means,aquatic_means,operational,date.1,Concelho,Distrito,NUTII_DSG,longitude,latitude
25057110,Conceição e Estoi,Algarve,313,2025-03-08T10:49:00Z,25057110,Em curso,3321,Dano na rede de fornecimento de eletricidade ,0,2,0,3,2025-03-08T10:49:00Z,Faro,Faro,Algarve,-7.910512,37.038455
25057175,Alferce,Algarve,313,2025-03-08T10:55:00Z,25057175,Em curso,3313,Deslizamento de terras,0,2,0,3,2025-03-08T10:55:00Z,Monchique,Faro,Algarve,-8.481853,37.325811
25057659,Lavradas,Alto Minho,309,2025-03-08T12:47:00Z,25057659,Em despacho,3313,Deslizamento de terras,0,1,0,1,2025-03-08T12:47:00Z,Ponte Da Barca,Viana Do Castelo,Norte,-8.46494,41.783079
25057660,Alpiarça,Lezíria do Tejo,311,2025-03-08T12:46:00Z,25057660,Em despacho,3315,Inundação de estruturas por precipitação intensa,0,0,0,0,2025-03-08T12:46:00Z,Alpiarça,Santarém,Alentejo,-8.595402,39.262022
25057708,Ermesinde,Area M. Porto,309,2025-03-08T12:58:00Z,25057708,Em despacho,3301,Queda de árvore,0,1,0,2,2025-03-08T12:58:00Z,Valongo,Porto,Norte,-8.549319,41.21602
25057015,Santa Maria do Castelo e Santiago e Santa Susana,Alentejo Litoral,312,2025-03-08T10:20:00Z,25057015,Em curso,1101,Cheia,0,2,0,3,2025-03-08T10:20:00Z,Alcácer Do Sal,Setúbal,Alentejo,-8.432801,38.398147
25057265,Faro (Sé e São Pedro),Algarve,313,2025-03-08T11:00:00Z,25057265,Em conclusão,3329,Queda de estruturas temporárias ou móveis,0,1,0,2,2025-03-08T11:00:00Z,Faro,Faro,Algarve,-7.942032,37.01865
25057399,Pinhal Novo,Península de Setúbal,311,2025-03-08T11:43:00Z,25057399,Em curso,3301,Queda de árvore,0,2,0,5,2025-03-08T11:43:00Z,Palmela,Setúbal,Área Metropolitana De Lisboa,-8.898349,38.639295
25057484,Águeda e Borralha,Região de Aveiro,310,2025-03-08T11:54:00Z,25057484,Em conclusão,3301,Queda de árvore,0,1,0,4,2025-03-08T11:54:00Z,Águeda,Aveiro,Centro,-8.443932,40.581652
25057502,Sesimbra (Castelo),Península de Setúbal,311,2025-03-08T12:05:00Z,25057502,Em despacho,3301,Queda de árvore,0,1,0,4,2025-03-08T12:05:00Z,Sesimbra,Setúbal,Área Metropolitana De Lisboa,-9.179861,38.512406
25056603,"Alto do Seixalinho, Santo André e Verderena",Península de Setúbal,311,2025-03-08T08:14:00Z,25056603,Em curso,3329,Queda de estruturas temporárias ou móveis,0,0,0,0,2025-03-08T08:14:00Z,Barreiro,Setúbal,Área Metropolitana De Lisboa,-9.065968,38.6593
25057194,Nossa Senhora do Pranto,Médio Tejo,311,2025-03-08T11:06:00Z,25057194,Em resolução,3321,Dano na rede de fornecimento de eletricidade ,0,4,0,9,2025-03-08T11:06:00Z,Ferreira Do Zêzere,Santarém,Centro,-8.307417,39.749872
25057196,Abiul,Região de Leiria,310,2025-03-08T11:30:00Z,25057196,Em resolução,3321,Dano na rede de fornecimento de eletricidade ,0,2,0,4,2025-03-08T11:30:00Z,Pombal,Leiria,Centro,-8.536554,39.904421
25057228,Carregueira,Lezíria do Tejo,311,2025-03-08T11:12:00Z,25057228,Em despacho,3313,Deslizamento de terras,0,1,0,1,2025-03-08T11:12:00Z,Chamusca,Santarém,Alentejo,-8.411811,39.421134
25057273,Carvalhal,Alentejo Litoral,312,2025-03-08T11:06:00Z,25057273,Em curso,3301,Queda de árvore,0,1,0,2,2025-03-08T11:06:00Z,Grândola,Setúbal,Alentejo,-8.859443,38.458082
25057621,Monte Redondo e Carreira,Região de Leiria,310,2025-03-08T12:33:00Z,25057621,Em despacho,3301,Queda de árvore,0,2,0,4,2025-03-08T12:33:00Z,Leiria,Leiria,Centro,-8.847483,39.892112
25056922,Bougado (São Martinho e Santiago),Area M. Porto,309,2025-01-22T10:38:00Z,25056922,Em despacho,1101,Cheia,0,0,0,0,2025-01-22T10:38:00Z,Trofa,Porto,Norte,-8.558796,41.329536
25057388,Olhão,Algarve,313,2025-03-08T11:08:00Z,25057388,Em curso,3301,Queda de árvore,0,2,0,3,2025-03-08T11:08:00Z,Olhão,Faro,Algarve,-7.843133,37.022054
25057447,Pombal,Região de Leiria,310,2025-03-08T11:30:00Z,25057447,Em despacho,3301,Queda de árvore,0,1,0,2,2025-03-08T11:30:00Z,Pombal,Leiria,Centro,-8.655657,39.881429
25057479,Alpalhão,Alto Alentejo,312,2025-03-08T12:02:00Z,25057479,Em curso,3315,Inundação de estruturas por precipitação intensa,0,2,0,3,2025-03-08T12:02:00Z,Nisa,Portalegre,Alentejo,-7.621037,39.417576
25057570,Arraiolos,Alentejo Central,312,2025-03-08T12:15:00Z,25057570,Em conclusão,3301,Queda de árvore,0,2,0,5,2025-03-08T12:15:00Z,Arraiolos,Évora,Alentejo,-7.938022,38.75193
25057599,Faro (Sé e São Pedro),Algarve,313,2025-03-08T12:26:00Z,25057599,Em curso,3329,Queda de estruturas temporárias ou móveis,0,1,0,2,2025-03-08T12:26:00Z,Faro,Faro,Algarve,-7.942032,37.01865
25057638,Colares,Grande Lisboa,311,2025-03-08T12:35:00Z,25057638,Em despacho,3301,Queda de árvore,0,1,0,2,2025-03-08T12:35:00Z,Sintra,Lisboa,Área Metropolitana De Lisboa,-9.486381,38.778591
25057634,Santa Joana,Região de Aveiro,310,2025-03-08T12:38:00Z,25057634,Em despacho,3329,Queda de estruturas temporárias ou móveis,0,1,0,3,2025-03-08T12:38:00Z,Aveiro,Aveiro,Centro,-8.616608,40.631861
