id,address,subregion,neighborhood,date,id.1,state,nature,nature_description,aerial_means,terrestrial_means,aquatic_means,operational,date.1,Concelho,Distrito,NUTII_DSG,longitude,latitude
25508203,Ermelo e Pardelhas,Ave,309,2025-06-11T07:30:00Z,25508203,Em resolução,3103,Incêndio rural,0,6,0,24,2025-06-11T07:30:00Z,Mondim De Basto,Vila Real,Norte,-7.842792,41.3582
25508636,Sanguedo,Area M. Porto,309,2025-06-11T08:58:00Z,25508636,Em conclusão,3101,Incêndio rural,0,1,0,5,2025-06-11T08:58:00Z,Santa Maria Da Feira,Aveiro,Norte,-8.511128,41.006765
25508720,Retorta e Tougues,Area M. Porto,309,2025-06-11T09:20:00Z,25508720,Em despacho,3103,Incêndio rural,0,1,0,5,2025-06-11T09:20:00Z,Vila Do Conde,Porto,Norte,-8.71274,41.34829
25508838,Monte Redondo,Alto Minho,309,2025-06-11T09:35:00Z,25508838,Em despacho,3107,Consolidação de rescaldo de incêndio rural,0,1,0,4,2025-06-11T09:35:00Z,Arcos De Valdevez,Viana Do Castelo,Norte,-8.455332,41.834463
25502551,"Aldeia do Bispo, Águas e Aldeia de João Pires",Beira Baixa,310,2025-06-09T19:58:00Z,25502551,Em conclusão,3105,Incêndio rural,0,0,0,0,2025-06-09T19:58:00Z,Penamacor,Castelo Branco,Centro,-7.218912,40.118323
