id,address,subregion,neighborhood,date,id.1,state,nature,nature_description,aerial_means,terrestrial_means,aquatic_means,operational,date.1,Concelho,Distrito,NUTII_DSG,longitude,latitude
25245614,"Canedo, Vale e Vila Maior",Area M. Porto,309,2025-04-15T19:09:00Z,25245614,Em curso,3301,Queda de árvore,0,2,0,7,2025-04-15T19:09:00Z,Santa Maria Da Feira,Aveiro,Norte,-8.448673,41.011004
25068300,Almeirim,Lezíria do Tejo,311,2025-03-10T20:52:00Z,25068300,Em curso,1101,Cheia,0,0,0,0,2025-03-10T20:52:00Z,Almeirim,Santarém,Alentejo,-8.635002,39.187436
25245811,"Alto do Seixalinho, Santo André e Verderena",Península de Setúbal,311,2025-04-15T20:08:00Z,25245811,Em despacho,3301,Queda de árvore,0,1,0,3,2025-04-15T20:08:00Z,Barreiro,Setúbal,Área Metropolitana De Lisboa,-9.072252,38.651508
25070044,Praia do Ribatejo,Médio Tejo,311,2025-03-10T19:30:00Z,25070044,Em curso,1101,Cheia,0,0,0,0,2025-03-10T19:30:00Z,Vila Nova Da Barquinha,Santarém,Centro,-8.357309,39.485638
25071496,São Manços e São Vicente do Pigeiro,Alentejo Central,312,2025-03-11T13:18:00Z,25071496,Em conclusão,1101,Cheia,0,0,0,0,2025-03-11T13:18:00Z,Évora,Évora,Alentejo,-7.713313,38.513673
25202441,Serpa (Salvador e Santa Maria),Baixo Alentejo,312,2025-04-06T10:25:00Z,25202441,Em conclusão,1101,Cheia,0,0,0,0,2025-04-06T10:25:00Z,Serpa,Beja,Alentejo,-7.555783,37.88592
