id,address,subregion,neighborhood,date,id.1,state,nature,nature_description,aerial_means,terrestrial_means,aquatic_means,operational,date.1,Concelho,Distrito,NUTII_DSG,longitude,latitude
25063232,Santa Maria do Castelo e Santiago e Santa Susana,Alentejo Litoral,312,2025-03-09T19:02:00Z,25063232,Em conclusão,1101,Cheia,0,0,0,0,2025-03-09T19:02:00Z,Alcácer Do Sal,Setúbal,Alentejo,-8.48167,38.29806
25113270,Charneca de Caparica e Sobreda,Península de Setúbal,311,2025-03-20T01:34:00Z,25113270,Em curso,3301,Queda de árvore,0,0,0,0,2025-03-20T01:34:00Z,Almada,Setúbal,Área Metropolitana De Lisboa,-9.17811,38.58586
25114074,Charneca de Caparica e Sobreda,Península de Setúbal,311,2025-03-20T02:52:00Z,25114074,Em curso,3301,Queda de árvore,0,0,0,0,2025-03-20T02:52:00Z,Almada,Setúbal,Área Metropolitana De Lisboa,-9.18666,38.59386
25117648,Costa da Caparica,Península de Setúbal,311,2025-03-20T09:07:00Z,25117648,Em curso,3301,Queda de árvore,0,0,0,0,2025-03-20T09:07:00Z,Almada,Setúbal,Área Metropolitana De Lisboa,-9.23527,38.6523
25125454,"S.maria, S.miguel, S.martinho, S.pedro Penaferrim",Grande Lisboa,311,2025-03-21T07:29:00Z,25125454,Em curso,3301,Queda de árvore,0,3,0,6,2025-03-21T07:29:00Z,Sintra,Lisboa,Área Metropolitana De Lisboa,-9.429169,38.796354
25125871,Mafamude e Vilar do Paraíso,Area M. Porto,309,2025-03-21T09:04:00Z,25125871,Em despacho,3315,Inundação de estruturas por precipitação intensa,0,1,0,3,2025-03-21T09:04:00Z,Vila Nova De Gaia,Porto,Norte,-8.611105,41.107184
25126074,Vila Nova de Milfontes,Alentejo Litoral,312,2025-03-21T09:27:00Z,25126074,Em despacho,3321,Dano na rede de fornecimento de eletricidade ,0,2,0,4,2025-03-21T09:27:00Z,Odemira,Beja,Alentejo,-8.787529,37.721575
25126088,"S.julião, N.s. da Anunciada e S. Maria da Graça",Península de Setúbal,311,2025-03-21T09:33:00Z,25126088,Em despacho,3301,Queda de árvore,0,1,0,5,2025-03-21T09:33:00Z,Setúbal,Setúbal,Área Metropolitana De Lisboa,-8.889983,38.529955
25059714,Torrão,Alentejo Litoral,312,2025-03-08T22:10:00Z,25059714,Em curso,1101,Cheia,0,1,0,2,2025-03-08T22:10:00Z,Alcácer Do Sal,Setúbal,Alentejo,-8.359133,38.252053
25070044,Praia do Ribatejo,Médio Tejo,311,2025-03-10T19:30:00Z,25070044,Em curso,1101,Cheia,0,0,0,0,2025-03-10T19:30:00Z,Vila Nova Da Barquinha,Santarém,Centro,-8.357309,39.485638
25071496,São Manços e São Vicente do Pigeiro,Alentejo Central,312,2025-03-11T13:18:00Z,25071496,Em curso,1101,Cheia,0,2,0,4,2025-03-11T13:18:00Z,Évora,Évora,Alentejo,-7.713313,38.513673
25116205,Charneca de Caparica e Sobreda,Península de Setúbal,311,2025-03-20T07:00:00Z,25116205,Em curso,3301,Queda de árvore,0,0,0,0,2025-03-20T07:00:00Z,Almada,Setúbal,Área Metropolitana De Lisboa,-9.17532,38.61999
25116355,Charneca de Caparica e Sobreda,Península de Setúbal,311,2025-03-20T07:16:00Z,25116355,Em curso,3301,Queda de árvore,0,0,0,0,2025-03-20T07:16:00Z,Almada,Setúbal,Área Metropolitana De Lisboa,-9.16489,38.57347
25116522,Charneca de Caparica e Sobreda,Península de Setúbal,311,2025-03-20T07:34:00Z,25116522,Em curso,3301,Queda de árvore,0,0,0,0,2025-03-20T07:34:00Z,Almada,Setúbal,Área Metropolitana De Lisboa,-9.18201,38.59065
25116673,Costa da Caparica,Península de Setúbal,311,2025-03-20T07:49:00Z,25116673,Em curso,3301,Queda de árvore,0,0,0,0,2025-03-20T07:49:00Z,Almada,Setúbal,Área Metropolitana De Lisboa,-9.239889,38.65802
25125679,Almeirim,Lezíria do Tejo,311,2025-03-21T08:32:00Z,25125679,Em conclusão,3313,Deslizamento de terras,0,0,0,0,2025-03-21T08:32:00Z,Almeirim,Santarém,Alentejo,-8.623512,39.213884
25125781,Cascais e Estoril,Grande Lisboa,311,2025-03-21T08:52:00Z,25125781,Em despacho,3301,Queda de árvore,0,0,0,0,2025-03-21T08:52:00Z,Cascais,Lisboa,Área Metropolitana De Lisboa,-9.44577,38.70874
25125981,Espinho,Região de Coimbra,310,2025-03-21T09:23:00Z,25125981,Em despacho,3301,Queda de árvore,0,1,0,3,2025-03-21T09:23:00Z,Mortágua,Viseu,Centro,-8.308611,40.392211
25126123,São Luís,Alentejo Litoral,312,2025-03-21T09:37:00Z,25126123,Em despacho,3301,Queda de árvore,0,1,0,2,2025-03-21T09:37:00Z,Odemira,Beja,Alentejo,-8.660162,37.674464
25126356,Benavente,Lezíria do Tejo,311,2025-03-21T10:20:00Z,25126356,Em curso,3301,Queda de árvore,0,0,0,0,2025-03-21T10:20:00Z,Benavente,Santarém,Alentejo,-8.804753,38.980872
25126558,"Oeiras e S. Julião da Barra, Paço de Arcos e Caxias",Grande Lisboa,311,2025-03-21T10:40:00Z,25126558,Em curso,3301,Queda de árvore,0,2,0,7,2025-03-21T10:40:00Z,Oeiras,Lisboa,Área Metropolitana De Lisboa,-9.310159,38.698531
25126608,Alcabideche,Grande Lisboa,311,2025-03-21T10:48:00Z,25126608,Em despacho,3301,Queda de árvore,0,1,0,5,2025-03-21T10:48:00Z,Cascais,Lisboa,Área Metropolitana De Lisboa,-9.438785,38.755713
25126689,Santo Estêvão,Lezíria do Tejo,311,2025-03-21T11:03:00Z,25126689,Em despacho,3301,Queda de árvore,0,0,0,0,2025-03-21T11:03:00Z,Benavente,Santarém,Alentejo,-8.712798,38.852863
25126757,Queluz e Belas,Grande Lisboa,311,2025-03-21T10:15:00Z,25126757,Em despacho,3301,Queda de árvore,0,1,0,2,2025-03-21T10:15:00Z,Sintra,Lisboa,Área Metropolitana De Lisboa,-9.253541,38.753134
25068300,Almeirim,Lezíria do Tejo,311,2025-03-10T20:52:00Z,25068300,Em curso,1101,Cheia,0,0,0,0,2025-03-10T20:52:00Z,Almeirim,Santarém,Alentejo,-8.635002,39.187436
25116323,Charneca de Caparica e Sobreda,Península de Setúbal,311,2025-03-20T07:13:00Z,25116323,Em curso,3301,Queda de árvore,0,0,0,0,2025-03-20T07:13:00Z,Almada,Setúbal,Área Metropolitana De Lisboa,-9.174973,38.58474
25116409,Charneca de Caparica e Sobreda,Península de Setúbal,311,2025-03-20T07:22:00Z,25116409,Em curso,3329,Queda de estruturas temporárias ou móveis,0,0,0,0,2025-03-20T07:22:00Z,Almada,Setúbal,Área Metropolitana De Lisboa,-9.19513,38.61485
25116525,Charneca de Caparica e Sobreda,Península de Setúbal,311,2025-03-20T07:34:00Z,25116525,Em curso,3301,Queda de árvore,0,0,0,0,2025-03-20T07:34:00Z,Almada,Setúbal,Área Metropolitana De Lisboa,-9.18385,38.59055
25121298,Gafanhoeira (São Pedro) e Sabugueiro,Alentejo Central,312,2025-03-20T14:26:00Z,25121298,Em resolução,3301,Queda de árvore,0,0,0,0,2025-03-20T14:26:00Z,Arraiolos,Évora,Alentejo,-8.088754,38.754507
25125415,Cascais e Estoril,Grande Lisboa,311,2025-03-21T07:23:00Z,25125415,Em curso,3301,Queda de árvore,0,1,0,2,2025-03-21T07:23:00Z,Cascais,Lisboa,Área Metropolitana De Lisboa,-9.419397,38.700982
25125901,São João Das Lampas e Terrugem,Grande Lisboa,311,2025-03-21T07:50:00Z,25125901,Em despacho,3301,Queda de árvore,0,1,0,2,2025-03-21T07:50:00Z,Sintra,Lisboa,Área Metropolitana De Lisboa,-9.436253,38.869236
25126312,Cascais e Estoril,Grande Lisboa,311,2025-03-21T10:12:00Z,25126312,Em despacho,3301,Queda de árvore,0,0,0,0,2025-03-21T10:12:00Z,Cascais,Lisboa,Área Metropolitana De Lisboa,-9.40005,38.71304
25087162,Pedrógão,Baixo Alentejo,312,2025-03-14T17:00:00Z,25087162,Em curso,1101,Cheia,0,0,0,0,2025-03-14T17:00:00Z,Vidigueira,Beja,Alentejo,-7.630327,38.110775
25114370,Charneca de Caparica e Sobreda,Península de Setúbal,311,2025-03-20T03:20:00Z,25114370,Em curso,3301,Queda de árvore,0,0,0,0,2025-03-20T03:20:00Z,Almada,Setúbal,Área Metropolitana De Lisboa,-9.17923,38.60275
25115156,Charneca de Caparica e Sobreda,Península de Setúbal,311,2025-03-20T04:46:00Z,25115156,Em curso,3301,Queda de árvore,0,0,0,0,2025-03-20T04:46:00Z,Almada,Setúbal,Área Metropolitana De Lisboa,-9.199091,38.62959
25116192,Charneca de Caparica e Sobreda,Península de Setúbal,311,2025-03-20T06:59:00Z,25116192,Em curso,3301,Queda de árvore,0,0,0,0,2025-03-20T06:59:00Z,Almada,Setúbal,Área Metropolitana De Lisboa,-9.179431,38.58817
25117921,Charneca de Caparica e Sobreda,Península de Setúbal,311,2025-03-20T09:28:00Z,25117921,Em curso,3301,Queda de árvore,0,0,0,0,2025-03-20T09:28:00Z,Almada,Setúbal,Área Metropolitana De Lisboa,-9.204146,38.62766
25125459,Massamá e Monte Abraão,Grande Lisboa,311,2025-03-21T07:28:00Z,25125459,Em despacho,3301,Queda de árvore,0,1,0,2,2025-03-21T07:28:00Z,Sintra,Lisboa,Área Metropolitana De Lisboa,-9.27045,38.75541
25125473,Charneca de Caparica e Sobreda,Península de Setúbal,311,2025-03-21T07:53:00Z,25125473,Em curso,3301,Queda de árvore,0,1,0,3,2025-03-21T07:53:00Z,Almada,Setúbal,Área Metropolitana De Lisboa,-9.200407,38.63274
25126025,Miragaia e Marteleira,Oeste,311,2025-03-21T09:25:00Z,25126025,Em curso,3301,Queda de árvore,0,0,0,0,2025-03-21T09:25:00Z,Lourinhã,Lisboa,Centro,-9.242037,39.203703
25126773,Vila Nova de Foz Côa,Douro,309,2025-03-21T11:07:00Z,25126773,Em despacho,3301,Queda de árvore,0,2,0,5,2025-03-21T11:07:00Z,Vila Nova De Foz Côa,Guarda,Norte,-7.133474,41.085004
25126806,"S.maria, S.miguel, S.martinho, S.pedro Penaferrim",Grande Lisboa,311,2025-03-21T11:09:00Z,25126806,Em despacho,3301,Queda de árvore,0,1,0,3,2025-03-21T11:09:00Z,Sintra,Lisboa,Área Metropolitana De Lisboa,-9.366763,38.781718
25126856,Serpins,Região de Coimbra,310,2025-03-21T11:26:00Z,25126856,Em despacho,3301,Queda de árvore,0,1,0,2,2025-03-21T11:26:00Z,Lousã,Coimbra,Centro,-8.198851,40.164483
25126874,Santana da Azinha,Beiras e Serra da Estrela,310,2025-03-21T11:27:00Z,25126874,Em despacho,3311,Queda de elementos de estruturas edificados,0,1,0,2,2025-03-21T11:27:00Z,Guarda,Guarda,Centro,-7.226578,40.45364
25126892,Colares,Grande Lisboa,311,2025-03-21T11:28:00Z,25126892,Em despacho,3301,Queda de árvore,0,1,0,3,2025-03-21T11:28:00Z,Sintra,Lisboa,Área Metropolitana De Lisboa,-9.486381,38.778591
25126942,"Algés, Linda-a-Velha e Cruz Quebrada-Dafundo",Grande Lisboa,311,2025-03-21T11:34:00Z,25126942,Em curso,3301,Queda de árvore,0,2,0,4,2025-03-21T11:34:00Z,Oeiras,Lisboa,Área Metropolitana De Lisboa,-9.244903,38.715384
25126973,Monchique,Algarve,313,2025-03-21T11:34:00Z,25126973,Em despacho,3301,Queda de árvore,0,1,0,3,2025-03-21T11:34:00Z,Monchique,Faro,Algarve,-8.582136,37.328807
25126990,Loures,Grande Lisboa,311,2025-03-21T11:34:00Z,25126990,Em despacho,3329,Queda de estruturas temporárias ou móveis,0,1,0,6,2025-03-21T11:34:00Z,Loures,Lisboa,Área Metropolitana De Lisboa,-9.198552,38.845527
25126993,Feitosa,Alto Minho,309,2025-03-21T11:40:00Z,25126993,Em curso,3301,Queda de árvore,0,1,0,5,2025-03-21T11:40:00Z,Ponte De Lima,Viana Do Castelo,Norte,-8.577095,41.749372
25126014,Gavião e Atalaia,Alto Alentejo,312,2025-03-21T09:28:00Z,25126014,Em curso,3313,Deslizamento de terras,0,4,0,6,2025-03-21T09:28:00Z,Gavião,Portalegre,Alentejo,-7.950898,39.431018
25126181,Parceiros e Azoia,Região de Leiria,310,2025-03-21T09:50:00Z,25126181,Em despacho,3301,Queda de árvore,0,1,0,2,2025-03-21T09:50:00Z,Leiria,Leiria,Centro,-8.834141,39.730081
25126246,Corval,Alentejo Central,312,2025-03-21T09:54:00Z,25126246,Em despacho,3311,Queda de elementos de estruturas edificados,0,1,0,2,2025-03-21T09:54:00Z,Reguengos De Monsaraz,Évora,Alentejo,-7.465278,38.444932
25126280,Carnota,Oeste,311,2025-03-21T10:00:00Z,25126280,Em despacho,3301,Queda de árvore,0,1,0,2,2025-03-21T10:00:00Z,Alenquer,Lisboa,Centro,-9.073261,39.039364
25126483,"Requeixo, Nossa Senhora de Fátima e Nariz",Região de Aveiro,310,2025-03-21T10:34:00Z,25126483,Em despacho,3315,Inundação de estruturas por precipitação intensa,0,1,0,2,2025-03-21T10:34:00Z,Aveiro,Aveiro,Centro,-8.576009,40.577003
25126517,Moncarapacho e Fuseta,Algarve,313,2025-03-21T10:22:00Z,25126517,Em despacho,3301,Queda de árvore,0,3,0,6,2025-03-21T10:22:00Z,Olhão,Faro,Algarve,-7.782331,37.048022
25126700,"S.maria, S.miguel, S.martinho, S.pedro Penaferrim",Grande Lisboa,311,2025-03-21T11:05:00Z,25126700,Em despacho,3301,Queda de árvore,0,1,0,2,2025-03-21T11:05:00Z,Sintra,Lisboa,Área Metropolitana De Lisboa,-9.366763,38.781718
25126833,Cadafaz e Colmeal,Região de Coimbra,310,2025-03-21T11:20:00Z,25126833,Em despacho,3301,Queda de árvore,0,1,0,5,2025-03-21T11:20:00Z,Góis,Coimbra,Centro,-8.045093,40.150961
25126850,Póvoa de Santa Iria e Forte da Casa,Grande Lisboa,311,2025-03-21T09:58:00Z,25126850,Em despacho,3301,Queda de árvore,0,1,0,4,2025-03-21T09:58:00Z,Vila Franca De Xira,Lisboa,Área Metropolitana De Lisboa,-9.080109,38.86006
25126899,Fazendas de Almeirim,Lezíria do Tejo,311,2025-03-21T11:35:00Z,25126899,Em conclusão,3315,Inundação de estruturas por precipitação intensa,0,1,0,2,2025-03-21T11:35:00Z,Almeirim,Santarém,Alentejo,-8.52947,39.169555
25126387,Colares,Grande Lisboa,311,2025-03-21T10:00:00Z,25126387,Em curso,3301,Queda de árvore,0,3,0,5,2025-03-21T10:00:00Z,Sintra,Lisboa,Área Metropolitana De Lisboa,-9.460841,38.828425
25126476,"S.maria, S.miguel, S.martinho, S.pedro Penaferrim",Grande Lisboa,311,2025-03-21T10:28:00Z,25126476,Em despacho,3301,Queda de árvore,0,1,0,2,2025-03-21T10:28:00Z,Sintra,Lisboa,Área Metropolitana De Lisboa,-9.414924,38.772191
25126485,Sesimbra (Castelo),Península de Setúbal,311,2025-03-21T10:20:00Z,25126485,Em despacho,3301,Queda de árvore,0,2,0,7,2025-03-21T10:20:00Z,Sesimbra,Setúbal,Área Metropolitana De Lisboa,-9.124957,38.490885
25126535,Alcochete,Península de Setúbal,311,2025-03-21T10:38:00Z,25126535,Em despacho,3317,Inundação de estruturas por água canalizada,0,1,0,4,2025-03-21T10:38:00Z,Alcochete,Setúbal,Área Metropolitana De Lisboa,-9.003642,38.721635
25126537,Carriço,Região de Leiria,310,2025-03-21T10:40:00Z,25126537,Em despacho,3329,Queda de estruturas temporárias ou móveis,0,2,0,7,2025-03-21T10:40:00Z,Pombal,Leiria,Centro,-8.8051,39.981527
25126612,Nadadouro,Oeste,311,2025-03-21T10:52:00Z,25126612,Em conclusão,3301,Queda de árvore,0,1,0,2,2025-03-21T10:52:00Z,Caldas Da Rainha,Leiria,Centro,-9.199088,39.417476
25126753,"Coruche, Fajarda e Erra",Lezíria do Tejo,311,2025-03-21T11:13:00Z,25126753,Em resolução,3301,Queda de árvore,0,1,0,4,2025-03-21T11:13:00Z,Santiago Do Cacém,Setúbal,Alentejo,-8.437692,38.013878
25126912,Costa da Caparica,Península de Setúbal,311,2025-03-20T01:30:00Z,25126912,Em curso,3301,Queda de árvore,0,0,0,0,2025-03-20T01:30:00Z,Almada,Setúbal,Área Metropolitana De Lisboa,-9.227696,38.642583
25126944,Avis,Alto Alentejo,312,2025-03-21T11:38:00Z,25126944,Em conclusão,3301,Queda de árvore,0,2,0,5,2025-03-21T11:38:00Z,Avis,Portalegre,Alentejo,-7.937653,39.002433
25126946,Mafra,Grande Lisboa,311,2025-03-21T11:19:00Z,25126946,Em despacho,3315,Inundação de estruturas por precipitação intensa,0,1,0,5,2025-03-21T11:19:00Z,Mafra,Lisboa,Área Metropolitana De Lisboa,-9.337252,38.942359
25127007,Moledo e Cristelo,Alto Minho,309,2025-03-21T11:50:00Z,25127007,Em despacho,3301,Queda de árvore,0,1,0,4,2025-03-21T11:50:00Z,Caminha,Viana Do Castelo,Norte,-8.857733,41.865307
25127024,Vilar,Oeste,311,2025-03-21T11:47:00Z,25127024,Em despacho,3315,Inundação de estruturas por precipitação intensa,0,1,0,2,2025-03-21T11:47:00Z,Cadaval,Lisboa,Centro,-9.113393,39.184951
25127058,Antuzede e Vil de Matos,Região de Coimbra,310,2025-03-21T11:55:00Z,25127058,Em despacho,3321,Dano na rede de fornecimento de eletricidade ,0,1,0,2,2025-03-21T11:55:00Z,Coimbra,Coimbra,Centro,-8.479878,40.257639
25127091,Ferrel,Oeste,311,2025-03-21T11:55:00Z,25127091,Em despacho,3329,Queda de estruturas temporárias ou móveis,0,1,0,2,2025-03-21T11:55:00Z,Peniche,Leiria,Centro,-9.330682,39.372062
25127123,Sazes da Beira,Beiras e Serra da Estrela,310,2025-03-21T12:10:00Z,25127123,Em despacho,3301,Queda de árvore,0,1,0,4,2025-03-21T12:10:00Z,Seia,Guarda,Centro,-7.7305720000000004,40.348423
25127126,Charneca de Caparica e Sobreda,Península de Setúbal,311,2025-03-20T02:12:00Z,25127126,Em curso,3301,Queda de árvore,0,0,0,0,2025-03-20T02:12:00Z,Almada,Setúbal,Área Metropolitana De Lisboa,-9.206824,38.629265
25127141,Salvaterra de Magos e Foros de Salvaterra,Lezíria do Tejo,311,2025-03-21T12:13:00Z,25127141,Em despacho,3315,Inundação de estruturas por precipitação intensa,0,1,0,4,2025-03-21T12:13:00Z,Salvaterra De Magos,Santarém,Alentejo,-8.6963,38.984149
25127143,Caparica e Trafaria,Península de Setúbal,311,2025-03-21T11:55:00Z,25127143,Em despacho,3301,Queda de árvore,0,3,0,9,2025-03-21T11:55:00Z,Almada,Setúbal,Área Metropolitana De Lisboa,-9.205011,38.66171
25127160,São Bartolomeu de Messines,Algarve,313,2025-03-21T12:06:00Z,25127160,Em despacho,3301,Queda de árvore,0,1,0,4,2025-03-21T12:06:00Z,Silves,Faro,Algarve,-8.283554,37.282885
25126300,Sesimbra (Castelo),Península de Setúbal,311,2025-03-21T10:08:00Z,25126300,Em despacho,3301,Queda de árvore,0,1,0,5,2025-03-21T10:08:00Z,Sesimbra,Setúbal,Área Metropolitana De Lisboa,-9.124957,38.490885
25126336,Manteigas (Santa Maria),Beiras e Serra da Estrela,310,2025-03-21T10:00:00Z,25126336,Em despacho,3301,Queda de árvore,0,2,0,4,2025-03-21T10:00:00Z,Manteigas,Guarda,Centro,-7.537826,40.403513
25126454,Queluz e Belas,Grande Lisboa,311,2025-03-21T10:30:00Z,25126454,Em resolução,3301,Queda de árvore,0,1,0,2,2025-03-21T10:30:00Z,Sintra,Lisboa,Área Metropolitana De Lisboa,-9.271667,38.786881
25126563,Cascais e Estoril,Grande Lisboa,311,2025-03-21T10:30:00Z,25126563,Em despacho,3301,Queda de árvore,0,3,0,9,2025-03-21T10:30:00Z,Cascais,Lisboa,Área Metropolitana De Lisboa,-9.398759,38.70391
25126702,São João Das Lampas e Terrugem,Grande Lisboa,311,2025-03-21T11:01:00Z,25126702,Em despacho,3301,Queda de árvore,0,1,0,1,2025-03-21T11:01:00Z,Sintra,Lisboa,Área Metropolitana De Lisboa,-9.442718,38.844843
25126795,Sarzedas,Beira Baixa,310,2025-03-21T11:17:00Z,25126795,Em despacho,3313,Deslizamento de terras,0,3,0,5,2025-03-21T11:17:00Z,Castelo Branco,Castelo Branco,Centro,-7.61616,39.847017
25126797,Marinhais,Lezíria do Tejo,311,2025-03-21T11:18:00Z,25126797,Em resolução,3315,Inundação de estruturas por precipitação intensa,0,1,0,4,2025-03-21T11:18:00Z,Salvaterra De Magos,Santarém,Alentejo,-8.704894,39.048061
25126818,Évora de Alcobaça,Oeste,311,2025-03-21T11:10:00Z,25126818,Em despacho,3321,Dano na rede de fornecimento de eletricidade ,0,1,0,1,2025-03-21T11:10:00Z,Alcobaça,Leiria,Centro,-8.950723,39.515532
25127174,Colares,Grande Lisboa,311,2025-03-21T12:14:00Z,25127174,Em despacho,3301,Queda de árvore,0,2,0,3,2025-03-21T12:14:00Z,Sintra,Lisboa,Área Metropolitana De Lisboa,-9.486381,38.778591
25127190,Vila Franca de Xira,Grande Lisboa,311,2025-03-21T12:00:00Z,25127190,Em despacho,3301,Queda de árvore,0,2,0,6,2025-03-21T12:00:00Z,Vila Franca De Xira,Lisboa,Área Metropolitana De Lisboa,-8.989293,38.955728
25126911,Antuzede e Vil de Matos,Região de Coimbra,310,2025-03-21T11:34:00Z,25126911,Em despacho,3301,Queda de árvore,0,1,0,2,2025-03-21T11:34:00Z,Coimbra,Coimbra,Centro,-8.495048,40.236879
25126945,Charneca de Caparica e Sobreda,Península de Setúbal,311,2025-03-20T11:40:00Z,25126945,Em curso,3301,Queda de árvore,0,0,0,0,2025-03-20T11:40:00Z,Almada,Setúbal,Área Metropolitana De Lisboa,-9.190193,38.591584
25126947,Gondemaria e Olival,Médio Tejo,311,2025-03-21T11:42:00Z,25126947,Em despacho,3301,Queda de árvore,0,1,0,1,2025-03-21T11:42:00Z,Ourém,Santarém,Centro,-8.638003,39.705883
25126963,Miranda do Corvo,Região de Coimbra,310,2025-03-21T11:30:00Z,25126963,Em despacho,3311,Queda de elementos de estruturas edificados,0,1,0,2,2025-03-21T11:30:00Z,Miranda Do Corvo,Coimbra,Centro,-8.356111,40.153478
25126986,São Pedro e Santa Maria e Vila Boa do Mondego,Beiras e Serra da Estrela,310,2025-03-21T11:40:00Z,25126986,Em despacho,3301,Queda de árvore,0,1,0,2,2025-03-21T11:40:00Z,Celorico Da Beira,Guarda,Centro,-7.39057,40.639156
25126995,Roge,Area M. Porto,309,2025-03-21T11:48:00Z,25126995,Em resolução,3301,Queda de árvore,0,1,0,2,2025-03-21T11:48:00Z,Vale De Cambra,Aveiro,Norte,-8.334411,40.860684
25127004,Chancelaria,Médio Tejo,311,2025-03-21T11:51:00Z,25127004,Em despacho,3311,Queda de elementos de estruturas edificados,0,1,0,2,2025-03-21T11:51:00Z,Torres Novas,Santarém,Centro,-8.534641,39.576592
25127036,Alfragide,Grande Lisboa,311,2025-03-21T11:41:00Z,25127036,Em despacho,3329,Queda de estruturas temporárias ou móveis,0,1,0,6,2025-03-21T11:41:00Z,Amadora,Lisboa,Área Metropolitana De Lisboa,-9.225704,38.738085
25126915,"Nossa Senhora do Pópulo, Coto e São Gregório",Oeste,311,2025-03-21T11:35:00Z,25126915,Em curso,3301,Queda de árvore,0,1,0,5,2025-03-21T11:35:00Z,Caldas Da Rainha,Leiria,Centro,-9.102313,39.384130999999996
25126933,Azeitão (São Lourenço e São Simão),Península de Setúbal,311,2025-03-21T11:20:00Z,25126933,Em despacho,3301,Queda de árvore,0,2,0,7,2025-03-21T11:20:00Z,Setúbal,Setúbal,Área Metropolitana De Lisboa,-9.04265,38.541479
25126998,Arruda Dos Vinhos,Oeste,311,2025-03-21T11:45:00Z,25126998,Em despacho,3301,Queda de árvore,0,1,0,1,2025-03-21T11:45:00Z,Arruda Dos Vinhos,Lisboa,Centro,-9.074841,38.984407
25126999,Alverca do Ribatejo e Sobralinho,Grande Lisboa,311,2025-03-21T10:07:00Z,25126999,Em despacho,3301,Queda de árvore,0,1,0,5,2025-03-21T10:07:00Z,Vila Franca De Xira,Lisboa,Área Metropolitana De Lisboa,-9.034761,38.918068
25127066,Canidelo,Area M. Porto,309,2025-03-21T12:01:00Z,25127066,Em despacho,3315,Inundação de estruturas por precipitação intensa,0,0,0,0,2025-03-21T12:01:00Z,Vila Nova De Gaia,Porto,Norte,-8.642835,41.13642
25127067,Atouguia da Baleia,Oeste,311,2025-03-21T11:56:00Z,25127067,Em despacho,3321,Dano na rede de fornecimento de eletricidade ,0,2,0,4,2025-03-21T11:56:00Z,Peniche,Leiria,Centro,-9.30692,39.338979
25127068,Passô,Douro,309,2025-03-21T12:01:00Z,25127068,Em despacho,3301,Queda de árvore,0,1,0,5,2025-03-21T12:01:00Z,Moimenta Da Beira,Viseu,Norte,-7.72247,41.01824
25127083,Portimão,Algarve,313,2025-03-21T11:00:00Z,25127083,Em curso,3329,Queda de estruturas temporárias ou móveis,0,1,0,1,2025-03-21T11:00:00Z,Portimão,Faro,Algarve,-8.541412,37.183837
25126969,Santa Marinha e São Pedro da Afurada,Area M. Porto,309,2025-03-21T11:36:00Z,25126969,Em despacho,3301,Queda de árvore,0,1,0,2,2025-03-21T11:36:00Z,Vila Nova De Gaia,Porto,Norte,-8.624714,41.132843
25127037,"Canedo, Vale e Vila Maior",Area M. Porto,309,2025-03-21T11:40:00Z,25127037,Em curso,3301,Queda de árvore,0,2,0,6,2025-03-21T11:40:00Z,Santa Maria Da Feira,Aveiro,Norte,-8.448673,41.011004
25127044,Costa da Caparica,Península de Setúbal,311,2025-03-20T23:59:00Z,25127044,Em curso,3301,Queda de árvore,0,0,0,0,2025-03-20T23:59:00Z,Almada,Setúbal,Área Metropolitana De Lisboa,-9.227696,38.642583
25127064,Costa da Caparica,Península de Setúbal,311,2025-03-20T09:50:00Z,25127064,Em curso,3301,Queda de árvore,0,0,0,0,2025-03-20T09:50:00Z,Almada,Setúbal,Área Metropolitana De Lisboa,-9.227696,38.642583
25127096,Costa da Caparica,Península de Setúbal,311,2025-03-20T09:46:00Z,25127096,Em curso,3301,Queda de árvore,0,0,0,0,2025-03-20T09:46:00Z,Almada,Setúbal,Área Metropolitana De Lisboa,-9.227696,38.642583
25127139,Carcavelos e Parede,Grande Lisboa,311,2025-03-21T10:21:00Z,25127139,Em despacho,3321,Dano na rede de fornecimento de eletricidade ,0,1,0,2,2025-03-21T10:21:00Z,Cascais,Lisboa,Área Metropolitana De Lisboa,-9.36428,38.704278
25127148,Souto da Carpalhosa e Ortigosa,Região de Leiria,310,2025-03-21T12:10:00Z,25127148,Em despacho,3301,Queda de árvore,0,1,0,2,2025-03-21T12:10:00Z,Leiria,Leiria,Centro,-8.823387,39.821109
25127153,Algueirão-Mem Martins,Grande Lisboa,311,2025-03-21T09:48:00Z,25127153,Em despacho,3301,Queda de árvore,0,1,0,5,2025-03-21T09:48:00Z,Sintra,Lisboa,Área Metropolitana De Lisboa,-9.340934,38.801232
25127169,Palmela,Península de Setúbal,311,2025-03-21T11:50:00Z,25127169,Em despacho,3329,Queda de estruturas temporárias ou móveis,0,1,0,4,2025-03-21T11:50:00Z,Palmela,Setúbal,Área Metropolitana De Lisboa,-8.894979,38.568658
25127054,"S.maria, S.miguel, S.martinho, S.pedro Penaferrim",Grande Lisboa,311,2025-03-21T11:54:00Z,25127054,Em despacho,3301,Queda de árvore,0,1,0,3,2025-03-21T11:54:00Z,Sintra,Lisboa,Área Metropolitana De Lisboa,-9.385912,38.758094
25127061,Baixa da Banheira e Vale da Amoreira,Península de Setúbal,311,2025-03-21T11:46:00Z,25127061,Em despacho,3311,Queda de elementos de estruturas edificados,0,1,0,5,2025-03-21T11:46:00Z,Moita,Setúbal,Área Metropolitana De Lisboa,-9.039116,38.657594
25127129,Caparica e Trafaria,Península de Setúbal,311,2025-03-21T11:52:00Z,25127129,Em despacho,3301,Queda de árvore,0,1,0,4,2025-03-21T11:52:00Z,Almada,Setúbal,Área Metropolitana De Lisboa,-9.253241,38.660357
25127204,Benavente,Lezíria do Tejo,311,2025-03-21T12:20:00Z,25127204,Em despacho,3301,Queda de árvore,0,1,0,3,2025-03-21T12:20:00Z,Benavente,Santarém,Alentejo,-8.804753,38.980872
25127102,Cascais e Estoril,Grande Lisboa,311,2025-03-21T10:55:00Z,25127102,Em despacho,3301,Queda de árvore,0,1,0,4,2025-03-21T10:55:00Z,Cascais,Lisboa,Área Metropolitana De Lisboa,-9.444181,38.698838
25127118,Azeitão (São Lourenço e São Simão),Península de Setúbal,311,2025-03-21T10:35:00Z,25127118,Em despacho,3301,Queda de árvore,0,1,0,5,2025-03-21T10:35:00Z,Setúbal,Setúbal,Área Metropolitana De Lisboa,-9.04265,38.541479
25127133,"S.julião, N.s. da Anunciada e S. Maria da Graça",Península de Setúbal,311,2025-03-21T12:04:00Z,25127133,Em despacho,3301,Queda de árvore,0,1,0,5,2025-03-21T12:04:00Z,Setúbal,Setúbal,Área Metropolitana De Lisboa,-8.889983,38.529955
25127184,Milharado,Grande Lisboa,311,2025-03-21T12:00:00Z,25127184,Em despacho,3313,Deslizamento de terras,0,1,0,4,2025-03-21T12:00:00Z,Mafra,Lisboa,Área Metropolitana De Lisboa,-9.23826,38.955049
25127178,Alcantarilha e Pêra,Algarve,313,2025-03-21T12:08:00Z,25127178,Em curso,3329,Queda de estruturas temporárias ou móveis,0,1,0,3,2025-03-21T12:08:00Z,Silves,Faro,Algarve,-8.352626,37.169974
25127203,"S.julião, N.s. da Anunciada e S. Maria da Graça",Península de Setúbal,311,2025-03-21T12:15:00Z,25127203,Em despacho,3311,Queda de elementos de estruturas edificados,0,1,0,5,2025-03-21T12:15:00Z,Setúbal,Setúbal,Área Metropolitana De Lisboa,-8.926392,38.520139
