id,address,subregion,neighborhood,date,id.1,state,nature,nature_description,aerial_means,terrestrial_means,aquatic_means,operational,date.1,Concelho,Distrito,NUTII_DSG,longitude,latitude
25552038,Paramos,Area M. Porto,309,2025-06-20T09:09:00Z,25552038,Em conclusão,3103,Incêndio rural,0,1,0,5,2025-06-20T09:09:00Z,Espinho,Aveiro,Norte,-8.62626,40.96977
25552225,"Nossa Senhora da Conceição, São Pedro e São Dinis",Douro,309,2025-06-20T09:35:00Z,25552225,Em curso,2301,Incêndio em transporte rodoviário,0,2,0,7,2025-06-20T09:35:00Z,Vila Real,Vila Real,Norte,-7.733062,41.300117
25551429,São Martinho da Gândara,Area M. Porto,309,2025-06-20T06:02:00Z,25551429,Em conclusão,3103,Incêndio rural,0,1,0,5,2025-06-20T06:02:00Z,Oliveira De Azeméis,Aveiro,Norte,-8.531623,40.838748
25550982,Carapito,Viseu Dão Lafões,310,2025-06-19T23:28:00Z,25550982,Em conclusão,2127,"Incêndio em edifícios e recintos industriais, oficinas e armazéns",0,2,0,7,2025-06-19T23:28:00Z,Aguiar Da Beira,Guarda,Centro,-7.474373,40.771847
25552259,São Gens,Ave,309,2025-06-20T09:39:00Z,25552259,Em despacho,3107,Consolidação de rescaldo de incêndio rural,0,1,0,5,2025-06-20T09:39:00Z,Fafe,Braga,Norte,-8.111542,41.443125
