id,address,subregion,neighborhood,date,id.1,state,nature,nature_description,aerial_means,terrestrial_means,aquatic_means,operational,date.1,Concelho,Distrito,NUTII_DSG,longitude,latitude,state_2
25996571,Santa Marinha do Zêzere,Tâmega e Sousa,309,2025-09-16T02:40:00Z,25996571,Em Resolução/Conclusão,3101,Incêndio rural,0,4,0,17,2025-09-16T02:40:00Z,Baião,Porto,Norte,-7.937988,41.145088,Resolução/Conclusão
25996737,Bornes de Aguiar,Alto Tâmega e Barroso,309,2025-09-16T05:40:00Z,25996737,Em Resolução/Conclusão,3103,Incêndio rural,0,6,0,24,2025-09-16T05:40:00Z,Vila Pouca De Aguiar,Vila Real,Norte,-7.542018,41.552008,Resolução/Conclusão
25832672,Piódão,Região de Coimbra,310,2025-08-13T05:08:00Z,25832672,Em Resolução/Conclusão,3103,Incêndio rural,0,0,0,0,2025-08-13T05:08:00Z,Arganil,Coimbra,Centro,-7.81972,40.23083,Resolução/Conclusão
25989850,Povolide,Viseu Dão Lafões,310,2025-09-14T16:49:00Z,25989850,Em Resolução/Conclusão,3103,Incêndio rural,0,1,0,1,2025-09-14T16:49:00Z,Viseu,Viseu,Centro,-7.785413,40.67811,Resolução/Conclusão
25993973,Santo André,Alto Tâmega e Barroso,309,2025-09-15T14:14:00Z,25993973,Em Resolução/Conclusão,3103,Incêndio rural,0,3,0,11,2025-09-15T14:14:00Z,Montalegre,Vila Real,Norte,-7.692303,41.87752,Resolução/Conclusão
25951176,Sandomil,Beiras e Serra da Estrela,310,2025-09-06T10:29:00Z,25951176,Em Resolução/Conclusão,3103,Incêndio rural,0,3,0,15,2025-09-06T10:29:00Z,Seia,Guarda,Centro,-7.76001,40.351547,Resolução/Conclusão
25989064,Vila de Rei,Beira Baixa,310,2025-09-14T13:32:00Z,25989064,Em Resolução/Conclusão,3101,Incêndio rural,0,2,0,7,2025-09-14T13:32:00Z,Vila De Rei,Castelo Branco,Centro,-8.152412,39.660802,Resolução/Conclusão
25980131,Carva e Vilares,Douro,309,2025-09-12T14:27:00Z,25980131,Em Resolução/Conclusão,3103,Incêndio rural,1,32,0,97,2025-09-12T14:27:00Z,Murça,Vila Real,Norte,-7.55901,41.401343,Resolução/Conclusão
25980930,Santo André Das Tojeiras,Beira Baixa,310,2025-09-12T17:08:00Z,25980930,Em Resolução/Conclusão,3101,Incêndio rural,0,1,0,5,2025-09-12T17:08:00Z,Castelo Branco,Castelo Branco,Centro,-7.72701,39.809058,Resolução/Conclusão
25994117,Fortios,Alto Alentejo,312,2025-09-15T14:38:00Z,25994117,Em Resolução/Conclusão,3101,Incêndio rural,0,4,0,14,2025-09-15T14:38:00Z,Portalegre,Portalegre,Alentejo,-7.470015,39.279328,Resolução/Conclusão
25996760,Açoreira,Douro,309,2025-09-16T06:09:00Z,25996760,Em Resolução/Conclusão,3103,Incêndio rural,0,10,0,35,2025-09-16T06:09:00Z,Torre De Moncorvo,Bragança,Norte,-7.116008,41.142647,Resolução/Conclusão
