id,address,subregion,neighborhood,date,id.1,state,nature,nature_description,aerial_means,terrestrial_means,aquatic_means,operational,date.1,Concelho,Distrito,NUTII_DSG,longitude,latitude,state_2
25662814,Soajo,Alto Minho,309,2025-07-11T15:16:00Z,25662814,Em Resolução/Conclusão,3103,Incêndio rural,0,4,0,14,2025-07-11T15:16:00Z,Arcos De Valdevez,Viana Do Castelo,Norte,-8.22891,41.87654,Resolução/Conclusão
25669834,Lagoa e Carvoeiro,Algarve,313,2025-07-13T03:45:00Z,25669834,Em Resolução/Conclusão,3103,Incêndio rural,0,5,0,16,2025-07-13T03:45:00Z,Lagoa,Faro,Algarve,-8.478827,37.10958,Resolução/Conclusão
25667313,Santa Eufémia e Boa Vista,Região de Leiria,310,2025-07-12T14:36:00Z,25667313,Em Resolução/Conclusão,3103,Incêndio rural,0,1,0,2,2025-07-12T14:36:00Z,Leiria,Leiria,Centro,-8.761077,39.76109,Resolução/Conclusão
25669535,São Martinho de Angueira,Terras de Trás-os-Montes,309,2025-07-13T00:45:00Z,25669535,Em Resolução/Conclusão,3103,Incêndio rural,0,0,0,0,2025-07-13T00:45:00Z,Miranda Do Douro,Bragança,Norte,-6.3524026,41.6346672,Resolução/Conclusão
25669781,"Raiva, Pedorido e Paraíso",Tâmega e Sousa,309,2025-07-13T03:05:00Z,25669781,Em Resolução/Conclusão,3101,Incêndio rural,0,2,0,7,2025-07-13T03:05:00Z,Castelo De Paiva,Aveiro,Norte,-8.341048,41.018258,Resolução/Conclusão
25669833,Montargil,Alto Alentejo,312,2025-07-13T03:45:00Z,25669833,Em Resolução/Conclusão,3105,Incêndio rural,0,6,0,20,2025-07-13T03:45:00Z,Ponte De Sor,Portalegre,Alentejo,-8.22779,39.071242,Resolução/Conclusão
25665133,Lindoso,Alto Minho,309,2025-07-12T02:50:00Z,25665133,Em Resolução/Conclusão,3103,Incêndio rural,0,21,0,73,2025-07-12T02:50:00Z,Ponte Da Barca,Viana Do Castelo,Norte,-8.224007,41.852543,Resolução/Conclusão
25669611,Basto (São Clemente),Tâmega e Sousa,309,2025-07-13T01:30:00Z,25669611,Em Resolução/Conclusão,3103,Incêndio rural,0,4,0,17,2025-07-13T01:30:00Z,Celorico De Basto,Braga,Norte,-8.01633,41.46849,Resolução/Conclusão
25669745,"Raiva, Pedorido e Paraíso",Tâmega e Sousa,309,2025-07-13T02:40:00Z,25669745,Em Resolução/Conclusão,3101,Incêndio rural,0,3,0,12,2025-07-13T02:40:00Z,Castelo De Paiva,Aveiro,Norte,-8.323442,41.046823,Resolução/Conclusão
