id,address,subregion,neighborhood,date,id.1,state,nature,nature_description,aerial_means,terrestrial_means,aquatic_means,operational,date.1,Concelho,Distrito,NUTII_DSG,longitude,latitude
25484870,"Gondomar (São Cosme), Valbom e Jovim",Area M. Porto,309,2025-06-06T09:57:00Z,25484870,Em despacho,3103,Incêndio rural,0,1,0,5,2025-06-06T09:57:00Z,Gondomar,Porto,Norte,-8.535295,41.129255
25484535,Jou,Douro,309,2025-06-06T08:55:00Z,25484535,Em despacho,3107,Consolidação de rescaldo de incêndio rural,0,1,0,5,2025-06-06T08:55:00Z,Murça,Vila Real,Norte,-7.415113,41.46365
25484778,Vieira de Leiria,Região de Leiria,310,2025-06-06T09:40:00Z,25484778,Em conclusão,3111,Queima,0,2,0,7,2025-06-06T09:40:00Z,Marinha Grande,Leiria,Centro,-8.92962,39.869257
25484798,Vieira de Leiria,Região de Leiria,310,2025-06-06T09:40:00Z,25484798,Em curso,3111,Queima,0,0,0,0,2025-06-06T09:40:00Z,Marinha Grande,Leiria,Centro,-8.944432,39.854382
25484913,Muxagata,Douro,309,2025-06-06T09:20:00Z,25484913,Em despacho,3111,Queima,0,2,0,10,2025-06-06T09:20:00Z,Vila Nova De Foz Côa,Guarda,Norte,-7.168678,41.037581
25484871,Galveias,Alto Alentejo,312,2025-06-06T09:52:00Z,25484871,Em curso,3201,Detritos não confinados,0,5,0,13,2025-06-06T09:52:00Z,Ponte De Sor,Portalegre,Alentejo,-7.995655,39.160987
25484890,Bombarral e Vale Covo,Oeste,311,2025-06-06T10:00:00Z,25484890,Em resolução,3103,Incêndio rural,0,2,0,7,2025-06-06T10:00:00Z,Bombarral,Leiria,Centro,-9.171316,39.267313
