id,address,subregion,neighborhood,date,id.1,state,nature,nature_description,aerial_means,terrestrial_means,aquatic_means,operational,date.1,Concelho,Distrito,NUTII_DSG,longitude,latitude,state_2
25603618,Messejana,Baixo Alentejo,312,2025-06-30T13:09:00Z,25603618,Em Resolução/Conclusão,3101,Incêndio rural,0,64,0,185,2025-06-30T13:09:00Z,Aljustrel,Beja,Alentejo,-8.169013,37.814978,Resolução/Conclusão
25603684,Vilarinho Dos Freires,Douro,309,2025-06-30T13:15:00Z,25603684,Em Resolução/Conclusão,3107,Consolidação de rescaldo de incêndio rural,0,3,0,8,2025-06-30T13:15:00Z,Peso Da Régua,Vila Real,Norte,-7.731495,41.205995,Resolução/Conclusão
25604086,Alvarenga,Area M. Porto,309,2025-06-30T14:23:00Z,25604086,Em Resolução/Conclusão,3103,Incêndio rural,0,5,0,16,2025-06-30T14:23:00Z,Arouca,Aveiro,Norte,-8.16662,40.977807,Resolução/Conclusão
25604815,Ermidas-Sado,Alentejo Litoral,312,2025-06-30T16:36:00Z,25604815,Em Resolução/Conclusão,3103,Incêndio rural,0,11,0,30,2025-06-30T16:36:00Z,Santiago Do Cacém,Setúbal,Alentejo,-8.353481,38.015813,Resolução/Conclusão
25605147,Vale do Côa,Beiras e Serra da Estrela,310,2025-06-30T17:42:00Z,25605147,Em Resolução/Conclusão,3103,Incêndio rural,0,24,0,90,2025-06-30T17:42:00Z,Pinhel,Guarda,Centro,-7.114995,40.946045,Resolução/Conclusão
25606628,Lobão da Beira,Viseu Dão Lafões,310,2025-06-30T23:39:00Z,25606628,Em Resolução/Conclusão,3103,Incêndio rural,0,1,0,1,2025-06-30T23:39:00Z,Tondela,Viseu,Centro,-8.04042,40.571925,Resolução/Conclusão
25606803,Canas de Santa Maria,Viseu Dão Lafões,310,2025-07-01T00:36:00Z,25606803,Em Resolução/Conclusão,3101,Incêndio rural,0,1,0,1,2025-07-01T00:36:00Z,Tondela,Viseu,Centro,-8.056338,40.560735,Resolução/Conclusão
25607430,Fradelos,Ave,309,2025-07-01T08:05:00Z,25607430,Em Despacho,3107,Consolidação de rescaldo de incêndio rural,0,1,0,5,2025-07-01T08:05:00Z,Vila Nova De Famalicão,Braga,Norte,-8.583332,41.360733,Despacho
25445507,Cabeça Gorda,Baixo Alentejo,312,2025-05-29T12:44:00Z,25445507,Em Resolução/Conclusão,3101,Incêndio rural,0,0,0,0,2025-05-29T12:44:00Z,Beja,Beja,Alentejo,-7.811333,37.900468,Resolução/Conclusão
25607968,Valpaços e Sanfins,Alto Tâmega e Barroso,309,2025-07-01T09:39:00Z,25607968,Em Resolução/Conclusão,3103,Incêndio rural,1,5,0,25,2025-07-01T09:39:00Z,Valpaços,Vila Real,Norte,-7.347507,41.599547,Resolução/Conclusão
25608084,Água Longa,Area M. Porto,309,2025-07-01T10:00:00Z,25608084,Em Resolução/Conclusão,3103,Incêndio rural,0,3,0,9,2025-07-01T10:00:00Z,Santo Tirso,Porto,Norte,-8.509405,41.250935,Resolução/Conclusão
25608270,Jugueiros,Tâmega e Sousa,309,2025-07-01T10:27:00Z,25608270,Em Resolução/Conclusão,3103,Incêndio rural,0,1,0,5,2025-07-01T10:27:00Z,Felgueiras,Porto,Norte,-8.190223,41.390633,Resolução/Conclusão
25608173,Luzim e Vila Cova,Tâmega e Sousa,309,2025-07-01T09:37:00Z,25608173,Em Resolução/Conclusão,3103,Incêndio rural,0,2,0,10,2025-07-01T09:37:00Z,Penafiel,Porto,Norte,-8.237087,41.149427,Resolução/Conclusão
25607039,Lomba,Area M. Porto,309,2025-07-01T04:11:00Z,25607039,Em Resolução/Conclusão,3103,Incêndio rural,0,2,0,7,2025-07-01T04:11:00Z,Gondomar,Porto,Norte,-8.425045,41.031572,Resolução/Conclusão
25607459,Selho (São Cristóvão),Ave,309,2025-07-01T08:13:00Z,25607459,Em Despacho,3107,Consolidação de rescaldo de incêndio rural,0,1,0,5,2025-07-01T08:13:00Z,Guimarães,Braga,Norte,-8.350317,41.412065,Despacho
25608242,Romarigães,Alto Minho,309,2025-07-01T10:22:00Z,25608242,Em Despacho,3107,Consolidação de rescaldo de incêndio rural,0,1,0,5,2025-07-01T10:22:00Z,Paredes De Coura,Viana Do Castelo,Norte,-8.624152,41.847172,Despacho
25608260,Rio de Mouro,Grande Lisboa,311,2025-07-01T10:18:00Z,25608260,Em Resolução/Conclusão,3111,Queima,0,3,0,9,2025-07-01T10:18:00Z,Sintra,Lisboa,Área Metropolitana De Lisboa,-9.324858,38.792563,Resolução/Conclusão
25608294,"Entre Ambos-Os-Rios, Ermida e Germil",Alto Minho,309,2025-07-01T10:29:00Z,25608294,Em Despacho,3107,Consolidação de rescaldo de incêndio rural,0,1,0,5,2025-07-01T10:29:00Z,Ponte Da Barca,Viana Do Castelo,Norte,-8.317797,41.810362,Despacho
25599357,Alpalhão,Alto Alentejo,312,2025-06-29T16:55:00Z,25599357,Em Resolução/Conclusão,3103,Incêndio rural,0,3,0,8,2025-06-29T16:55:00Z,Nisa,Portalegre,Alentejo,-7.63684,39.452513,Resolução/Conclusão
25599382,Almaceda,Beira Baixa,310,2025-06-29T17:03:00Z,25599382,Em Resolução/Conclusão,3101,Incêndio rural,1,37,0,102,2025-06-29T17:03:00Z,Castelo Branco,Castelo Branco,Centro,-7.65644,39.97,Resolução/Conclusão
25606759,São Miguel do Outeiro e Sabugosa,Viseu Dão Lafões,310,2025-07-01T00:26:00Z,25606759,Em Resolução/Conclusão,3101,Incêndio rural,0,2,0,6,2025-07-01T00:26:00Z,Tondela,Viseu,Centro,-8.056143,40.560622,Resolução/Conclusão
25607688,Cabreiro,Alto Minho,309,2025-07-01T08:52:00Z,25607688,Em Resolução/Conclusão,3103,Incêndio rural,0,2,0,7,2025-07-01T08:52:00Z,Arcos De Valdevez,Viana Do Castelo,Norte,-8.38598,41.944287,Resolução/Conclusão
25608124,Sobrosa,Area M. Porto,309,2025-07-01T10:05:00Z,25608124,Em Resolução/Conclusão,3103,Incêndio rural,1,4,0,22,2025-07-01T10:05:00Z,Paredes,Porto,Norte,-8.354445,41.25861,Resolução/Conclusão
25608129,Sobreira Formosa e Alvito da Beira,Beira Baixa,310,2025-07-01T10:05:00Z,25608129,Em Curso,3107,Consolidação de rescaldo de incêndio rural,0,1,0,5,2025-07-01T10:05:00Z,Proença-a-Nova,Castelo Branco,Centro,-7.770309,39.736145,Curso
25608140,Penamacor,Beira Baixa,310,2025-07-01T10:08:00Z,25608140,Em Despacho,3107,Consolidação de rescaldo de incêndio rural,0,2,0,6,2025-07-01T10:08:00Z,Penamacor,Castelo Branco,Centro,-7.080847,40.197555,Despacho
