id,address,subregion,neighborhood,date,id.1,state,nature,nature_description,aerial_means,terrestrial_means,aquatic_means,operational,date.1,Concelho,Distrito,NUTII_DSG,longitude,latitude
25087162,Pedrógão,Baixo Alentejo,312,2025-03-14T17:00:00Z,25087162,Em curso,1101,Cheia,0,0,0,0,2025-03-14T17:00:00Z,Vidigueira,Beja,Alentejo,-7.630327,38.110775
25115054,Ferreira do Alentejo e Canhestros,Baixo Alentejo,312,2025-03-20T04:32:00Z,25115054,Em conclusão,3301,Queda de árvore,0,0,0,0,2025-03-20T04:32:00Z,Ferreira Do Alentejo,Beja,Alentejo,-8.121287,38.072307
25128056,Santa Maria do Castelo e Santiago e Santa Susana,Alentejo Litoral,312,2025-03-21T14:41:00Z,25128056,Em curso,1101,Cheia,0,0,0,0,2025-03-21T14:41:00Z,Alcácer Do Sal,Setúbal,Alentejo,-8.434671,38.401157
25131298,Luso,Região de Coimbra,310,2025-03-22T08:24:00Z,25131298,Em despacho,3301,Queda de árvore,0,1,0,2,2025-03-22T08:24:00Z,Mealhada,Aveiro,Centro,-8.374509,40.375881
25131400,Navió e Vitorino Dos Piães,Alto Minho,309,2025-03-22T08:46:00Z,25131400,Em curso,3301,Queda de árvore,0,2,0,4,2025-03-22T08:46:00Z,Ponte De Lima,Viana Do Castelo,Norte,-8.613313,41.689875
25131407,São Romão de Neiva,Alto Minho,309,2025-03-22T08:47:00Z,25131407,Em despacho,3315,Inundação de estruturas por precipitação intensa,0,0,0,0,2025-03-22T08:47:00Z,Viana Do Castelo,Viana Do Castelo,Norte,-8.76857,41.63968
25131534,Mesão Frio (Santo André),Douro,309,2025-03-22T09:13:00Z,25131534,Em curso,3301,Queda de árvore,0,4,0,11,2025-03-22T09:13:00Z,Mesão Frio,Vila Real,Norte,-7.895862,41.152343
25131634,Rossas,Area M. Porto,309,2025-03-22T09:29:00Z,25131634,Em despacho,3301,Queda de árvore,0,1,0,5,2025-03-22T09:29:00Z,Arouca,Aveiro,Norte,-8.301664,40.906412
25131827,Venda do Pinheiro e Santo Estêvão Das Galés,Grande Lisboa,311,2025-03-22T10:00:00Z,25131827,Em despacho,3301,Queda de árvore,0,1,0,5,2025-03-22T10:00:00Z,Mafra,Lisboa,Área Metropolitana De Lisboa,-9.232352,38.871335
25131852,Sezures,Viseu Dão Lafões,310,2025-03-22T10:05:00Z,25131852,Em curso,3301,Queda de árvore,0,1,0,2,2025-03-22T10:05:00Z,Penalva Do Castelo,Viseu,Centro,-7.619623,40.701075
25131859,São Domingos de Rana,Grande Lisboa,311,2025-03-22T10:13:00Z,25131859,Em curso,3321,Dano na rede de fornecimento de eletricidade ,0,1,0,1,2025-03-22T10:13:00Z,Cascais,Lisboa,Área Metropolitana De Lisboa,-9.34742,38.72165
25131936,Benedita,Oeste,311,2025-03-22T10:21:00Z,25131936,Em conclusão,3311,Queda de elementos de estruturas edificados,0,0,0,0,2025-03-22T10:21:00Z,Alcobaça,Leiria,Centro,-8.972692,39.420233
25132011,Milheirós,Area M. Porto,309,2025-03-22T10:21:00Z,25132011,Em resolução,3311,Queda de elementos de estruturas edificados,0,2,0,5,2025-03-22T10:21:00Z,Maia,Porto,Norte,-8.586634,41.218638
25132034,Ventosa,Viseu Dão Lafões,310,2025-03-22T10:37:00Z,25132034,Em despacho,3301,Queda de árvore,0,1,0,2,2025-03-22T10:37:00Z,Vouzela,Viseu,Centro,-8.104723,40.710228
25132043,Miranda do Corvo,Região de Coimbra,310,2025-03-22T10:30:00Z,25132043,Em despacho,3315,Inundação de estruturas por precipitação intensa,0,1,0,2,2025-03-22T10:30:00Z,Miranda Do Corvo,Coimbra,Centro,-8.339499,40.09407
25132077,Semide e Rio Vide,Região de Coimbra,310,2025-03-22T10:30:00Z,25132077,Em despacho,3313,Deslizamento de terras,0,2,0,2,2025-03-22T10:30:00Z,Miranda Do Corvo,Coimbra,Centro,-8.32555,40.137323
25132086,Arcozelo,Cávado,309,2025-03-22T10:45:00Z,25132086,Em despacho,3329,Queda de estruturas temporárias ou móveis,0,1,0,2,2025-03-22T10:45:00Z,Barcelos,Braga,Norte,-8.606379,41.550883
25132102,Corroios,Península de Setúbal,311,2025-03-22T10:55:00Z,25132102,Em despacho,3329,Queda de estruturas temporárias ou móveis,0,1,0,3,2025-03-22T10:55:00Z,Seixal,Setúbal,Área Metropolitana De Lisboa,-9.17512,38.61019
25068300,Almeirim,Lezíria do Tejo,311,2025-03-10T20:52:00Z,25068300,Em curso,1101,Cheia,0,0,0,0,2025-03-10T20:52:00Z,Almeirim,Santarém,Alentejo,-8.635002,39.187436
25121298,Gafanhoeira (São Pedro) e Sabugueiro,Alentejo Central,312,2025-03-20T14:26:00Z,25121298,Em resolução,3301,Queda de árvore,0,0,0,0,2025-03-20T14:26:00Z,Arraiolos,Évora,Alentejo,-8.088754,38.754507
25129636,"S.maria, S.miguel, S.martinho, S.pedro Penaferrim",Grande Lisboa,311,2025-03-21T19:25:00Z,25129636,Em despacho,3301,Queda de árvore,0,1,0,5,2025-03-21T19:25:00Z,Sintra,Lisboa,Área Metropolitana De Lisboa,-9.366763,38.781718
25129961,"S.maria, S.miguel, S.martinho, S.pedro Penaferrim",Grande Lisboa,311,2025-03-21T20:52:00Z,25129961,Em despacho,3321,Dano na rede de fornecimento de eletricidade ,0,1,0,3,2025-03-21T20:52:00Z,Sintra,Lisboa,Área Metropolitana De Lisboa,-9.37954,38.79092
25130479,"S.maria, S.miguel, S.martinho, S.pedro Penaferrim",Grande Lisboa,311,2025-03-21T23:50:00Z,25130479,Em curso,3301,Queda de árvore,0,2,0,10,2025-03-21T23:50:00Z,Sintra,Lisboa,Área Metropolitana De Lisboa,-9.366763,38.781718
25131147,Covilhã e Canhoso,Beiras e Serra da Estrela,310,2025-03-22T07:51:00Z,25131147,Em despacho,3313,Deslizamento de terras,0,2,0,4,2025-03-22T07:51:00Z,Covilhã,Castelo Branco,Centro,-7.50305,40.28619
25131565,"Cedofeita, Ildefonso, Sé, Miragaia, Nicolau e Vitória",Area M. Porto,309,2025-03-22T09:20:00Z,25131565,Em curso,3315,Inundação de estruturas por precipitação intensa,0,0,0,0,2025-03-22T09:20:00Z,Porto,Porto,Norte,-8.61169,41.14907
25063232,Santa Maria do Castelo e Santiago e Santa Susana,Alentejo Litoral,312,2025-03-09T19:02:00Z,25063232,Em conclusão,1101,Cheia,0,0,0,0,2025-03-09T19:02:00Z,Alcácer Do Sal,Setúbal,Alentejo,-8.48167,38.29806
25127944,Colares,Grande Lisboa,311,2025-03-21T14:29:00Z,25127944,Em curso,3301,Queda de árvore,0,1,0,5,2025-03-21T14:29:00Z,Sintra,Lisboa,Área Metropolitana De Lisboa,-9.432326,38.780106
25130567,Manteigas (Santa Maria),Beiras e Serra da Estrela,310,2025-03-22T00:50:00Z,25130567,Em curso,3313,Deslizamento de terras,0,1,0,2,2025-03-22T00:50:00Z,Manteigas,Guarda,Centro,-7.537826,40.403513
25131201,Cernache,Região de Coimbra,310,2025-03-22T08:07:00Z,25131201,Em despacho,3313,Deslizamento de terras,0,0,0,0,2025-03-22T08:07:00Z,Coimbra,Coimbra,Centro,-8.473586,40.13779
25131621,Azeitão (São Lourenço e São Simão),Península de Setúbal,311,2025-03-22T09:20:00Z,25131621,Em curso,3301,Queda de árvore,0,2,0,9,2025-03-22T09:20:00Z,Setúbal,Setúbal,Área Metropolitana De Lisboa,-9.04265,38.541479
25131689,Cascais e Estoril,Grande Lisboa,311,2025-03-22T09:38:00Z,25131689,Em despacho,3301,Queda de árvore,0,2,0,6,2025-03-22T09:38:00Z,Cascais,Lisboa,Área Metropolitana De Lisboa,-9.408908,38.704814
25131805,Midões,Região de Coimbra,310,2025-03-22T10:01:00Z,25131805,Em curso,3301,Queda de árvore,0,3,0,5,2025-03-22T10:01:00Z,Tábua,Coimbra,Centro,-7.959948,40.405726
25131953,Amor,Região de Leiria,310,2025-03-22T10:24:00Z,25131953,Em despacho,3301,Queda de árvore,0,1,0,3,2025-03-22T10:24:00Z,Leiria,Leiria,Centro,-8.868723,39.801016
25131957,Cela,Oeste,311,2025-03-22T10:25:00Z,25131957,Em despacho,3301,Queda de árvore,0,1,0,3,2025-03-22T10:25:00Z,Alcobaça,Leiria,Centro,-9.051565,39.501598
25059714,Torrão,Alentejo Litoral,312,2025-03-08T22:10:00Z,25059714,Em curso,1101,Cheia,0,1,0,2,2025-03-08T22:10:00Z,Alcácer Do Sal,Setúbal,Alentejo,-8.359133,38.252053
25070044,Praia do Ribatejo,Médio Tejo,311,2025-03-10T19:30:00Z,25070044,Em curso,1101,Cheia,0,0,0,0,2025-03-10T19:30:00Z,Vila Nova Da Barquinha,Santarém,Centro,-8.357309,39.485638
25071496,São Manços e São Vicente do Pigeiro,Alentejo Central,312,2025-03-11T13:18:00Z,25071496,Em curso,1101,Cheia,0,2,0,4,2025-03-11T13:18:00Z,Évora,Évora,Alentejo,-7.713313,38.513673
25130358,Grândola e Santa Margarida da Serra,Alentejo Litoral,312,2025-03-21T22:53:00Z,25130358,Em curso,3313,Deslizamento de terras,0,0,0,0,2025-03-21T22:53:00Z,Grândola,Setúbal,Alentejo,-8.621172,38.121494
25131211,"Custóias, Leça do Balio e Guifões",Area M. Porto,309,2025-03-22T07:57:00Z,25131211,Em curso,3315,Inundação de estruturas por precipitação intensa,0,6,0,10,2025-03-22T07:57:00Z,Matosinhos,Porto,Norte,-8.632716,41.208899
25131444,Cumeeira,Região de Coimbra,310,2025-03-22T08:50:00Z,25131444,Em despacho,3301,Queda de árvore,0,1,0,4,2025-03-22T08:50:00Z,Penela,Coimbra,Centro,-8.36246,39.948128
25131513,Louriçal,Região de Leiria,310,2025-03-22T08:45:00Z,25131513,Em despacho,3315,Inundação de estruturas por precipitação intensa,0,1,0,2,2025-03-22T08:45:00Z,Pombal,Leiria,Centro,-8.745623,40.007074
25131695,Serra e Junceira,Médio Tejo,311,2025-03-22T09:43:00Z,25131695,Em resolução,3301,Queda de árvore,0,1,0,4,2025-03-22T09:43:00Z,Tomar,Santarém,Centro,-8.300977,39.560317
25132125,Silgueiros,Viseu Dão Lafões,310,2025-03-22T10:55:00Z,25132125,Em despacho,3301,Queda de árvore,0,1,0,2,2025-03-22T10:55:00Z,Viseu,Viseu,Centro,-7.964273,40.561525
25132159,Válega,Região de Aveiro,310,2025-03-22T10:59:00Z,25132159,Em conclusão,3301,Queda de árvore,0,1,0,2,2025-03-22T10:59:00Z,Ovar,Aveiro,Centro,-8.583651,40.834515
25132218,Serra D'El-Rei,Oeste,311,2025-03-22T11:10:00Z,25132218,Em despacho,3329,Queda de estruturas temporárias ou móveis,0,1,0,2,2025-03-22T11:10:00Z,Peniche,Leiria,Centro,-9.27897,39.332052
25132234,Treixedo e Nagozela,Viseu Dão Lafões,310,2025-03-22T11:08:00Z,25132234,Em curso,3301,Queda de árvore,0,1,0,2,2025-03-22T11:08:00Z,Santa Comba Dão,Viseu,Centro,-8.097762,40.437368
25132236,São Vicente do Paul e Vale de Figueira,Lezíria do Tejo,311,2025-03-22T11:15:00Z,25132236,Em despacho,3301,Queda de árvore,0,1,0,5,2025-03-22T11:15:00Z,Santarém,Santarém,Alentejo,-8.622647,39.347479
25132243,Salir,Algarve,313,2025-03-22T11:01:00Z,25132243,Em despacho,3313,Deslizamento de terras,0,0,0,0,2025-03-22T11:01:00Z,Loulé,Faro,Algarve,-8.063166,37.269274
25132250,Agualva e Mira-Sintra,Grande Lisboa,311,2025-03-22T11:09:00Z,25132250,Em despacho,3301,Queda de árvore,0,1,0,5,2025-03-22T11:09:00Z,Sintra,Lisboa,Área Metropolitana De Lisboa,-9.289457,38.768998
25132302,Pataias e Martingança,Oeste,311,2025-03-22T11:20:00Z,25132302,Em despacho,3321,Dano na rede de fornecimento de eletricidade ,0,1,0,5,2025-03-22T11:20:00Z,Alcobaça,Leiria,Centro,-9.005079,39.688392
25132309,Cadaval e Pêro Moniz,Oeste,311,2025-03-22T11:25:00Z,25132309,Em despacho,3301,Queda de árvore,0,1,0,1,2025-03-22T11:25:00Z,Cadaval,Lisboa,Centro,-9.101481,39.244497
25131642,Gondemaria e Olival,Médio Tejo,311,2025-03-22T09:33:00Z,25131642,Em conclusão,3301,Queda de árvore,0,0,0,0,2025-03-22T09:33:00Z,Ourém,Santarém,Centro,-8.626446,39.720343
25131690,Fajão-Vidual,Região de Coimbra,310,2025-03-22T08:51:00Z,25131690,Em curso,3313,Deslizamento de terras,0,2,0,4,2025-03-22T08:51:00Z,Pampilhosa Da Serra,Coimbra,Centro,-7.962955,40.144566
25131769,"S.maria, S.miguel, S.martinho, S.pedro Penaferrim",Grande Lisboa,311,2025-03-22T09:40:00Z,25131769,Em despacho,3301,Queda de árvore,0,1,0,4,2025-03-22T09:40:00Z,Sintra,Lisboa,Área Metropolitana De Lisboa,-9.380105,38.790996
25131783,"S.maria, S.miguel, S.martinho, S.pedro Penaferrim",Grande Lisboa,311,2025-03-22T09:35:00Z,25131783,Em despacho,3321,Dano na rede de fornecimento de eletricidade ,0,1,0,2,2025-03-22T09:35:00Z,Sintra,Lisboa,Área Metropolitana De Lisboa,-9.387899,38.805813
25131833,Aldeia do Mato e Souto,Médio Tejo,311,2025-03-22T10:08:00Z,25131833,Em conclusão,3309,Desabamento de estruturas edificadas,0,0,0,0,2025-03-22T10:08:00Z,Abrantes,Santarém,Centro,-8.24476,39.529499
25131869,Quinta do Conde,Península de Setúbal,311,2025-03-22T09:58:00Z,25131869,Em curso,3301,Queda de árvore,0,1,0,5,2025-03-22T09:58:00Z,Sesimbra,Setúbal,Área Metropolitana De Lisboa,-9.03613,38.570355
25131933,Aldeia Das Dez,Região de Coimbra,310,2025-03-22T10:25:00Z,25131933,Em despacho,3329,Queda de estruturas temporárias ou móveis,0,1,0,2,2025-03-22T10:25:00Z,Oliveira Do Hospital,Coimbra,Centro,-7.860329,40.277656
25132033,Vila Nova da Rainha,Lezíria do Tejo,311,2025-03-22T10:40:00Z,25132033,Em curso,3301,Queda de árvore,0,0,0,0,2025-03-22T10:40:00Z,Azambuja,Lisboa,Alentejo,-8.94271,39.035841
25132058,Orvalho,Beira Baixa,310,2025-03-22T10:44:00Z,25132058,Em despacho,3311,Queda de elementos de estruturas edificados,0,1,0,2,2025-03-22T10:44:00Z,Oleiros,Castelo Branco,Centro,-7.791058,40.022607
25132007,Valongo,Area M. Porto,309,2025-03-22T10:30:00Z,25132007,Em curso,3311,Queda de elementos de estruturas edificados,0,1,0,4,2025-03-22T10:30:00Z,Valongo,Porto,Norte,-8.48714,41.18783
25132172,Reguengo do Fetal,Região de Leiria,310,2025-03-22T11:00:00Z,25132172,Em despacho,3313,Deslizamento de terras,0,1,0,2,2025-03-22T11:00:00Z,Batalha,Leiria,Centro,-8.764757,39.668335
25132205,Rio de Mouro,Grande Lisboa,311,2025-03-22T10:09:00Z,25132205,Em despacho,3321,Dano na rede de fornecimento de eletricidade ,0,1,0,6,2025-03-22T10:09:00Z,Sintra,Lisboa,Área Metropolitana De Lisboa,-9.335169,38.750521
25132221,Nossa Senhora do Pranto,Médio Tejo,311,2025-03-22T11:13:00Z,25132221,Em despacho,3301,Queda de árvore,0,1,0,3,2025-03-22T11:13:00Z,Ferreira Do Zêzere,Santarém,Centro,-8.273289,39.751159
25132241,Ferreira do Zêzere,Médio Tejo,311,2025-03-22T11:14:00Z,25132241,Em despacho,3301,Queda de árvore,0,1,0,2,2025-03-22T11:14:00Z,Ferreira Do Zêzere,Santarém,Centro,-8.27883,39.690681
25132254,a Dos Cunhados e Maceira,Oeste,311,2025-03-22T11:10:00Z,25132254,Em despacho,3311,Queda de elementos de estruturas edificados,0,1,0,4,2025-03-22T11:10:00Z,Torres Vedras,Lisboa,Centro,-9.311984,39.156988
25132256,São João Das Lampas e Terrugem,Grande Lisboa,311,2025-03-22T11:16:00Z,25132256,Em despacho,3301,Queda de árvore,0,1,0,2,2025-03-22T11:16:00Z,Sintra,Lisboa,Área Metropolitana De Lisboa,-9.442718,38.844843
25132271,Lanhoso,Ave,309,2025-03-22T11:18:00Z,25132271,Em despacho,3301,Queda de árvore,0,1,0,2,2025-03-22T11:18:00Z,Póvoa De Lanhoso,Braga,Norte,-8.295937,41.575819
25132305,Talhadas,Região de Aveiro,310,2025-03-22T11:20:00Z,25132305,Em despacho,3301,Queda de árvore,0,2,0,6,2025-03-22T11:20:00Z,Sever Do Vouga,Aveiro,Centro,-8.330608,40.662334
25131696,Matas e Cercal,Médio Tejo,311,2025-03-22T09:44:00Z,25131696,Em resolução,3311,Queda de elementos de estruturas edificados,0,1,0,1,2025-03-22T09:44:00Z,Ourém,Santarém,Centro,-8.641594,39.718476
25131731,Torres do Mondego,Região de Coimbra,310,2025-03-22T09:51:00Z,25131731,Em despacho,3301,Queda de árvore,0,0,0,0,2025-03-22T09:51:00Z,Coimbra,Coimbra,Centro,-8.380899,40.192152
25131863,Gulpilhares e Valadares,Area M. Porto,309,2025-03-22T10:00:00Z,25131863,Em curso,3301,Queda de árvore,0,1,0,2,2025-03-22T10:00:00Z,Vila Nova De Gaia,Porto,Norte,-8.635397,41.091832
25131878,Grijó e Sermonde,Area M. Porto,309,2025-03-22T10:08:00Z,25131878,Em despacho,3301,Queda de árvore,0,1,0,3,2025-03-22T10:08:00Z,Vila Nova De Gaia,Porto,Norte,-8.580221,41.029028
25131996,Fernão Ferro,Península de Setúbal,311,2025-03-22T10:34:00Z,25131996,Em despacho,3301,Queda de árvore,0,1,0,3,2025-03-22T10:34:00Z,Seixal,Setúbal,Área Metropolitana De Lisboa,-9.087665,38.58594
25131997,Carvalhal Benfeito,Oeste,311,2025-03-22T10:26:00Z,25131997,Em despacho,3301,Queda de árvore,0,1,0,5,2025-03-22T10:26:00Z,Caldas Da Rainha,Leiria,Centro,-9.044987,39.443106
25132015,Paredes,Area M. Porto,309,2025-03-22T10:33:00Z,25132015,Em despacho,3315,Inundação de estruturas por precipitação intensa,0,1,0,2,2025-03-22T10:33:00Z,Paredes,Porto,Norte,-8.340526,41.21359
25132045,Alcabideche,Grande Lisboa,311,2025-03-22T10:37:00Z,25132045,Em despacho,3301,Queda de árvore,0,1,0,3,2025-03-22T10:37:00Z,Cascais,Lisboa,Área Metropolitana De Lisboa,-9.435089,38.742243
25132081,Ericeira,Grande Lisboa,311,2025-03-22T10:46:00Z,25132081,Em despacho,3301,Queda de árvore,0,1,0,4,2025-03-22T10:46:00Z,Mafra,Lisboa,Área Metropolitana De Lisboa,-9.387265,38.966151
25132097,"S.maria, S.miguel, S.martinho, S.pedro Penaferrim",Grande Lisboa,311,2025-03-22T10:50:00Z,25132097,Em despacho,3301,Queda de árvore,0,3,0,11,2025-03-22T10:50:00Z,Sintra,Lisboa,Área Metropolitana De Lisboa,-9.414924,38.772191
25132067,Pombal,Região de Leiria,310,2025-03-22T10:34:00Z,25132067,Em despacho,3301,Queda de árvore,0,1,0,2,2025-03-22T10:34:00Z,Pombal,Leiria,Centro,-8.7086,39.921706
25132078,"Canedo, Vale e Vila Maior",Area M. Porto,309,2025-03-22T09:53:00Z,25132078,Em despacho,3315,Inundação de estruturas por precipitação intensa,0,1,0,2,2025-03-22T09:53:00Z,Santa Maria Da Feira,Aveiro,Norte,-8.468336,41.006898
25132117,Roliça,Oeste,311,2025-03-22T10:52:00Z,25132117,Em despacho,3311,Queda de elementos de estruturas edificados,0,2,0,4,2025-03-22T10:52:00Z,Bombarral,Leiria,Centro,-9.18255,39.321254
25132126,Igreja Nova do Sobral,Médio Tejo,311,2025-03-22T10:56:00Z,25132126,Em resolução,3309,Desabamento de estruturas edificadas,0,2,0,3,2025-03-22T10:56:00Z,Ferreira Do Zêzere,Santarém,Centro,-8.322137,39.676286
25132128,Souselas e Botão,Região de Coimbra,310,2025-03-22T10:52:00Z,25132128,Em curso,3313,Deslizamento de terras,0,1,0,4,2025-03-22T10:52:00Z,Coimbra,Coimbra,Centro,-8.42946,40.286598
25132144,Charneca de Caparica e Sobreda,Península de Setúbal,311,2025-03-22T10:45:00Z,25132144,Em despacho,3311,Queda de elementos de estruturas edificados,0,1,0,3,2025-03-22T10:45:00Z,Almada,Setúbal,Área Metropolitana De Lisboa,-9.206824,38.629265
25132151,Cernache,Região de Coimbra,310,2025-03-22T10:45:00Z,25132151,Em despacho,3315,Inundação de estruturas por precipitação intensa,0,2,0,5,2025-03-22T10:45:00Z,Coimbra,Coimbra,Centro,-8.473408,40.139683
25132169,"Almada, Cova da Piedade, Pragal e Cacilhas",Península de Setúbal,311,2025-03-22T10:40:00Z,25132169,Em despacho,3301,Queda de árvore,0,1,0,5,2025-03-22T10:40:00Z,Almada,Setúbal,Área Metropolitana De Lisboa,-9.168395,38.671949
25132115,Lavos,Região de Coimbra,310,2025-03-22T10:20:00Z,25132115,Em despacho,3315,Inundação de estruturas por precipitação intensa,0,1,0,3,2025-03-22T10:20:00Z,Figueira Da Foz,Coimbra,Centro,-8.840277,40.100195
25132131,Gondemaria e Olival,Médio Tejo,311,2025-03-22T10:57:00Z,25132131,Em despacho,3311,Queda de elementos de estruturas edificados,0,3,0,4,2025-03-22T10:57:00Z,Ourém,Santarém,Centro,-8.606564,39.71232
25132163,Castelões,Viseu Dão Lafões,310,2025-03-22T10:42:00Z,25132163,Em resolução,3301,Queda de árvore,0,1,0,3,2025-03-22T10:42:00Z,Tondela,Viseu,Centro,-8.166173,40.54093
25132180,Chamusca e Pinheiro Grande,Lezíria do Tejo,311,2025-03-22T11:06:00Z,25132180,Em despacho,3301,Queda de árvore,0,1,0,2,2025-03-22T11:06:00Z,Chamusca,Santarém,Alentejo,-8.450018,39.395816
25132181,"S.maria, S.miguel, S.martinho, S.pedro Penaferrim",Grande Lisboa,311,2025-03-22T10:40:00Z,25132181,Em despacho,3301,Queda de árvore,0,1,0,2,2025-03-22T10:40:00Z,Sintra,Lisboa,Área Metropolitana De Lisboa,-9.387899,38.805813
25132197,"Cedofeita, Ildefonso, Sé, Miragaia, Nicolau e Vitória",Area M. Porto,309,2025-03-22T11:07:00Z,25132197,Em despacho,3311,Queda de elementos de estruturas edificados,0,1,0,5,2025-03-22T11:07:00Z,Porto,Porto,Norte,-8.615939,41.15359
25132216,Rio Covo (Santa Eugénia),Cávado,309,2025-03-22T11:12:00Z,25132216,Em curso,3301,Queda de árvore,0,2,0,4,2025-03-22T11:12:00Z,Barcelos,Braga,Norte,-8.606715,41.52611
25132247,"S.maria, S.miguel, S.martinho, S.pedro Penaferrim",Grande Lisboa,311,2025-03-22T10:36:00Z,25132247,Em despacho,3313,Deslizamento de terras,0,1,0,4,2025-03-22T10:36:00Z,Sintra,Lisboa,Área Metropolitana De Lisboa,-9.387899,38.805813
25132280,Darque,Alto Minho,309,2025-03-22T11:10:00Z,25132280,Em curso,3315,Inundação de estruturas por precipitação intensa,0,1,0,3,2025-03-22T11:10:00Z,Viana Do Castelo,Viana Do Castelo,Norte,-8.797345,41.686165
25132307,Marinhais,Lezíria do Tejo,311,2025-03-22T11:27:00Z,25132307,Em despacho,3301,Queda de árvore,0,2,0,7,2025-03-22T11:27:00Z,Salvaterra De Magos,Santarém,Alentejo,-8.704894,39.048061
25132194,Nazaré,Oeste,311,2025-03-22T11:05:00Z,25132194,Em despacho,3311,Queda de elementos de estruturas edificados,0,1,0,5,2025-03-22T11:05:00Z,Nazaré,Leiria,Centro,-9.062127,39.596083
25132251,Cascais e Estoril,Grande Lisboa,311,2025-03-22T11:11:00Z,25132251,Em despacho,3321,Dano na rede de fornecimento de eletricidade ,0,1,0,3,2025-03-22T11:11:00Z,Cascais,Lisboa,Área Metropolitana De Lisboa,-9.419397,38.700982
25132285,Alverca do Ribatejo e Sobralinho,Grande Lisboa,311,2025-03-22T11:24:00Z,25132285,Em despacho,3311,Queda de elementos de estruturas edificados,0,0,0,0,2025-03-22T11:24:00Z,Vila Franca De Xira,Lisboa,Área Metropolitana De Lisboa,-9.04298,38.90004
25132308,Alverca do Ribatejo e Sobralinho,Grande Lisboa,311,2025-03-22T11:17:00Z,25132308,Em despacho,3311,Queda de elementos de estruturas edificados,0,1,0,2,2025-03-22T11:17:00Z,Vila Franca De Xira,Lisboa,Área Metropolitana De Lisboa,-9.036827,38.899136
25132282,"Oeiras e S. Julião da Barra, Paço de Arcos e Caxias",Grande Lisboa,311,2025-03-22T11:19:00Z,25132282,Em despacho,3315,Inundação de estruturas por precipitação intensa,0,1,0,4,2025-03-22T11:19:00Z,Oeiras,Lisboa,Área Metropolitana De Lisboa,-9.290593,38.696925
25132298,Madalena e Samaiões,Alto Tâmega e Barroso,309,2025-03-22T11:20:00Z,25132298,Em despacho,3301,Queda de árvore,0,1,0,4,2025-03-22T11:20:00Z,Chaves,Vila Real,Norte,-7.463513,41.738196
