id,address,subregion,neighborhood,date,id.1,state,nature,nature_description,aerial_means,terrestrial_means,aquatic_means,operational,date.1,Concelho,Distrito,NUTII_DSG,longitude,latitude,state_2
25887019,Pedrógão Grande,Região de Leiria,310,2025-08-23T14:27:00Z,25887019,Em Resolução/Conclusão,3101,Incêndio rural,0,4,0,14,2025-08-23T14:27:00Z,Pedrógão Grande,Leiria,Centro,-8.15364,39.9136,Resolução/Conclusão
25925868,Lamelas e Guimarei,Area M. Porto,309,2025-08-31T20:44:00Z,25925868,Em Resolução/Conclusão,3103,Incêndio rural,0,9,0,24,2025-08-31T20:44:00Z,Santo Tirso,Porto,Norte,-8.488278,41.294002,Resolução/Conclusão
25926079,Abrunhosa-a-Velha,Viseu Dão Lafões,310,2025-08-31T21:41:00Z,25926079,Em Resolução/Conclusão,3103,Incêndio rural,0,11,0,38,2025-08-31T21:41:00Z,Mangualde,Viseu,Centro,-7.607378,40.572387,Resolução/Conclusão
25926154,Bunheiro,Região de Aveiro,310,2025-08-31T22:18:00Z,25926154,Em Resolução/Conclusão,3105,Incêndio rural,0,2,0,5,2025-08-31T22:18:00Z,Murtosa,Aveiro,Centro,-8.676712,40.761174,Resolução/Conclusão
25832672,Piódão,Região de Coimbra,310,2025-08-13T05:08:00Z,25832672,Em Resolução/Conclusão,3103,Incêndio rural,0,16,0,42,2025-08-13T05:08:00Z,Arganil,Coimbra,Centro,-7.81972,40.23083,Resolução/Conclusão
25840417,Lousã e Vilarinho,Região de Coimbra,310,2025-08-14T13:46:00Z,25840417,Em Resolução/Conclusão,3101,Incêndio rural,0,1,0,1,2025-08-14T13:46:00Z,Lousã,Coimbra,Centro,-8.201561,40.080016,Resolução/Conclusão
25846480,Sabugal e Aldeia de Santo António,Beiras e Serra da Estrela,310,2025-08-15T14:41:00Z,25846480,Em Resolução/Conclusão,3103,Incêndio rural,0,4,0,15,2025-08-15T14:41:00Z,Sabugal,Guarda,Centro,-7.125037,40.34023,Resolução/Conclusão
25851895,Sortelha,Beiras e Serra da Estrela,310,2025-08-16T14:53:00Z,25851895,Em Resolução/Conclusão,3103,Incêndio rural,0,2,0,10,2025-08-16T14:53:00Z,Sabugal,Guarda,Centro,-7.254367,40.318488,Resolução/Conclusão
25836309,Cinfães,Tâmega e Sousa,309,2025-08-13T18:17:00Z,25836309,Em Resolução/Conclusão,3103,Incêndio rural,0,1,0,2,2025-08-13T18:17:00Z,Cinfães,Viseu,Norte,-8.071502,41.049757,Resolução/Conclusão
25917734,São João da Pesqueira e Várzea de Trevões,Douro,309,2025-08-29T22:20:00Z,25917734,Em Resolução/Conclusão,3103,Incêndio rural,0,0,0,0,2025-08-29T22:20:00Z,São João Da Pesqueira,Viseu,Norte,-7.500588,41.084698,Resolução/Conclusão
25925856,São João da Pesqueira e Várzea de Trevões,Douro,309,2025-08-31T20:40:00Z,25925856,Em Resolução/Conclusão,3103,Incêndio rural,0,1,0,2,2025-08-31T20:40:00Z,São João Da Pesqueira,Viseu,Norte,-7.433718,41.13952,Resolução/Conclusão
25926175,"Gondomar (São Cosme), Valbom e Jovim",Area M. Porto,309,2025-08-31T22:38:00Z,25926175,Em Resolução/Conclusão,3103,Incêndio rural,0,1,0,5,2025-08-31T22:38:00Z,Gondomar,Porto,Norte,-8.52114,41.112902,Resolução/Conclusão
