id,address,subregion,neighborhood,date,id.1,state,nature,nature_description,aerial_means,terrestrial_means,aquatic_means,operational,date.1,Concelho,Distrito,NUTII_DSG,longitude,latitude
25593094,Sobrosa,Area M. Porto,309,2025-06-28T12:54:00Z,25593094,Em conclusão,3103,Incêndio rural,0,2,0,4,2025-06-28T12:54:00Z,Paredes,Porto,Norte,-8.35855,41.256482
25593747,Miranda do Corvo,Região de Coimbra,310,2025-06-28T15:06:00Z,25593747,Em conclusão,3101,Incêndio rural,0,0,0,0,2025-06-28T15:06:00Z,Miranda Do Corvo,Coimbra,Centro,-8.35944,40.14194
25594231,Ramada e Caneças,Grande Lisboa,311,2025-06-28T16:44:00Z,25594231,Em conclusão,3103,Incêndio rural,0,2,0,7,2025-06-28T16:44:00Z,Odivelas,Lisboa,Área Metropolitana De Lisboa,-9.198079,38.811733
25594396,Santo Estêvão,Lezíria do Tejo,311,2025-06-28T17:28:00Z,25594396,Em conclusão,3201,Detritos não confinados,0,1,0,5,2025-06-28T17:28:00Z,Benavente,Santarém,Alentejo,-8.752223,38.872117
25594464,Aguiar de Sousa,Area M. Porto,309,2025-06-28T17:40:00Z,25594464,Em conclusão,3103,Incêndio rural,0,1,0,5,2025-06-28T17:40:00Z,Paredes,Porto,Norte,-8.448716,41.129414
25592306,Vilarinho Dos Freires,Douro,309,2025-06-28T10:08:00Z,25592306,Em conclusão,3103,Incêndio rural,0,9,0,25,2025-06-28T10:08:00Z,Peso Da Régua,Vila Real,Norte,-7.733775,41.207972
25592954,Lomba,Area M. Porto,309,2025-06-28T12:21:00Z,25592954,Em conclusão,3103,Incêndio rural,0,1,0,5,2025-06-28T12:21:00Z,Gondomar,Porto,Norte,-8.404907,41.03697
25593674,Silves,Algarve,313,2025-06-28T14:51:00Z,25593674,Em conclusão,3103,Incêndio rural,0,5,0,12,2025-06-28T14:51:00Z,Silves,Faro,Algarve,-8.41948,37.19032
25593933,Azeitão (São Lourenço e São Simão),Península de Setúbal,311,2025-06-28T15:45:00Z,25593933,Em conclusão,3105,Incêndio rural,0,0,0,0,2025-06-28T15:45:00Z,Setúbal,Setúbal,Área Metropolitana De Lisboa,-9.000672,38.553398
25593098,Serpa (Salvador e Santa Maria),Baixo Alentejo,312,2025-06-28T12:57:00Z,25593098,Em resolução,3105,Incêndio rural,0,0,0,0,2025-06-28T12:57:00Z,Serpa,Beja,Alentejo,-7.518193,37.997937
25593807,Alburitel,Médio Tejo,311,2025-06-28T15:19:00Z,25593807,Em conclusão,3103,Incêndio rural,0,2,0,7,2025-06-28T15:19:00Z,Ourém,Santarém,Centro,-8.538137,39.63656
25593866,Ribeirão,Ave,309,2025-06-28T15:25:00Z,25593866,Em conclusão,3107,Consolidação de rescaldo de incêndio rural,0,1,0,2,2025-06-28T15:25:00Z,Vila Nova De Famalicão,Braga,Norte,-8.558043,41.368877
25593927,Mina de Água,Grande Lisboa,311,2025-06-28T15:43:00Z,25593927,Em conclusão,2101,Incêndio em edifícios habitacionais,0,7,0,15,2025-06-28T15:43:00Z,Amadora,Lisboa,Área Metropolitana De Lisboa,-9.228086,38.77113
25594107,Caíde de Rei,Tâmega e Sousa,309,2025-06-28T16:29:00Z,25594107,Em conclusão,3105,Incêndio rural,0,1,0,5,2025-06-28T16:29:00Z,Lousada,Porto,Norte,-8.230027,41.250043
25594336,Castanheira,Beiras e Serra da Estrela,310,2025-06-28T17:13:00Z,25594336,Em conclusão,3103,Incêndio rural,0,2,0,7,2025-06-28T17:13:00Z,Guarda,Guarda,Centro,-7.058675,40.583652
25594534,Cascais e Estoril,Grande Lisboa,311,2025-06-28T17:53:00Z,25594534,Em conclusão,3103,Incêndio rural,0,3,0,10,2025-06-28T17:53:00Z,Cascais,Lisboa,Área Metropolitana De Lisboa,-9.452904,38.732508
25593218,Urqueira,Médio Tejo,311,2025-06-28T13:24:00Z,25593218,Em conclusão,3103,Incêndio rural,0,0,0,0,2025-06-28T13:24:00Z,Ourém,Santarém,Centro,-8.579262,39.760715
25593470,Duas Igrejas,Tâmega e Sousa,309,2025-06-28T14:16:00Z,25593470,Em curso,3103,Incêndio rural,6,18,0,72,2025-06-28T14:16:00Z,Penafiel,Porto,Norte,-8.278005,41.170128
25594005,Paços de Ferreira,Tâmega e Sousa,309,2025-06-28T16:01:00Z,25594005,Em resolução,3103,Incêndio rural,0,3,0,12,2025-06-28T16:01:00Z,Paços De Ferreira,Porto,Norte,-8.38478,41.265605
25594106,Rebordões,Area M. Porto,309,2025-06-28T16:25:00Z,25594106,Em resolução,3103,Incêndio rural,0,1,0,5,2025-06-28T16:25:00Z,Santo Tirso,Porto,Norte,-8.424557,41.345995
25594237,Caria,Beiras e Serra da Estrela,310,2025-06-28T16:50:00Z,25594237,Em conclusão,3103,Incêndio rural,0,1,0,2,2025-06-28T16:50:00Z,Belmonte,Castelo Branco,Centro,-7.355793,40.282247
25594625,Cascais e Estoril,Grande Lisboa,311,2025-06-28T18:23:00Z,25594625,Em despacho,2301,Incêndio em transporte rodoviário,0,3,0,9,2025-06-28T18:23:00Z,Cascais,Lisboa,Área Metropolitana De Lisboa,-9.39382,38.71013
25594653,Castelo Branco,Beira Baixa,310,2025-06-28T18:25:00Z,25594653,Em curso,3203,Detritos confinados,0,2,0,7,2025-06-28T18:25:00Z,Castelo Branco,Castelo Branco,Centro,-7.490756,39.816895
25594506,Cabreiro,Alto Minho,309,2025-06-28T17:53:00Z,25594506,Em curso,3103,Incêndio rural,1,1,0,11,2025-06-28T17:53:00Z,Arcos De Valdevez,Viana Do Castelo,Norte,-8.387308,41.945052
25594482,Lagos (São Sebastião e Santa Maria),Algarve,313,2025-06-28T17:49:00Z,25594482,Em conclusão,2129,Incêndio em edifícios degradados ou devolutos,0,1,0,5,2025-06-28T17:49:00Z,Lagos,Faro,Algarve,-8.671721,37.09093
25594613,Miranda do Corvo,Região de Coimbra,310,2025-06-28T18:22:00Z,25594613,Em curso,3103,Incêndio rural,1,5,0,27,2025-06-28T18:22:00Z,Miranda Do Corvo,Coimbra,Centro,-8.363153,40.141431
