id,address,subregion,neighborhood,date,id.1,state,nature,nature_description,aerial_means,terrestrial_means,aquatic_means,operational,date.1,Concelho,Distrito,NUTII_DSG,longitude,latitude
25499380,Freiriz,Cávado,309,2025-06-09T09:54:00Z,25499380,Em despacho,3107,Consolidação de rescaldo de incêndio rural,0,5,0,14,2025-06-09T09:54:00Z,Vila Verde,Braga,Norte,-8.502703,41.633588
25500013,Mora,Alentejo Central,312,2025-06-09T11:39:00Z,25500013,Em resolução,3103,Incêndio rural,0,7,0,26,2025-06-09T11:39:00Z,Mora,Évora,Alentejo,-8.181115,38.951998
25500015,Ferreira do Alentejo e Canhestros,Baixo Alentejo,312,2025-06-09T11:40:00Z,25500015,Em resolução,3105,Incêndio rural,0,8,0,26,2025-06-09T11:40:00Z,Ferreira Do Alentejo,Beja,Alentejo,-8.13471,38.053943
25500049,Queluz e Belas,Grande Lisboa,311,2025-06-09T11:50:00Z,25500049,Em curso,2101,Incêndio em edifícios habitacionais,0,2,0,7,2025-06-09T11:50:00Z,Sintra,Lisboa,Área Metropolitana De Lisboa,-9.277613,38.762621
25498388,Ceira,Região de Coimbra,310,2025-06-09T03:57:00Z,25498388,Em conclusão,2127,"Incêndio em edifícios e recintos industriais, oficinas e armazéns",0,5,0,16,2025-06-09T03:57:00Z,Coimbra,Coimbra,Centro,-8.39222,40.18194
25500133,Idanha-a-Nova e Alcafozes,Beira Baixa,310,2025-06-09T12:02:00Z,25500133,Em despacho,3105,Incêndio rural,0,1,0,5,2025-06-09T12:02:00Z,Idanha-a-Nova,Castelo Branco,Centro,-7.118643,39.945731
25499950,Raposa,Lezíria do Tejo,311,2025-06-09T11:30:00Z,25499950,Em resolução,3105,Incêndio rural,1,9,0,37,2025-06-09T11:30:00Z,Almeirim,Santarém,Alentejo,-8.55967,39.11426
