id,address,subregion,neighborhood,date,id.1,state,nature,nature_description,aerial_means,terrestrial_means,aquatic_means,operational,date.1,Concelho,Distrito,NUTII_DSG,longitude,latitude
24851780,"São Miguel, Santa Eufémia e Rabaçal",Região de Coimbra,310,2025-01-21T23:25:00Z,24851780,Em curso,3315,Inundação de estruturas por precipitação intensa,0,0,0,0,2025-01-21T23:25:00Z,Penela,Coimbra,Centro,-8.399036,40.025502
24880255,Covas e Vila Nova de Oliveirinha,Região de Coimbra,310,2025-01-27T23:25:00Z,24880255,Em despacho,3301,Queda de árvore,0,1,0,3,2025-01-27T23:25:00Z,Tábua,Coimbra,Centro,-7.918972,40.324608
24880475,Pombal,Região de Leiria,310,2025-01-28T01:48:00Z,24880475,Em despacho,3301,Queda de árvore,0,1,0,2,2025-01-28T01:48:00Z,Pombal,Leiria,Centro,-8.657032,39.908442
24880709,São Bernardo,Região de Aveiro,310,2025-01-28T05:59:00Z,24880709,Em despacho,3301,Queda de árvore,0,1,0,5,2025-01-28T05:59:00Z,Aveiro,Aveiro,Centro,-8.63548,40.62307
24880723,Marinhais,Lezíria do Tejo,311,2025-01-28T06:13:00Z,24880723,Em resolução,3301,Queda de árvore,0,1,0,5,2025-01-28T06:13:00Z,Salvaterra De Magos,Santarém,Alentejo,-8.734683,39.061248
24880725,Almoster,Região de Leiria,310,2025-01-28T03:05:00Z,24880725,Em despacho,3301,Queda de árvore,0,1,0,1,2025-01-28T03:05:00Z,Alvaiázere,Leiria,Centro,-8.456751,39.84433
24880743,Angeja,Região de Aveiro,310,2025-01-28T06:09:00Z,24880743,Em despacho,3301,Queda de árvore,0,1,0,2,2025-01-28T06:09:00Z,Albergaria-a-Velha,Aveiro,Centro,-8.56369,40.681509
24880650,Azambuja,Lezíria do Tejo,311,2025-01-28T04:31:00Z,24880650,Em curso,3301,Queda de árvore,0,3,0,6,2025-01-28T04:31:00Z,Azambuja,Lisboa,Alentejo,-8.869492,39.070966
24880700,Santo António Dos Olivais,Região de Coimbra,310,2025-01-28T05:45:00Z,24880700,Em despacho,3301,Queda de árvore,0,1,0,3,2025-01-28T05:45:00Z,Coimbra,Coimbra,Centro,-8.426807,40.217261
24877003,Malagueira e Horta Das Figueiras,Alentejo Central,312,2025-01-27T11:41:00Z,24877003,Em conclusão,3315,Inundação de estruturas por precipitação intensa,0,1,0,2,2025-01-27T11:41:00Z,Évora,Évora,Alentejo,-7.924277,38.57285
24880713,São Pedro do Esteval,Beira Baixa,310,2025-01-28T06:02:00Z,24880713,Em despacho,3321,Dano na rede de fornecimento de eletricidade ,0,3,0,6,2025-01-28T06:02:00Z,Proença-a-Nova,Castelo Branco,Centro,-7.818056,39.67031
24880727,Mioma,Viseu Dão Lafões,310,2025-01-28T06:14:00Z,24880727,Em despacho,3301,Queda de árvore,0,1,0,2,2025-01-28T06:14:00Z,Sátão,Viseu,Centro,-7.71357,40.746281
24880736,Torreira,Região de Aveiro,310,2025-01-28T06:22:00Z,24880736,Em despacho,3301,Queda de árvore,0,0,0,0,2025-01-28T06:22:00Z,Murtosa,Aveiro,Centro,-8.699212,40.761066
24874564,"Sé, Santa Maria e Meixedo",Terras de Trás-os-Montes,309,2025-01-26T21:55:00Z,24874564,Em curso,3315,Inundação de estruturas por precipitação intensa,0,1,0,2,2025-01-26T21:55:00Z,Bragança,Bragança,Norte,-6.761223,41.813164
24876893,"Sé, Santa Maria e Meixedo",Terras de Trás-os-Montes,309,2025-01-27T11:22:00Z,24876893,Em curso,3315,Inundação de estruturas por precipitação intensa,0,1,0,1,2025-01-27T11:22:00Z,Bragança,Bragança,Norte,-6.761223,41.813164
24880705,Vagos e Santo António,Região de Aveiro,310,2025-01-28T05:30:00Z,24880705,Em despacho,3301,Queda de árvore,0,1,0,3,2025-01-28T05:30:00Z,Vagos,Aveiro,Centro,-8.68094,40.554939
24880730,Souselo,Tâmega e Sousa,309,2025-01-28T06:20:00Z,24880730,Em despacho,3301,Queda de árvore,0,0,0,0,2025-01-28T06:20:00Z,Cinfães,Viseu,Norte,-8.23189,41.073078
