id,address,subregion,neighborhood,date,id.1,state,nature,nature_description,aerial_means,terrestrial_means,aquatic_means,operational,date.1,Concelho,Distrito,NUTII_DSG,longitude,latitude
25063232,Santa Maria do Castelo e Santiago e Santa Susana,Alentejo Litoral,312,2025-03-09T19:02:00Z,25063232,Em curso,1101,Cheia,0,0,0,0,2025-03-09T19:02:00Z,Alcácer Do Sal,Setúbal,Alentejo,-8.48167,38.29806
25112066,Gafanha da Nazaré,Região de Aveiro,310,2025-03-19T22:51:00Z,25112066,Em resolução,3311,Queda de elementos de estruturas edificados,0,0,0,1,2025-03-19T22:51:00Z,Ílhavo,Aveiro,Centro,-8.714699,40.63582
25112199,Cascais e Estoril,Grande Lisboa,311,2025-03-19T23:12:00Z,25112199,Em despacho,3301,Queda de árvore,0,2,0,10,2025-03-19T23:12:00Z,Cascais,Lisboa,Área Metropolitana De Lisboa,-9.398759,38.70391
25112402,Golegã,Lezíria do Tejo,311,2025-03-19T23:46:00Z,25112402,Em conclusão,3301,Queda de árvore,0,1,0,2,2025-03-19T23:46:00Z,Golegã,Santarém,Alentejo,-8.483135,39.415012
25112569,São Salvador e Santa Maria,Alentejo Litoral,312,2025-03-20T00:01:00Z,25112569,Em despacho,3301,Queda de árvore,0,1,0,4,2025-03-20T00:01:00Z,Odemira,Beja,Alentejo,-8.681094,37.59238
25112618,Azinhaga,Lezíria do Tejo,311,2025-03-20T00:20:00Z,25112618,Em conclusão,3301,Queda de árvore,0,0,0,0,2025-03-20T00:20:00Z,Golegã,Santarém,Alentejo,-8.532263,39.364938
25112651,Setúbal (São Sebastião),Península de Setúbal,311,2025-03-20T00:25:00Z,25112651,Em curso,3301,Queda de árvore,0,0,0,0,2025-03-20T00:25:00Z,Setúbal,Setúbal,Área Metropolitana De Lisboa,-8.872648,38.53292
25112704,Fernão Ferro,Península de Setúbal,311,2025-03-20T00:32:00Z,25112704,Em curso,3321,Dano na rede de fornecimento de eletricidade ,0,0,0,0,2025-03-20T00:32:00Z,Seixal,Setúbal,Área Metropolitana De Lisboa,-9.08671,38.56536
25112718,Alhos Vedros,Península de Setúbal,311,2025-03-20T00:33:00Z,25112718,Em curso,3329,Queda de estruturas temporárias ou móveis,0,0,0,0,2025-03-20T00:33:00Z,Moita,Setúbal,Área Metropolitana De Lisboa,-9.023435,38.65349
25112736,Seixo de Gatões,Região de Coimbra,310,2025-03-20T00:26:00Z,25112736,Em despacho,3309,Desabamento de estruturas edificadas,0,0,0,0,2025-03-20T00:26:00Z,Montemor-o-Velho,Coimbra,Centro,-8.690129,40.238805
25112821,Queluz e Belas,Grande Lisboa,311,2025-03-20T00:05:00Z,25112821,Em curso,3301,Queda de árvore,0,2,0,7,2025-03-20T00:05:00Z,Sintra,Lisboa,Área Metropolitana De Lisboa,-9.270072,38.779997
25112834,Alvorninha,Oeste,311,2025-03-20T00:42:00Z,25112834,Em curso,3301,Queda de árvore,0,2,0,6,2025-03-20T00:42:00Z,Caldas Da Rainha,Leiria,Centro,-9.022426,39.404552
25112835,"Almada, Cova da Piedade, Pragal e Cacilhas",Península de Setúbal,311,2025-03-20T00:47:00Z,25112835,Em curso,3301,Queda de árvore,0,0,0,0,2025-03-20T00:47:00Z,Almada,Setúbal,Área Metropolitana De Lisboa,-9.15992,38.67447
25112887,Sesimbra (Castelo),Península de Setúbal,311,2025-03-20T00:53:00Z,25112887,Em curso,3301,Queda de árvore,0,0,0,0,2025-03-20T00:53:00Z,Sesimbra,Setúbal,Área Metropolitana De Lisboa,-9.093273,38.47523
25112936,Pinhal Novo,Península de Setúbal,311,2025-03-20T00:59:00Z,25112936,Em curso,3329,Queda de estruturas temporárias ou móveis,0,0,0,0,2025-03-20T00:59:00Z,Palmela,Setúbal,Área Metropolitana De Lisboa,-8.93024,38.60548
25112987,Quinta do Anjo,Península de Setúbal,311,2025-03-20T01:06:00Z,25112987,Em curso,3301,Queda de árvore,0,0,0,0,2025-03-20T01:06:00Z,Palmela,Setúbal,Área Metropolitana De Lisboa,-8.94361,38.60282
25113018,Alcochete,Península de Setúbal,311,2025-03-20T01:10:00Z,25113018,Em curso,3321,Dano na rede de fornecimento de eletricidade ,0,0,0,0,2025-03-20T01:10:00Z,Alcochete,Setúbal,Área Metropolitana De Lisboa,-8.93938,38.73429
25113052,São Domingos de Rana,Grande Lisboa,311,2025-03-20T01:13:00Z,25113052,Em despacho,3311,Queda de elementos de estruturas edificados,0,0,0,0,2025-03-20T01:13:00Z,Cascais,Lisboa,Área Metropolitana De Lisboa,-9.32533,38.72599
25113069,Amora,Península de Setúbal,311,2025-03-20T01:15:00Z,25113069,Em curso,3311,Queda de elementos de estruturas edificados,0,0,0,0,2025-03-20T01:15:00Z,Seixal,Setúbal,Área Metropolitana De Lisboa,-9.11034,38.62046
25113085,Santo António Dos Cavaleiros e Frielas,Grande Lisboa,311,2025-03-20T01:14:00Z,25113085,Em despacho,3311,Queda de elementos de estruturas edificados,0,0,0,0,2025-03-20T01:14:00Z,Loures,Lisboa,Área Metropolitana De Lisboa,-9.171619,38.815144
25113086,Quinta do Conde,Península de Setúbal,311,2025-03-20T01:16:00Z,25113086,Em curso,3321,Dano na rede de fornecimento de eletricidade ,0,0,0,0,2025-03-20T01:16:00Z,Sesimbra,Setúbal,Área Metropolitana De Lisboa,-9.04645,38.56296
25113088,Venteira,Grande Lisboa,311,2025-03-20T01:16:00Z,25113088,Em despacho,3311,Queda de elementos de estruturas edificados,0,0,0,0,2025-03-20T01:16:00Z,Amadora,Lisboa,Área Metropolitana De Lisboa,-9.23452,38.75815
25113102,Charneca de Caparica e Sobreda,Península de Setúbal,311,2025-03-20T01:18:00Z,25113102,Em curso,3301,Queda de árvore,0,0,0,0,2025-03-20T01:18:00Z,Almada,Setúbal,Área Metropolitana De Lisboa,-9.17228,38.58738
25113135,Rio de Mouro,Grande Lisboa,311,2025-03-20T01:20:00Z,25113135,Em despacho,3321,Dano na rede de fornecimento de eletricidade ,0,0,0,0,2025-03-20T01:20:00Z,Sintra,Lisboa,Área Metropolitana De Lisboa,-9.317364,38.786733
25113170,Corroios,Península de Setúbal,311,2025-03-20T01:24:00Z,25113170,Em curso,3301,Queda de árvore,0,0,0,0,2025-03-20T01:24:00Z,Seixal,Setúbal,Área Metropolitana De Lisboa,-9.15464,38.58128
25113171,São João Das Lampas e Terrugem,Grande Lisboa,311,2025-03-20T01:24:00Z,25113171,Em despacho,3301,Queda de árvore,0,0,0,0,2025-03-20T01:24:00Z,Sintra,Lisboa,Área Metropolitana De Lisboa,-9.38058,38.91877
25113186,Santa Maria Maior,Grande Lisboa,311,2025-03-20T01:25:00Z,25113186,Em despacho,3301,Queda de árvore,0,1,0,6,2025-03-20T01:25:00Z,Lisboa,Lisboa,Área Metropolitana De Lisboa,-9.13452,38.714581
25113221,Soure,Região de Coimbra,310,2025-03-20T01:15:00Z,25113221,Em despacho,3301,Queda de árvore,0,1,0,2,2025-03-20T01:15:00Z,Soure,Coimbra,Centro,-8.60866,40.015823
25113236,"Almada, Cova da Piedade, Pragal e Cacilhas",Península de Setúbal,311,2025-03-20T01:32:00Z,25113236,Em curso,3311,Queda de elementos de estruturas edificados,0,0,0,0,2025-03-20T01:32:00Z,Almada,Setúbal,Área Metropolitana De Lisboa,-9.15908,38.67736
25113237,Costa da Caparica,Península de Setúbal,311,2025-03-20T01:32:00Z,25113237,Em curso,3311,Queda de elementos de estruturas edificados,0,0,0,0,2025-03-20T01:32:00Z,Almada,Setúbal,Área Metropolitana De Lisboa,-9.23149,38.63755
25113252,Venteira,Grande Lisboa,311,2025-03-20T01:33:00Z,25113252,Em despacho,3311,Queda de elementos de estruturas edificados,0,0,0,0,2025-03-20T01:33:00Z,Amadora,Lisboa,Área Metropolitana De Lisboa,-9.23969,38.75664
25113270,Charneca de Caparica e Sobreda,Península de Setúbal,311,2025-03-20T01:34:00Z,25113270,Em curso,3301,Queda de árvore,0,0,0,0,2025-03-20T01:34:00Z,Almada,Setúbal,Área Metropolitana De Lisboa,-9.17811,38.58586
25113288,"N. S. da Vila, N. S. do Bispo e Silveiras",Alentejo Central,312,2025-03-20T01:20:00Z,25113288,Em despacho,3301,Queda de árvore,0,1,0,2,2025-03-20T01:20:00Z,Montemor-o-Novo,Évora,Alentejo,-8.21652,38.662575
25113289,Amora,Península de Setúbal,311,2025-03-20T01:36:00Z,25113289,Em curso,3311,Queda de elementos de estruturas edificados,0,0,0,0,2025-03-20T01:36:00Z,Seixal,Setúbal,Área Metropolitana De Lisboa,-9.14507,38.59622
25113304,São Domingos de Rana,Grande Lisboa,311,2025-03-20T01:38:00Z,25113304,Em despacho,3321,Dano na rede de fornecimento de eletricidade ,0,0,0,0,2025-03-20T01:38:00Z,Cascais,Lisboa,Área Metropolitana De Lisboa,-9.32923,38.71493
25113354,Mina de Água,Grande Lisboa,311,2025-03-20T01:43:00Z,25113354,Em despacho,3311,Queda de elementos de estruturas edificados,0,0,0,0,2025-03-20T01:43:00Z,Amadora,Lisboa,Área Metropolitana De Lisboa,-9.243611,38.76194
25113386,Alpiarça,Lezíria do Tejo,311,2025-03-20T01:46:00Z,25113386,Em despacho,3301,Queda de árvore,0,0,0,0,2025-03-20T01:46:00Z,Alpiarça,Santarém,Alentejo,-8.595402,39.262022
25113421,Igreja Nova e Cheleiros,Grande Lisboa,311,2025-03-20T01:49:00Z,25113421,Em despacho,3301,Queda de árvore,0,0,0,0,2025-03-20T01:49:00Z,Mafra,Lisboa,Área Metropolitana De Lisboa,-9.310799,38.93288
25113436,Fernão Ferro,Península de Setúbal,311,2025-03-20T01:51:00Z,25113436,Em curso,3301,Queda de árvore,0,0,0,0,2025-03-20T01:51:00Z,Seixal,Setúbal,Área Metropolitana De Lisboa,-9.09578,38.55292
25113437,Covões e Camarneira,Região de Coimbra,310,2025-03-20T01:48:00Z,25113437,Em despacho,3301,Queda de árvore,0,0,0,0,2025-03-20T01:48:00Z,Cantanhede,Coimbra,Centro,-8.602074,40.443399
25113455,Charneca de Caparica e Sobreda,Península de Setúbal,311,2025-03-20T01:53:00Z,25113455,Em curso,3301,Queda de árvore,0,0,0,0,2025-03-20T01:53:00Z,Almada,Setúbal,Área Metropolitana De Lisboa,-9.17021,38.57797
25113470,Cascais e Estoril,Grande Lisboa,311,2025-03-20T01:54:00Z,25113470,Em despacho,3301,Queda de árvore,0,0,0,0,2025-03-20T01:54:00Z,Cascais,Lisboa,Área Metropolitana De Lisboa,-9.434008,38.71018
25113473,Pinheiro de Coja e Meda de Mouros,Região de Coimbra,310,2025-03-20T01:39:00Z,25113473,Em curso,3301,Queda de árvore,0,1,0,3,2025-03-20T01:39:00Z,Tábua,Coimbra,Centro,-7.990795,40.301303
25113504,Mértola,Baixo Alentejo,312,2025-03-20T01:53:00Z,25113504,Em curso,3301,Queda de árvore,0,1,0,1,2025-03-20T01:53:00Z,Mértola,Beja,Alentejo,-7.707997,37.678842
25113554,Charneca de Caparica e Sobreda,Península de Setúbal,311,2025-03-20T02:03:00Z,25113554,Em curso,3301,Queda de árvore,0,0,0,0,2025-03-20T02:03:00Z,Almada,Setúbal,Área Metropolitana De Lisboa,-9.18207,38.59188
25113572,Cascais e Estoril,Grande Lisboa,311,2025-03-20T02:05:00Z,25113572,Em despacho,3301,Queda de árvore,0,0,0,0,2025-03-20T02:05:00Z,Cascais,Lisboa,Área Metropolitana De Lisboa,-9.43971,38.72218
25068300,Almeirim,Lezíria do Tejo,311,2025-03-10T20:52:00Z,25068300,Em curso,1101,Cheia,0,0,0,0,2025-03-10T20:52:00Z,Almeirim,Santarém,Alentejo,-8.635002,39.187436
25112422,Pala,Região de Coimbra,310,2025-03-19T23:48:00Z,25112422,Em despacho,3301,Queda de árvore,0,1,0,4,2025-03-19T23:48:00Z,Mortágua,Viseu,Centro,-8.262736,40.422891
25112472,Caparica e Trafaria,Península de Setúbal,311,2025-03-19T23:57:00Z,25112472,Em curso,3301,Queda de árvore,0,0,0,0,2025-03-19T23:57:00Z,Almada,Setúbal,Área Metropolitana De Lisboa,-9.242559,38.66221
25112524,Pereira,Região de Coimbra,310,2025-03-19T23:55:00Z,25112524,Em despacho,3301,Queda de árvore,0,0,0,0,2025-03-19T23:55:00Z,Montemor-o-Velho,Coimbra,Centro,-8.585186,40.185229
25112554,Charneca de Caparica e Sobreda,Península de Setúbal,311,2025-03-20T00:10:00Z,25112554,Em curso,3301,Queda de árvore,0,1,0,4,2025-03-20T00:10:00Z,Almada,Setúbal,Área Metropolitana De Lisboa,-9.181708,38.64791
25112622,"S.julião, N.s. da Anunciada e S. Maria da Graça",Península de Setúbal,311,2025-03-20T00:21:00Z,25112622,Em curso,3311,Queda de elementos de estruturas edificados,0,0,0,0,2025-03-20T00:21:00Z,Setúbal,Setúbal,Área Metropolitana De Lisboa,-8.90427,38.528
25112624,Azeitão (São Lourenço e São Simão),Península de Setúbal,311,2025-03-20T00:00:00Z,25112624,Em curso,3301,Queda de árvore,0,0,0,0,2025-03-20T00:00:00Z,Setúbal,Setúbal,Área Metropolitana De Lisboa,-9.04265,38.541479
25112658,Quinta do Anjo,Península de Setúbal,311,2025-03-20T00:26:00Z,25112658,Em curso,3301,Queda de árvore,0,0,0,0,2025-03-20T00:26:00Z,Palmela,Setúbal,Área Metropolitana De Lisboa,-9.02329,38.58032
25087162,Pedrógão,Baixo Alentejo,312,2025-03-14T17:00:00Z,25087162,Em curso,1101,Cheia,0,0,0,0,2025-03-14T17:00:00Z,Vidigueira,Beja,Alentejo,-7.630327,38.110775
25112355,Cascais e Estoril,Grande Lisboa,311,2025-03-19T23:42:00Z,25112355,Em despacho,3301,Queda de árvore,0,0,0,0,2025-03-19T23:42:00Z,Cascais,Lisboa,Área Metropolitana De Lisboa,-9.44891,38.69577
25112462,Costa da Caparica,Península de Setúbal,311,2025-03-19T23:45:00Z,25112462,Em curso,3301,Queda de árvore,0,0,0,0,2025-03-19T23:45:00Z,Almada,Setúbal,Área Metropolitana De Lisboa,-9.227696,38.642583
25112466,Colares,Grande Lisboa,311,2025-03-19T23:50:00Z,25112466,Em curso,3321,Dano na rede de fornecimento de eletricidade ,0,2,0,7,2025-03-19T23:50:00Z,Sintra,Lisboa,Área Metropolitana De Lisboa,-9.470171,38.782676
25112539,"Almargem do Bispo, Pêro Pinheiro e Montelavar",Grande Lisboa,311,2025-03-20T00:02:00Z,25112539,Em despacho,3321,Dano na rede de fornecimento de eletricidade ,0,1,0,2,2025-03-20T00:02:00Z,Sintra,Lisboa,Área Metropolitana De Lisboa,-9.297507,38.825783
25112564,Charneca de Caparica e Sobreda,Península de Setúbal,311,2025-03-20T00:13:00Z,25112564,Em curso,3301,Queda de árvore,0,0,0,0,2025-03-20T00:13:00Z,Almada,Setúbal,Área Metropolitana De Lisboa,-9.178229,38.59188
25112639,"S.julião, N.s. da Anunciada e S. Maria da Graça",Península de Setúbal,311,2025-03-20T00:23:00Z,25112639,Em curso,3311,Queda de elementos de estruturas edificados,0,0,0,0,2025-03-20T00:23:00Z,Setúbal,Setúbal,Área Metropolitana De Lisboa,-8.90127,38.52768
25113606,"N. S. da Vila, N. S. do Bispo e Silveiras",Alentejo Central,312,2025-03-20T01:45:00Z,25113606,Em despacho,3301,Queda de árvore,0,1,0,2,2025-03-20T01:45:00Z,Montemor-o-Novo,Évora,Alentejo,-8.21652,38.662575
25113640,Alenquer (Santo Estêvão e Triana),Oeste,311,2025-03-20T02:00:00Z,25113640,Em despacho,3301,Queda de árvore,0,1,0,2,2025-03-20T02:00:00Z,Alenquer,Lisboa,Centro,-8.984619,39.063465
25113653,"Oeiras e S. Julião da Barra, Paço de Arcos e Caxias",Grande Lisboa,311,2025-03-20T02:12:00Z,25113653,Em despacho,3301,Queda de árvore,0,0,0,0,2025-03-20T02:12:00Z,Oeiras,Lisboa,Área Metropolitana De Lisboa,-9.275682,38.698873
25113670,Samora Correia,Lezíria do Tejo,311,2025-03-20T01:56:00Z,25113670,Em despacho,3301,Queda de árvore,0,1,0,3,2025-03-20T01:56:00Z,Benavente,Santarém,Alentejo,-8.868908,38.935447
25113722,Carcavelos e Parede,Grande Lisboa,311,2025-03-20T02:21:00Z,25113722,Em despacho,3311,Queda de elementos de estruturas edificados,0,0,0,0,2025-03-20T02:21:00Z,Cascais,Lisboa,Área Metropolitana De Lisboa,-9.367864,38.69675
25113737,Charneca de Caparica e Sobreda,Península de Setúbal,311,2025-03-20T02:22:00Z,25113737,Em curso,3301,Queda de árvore,0,0,0,0,2025-03-20T02:22:00Z,Almada,Setúbal,Área Metropolitana De Lisboa,-9.17331,38.58715
25113740,"Oeiras e S. Julião da Barra, Paço de Arcos e Caxias",Grande Lisboa,311,2025-03-20T02:22:00Z,25113740,Em despacho,3301,Queda de árvore,0,0,0,0,2025-03-20T02:22:00Z,Oeiras,Lisboa,Área Metropolitana De Lisboa,-9.275682,38.698873
25113772,Vila Verde Dos Francos,Oeste,311,2025-03-20T02:26:00Z,25113772,Em despacho,3301,Queda de árvore,0,2,0,2,2025-03-20T02:26:00Z,Alenquer,Lisboa,Centro,-9.129415,39.172205
25113787,Salvaterra de Magos e Foros de Salvaterra,Lezíria do Tejo,311,2025-03-20T02:27:00Z,25113787,Em curso,3329,Queda de estruturas temporárias ou móveis,0,0,0,0,2025-03-20T02:27:00Z,Salvaterra De Magos,Santarém,Alentejo,-8.791365,39.03049
25059714,Torrão,Alentejo Litoral,312,2025-03-08T22:10:00Z,25059714,Em curso,1101,Cheia,0,1,0,2,2025-03-08T22:10:00Z,Alcácer Do Sal,Setúbal,Alentejo,-8.359133,38.252053
25070044,Praia do Ribatejo,Médio Tejo,311,2025-03-10T19:30:00Z,25070044,Em curso,1101,Cheia,0,0,0,0,2025-03-10T19:30:00Z,Vila Nova Da Barquinha,Santarém,Centro,-8.357309,39.485638
25071496,São Manços e São Vicente do Pigeiro,Alentejo Central,312,2025-03-11T13:18:00Z,25071496,Em curso,1101,Cheia,0,2,0,4,2025-03-11T13:18:00Z,Évora,Évora,Alentejo,-7.713313,38.513673
25112160,"Guia, Ilha e Mata Mourisca",Região de Leiria,310,2025-03-19T22:25:00Z,25112160,Em despacho,3301,Queda de árvore,0,1,0,3,2025-03-19T22:25:00Z,Pombal,Leiria,Centro,-8.753282,39.947593
25112193,Louriçal,Região de Leiria,310,2025-03-19T23:18:00Z,25112193,Em despacho,3301,Queda de árvore,0,1,0,3,2025-03-19T23:18:00Z,Pombal,Leiria,Centro,-8.711387,39.974828
25112361,"Almada, Cova da Piedade, Pragal e Cacilhas",Península de Setúbal,311,2025-03-19T23:43:00Z,25112361,Em curso,3301,Queda de árvore,0,1,0,4,2025-03-19T23:43:00Z,Almada,Setúbal,Área Metropolitana De Lisboa,-9.169937,38.67238
25112444,"S.maria, S.miguel, S.martinho, S.pedro Penaferrim",Grande Lisboa,311,2025-03-19T23:45:00Z,25112444,Em curso,3301,Queda de árvore,0,2,0,9,2025-03-19T23:45:00Z,Sintra,Lisboa,Área Metropolitana De Lisboa,-9.414924,38.772191
25112562,"S.julião, N.s. da Anunciada e S. Maria da Graça",Península de Setúbal,311,2025-03-20T00:12:00Z,25112562,Em curso,3329,Queda de estruturas temporárias ou móveis,0,0,0,0,2025-03-20T00:12:00Z,Setúbal,Setúbal,Área Metropolitana De Lisboa,-8.90758,38.52468
25112672,Alhos Vedros,Península de Setúbal,311,2025-03-20T00:28:00Z,25112672,Em curso,3311,Queda de elementos de estruturas edificados,0,0,0,0,2025-03-20T00:28:00Z,Moita,Setúbal,Área Metropolitana De Lisboa,-9.02548,38.65708
25112722,Azeitão (São Lourenço e São Simão),Península de Setúbal,311,2025-03-20T00:34:00Z,25112722,Em curso,3321,Dano na rede de fornecimento de eletricidade ,0,1,0,3,2025-03-20T00:34:00Z,Setúbal,Setúbal,Área Metropolitana De Lisboa,-9.01777,38.55323
25112781,Moita,Península de Setúbal,311,2025-03-20T00:35:00Z,25112781,Em curso,3301,Queda de árvore,0,0,0,0,2025-03-20T00:35:00Z,Moita,Setúbal,Área Metropolitana De Lisboa,-8.985364,38.643702
25112838,"Almada, Cova da Piedade, Pragal e Cacilhas",Península de Setúbal,311,2025-03-20T00:47:00Z,25112838,Em curso,3301,Queda de árvore,0,0,0,0,2025-03-20T00:47:00Z,Almada,Setúbal,Área Metropolitana De Lisboa,-9.15927,38.6747
25112933,Febres,Região de Coimbra,310,2025-03-20T00:45:00Z,25112933,Em despacho,3311,Queda de elementos de estruturas edificados,0,0,0,0,2025-03-20T00:45:00Z,Cantanhede,Coimbra,Centro,-8.63492,40.400257
25112974,Corroios,Península de Setúbal,311,2025-03-20T01:04:00Z,25112974,Em curso,3301,Queda de árvore,0,0,0,0,2025-03-20T01:04:00Z,Seixal,Setúbal,Área Metropolitana De Lisboa,-9.1683,38.62225
25112992,Moscavide e Portela,Grande Lisboa,311,2025-03-20T00:53:00Z,25112992,Em despacho,3329,Queda de estruturas temporárias ou móveis,0,1,0,3,2025-03-20T00:53:00Z,Loures,Lisboa,Área Metropolitana De Lisboa,-9.114803,38.78591
25113022,São Domingos de Rana,Grande Lisboa,311,2025-03-20T01:10:00Z,25113022,Em despacho,3311,Queda de elementos de estruturas edificados,0,0,0,0,2025-03-20T01:10:00Z,Cascais,Lisboa,Área Metropolitana De Lisboa,-9.3408,38.73652
25112595,Maiorca,Região de Coimbra,310,2025-03-20T00:16:00Z,25112595,Em despacho,3301,Queda de árvore,0,0,0,0,2025-03-20T00:16:00Z,Figueira Da Foz,Coimbra,Centro,-8.749227,40.16851
25112611,Salvaterra de Magos e Foros de Salvaterra,Lezíria do Tejo,311,2025-03-20T00:18:00Z,25112611,Em resolução,3301,Queda de árvore,0,0,0,0,2025-03-20T00:18:00Z,Salvaterra De Magos,Santarém,Alentejo,-8.791365,39.03049
25112628,"Sé Nova, Santa Cruz, Almedina e São Bartolomeu",Região de Coimbra,310,2025-03-20T00:10:00Z,25112628,Em despacho,3311,Queda de elementos de estruturas edificados,0,0,0,0,2025-03-20T00:10:00Z,Coimbra,Coimbra,Centro,-8.425582,40.205556
25112662,Setúbal (São Sebastião),Península de Setúbal,311,2025-03-20T00:27:00Z,25112662,Em curso,3329,Queda de estruturas temporárias ou móveis,0,0,0,0,2025-03-20T00:27:00Z,Setúbal,Setúbal,Área Metropolitana De Lisboa,-8.86899,38.52164
25112796,"S.julião, N.s. da Anunciada e S. Maria da Graça",Península de Setúbal,311,2025-03-20T00:42:00Z,25112796,Em curso,3311,Queda de elementos de estruturas edificados,0,0,0,0,2025-03-20T00:42:00Z,Setúbal,Setúbal,Área Metropolitana De Lisboa,-8.890614,38.52599
25112829,Bucelas,Grande Lisboa,311,2025-03-20T00:44:00Z,25112829,Em despacho,3301,Queda de árvore,0,1,0,4,2025-03-20T00:44:00Z,Loures,Lisboa,Área Metropolitana De Lisboa,-9.121038,38.903857
25112876,Corroios,Península de Setúbal,311,2025-03-20T00:52:00Z,25112876,Em curso,3301,Queda de árvore,0,0,0,0,2025-03-20T00:52:00Z,Seixal,Setúbal,Área Metropolitana De Lisboa,-9.157211,38.5818
25112944,Longueira/Almograve,Alentejo Litoral,312,2025-03-20T00:20:00Z,25112944,Em despacho,3301,Queda de árvore,0,4,0,9,2025-03-20T00:20:00Z,Odemira,Beja,Alentejo,-8.752532,37.635323
25113804,Aveiras de Baixo,Lezíria do Tejo,311,2025-03-20T02:27:00Z,25113804,Em curso,3301,Queda de árvore,0,0,0,0,2025-03-20T02:27:00Z,Azambuja,Lisboa,Alentejo,-8.869588,39.111989
25113807,Alvares,Região de Coimbra,310,2025-03-20T02:29:00Z,25113807,Em curso,3321,Dano na rede de fornecimento de eletricidade ,0,1,0,2,2025-03-20T02:29:00Z,Góis,Coimbra,Centro,-8.14939,40.01864
25113874,Ramada e Caneças,Grande Lisboa,311,2025-03-20T02:35:00Z,25113874,Em despacho,3321,Dano na rede de fornecimento de eletricidade ,0,0,0,0,2025-03-20T02:35:00Z,Odivelas,Lisboa,Área Metropolitana De Lisboa,-9.21026,38.82131
25113888,Odivelas,Grande Lisboa,311,2025-03-20T02:36:00Z,25113888,Em despacho,3311,Queda de elementos de estruturas edificados,0,0,0,0,2025-03-20T02:36:00Z,Odivelas,Lisboa,Área Metropolitana De Lisboa,-9.19047,38.79637
25113940,Salir,Algarve,313,2025-03-20T01:35:00Z,25113940,Em despacho,3301,Queda de árvore,0,0,0,0,2025-03-20T01:35:00Z,Loulé,Faro,Algarve,-7.962852,37.25746
25114056,Azeitão (São Lourenço e São Simão),Península de Setúbal,311,2025-03-20T02:51:00Z,25114056,Em curso,3321,Dano na rede de fornecimento de eletricidade ,0,0,0,0,2025-03-20T02:51:00Z,Setúbal,Setúbal,Área Metropolitana De Lisboa,-9.024796,38.53981
25114073,Pontével,Lezíria do Tejo,311,2025-03-20T02:52:00Z,25114073,Em conclusão,3301,Queda de árvore,0,0,0,0,2025-03-20T02:52:00Z,Cartaxo,Santarém,Alentejo,-8.819585,39.125572
25114074,Charneca de Caparica e Sobreda,Península de Setúbal,311,2025-03-20T02:52:00Z,25114074,Em curso,3301,Queda de árvore,0,0,0,0,2025-03-20T02:52:00Z,Almada,Setúbal,Área Metropolitana De Lisboa,-9.18666,38.59386
25114173,Benavente,Lezíria do Tejo,311,2025-03-20T03:00:00Z,25114173,Em conclusão,3301,Queda de árvore,0,0,0,0,2025-03-20T03:00:00Z,Benavente,Santarém,Alentejo,-8.804753,38.980872
25114222,"S.maria, S.miguel, S.martinho, S.pedro Penaferrim",Grande Lisboa,311,2025-03-20T03:05:00Z,25114222,Em despacho,3301,Queda de árvore,0,0,0,0,2025-03-20T03:05:00Z,Sintra,Lisboa,Área Metropolitana De Lisboa,-9.395193,38.762498
25112648,"S.julião, N.s. da Anunciada e S. Maria da Graça",Península de Setúbal,311,2025-03-20T00:25:00Z,25112648,Em curso,3321,Dano na rede de fornecimento de eletricidade ,0,0,0,0,2025-03-20T00:25:00Z,Setúbal,Setúbal,Área Metropolitana De Lisboa,-8.88305,38.53925
25112666,Azeitão (São Lourenço e São Simão),Península de Setúbal,311,2025-03-20T00:27:00Z,25112666,Em curso,3301,Queda de árvore,0,0,0,0,2025-03-20T00:27:00Z,Setúbal,Setúbal,Área Metropolitana De Lisboa,-9.01777,38.52527
25112675,Alhos Vedros,Península de Setúbal,311,2025-03-20T00:28:00Z,25112675,Em curso,3301,Queda de árvore,0,0,0,0,2025-03-20T00:28:00Z,Moita,Setúbal,Área Metropolitana De Lisboa,-9.010387,38.63902
25112680,Samora Correia,Lezíria do Tejo,311,2025-03-20T00:28:00Z,25112680,Em curso,3301,Queda de árvore,0,2,0,3,2025-03-20T00:28:00Z,Benavente,Santarém,Alentejo,-8.890675,38.921796
25112682,Gâmbia-Pontes-Alto da Guerra,Península de Setúbal,311,2025-03-20T00:29:00Z,25112682,Em curso,3301,Queda de árvore,0,0,0,0,2025-03-20T00:29:00Z,Setúbal,Setúbal,Área Metropolitana De Lisboa,-8.85317,38.54087
25112721,Quinta do Anjo,Península de Setúbal,311,2025-03-20T00:34:00Z,25112721,Em curso,3301,Queda de árvore,0,0,0,0,2025-03-20T00:34:00Z,Palmela,Setúbal,Área Metropolitana De Lisboa,-8.950333,38.56405
25112773,Poceirão e Marateca,Península de Setúbal,311,2025-03-20T00:40:00Z,25112773,Em curso,3301,Queda de árvore,0,0,0,0,2025-03-20T00:40:00Z,Palmela,Setúbal,Área Metropolitana De Lisboa,-8.76661,38.69349
25112814,"Marvila, Ribeira Santarém, S.salvador, S.nicolau",Lezíria do Tejo,311,2025-03-20T00:44:00Z,25112814,Em curso,3301,Queda de árvore,0,0,0,0,2025-03-20T00:44:00Z,Santarém,Santarém,Alentejo,-8.675088,39.23623
25112823,Samora Correia,Lezíria do Tejo,311,2025-03-20T00:46:00Z,25112823,Em despacho,3311,Queda de elementos de estruturas edificados,0,0,0,0,2025-03-20T00:46:00Z,Benavente,Santarém,Alentejo,-8.87181,38.90654
25113042,Oliveira do Hospital e São Paio de Gramaços,Região de Coimbra,310,2025-03-20T01:10:00Z,25113042,Em despacho,3329,Queda de estruturas temporárias ou móveis,0,1,0,2,2025-03-20T01:10:00Z,Oliveira Do Hospital,Coimbra,Centro,-7.849022,40.355133
25113047,Corroios,Península de Setúbal,311,2025-03-20T01:13:00Z,25113047,Em curso,3301,Queda de árvore,0,0,0,0,2025-03-20T01:13:00Z,Seixal,Setúbal,Área Metropolitana De Lisboa,-9.16166,38.61952
25113076,Cascais e Estoril,Grande Lisboa,311,2025-03-20T01:15:00Z,25113076,Em despacho,3311,Queda de elementos de estruturas edificados,0,0,0,0,2025-03-20T01:15:00Z,Cascais,Lisboa,Área Metropolitana De Lisboa,-9.40634,38.72382
25113090,"Alhandra, São João Dos Montes e Calhandriz",Grande Lisboa,311,2025-03-20T01:16:00Z,25113090,Em despacho,3301,Queda de árvore,0,0,0,0,2025-03-20T01:16:00Z,Vila Franca De Xira,Lisboa,Área Metropolitana De Lisboa,-9.02855,38.9405
25113101,Charneca de Caparica e Sobreda,Península de Setúbal,311,2025-03-20T01:18:00Z,25113101,Em curso,3301,Queda de árvore,0,0,0,0,2025-03-20T01:18:00Z,Almada,Setúbal,Área Metropolitana De Lisboa,-9.17264,38.5926
25113117,Charneca de Caparica e Sobreda,Península de Setúbal,311,2025-03-20T01:19:00Z,25113117,Em curso,3301,Queda de árvore,0,0,0,0,2025-03-20T01:19:00Z,Almada,Setúbal,Área Metropolitana De Lisboa,-9.18066,38.59207
25113124,Carnaxide e Queijas,Grande Lisboa,311,2025-03-20T01:20:00Z,25113124,Em despacho,3311,Queda de elementos de estruturas edificados,0,0,0,0,2025-03-20T01:20:00Z,Oeiras,Lisboa,Área Metropolitana De Lisboa,-9.24609,38.72263
25113126,Águas Livres,Grande Lisboa,311,2025-03-20T01:20:00Z,25113126,Em despacho,3311,Queda de elementos de estruturas edificados,0,0,0,0,2025-03-20T01:20:00Z,Amadora,Lisboa,Área Metropolitana De Lisboa,-9.20581,38.74231
25114240,Teixeira e Teixeiró,Tâmega e Sousa,309,2025-03-20T03:08:00Z,25114240,Em conclusão,3311,Queda de elementos de estruturas edificados,0,1,0,1,2025-03-20T03:08:00Z,Baião,Porto,Norte,-7.90901,41.18203
25114257,Cativelos,Beiras e Serra da Estrela,310,2025-03-20T03:09:00Z,25114257,Em despacho,3301,Queda de árvore,0,2,0,3,2025-03-20T03:09:00Z,Gouveia,Guarda,Centro,-7.694037,40.537404
25114289,Mondim de Basto,Ave,309,2025-03-20T03:00:00Z,25114289,Em despacho,3311,Queda de elementos de estruturas edificados,0,1,0,2,2025-03-20T03:00:00Z,Mondim De Basto,Vila Real,Norte,-7.948501,41.393019
25114389,Palhais e Coina,Península de Setúbal,311,2025-03-20T01:50:00Z,25114389,Em curso,3301,Queda de árvore,0,1,0,4,2025-03-20T01:50:00Z,Barreiro,Setúbal,Área Metropolitana De Lisboa,-9.043332,38.595522
25114390,São Martinho Das Amoreiras,Alentejo Litoral,312,2025-03-20T03:20:00Z,25114390,Em despacho,3301,Queda de árvore,0,1,0,1,2025-03-20T03:20:00Z,Odemira,Beja,Alentejo,-8.423175,37.653664
25114405,Mujães,Alto Minho,309,2025-03-20T03:24:00Z,25114405,Em curso,3311,Queda de elementos de estruturas edificados,0,1,0,2,2025-03-20T03:24:00Z,Viana Do Castelo,Viana Do Castelo,Norte,-8.708787,41.67049
25114408,Alcabideche,Grande Lisboa,311,2025-03-20T03:24:00Z,25114408,Em despacho,3301,Queda de árvore,0,1,0,5,2025-03-20T03:24:00Z,Cascais,Lisboa,Área Metropolitana De Lisboa,-9.41679,38.7148
25114424,Vila Nova de Tazem,Beiras e Serra da Estrela,310,2025-03-20T03:25:00Z,25114424,Em despacho,3301,Queda de árvore,0,1,0,2,2025-03-20T03:25:00Z,Gouveia,Guarda,Centro,-7.716662,40.505068
25114473,"Cedofeita, Ildefonso, Sé, Miragaia, Nicolau e Vitória",Area M. Porto,309,2025-03-20T03:19:00Z,25114473,Em despacho,3313,Deslizamento de terras,0,1,0,5,2025-03-20T03:19:00Z,Porto,Porto,Norte,-8.615939,41.15359
25114525,Malveira e São Miguel de Alcainça,Grande Lisboa,311,2025-03-20T03:36:00Z,25114525,Em despacho,3321,Dano na rede de fornecimento de eletricidade ,0,0,0,0,2025-03-20T03:36:00Z,Mafra,Lisboa,Área Metropolitana De Lisboa,-9.279616,38.92011
25114573,Quinta do Conde,Península de Setúbal,311,2025-03-20T03:41:00Z,25114573,Em curso,3301,Queda de árvore,0,0,0,0,2025-03-20T03:41:00Z,Sesimbra,Setúbal,Área Metropolitana De Lisboa,-9.041492,38.55076
25114591,Lordelo do Ouro e Massarelos,Area M. Porto,309,2025-03-20T03:42:00Z,25114591,Em curso,3301,Queda de árvore,0,1,0,3,2025-03-20T03:42:00Z,Porto,Porto,Norte,-8.634252,41.1503
25114592,Lamas e Cercal,Oeste,311,2025-03-20T03:31:00Z,25114592,Em despacho,3301,Queda de árvore,0,1,0,1,2025-03-20T03:31:00Z,Cadaval,Lisboa,Centro,-9.057162,39.221439
25114606,Albergaria-a-Velha e Valmaior,Região de Aveiro,310,2025-03-20T03:24:00Z,25114606,Em despacho,3321,Dano na rede de fornecimento de eletricidade ,0,1,0,2,2025-03-20T03:24:00Z,Albergaria-a-Velha,Aveiro,Centro,-8.510534,40.694302
25114642,Alvor,Algarve,313,2025-03-20T03:26:00Z,25114642,Em curso,3301,Queda de árvore,0,1,0,4,2025-03-20T03:26:00Z,Portimão,Faro,Algarve,-8.5944680000000009,37.131433
25114656,Guarda,Beiras e Serra da Estrela,310,2025-03-20T03:39:00Z,25114656,Em despacho,3301,Queda de árvore,0,2,0,3,2025-03-20T03:39:00Z,Guarda,Guarda,Centro,-7.260869,40.536751
25114673,Vilarinho Dos Freires,Douro,309,2025-03-20T03:44:00Z,25114673,Em despacho,3301,Queda de árvore,0,3,0,6,2025-03-20T03:44:00Z,Peso Da Régua,Vila Real,Norte,-7.748211,41.175132
25114691,Mafra,Grande Lisboa,311,2025-03-20T03:53:00Z,25114691,Em despacho,3321,Dano na rede de fornecimento de eletricidade ,0,0,0,0,2025-03-20T03:53:00Z,Mafra,Lisboa,Área Metropolitana De Lisboa,-9.34026,38.9585
25114708,Cascais e Estoril,Grande Lisboa,311,2025-03-20T03:55:00Z,25114708,Em despacho,3301,Queda de árvore,0,0,0,0,2025-03-20T03:55:00Z,Cascais,Lisboa,Área Metropolitana De Lisboa,-9.43077,38.70064
25114725,Maxial e Monte Redondo,Oeste,311,2025-03-20T03:57:00Z,25114725,Em despacho,3301,Queda de árvore,0,0,0,0,2025-03-20T03:57:00Z,Torres Vedras,Lisboa,Centro,-9.18331,39.139305
25114740,Vila Verde e Barbudo,Cávado,309,2025-03-20T03:58:00Z,25114740,Em despacho,3311,Queda de elementos de estruturas edificados,0,0,0,0,2025-03-20T03:58:00Z,Vila Verde,Braga,Norte,-8.42563,41.64321
25114756,Alverca da Beira/Bouça Cova,Beiras e Serra da Estrela,310,2025-03-20T03:59:00Z,25114756,Em resolução,3311,Queda de elementos de estruturas edificados,0,2,0,5,2025-03-20T03:59:00Z,Pinhel,Guarda,Centro,-7.21422,40.70339
25114759,São João Das Lampas e Terrugem,Grande Lisboa,311,2025-03-20T02:33:00Z,25114759,Em despacho,3301,Queda de árvore,0,0,0,0,2025-03-20T02:33:00Z,Sintra,Lisboa,Área Metropolitana De Lisboa,-9.394403,38.872548
25114809,Vilas Boas e Vilarinho Das Azenhas,Terras de Trás-os-Montes,309,2025-03-20T04:05:00Z,25114809,Em despacho,3301,Queda de árvore,0,2,0,4,2025-03-20T04:05:00Z,Vila Flor,Bragança,Norte,-7.17078,41.3535
25114874,"O. Azeméis, Riba-Ul, Ul, Macinhata Seixa, Madail",Area M. Porto,309,2025-03-20T03:15:00Z,25114874,Em despacho,3321,Dano na rede de fornecimento de eletricidade ,0,1,0,2,2025-03-20T03:15:00Z,Oliveira De Azeméis,Aveiro,Norte,-8.482939,40.836334
25114876,Paranhos,Area M. Porto,309,2025-03-20T04:11:00Z,25114876,Em despacho,3311,Queda de elementos de estruturas edificados,0,1,0,5,2025-03-20T04:11:00Z,Porto,Porto,Norte,-8.61155,41.16627
25114924,Roliça,Oeste,311,2025-03-20T04:16:00Z,25114924,Em despacho,3301,Queda de árvore,0,0,0,0,2025-03-20T04:16:00Z,Bombarral,Leiria,Centro,-9.18013,39.28817
25114927,"São Miguel, Santa Eufémia e Rabaçal",Região de Coimbra,310,2025-03-20T04:15:00Z,25114927,Em despacho,3301,Queda de árvore,0,1,0,1,2025-03-20T04:15:00Z,Penela,Coimbra,Centro,-8.373242,40.019255
25114942,Atei,Ave,309,2025-03-20T04:18:00Z,25114942,Em despacho,3301,Queda de árvore,0,1,0,2,2025-03-20T04:18:00Z,Mondim De Basto,Vila Real,Norte,-7.917657,41.451786
25114957,"Tavares (Chãs, Várzea e Travanca)",Viseu Dão Lafões,310,2025-03-20T04:19:00Z,25114957,Em curso,3301,Queda de árvore,0,3,0,8,2025-03-20T04:19:00Z,Mangualde,Viseu,Centro,-7.614291,40.623523
25114959,São Cipriano e Vil de Souto,Viseu Dão Lafões,310,2025-03-20T03:38:00Z,25114959,Em despacho,3301,Queda de árvore,0,1,0,2,2025-03-20T03:38:00Z,Viseu,Viseu,Centro,-7.98885,40.664217
25114960,Castelo Novo,Beiras e Serra da Estrela,310,2025-03-20T04:01:00Z,25114960,Em despacho,3301,Queda de árvore,0,2,0,5,2025-03-20T04:01:00Z,Fundão,Castelo Branco,Centro,-7.475218,40.126525
25114975,Caparica e Trafaria,Península de Setúbal,311,2025-03-20T04:22:00Z,25114975,Em curso,3329,Queda de estruturas temporárias ou móveis,0,0,0,0,2025-03-20T04:22:00Z,Almada,Setúbal,Área Metropolitana De Lisboa,-9.19896,38.66243
25114990,Alcanede,Lezíria do Tejo,311,2025-03-20T04:24:00Z,25114990,Em conclusão,3301,Queda de árvore,0,0,0,0,2025-03-20T04:24:00Z,Santarém,Santarém,Alentejo,-8.769388,39.400825
25115008,Fornos de Maceira Dão,Viseu Dão Lafões,310,2025-03-20T04:10:00Z,25115008,Em despacho,3301,Queda de árvore,0,1,0,3,2025-03-20T04:10:00Z,Mangualde,Viseu,Centro,-7.812816,40.628745
25115060,São Paio,Beiras e Serra da Estrela,310,2025-03-20T04:03:00Z,25115060,Em despacho,3301,Queda de árvore,0,2,0,4,2025-03-20T04:03:00Z,Gouveia,Guarda,Centro,-7.578576,40.511694
25115075,Loulé (São Sebastião),Algarve,313,2025-03-20T03:48:00Z,25115075,Em despacho,3301,Queda de árvore,0,1,0,5,2025-03-20T03:48:00Z,Loulé,Faro,Algarve,-8.054253,37.165649
25115076,Biscainho,Lezíria do Tejo,311,2025-03-20T04:36:00Z,25115076,Em resolução,3301,Queda de árvore,0,0,0,0,2025-03-20T04:36:00Z,Coruche,Santarém,Alentejo,-8.535927,38.953887
25115090,Castêlo da Maia,Area M. Porto,309,2025-03-20T04:38:00Z,25115090,Em despacho,3311,Queda de elementos de estruturas edificados,0,1,0,5,2025-03-20T04:38:00Z,Maia,Porto,Norte,-8.60997,41.26863
25113010,"Seia, São Romão e Lapa Dos Dinheiros",Beiras e Serra da Estrela,310,2025-03-20T00:40:00Z,25113010,Em curso,3311,Queda de elementos de estruturas edificados,0,0,0,0,2025-03-20T00:40:00Z,Seia,Guarda,Centro,-7.706579,40.420381
25113011,Cascais e Estoril,Grande Lisboa,311,2025-03-20T01:09:00Z,25113011,Em despacho,3301,Queda de árvore,0,0,0,0,2025-03-20T01:09:00Z,Cascais,Lisboa,Área Metropolitana De Lisboa,-9.398759,38.70391
25113012,Cacém e São Marcos,Grande Lisboa,311,2025-03-20T01:09:00Z,25113012,Em despacho,3311,Queda de elementos de estruturas edificados,0,0,0,0,2025-03-20T01:09:00Z,Sintra,Lisboa,Área Metropolitana De Lisboa,-9.3115,38.76819
25113026,Cascais e Estoril,Grande Lisboa,311,2025-03-20T01:11:00Z,25113026,Em despacho,3311,Queda de elementos de estruturas edificados,0,0,0,0,2025-03-20T01:11:00Z,Cascais,Lisboa,Área Metropolitana De Lisboa,-9.43197,38.69844
25113078,"Santa Iria de Azoia, São João da Talha e Bobadela",Grande Lisboa,311,2025-03-20T01:15:00Z,25113078,Em despacho,3311,Queda de elementos de estruturas edificados,0,0,0,0,2025-03-20T01:15:00Z,Loures,Lisboa,Área Metropolitana De Lisboa,-9.097366,38.83854
25113095,Amora,Península de Setúbal,311,2025-03-20T01:17:00Z,25113095,Em curso,3311,Queda de elementos de estruturas edificados,0,0,0,0,2025-03-20T01:17:00Z,Seixal,Setúbal,Área Metropolitana De Lisboa,-9.124338,38.61855
25113145,"Coruche, Fajarda e Erra",Lezíria do Tejo,311,2025-03-20T01:21:00Z,25113145,Em curso,3311,Queda de elementos de estruturas edificados,0,0,0,0,2025-03-20T01:21:00Z,Coruche,Santarém,Alentejo,-8.602737,38.971954
25113160,Corroios,Península de Setúbal,311,2025-03-20T01:24:00Z,25113160,Em curso,3311,Queda de elementos de estruturas edificados,0,0,0,0,2025-03-20T01:24:00Z,Seixal,Setúbal,Área Metropolitana De Lisboa,-9.14678,38.62745
25115125,Cárquere,Tâmega e Sousa,309,2025-03-20T04:39:00Z,25115125,Em despacho,3301,Queda de árvore,0,1,0,2,2025-03-20T04:39:00Z,Resende,Viseu,Norte,-7.956988,41.089197
25115141,"Braga (Maximinos, Sé e Cividade)",Cávado,309,2025-03-20T04:44:00Z,25115141,Em despacho,3311,Queda de elementos de estruturas edificados,0,0,0,0,2025-03-20T04:44:00Z,Braga,Braga,Norte,-8.43188,41.54989
25115157,Nelas,Viseu Dão Lafões,310,2025-03-20T04:46:00Z,25115157,Em despacho,3301,Queda de árvore,0,1,0,2,2025-03-20T04:46:00Z,Nelas,Viseu,Centro,-7.855738,40.520916
25115159,Vila Franca de Xira,Grande Lisboa,311,2025-03-20T03:56:00Z,25115159,Em curso,3301,Queda de árvore,0,1,0,2,2025-03-20T03:56:00Z,Vila Franca De Xira,Lisboa,Área Metropolitana De Lisboa,-9.011273,38.953274
25115175,Teixoso e Sarzedo,Beiras e Serra da Estrela,310,2025-03-20T04:35:00Z,25115175,Em curso,3301,Queda de árvore,0,0,0,0,2025-03-20T04:35:00Z,Covilhã,Castelo Branco,Centro,-7.455476,40.315622
25115191,"Canedo, Vale e Vila Maior",Area M. Porto,309,2025-03-20T04:35:00Z,25115191,Em despacho,3301,Queda de árvore,0,1,0,2,2025-03-20T04:35:00Z,Santa Maria Da Feira,Aveiro,Norte,-8.448673,41.011004
25115193,Pampilhosa da Serra,Região de Coimbra,310,2025-03-20T04:53:00Z,25115193,Em despacho,3301,Queda de árvore,0,1,0,3,2025-03-20T04:53:00Z,Pampilhosa Da Serra,Coimbra,Centro,-7.901101,40.043592
25115194,Alcochete,Península de Setúbal,311,2025-03-20T04:38:00Z,25115194,Em curso,3301,Queda de árvore,0,1,0,4,2025-03-20T04:38:00Z,Alcochete,Setúbal,Área Metropolitana De Lisboa,-8.962464,38.749259
25115208,São Miguel do Souto e Mosteirô,Area M. Porto,309,2025-03-20T04:47:00Z,25115208,Em despacho,3329,Queda de estruturas temporárias ou móveis,0,1,0,2,2025-03-20T04:47:00Z,Santa Maria Da Feira,Aveiro,Norte,-8.549941,40.892271
25115209,"Esposende, Marinhas e Gandra",Cávado,309,2025-03-20T04:25:00Z,25115209,Em despacho,3311,Queda de elementos de estruturas edificados,0,2,0,7,2025-03-20T04:25:00Z,Esposende,Braga,Norte,-8.77323,41.541808
25115210,São João da Madeira,Area M. Porto,309,2025-03-20T04:48:00Z,25115210,Em curso,3301,Queda de árvore,0,1,0,2,2025-03-20T04:48:00Z,São João Da Madeira,Aveiro,Norte,-8.490365,40.895632
25115225,Cinfães,Tâmega e Sousa,309,2025-03-20T04:16:00Z,25115225,Em despacho,3301,Queda de árvore,0,1,0,3,2025-03-20T04:16:00Z,Cinfães,Viseu,Norte,-8.077207,41.074009
25115260,Casével e Vaqueiros,Lezíria do Tejo,311,2025-03-20T05:01:00Z,25115260,Em conclusão,3301,Queda de árvore,0,0,0,0,2025-03-20T05:01:00Z,Santarém,Santarém,Alentejo,-8.613992,39.370617
25115277,Mafamude e Vilar do Paraíso,Area M. Porto,309,2025-03-20T05:05:00Z,25115277,Em despacho,3311,Queda de elementos de estruturas edificados,0,1,0,2,2025-03-20T05:05:00Z,Vila Nova De Gaia,Porto,Norte,-8.60908,41.12638
25115310,"S.maria, S.miguel, S.martinho, S.pedro Penaferrim",Grande Lisboa,311,2025-03-20T05:08:00Z,25115310,Em despacho,3321,Dano na rede de fornecimento de eletricidade ,0,1,0,1,2025-03-20T05:08:00Z,Sintra,Lisboa,Área Metropolitana De Lisboa,-9.356011,38.81908
25115311,Colmeias e Memória,Região de Leiria,310,2025-03-20T05:09:00Z,25115311,Em despacho,3301,Queda de árvore,0,1,0,5,2025-03-20T05:09:00Z,Leiria,Leiria,Centro,-8.70875,39.800121
25115326,Eixo e Eirol,Região de Aveiro,310,2025-03-20T05:10:00Z,25115326,Em despacho,3301,Queda de árvore,0,0,0,0,2025-03-20T05:10:00Z,Aveiro,Aveiro,Centro,-8.539589,40.608655
25115358,"Nossa Senhora do Pópulo, Coto e São Gregório",Oeste,311,2025-03-20T05:13:00Z,25115358,Em despacho,3301,Queda de árvore,0,1,0,5,2025-03-20T05:13:00Z,Caldas Da Rainha,Leiria,Centro,-9.106294,39.424595
25115361,Ota,Oeste,311,2025-03-20T05:05:00Z,25115361,Em despacho,3301,Queda de árvore,0,4,0,11,2025-03-20T05:05:00Z,Alenquer,Lisboa,Centro,-8.990371,39.111378
25115376,Penedono e Granja,Douro,309,2025-03-20T05:15:00Z,25115376,Em despacho,3301,Queda de árvore,0,1,0,2,2025-03-20T05:15:00Z,Penedono,Viseu,Norte,-7.392822,40.98611
25115393,Vilar Seco,Viseu Dão Lafões,310,2025-03-20T05:15:00Z,25115393,Em resolução,3301,Queda de árvore,0,1,0,4,2025-03-20T05:15:00Z,Nelas,Viseu,Centro,-7.84514,40.56124
25115394,Branca,Lezíria do Tejo,311,2025-03-20T05:19:00Z,25115394,Em curso,3301,Queda de árvore,0,0,0,0,2025-03-20T05:19:00Z,Coruche,Santarém,Alentejo,-8.586492,38.879952
25115428,Lustosa e Barrosas (Santo Estêvão),Tâmega e Sousa,309,2025-03-20T04:50:00Z,25115428,Em despacho,3301,Queda de árvore,0,1,0,2,2025-03-20T04:50:00Z,Lousada,Porto,Norte,-8.27529,41.332354
25115442,Caria,Douro,309,2025-03-20T05:13:00Z,25115442,Em despacho,3301,Queda de árvore,0,2,0,4,2025-03-20T05:13:00Z,Moimenta Da Beira,Viseu,Norte,-7.604765,40.932346
25115461,Santa Ovaia e Vila Pouca da Beira,Região de Coimbra,310,2025-03-20T05:19:00Z,25115461,Em despacho,3301,Queda de árvore,0,2,0,5,2025-03-20T05:19:00Z,Oliveira Do Hospital,Coimbra,Centro,-7.919023,40.308398
25115475,Povolide,Viseu Dão Lafões,310,2025-03-20T05:26:00Z,25115475,Em despacho,3301,Queda de árvore,0,0,0,0,2025-03-20T05:26:00Z,Viseu,Viseu,Centro,-7.775885,40.683568
25115477,Usseira,Oeste,311,2025-03-20T05:20:00Z,25115477,Em despacho,3301,Queda de árvore,0,1,0,5,2025-03-20T05:20:00Z,Óbidos,Leiria,Centro,-9.162999,39.332237
25115492,Carregosa,Area M. Porto,309,2025-03-20T05:32:00Z,25115492,Em despacho,3301,Queda de árvore,0,1,0,2,2025-03-20T05:32:00Z,Oliveira De Azeméis,Aveiro,Norte,-8.41506,40.87361
25115493,Gáfete,Alto Alentejo,312,2025-03-20T05:20:00Z,25115493,Em despacho,3301,Queda de árvore,0,2,0,6,2025-03-20T05:20:00Z,Crato,Portalegre,Alentejo,-7.681551,39.393491
25115509,"Ovar, São João, Arada e São Vicente de Pereira Jusã",Região de Aveiro,310,2025-03-20T05:26:00Z,25115509,Em despacho,3311,Queda de elementos de estruturas edificados,0,1,0,5,2025-03-20T05:26:00Z,Ovar,Aveiro,Centro,-8.632482,40.864029
25115525,Monchique,Algarve,313,2025-03-20T01:34:00Z,25115525,Em despacho,3301,Queda de árvore,0,2,0,4,2025-03-20T01:34:00Z,Monchique,Faro,Algarve,-8.559479,37.312673
25115526,Outeiro Seco,Alto Tâmega e Barroso,309,2025-03-20T05:33:00Z,25115526,Em despacho,3301,Queda de árvore,0,1,0,5,2025-03-20T05:33:00Z,Chaves,Vila Real,Norte,-7.445173,41.775173
25115558,"Valença, Cristelo Covo e Arão",Alto Minho,309,2025-03-20T05:35:00Z,25115558,Em despacho,3301,Queda de árvore,0,1,0,2,2025-03-20T05:35:00Z,Valença,Viana Do Castelo,Norte,-8.644383,42.018188
25115559,Canelas e Espiunca,Area M. Porto,309,2025-03-20T05:30:00Z,25115559,Em despacho,3301,Queda de árvore,0,1,0,2,2025-03-20T05:30:00Z,Arouca,Aveiro,Norte,-8.212231,40.969918
25115562,"São Miguel, Santa Eufémia e Rabaçal",Região de Coimbra,310,2025-03-20T05:35:00Z,25115562,Em despacho,3301,Queda de árvore,0,1,0,2,2025-03-20T05:35:00Z,Penela,Coimbra,Centro,-8.385008,40.033639
25115576,Sobreiro de Baixo e Alvaredos,Terras de Trás-os-Montes,309,2025-03-20T05:43:00Z,25115576,Em despacho,3301,Queda de árvore,0,0,0,0,2025-03-20T05:43:00Z,Vinhais,Bragança,Norte,-7.054317,41.84488
25115592,"Belazaima do Chão, Castanheira do Vouga e Agadão",Região de Aveiro,310,2025-03-20T05:35:00Z,25115592,Em despacho,3301,Queda de árvore,0,1,0,2,2025-03-20T05:35:00Z,Águeda,Aveiro,Centro,-8.314908,40.542591
25115593,São João da Madeira,Area M. Porto,309,2025-03-20T05:32:00Z,25115593,Em despacho,3301,Queda de árvore,0,1,0,2,2025-03-20T05:32:00Z,São João Da Madeira,Aveiro,Norte,-8.490365,40.895632
25112850,Samora Correia,Lezíria do Tejo,311,2025-03-20T00:49:00Z,25112850,Em despacho,3309,Desabamento de estruturas edificadas,0,0,0,0,2025-03-20T00:49:00Z,Benavente,Santarém,Alentejo,-8.844734,38.92736
25112875,Palmela,Península de Setúbal,311,2025-03-20T00:52:00Z,25112875,Em curso,3321,Dano na rede de fornecimento de eletricidade ,0,0,0,0,2025-03-20T00:52:00Z,Palmela,Setúbal,Área Metropolitana De Lisboa,-8.87707,38.60478
25112900,Queluz e Belas,Grande Lisboa,311,2025-03-20T00:50:00Z,25112900,Em despacho,3301,Queda de árvore,0,1,0,4,2025-03-20T00:50:00Z,Sintra,Lisboa,Área Metropolitana De Lisboa,-9.270072,38.779997
25112982,Moscavide e Portela,Grande Lisboa,311,2025-03-20T00:51:00Z,25112982,Em despacho,3301,Queda de árvore,0,1,0,4,2025-03-20T00:51:00Z,Loures,Lisboa,Área Metropolitana De Lisboa,-9.114803,38.78591
25112984,"Oeiras e S. Julião da Barra, Paço de Arcos e Caxias",Grande Lisboa,311,2025-03-20T01:06:00Z,25112984,Em despacho,3311,Queda de elementos de estruturas edificados,0,0,0,0,2025-03-20T01:06:00Z,Oeiras,Lisboa,Área Metropolitana De Lisboa,-9.303858,38.70432
25112998,Charneca de Caparica e Sobreda,Península de Setúbal,311,2025-03-20T01:07:00Z,25112998,Em curso,3309,Desabamento de estruturas edificadas,0,0,0,0,2025-03-20T01:07:00Z,Almada,Setúbal,Área Metropolitana De Lisboa,-9.19436,38.64644
25113023,Póvoa de Santa Iria e Forte da Casa,Grande Lisboa,311,2025-03-20T01:10:00Z,25113023,Em despacho,3329,Queda de estruturas temporárias ou móveis,0,0,0,0,2025-03-20T01:10:00Z,Vila Franca De Xira,Lisboa,Área Metropolitana De Lisboa,-9.055658,38.87217
25113041,Alcabideche,Grande Lisboa,311,2025-03-20T01:12:00Z,25113041,Em despacho,3311,Queda de elementos de estruturas edificados,0,0,0,0,2025-03-20T01:12:00Z,Cascais,Lisboa,Área Metropolitana De Lisboa,-9.422703,38.72363
25113140,"Almada, Cova da Piedade, Pragal e Cacilhas",Península de Setúbal,311,2025-03-20T01:21:00Z,25113140,Em curso,3311,Queda de elementos de estruturas edificados,0,0,0,0,2025-03-20T01:21:00Z,Almada,Setúbal,Área Metropolitana De Lisboa,-9.16207,38.6795
25113156,Baixa da Banheira e Vale da Amoreira,Península de Setúbal,311,2025-03-20T01:23:00Z,25113156,Em curso,3311,Queda de elementos de estruturas edificados,0,0,0,0,2025-03-20T01:23:00Z,Moita,Setúbal,Área Metropolitana De Lisboa,-9.04162,38.65316
25113158,Santo Antão e São Julião do Tojal,Grande Lisboa,311,2025-03-20T01:23:00Z,25113158,Em despacho,3329,Queda de estruturas temporárias ou móveis,0,0,0,0,2025-03-20T01:23:00Z,Loures,Lisboa,Área Metropolitana De Lisboa,-9.122308,38.86943
25113215,Charneca de Caparica e Sobreda,Península de Setúbal,311,2025-03-20T01:29:00Z,25113215,Em curso,3301,Queda de árvore,0,0,0,0,2025-03-20T01:29:00Z,Almada,Setúbal,Área Metropolitana De Lisboa,-9.16891,38.57109
25113226,Barcarena,Grande Lisboa,311,2025-03-20T01:21:00Z,25113226,Em despacho,3301,Queda de árvore,0,1,0,2,2025-03-20T01:21:00Z,Oeiras,Lisboa,Área Metropolitana De Lisboa,-9.277392,38.733987
25113256,"Almada, Cova da Piedade, Pragal e Cacilhas",Península de Setúbal,311,2025-03-20T01:33:00Z,25113256,Em curso,3321,Dano na rede de fornecimento de eletricidade ,0,0,0,0,2025-03-20T01:33:00Z,Almada,Setúbal,Área Metropolitana De Lisboa,-9.16659,38.67428
25113281,"Almargem do Bispo, Pêro Pinheiro e Montelavar",Grande Lisboa,311,2025-03-20T01:36:00Z,25113281,Em despacho,3311,Queda de elementos de estruturas edificados,0,0,0,0,2025-03-20T01:36:00Z,Sintra,Lisboa,Área Metropolitana De Lisboa,-9.286858,38.81957
25113162,São Domingos de Rana,Grande Lisboa,311,2025-03-20T01:24:00Z,25113162,Em despacho,3301,Queda de árvore,0,0,0,0,2025-03-20T01:24:00Z,Cascais,Lisboa,Área Metropolitana De Lisboa,-9.3553,38.70397
25113163,São Domingos de Rana,Grande Lisboa,311,2025-03-20T01:18:00Z,25113163,Em despacho,3311,Queda de elementos de estruturas edificados,0,0,0,0,2025-03-20T01:18:00Z,Cascais,Lisboa,Área Metropolitana De Lisboa,-9.341509,38.701875
25113177,Amora,Península de Setúbal,311,2025-03-20T01:25:00Z,25113177,Em curso,3311,Queda de elementos de estruturas edificados,0,0,0,0,2025-03-20T01:25:00Z,Seixal,Setúbal,Área Metropolitana De Lisboa,-9.11848,38.61897
25113180,Pena Verde,Viseu Dão Lafões,310,2025-03-20T01:01:00Z,25113180,Em despacho,3301,Queda de árvore,0,1,0,3,2025-03-20T01:01:00Z,Aguiar Da Beira,Guarda,Centro,-7.504589,40.727437
25113194,Alverca do Ribatejo e Sobralinho,Grande Lisboa,311,2025-03-20T01:27:00Z,25113194,Em despacho,3311,Queda de elementos de estruturas edificados,0,0,0,0,2025-03-20T01:27:00Z,Vila Franca De Xira,Lisboa,Área Metropolitana De Lisboa,-9.0484000000000009,38.90376
25113213,Santa Maria Maior,Grande Lisboa,311,2025-03-20T01:25:00Z,25113213,Em despacho,3329,Queda de estruturas temporárias ou móveis,0,1,0,2,2025-03-20T01:25:00Z,Lisboa,Lisboa,Área Metropolitana De Lisboa,-9.13452,38.714581
25113227,Charneca de Caparica e Sobreda,Península de Setúbal,311,2025-03-20T01:31:00Z,25113227,Em curso,3301,Queda de árvore,0,0,0,0,2025-03-20T01:31:00Z,Almada,Setúbal,Área Metropolitana De Lisboa,-9.176084,38.58879
25113229,Charneca de Caparica e Sobreda,Península de Setúbal,311,2025-03-20T01:31:00Z,25113229,Em curso,3301,Queda de árvore,0,0,0,0,2025-03-20T01:31:00Z,Almada,Setúbal,Área Metropolitana De Lisboa,-9.182356,38.58913
25113246,Mafra,Grande Lisboa,311,2025-03-20T01:22:00Z,25113246,Em despacho,3301,Queda de árvore,0,1,0,5,2025-03-20T01:22:00Z,Mafra,Lisboa,Área Metropolitana De Lisboa,-9.3779419999999991,38.960847
25113064,"Alhandra, São João Dos Montes e Calhandriz",Grande Lisboa,311,2025-03-20T01:14:00Z,25113064,Em despacho,3301,Queda de árvore,0,0,0,0,2025-03-20T01:14:00Z,Vila Franca De Xira,Lisboa,Área Metropolitana De Lisboa,-9.03587,38.95457
25113073,Corroios,Península de Setúbal,311,2025-03-20T01:15:00Z,25113073,Em curso,3329,Queda de estruturas temporárias ou móveis,0,0,0,0,2025-03-20T01:15:00Z,Seixal,Setúbal,Área Metropolitana De Lisboa,-9.15315,38.64089
25113089,"Almargem do Bispo, Pêro Pinheiro e Montelavar",Grande Lisboa,311,2025-03-20T01:16:00Z,25113089,Em despacho,3311,Queda de elementos de estruturas edificados,0,0,0,0,2025-03-20T01:16:00Z,Sintra,Lisboa,Área Metropolitana De Lisboa,-9.24059,38.80967
25113100,Sesimbra (Castelo),Península de Setúbal,311,2025-03-20T01:17:00Z,25113100,Em curso,3311,Queda de elementos de estruturas edificados,0,0,0,0,2025-03-20T01:17:00Z,Sesimbra,Setúbal,Área Metropolitana De Lisboa,-9.17306,38.47686
25113107,Charneca de Caparica e Sobreda,Península de Setúbal,311,2025-03-20T01:18:00Z,25113107,Em curso,3301,Queda de árvore,0,0,0,0,2025-03-20T01:18:00Z,Almada,Setúbal,Área Metropolitana De Lisboa,-9.177058,38.60883
25113114,Alpiarça,Lezíria do Tejo,311,2025-03-20T01:15:00Z,25113114,Em despacho,3301,Queda de árvore,0,0,0,0,2025-03-20T01:15:00Z,Alpiarça,Santarém,Alentejo,-8.595402,39.262022
25113125,Alverca do Ribatejo e Sobralinho,Grande Lisboa,311,2025-03-20T01:20:00Z,25113125,Em despacho,3311,Queda de elementos de estruturas edificados,0,0,0,0,2025-03-20T01:20:00Z,Vila Franca De Xira,Lisboa,Área Metropolitana De Lisboa,-9.03425,38.91567
25113148,Soure,Região de Coimbra,310,2025-03-20T00:46:00Z,25113148,Em despacho,3301,Queda de árvore,0,1,0,2,2025-03-20T00:46:00Z,Soure,Coimbra,Centro,-8.613421,40.026611
25113285,Branca,Lezíria do Tejo,311,2025-03-20T01:35:00Z,25113285,Em curso,3311,Queda de elementos de estruturas edificados,0,0,0,0,2025-03-20T01:35:00Z,Coruche,Santarém,Alentejo,-8.599754,38.869277
25113292,Charneca de Caparica e Sobreda,Península de Setúbal,311,2025-03-20T01:37:00Z,25113292,Em curso,3301,Queda de árvore,0,0,0,0,2025-03-20T01:37:00Z,Almada,Setúbal,Área Metropolitana De Lisboa,-9.18076,38.56634
25113308,"Seixal, Arrentela e Aldeia de Paio Pires",Península de Setúbal,311,2025-03-20T01:38:00Z,25113308,Em curso,3311,Queda de elementos de estruturas edificados,0,0,0,0,2025-03-20T01:38:00Z,Seixal,Setúbal,Área Metropolitana De Lisboa,-9.0728,38.58636
25113315,Beja (Santiago Maior e São João Baptista),Baixo Alentejo,312,2025-03-20T01:09:00Z,25113315,Em despacho,3301,Queda de árvore,0,1,0,2,2025-03-20T01:09:00Z,Beja,Beja,Alentejo,-7.87003,38.014111
25113331,Almoster,Lezíria do Tejo,311,2025-03-20T01:41:00Z,25113331,Em conclusão,3311,Queda de elementos de estruturas edificados,0,0,0,0,2025-03-20T01:41:00Z,Santarém,Santarém,Alentejo,-8.867038,39.241897
25113333,Mina de Água,Grande Lisboa,311,2025-03-20T01:41:00Z,25113333,Em despacho,3311,Queda de elementos de estruturas edificados,0,0,0,0,2025-03-20T01:41:00Z,Amadora,Lisboa,Área Metropolitana De Lisboa,-9.24209,38.77874
25113358,Vale de Cavalos,Lezíria do Tejo,311,2025-03-20T01:42:00Z,25113358,Em conclusão,3301,Queda de árvore,0,0,0,0,2025-03-20T01:42:00Z,Chamusca,Santarém,Alentejo,-8.516783,39.292933
25113367,Charneca de Caparica e Sobreda,Península de Setúbal,311,2025-03-20T01:45:00Z,25113367,Em curso,3301,Queda de árvore,0,0,0,0,2025-03-20T01:45:00Z,Almada,Setúbal,Área Metropolitana De Lisboa,-9.17951,38.59582
25113376,"Santa Iria de Azoia, São João da Talha e Bobadela",Grande Lisboa,311,2025-03-20T01:45:00Z,25113376,Em despacho,3311,Queda de elementos de estruturas edificados,0,0,0,0,2025-03-20T01:45:00Z,Loures,Lisboa,Área Metropolitana De Lisboa,-9.098026,38.83377
25113294,Algueirão-Mem Martins,Grande Lisboa,311,2025-03-20T01:37:00Z,25113294,Em despacho,3311,Queda de elementos de estruturas edificados,0,0,0,0,2025-03-20T01:37:00Z,Sintra,Lisboa,Área Metropolitana De Lisboa,-9.324166,38.79472
25113312,"Santa Iria de Azoia, São João da Talha e Bobadela",Grande Lisboa,311,2025-03-20T01:39:00Z,25113312,Em despacho,3311,Queda de elementos de estruturas edificados,0,1,0,4,2025-03-20T01:39:00Z,Loures,Lisboa,Área Metropolitana De Lisboa,-9.102797,38.83672
25113313,Alverca do Ribatejo e Sobralinho,Grande Lisboa,311,2025-03-20T01:39:00Z,25113313,Em despacho,3311,Queda de elementos de estruturas edificados,0,0,0,0,2025-03-20T01:39:00Z,Vila Franca De Xira,Lisboa,Área Metropolitana De Lisboa,-9.05384,38.90527
25113329,Falagueira-Venda Nova,Grande Lisboa,311,2025-03-20T01:40:00Z,25113329,Em despacho,3301,Queda de árvore,0,0,0,0,2025-03-20T01:40:00Z,Amadora,Lisboa,Área Metropolitana De Lisboa,-9.223747,38.760622
25113330,Cascais e Estoril,Grande Lisboa,311,2025-03-20T01:40:00Z,25113330,Em despacho,3301,Queda de árvore,0,0,0,0,2025-03-20T01:40:00Z,Cascais,Lisboa,Área Metropolitana De Lisboa,-9.398759,38.70391
25113346,Soure,Região de Coimbra,310,2025-03-20T01:42:00Z,25113346,Em despacho,3301,Queda de árvore,0,1,0,2,2025-03-20T01:42:00Z,Soure,Coimbra,Centro,-8.639406,40.055319
25113361,Ventosa,Oeste,311,2025-03-20T01:32:00Z,25113361,Em curso,3301,Queda de árvore,0,4,0,7,2025-03-20T01:32:00Z,Alenquer,Lisboa,Centro,-9.09504,39.112146
25113430,Charneca de Caparica e Sobreda,Península de Setúbal,311,2025-03-20T01:50:00Z,25113430,Em curso,3301,Queda de árvore,0,0,0,0,2025-03-20T01:50:00Z,Almada,Setúbal,Área Metropolitana De Lisboa,-9.1789,38.60783
25113444,Carnota,Oeste,311,2025-03-20T01:40:00Z,25113444,Em despacho,3311,Queda de elementos de estruturas edificados,0,1,0,4,2025-03-20T01:40:00Z,Alenquer,Lisboa,Centro,-9.046712,39.040476
25113173,Charneca de Caparica e Sobreda,Península de Setúbal,311,2025-03-20T01:25:00Z,25113173,Em curso,3301,Queda de árvore,0,0,0,0,2025-03-20T01:25:00Z,Almada,Setúbal,Área Metropolitana De Lisboa,-9.18059,38.59585
25113198,Charneca de Caparica e Sobreda,Península de Setúbal,311,2025-03-20T01:27:00Z,25113198,Em curso,3301,Queda de árvore,0,0,0,0,2025-03-20T01:27:00Z,Almada,Setúbal,Área Metropolitana De Lisboa,-9.18368,38.58977
25113200,Ericeira,Grande Lisboa,311,2025-03-20T01:15:00Z,25113200,Em despacho,3329,Queda de estruturas temporárias ou móveis,0,3,0,8,2025-03-20T01:15:00Z,Mafra,Lisboa,Área Metropolitana De Lisboa,-9.417289,38.967626
25113218,Sapataria,Oeste,311,2025-03-20T01:23:00Z,25113218,Em curso,3301,Queda de árvore,0,2,0,4,2025-03-20T01:23:00Z,Sobral De Monte Agraço,Lisboa,Centro,-9.198053,38.966232
25113241,Odivelas,Grande Lisboa,311,2025-03-20T01:32:00Z,25113241,Em despacho,3311,Queda de elementos de estruturas edificados,0,0,0,0,2025-03-20T01:32:00Z,Odivelas,Lisboa,Área Metropolitana De Lisboa,-9.17906,38.78882
25113243,Odivelas,Grande Lisboa,311,2025-03-20T01:32:00Z,25113243,Em despacho,3311,Queda de elementos de estruturas edificados,0,0,0,0,2025-03-20T01:32:00Z,Odivelas,Lisboa,Área Metropolitana De Lisboa,-9.17332,38.79666
25113266,Marinhais,Lezíria do Tejo,311,2025-03-20T01:33:00Z,25113266,Em conclusão,3301,Queda de árvore,0,0,0,0,2025-03-20T01:33:00Z,Salvaterra De Magos,Santarém,Alentejo,-8.697218,39.037103
25113275,Charneca de Caparica e Sobreda,Península de Setúbal,311,2025-03-20T01:35:00Z,25113275,Em curso,3301,Queda de árvore,0,0,0,0,2025-03-20T01:35:00Z,Almada,Setúbal,Área Metropolitana De Lisboa,-9.17436,38.59079
25113332,Charneca de Caparica e Sobreda,Península de Setúbal,311,2025-03-20T01:41:00Z,25113332,Em curso,3301,Queda de árvore,0,0,0,0,2025-03-20T01:41:00Z,Almada,Setúbal,Área Metropolitana De Lisboa,-9.18218,38.59689
25113399,"Oeiras e S. Julião da Barra, Paço de Arcos e Caxias",Grande Lisboa,311,2025-03-20T01:47:00Z,25113399,Em despacho,3301,Queda de árvore,0,0,0,0,2025-03-20T01:47:00Z,Oeiras,Lisboa,Área Metropolitana De Lisboa,-9.275682,38.698873
25113426,Queluz e Belas,Grande Lisboa,311,2025-03-20T01:49:00Z,25113426,Em despacho,3311,Queda de elementos de estruturas edificados,0,0,0,0,2025-03-20T01:49:00Z,Sintra,Lisboa,Área Metropolitana De Lisboa,-9.27789,38.76549
25113510,Fernão Ferro,Península de Setúbal,311,2025-03-20T01:59:00Z,25113510,Em curso,3301,Queda de árvore,0,0,0,0,2025-03-20T01:59:00Z,Seixal,Setúbal,Área Metropolitana De Lisboa,-9.10545,38.57734
25113515,Rio de Mouro,Grande Lisboa,311,2025-03-20T01:59:00Z,25113515,Em despacho,3311,Queda de elementos de estruturas edificados,0,0,0,0,2025-03-20T01:59:00Z,Sintra,Lisboa,Área Metropolitana De Lisboa,-9.314418,38.78093
25113567,Santa Comba,Beiras e Serra da Estrela,310,2025-03-20T01:47:00Z,25113567,Em resolução,3301,Queda de árvore,0,0,0,0,2025-03-20T01:47:00Z,Seia,Guarda,Centro,-7.706452,40.451955
25113599,Alcanede,Lezíria do Tejo,311,2025-03-20T02:07:00Z,25113599,Em resolução,3329,Queda de estruturas temporárias ou móveis,0,0,0,0,2025-03-20T02:07:00Z,Santarém,Santarém,Alentejo,-8.80677,39.38777
25113617,"Algés, Linda-a-Velha e Cruz Quebrada-Dafundo",Grande Lisboa,311,2025-03-20T01:50:00Z,25113617,Em curso,3301,Queda de árvore,0,2,0,7,2025-03-20T01:50:00Z,Oeiras,Lisboa,Área Metropolitana De Lisboa,-9.250524,38.707224
25113619,Marmeleira e Assentiz,Lezíria do Tejo,311,2025-03-20T02:13:00Z,25113619,Em despacho,3309,Desabamento de estruturas edificadas,0,0,0,0,2025-03-20T02:13:00Z,Rio Maior,Santarém,Alentejo,-8.86298,39.25578
25113676,Viseu,Viseu Dão Lafões,310,2025-03-20T02:05:00Z,25113676,Em despacho,3301,Queda de árvore,0,0,0,0,2025-03-20T02:05:00Z,Viseu,Viseu,Centro,-7.908451,40.659587
25113769,Quinta do Anjo,Península de Setúbal,311,2025-03-20T02:26:00Z,25113769,Em curso,3301,Queda de árvore,0,0,0,0,2025-03-20T02:26:00Z,Palmela,Setúbal,Área Metropolitana De Lisboa,-8.9956,38.59028
25113375,Charneca de Caparica e Sobreda,Península de Setúbal,311,2025-03-20T01:45:00Z,25113375,Em curso,3301,Queda de árvore,0,0,0,0,2025-03-20T01:45:00Z,Almada,Setúbal,Área Metropolitana De Lisboa,-9.18101,38.58698
25113382,Santo Antão e São Julião do Tojal,Grande Lisboa,311,2025-03-20T01:46:00Z,25113382,Em despacho,3321,Dano na rede de fornecimento de eletricidade ,0,0,0,0,2025-03-20T01:46:00Z,Loures,Lisboa,Área Metropolitana De Lisboa,-9.12403,38.86915
25113393,Alfragide,Grande Lisboa,311,2025-03-20T01:46:00Z,25113393,Em despacho,3311,Queda de elementos de estruturas edificados,0,0,0,0,2025-03-20T01:46:00Z,Amadora,Lisboa,Área Metropolitana De Lisboa,-9.225704,38.738085
25113416,Vila Franca de Xira,Grande Lisboa,311,2025-03-20T01:49:00Z,25113416,Em despacho,3321,Dano na rede de fornecimento de eletricidade ,0,0,0,0,2025-03-20T01:49:00Z,Vila Franca De Xira,Lisboa,Área Metropolitana De Lisboa,-8.99117,38.95186
25113425,Carcavelos e Parede,Grande Lisboa,311,2025-03-20T01:49:00Z,25113425,Em despacho,3301,Queda de árvore,0,0,0,0,2025-03-20T01:49:00Z,Cascais,Lisboa,Área Metropolitana De Lisboa,-9.337574,38.688343
25113434,"Seixal, Arrentela e Aldeia de Paio Pires",Península de Setúbal,311,2025-03-20T01:50:00Z,25113434,Em curso,3311,Queda de elementos de estruturas edificados,0,0,0,0,2025-03-20T01:50:00Z,Seixal,Setúbal,Área Metropolitana De Lisboa,-9.08101,38.61963
25113441,Casal de Cambra,Grande Lisboa,311,2025-03-20T01:51:00Z,25113441,Em despacho,3311,Queda de elementos de estruturas edificados,0,0,0,0,2025-03-20T01:51:00Z,Sintra,Lisboa,Área Metropolitana De Lisboa,-9.22849,38.801
25113466,Azeitão (São Lourenço e São Simão),Península de Setúbal,311,2025-03-20T01:54:00Z,25113466,Em curso,3301,Queda de árvore,0,0,0,0,2025-03-20T01:54:00Z,Setúbal,Setúbal,Área Metropolitana De Lisboa,-9.01947,38.5205
25113461,Beja (Santiago Maior e São João Baptista),Baixo Alentejo,312,2025-03-20T01:54:00Z,25113461,Em despacho,3301,Queda de árvore,0,0,0,0,2025-03-20T01:54:00Z,Beja,Beja,Alentejo,-7.86754,38.00967
25113462,Carregal do Sal,Viseu Dão Lafões,310,2025-03-20T01:52:00Z,25113462,Em despacho,3301,Queda de árvore,0,2,0,5,2025-03-20T01:52:00Z,Carregal Do Sal,Viseu,Centro,-7.999939,40.437298
25113463,"Almada, Cova da Piedade, Pragal e Cacilhas",Península de Setúbal,311,2025-03-20T01:54:00Z,25113463,Em conclusão,3311,Queda de elementos de estruturas edificados,0,0,0,0,2025-03-20T01:54:00Z,Almada,Setúbal,Área Metropolitana De Lisboa,-9.1648,38.67804
25113464,Soure,Região de Coimbra,310,2025-03-20T01:50:00Z,25113464,Em despacho,3309,Desabamento de estruturas edificadas,0,1,0,2,2025-03-20T01:50:00Z,Soure,Coimbra,Centro,-8.639406,40.055319
25113480,São Domingos de Rana,Grande Lisboa,311,2025-03-20T01:55:00Z,25113480,Em despacho,3301,Queda de árvore,0,0,0,0,2025-03-20T01:55:00Z,Cascais,Lisboa,Área Metropolitana De Lisboa,-9.34564,38.69702
25113498,Charneca de Caparica e Sobreda,Península de Setúbal,311,2025-03-20T01:58:00Z,25113498,Em curso,3301,Queda de árvore,0,0,0,0,2025-03-20T01:58:00Z,Almada,Setúbal,Área Metropolitana De Lisboa,-9.18074,38.58747
25113512,Cascais e Estoril,Grande Lisboa,311,2025-03-20T01:59:00Z,25113512,Em despacho,3301,Queda de árvore,0,0,0,0,2025-03-20T01:59:00Z,Cascais,Lisboa,Área Metropolitana De Lisboa,-9.40005,38.71162
25113513,Cascais e Estoril,Grande Lisboa,311,2025-03-20T01:59:00Z,25113513,Em despacho,3329,Queda de estruturas temporárias ou móveis,0,0,0,0,2025-03-20T01:59:00Z,Cascais,Lisboa,Área Metropolitana De Lisboa,-9.38034,38.70228
25113545,Loures,Grande Lisboa,311,2025-03-20T02:02:00Z,25113545,Em despacho,3311,Queda de elementos de estruturas edificados,0,0,0,0,2025-03-20T02:02:00Z,Loures,Lisboa,Área Metropolitana De Lisboa,-9.19531,38.81873
25113548,Charneca de Caparica e Sobreda,Península de Setúbal,311,2025-03-20T02:03:00Z,25113548,Em curso,3301,Queda de árvore,0,0,0,0,2025-03-20T02:03:00Z,Almada,Setúbal,Área Metropolitana De Lisboa,-9.16587,38.58978
25113563,Redinha,Região de Leiria,310,2025-03-20T02:00:00Z,25113563,Em despacho,3301,Queda de árvore,0,3,0,4,2025-03-20T02:00:00Z,Pombal,Leiria,Centro,-8.589806,39.998788
25113579,Alfragide,Grande Lisboa,311,2025-03-20T02:05:00Z,25113579,Em despacho,3329,Queda de estruturas temporárias ou móveis,0,0,0,0,2025-03-20T02:05:00Z,Amadora,Lisboa,Área Metropolitana De Lisboa,-9.225704,38.738085
25113645,Rio de Mouro,Grande Lisboa,311,2025-03-20T02:13:00Z,25113645,Em despacho,3311,Queda de elementos de estruturas edificados,0,0,0,0,2025-03-20T02:13:00Z,Sintra,Lisboa,Área Metropolitana De Lisboa,-9.31947,38.78611
25113664,Alpiarça,Lezíria do Tejo,311,2025-03-20T02:14:00Z,25113664,Em conclusão,3301,Queda de árvore,0,0,0,0,2025-03-20T02:14:00Z,Alpiarça,Santarém,Alentejo,-8.578037,39.247197
25113679,Cascais e Estoril,Grande Lisboa,311,2025-03-20T02:16:00Z,25113679,Em despacho,3301,Queda de árvore,0,0,0,0,2025-03-20T02:16:00Z,Cascais,Lisboa,Área Metropolitana De Lisboa,-9.39155,38.70828
25113680,Baleizão,Baixo Alentejo,312,2025-03-20T02:02:00Z,25113680,Em curso,3301,Queda de árvore,0,1,0,1,2025-03-20T02:02:00Z,Beja,Beja,Alentejo,-7.753497,38.025243
25113746,Falagueira-Venda Nova,Grande Lisboa,311,2025-03-20T02:23:00Z,25113746,Em despacho,3301,Queda de árvore,0,0,0,0,2025-03-20T02:23:00Z,Amadora,Lisboa,Área Metropolitana De Lisboa,-9.22883,38.76062
25113762,Miragaia e Marteleira,Oeste,311,2025-03-20T02:00:00Z,25113762,Em conclusão,3311,Queda de elementos de estruturas edificados,0,0,0,0,2025-03-20T02:00:00Z,Lourinhã,Lisboa,Centro,-9.262811,39.23688
25113765,Queluz e Belas,Grande Lisboa,311,2025-03-20T02:25:00Z,25113765,Em despacho,3301,Queda de árvore,0,0,0,0,2025-03-20T02:25:00Z,Sintra,Lisboa,Área Metropolitana De Lisboa,-9.27879,38.77766
25113781,Ramada e Caneças,Grande Lisboa,311,2025-03-20T02:26:00Z,25113781,Em despacho,3301,Queda de árvore,0,0,0,0,2025-03-20T02:26:00Z,Odivelas,Lisboa,Área Metropolitana De Lisboa,-9.194441,38.801427
25113845,São Miguel do Mato,Viseu Dão Lafões,310,2025-03-20T02:32:00Z,25113845,Em despacho,3301,Queda de árvore,0,2,0,3,2025-03-20T02:32:00Z,Vouzela,Viseu,Centro,-8.02043,40.73988
25113879,Vila Nova de Tazem,Beiras e Serra da Estrela,310,2025-03-20T02:33:00Z,25113879,Em despacho,3301,Queda de árvore,0,1,0,2,2025-03-20T02:33:00Z,Gouveia,Guarda,Centro,-7.716662,40.505068
25113896,"Torres Novas (Santa Maria, Salvador e Santiago)",Médio Tejo,311,2025-03-20T02:36:00Z,25113896,Em curso,3301,Queda de árvore,0,2,0,6,2025-03-20T02:36:00Z,Torres Novas,Santarém,Centro,-8.567173,39.46688
25113913,Mértola,Baixo Alentejo,312,2025-03-20T02:35:00Z,25113913,Em conclusão,3301,Queda de árvore,0,0,0,0,2025-03-20T02:35:00Z,Mértola,Beja,Alentejo,-7.675714,37.658296
25113949,"Leiria, Pousos, Barreira e Cortes",Região de Leiria,310,2025-03-20T02:41:00Z,25113949,Em despacho,3301,Queda de árvore,0,1,0,3,2025-03-20T02:41:00Z,Leiria,Leiria,Centro,-8.804722,39.69833
25113963,Charneca de Caparica e Sobreda,Península de Setúbal,311,2025-03-20T02:42:00Z,25113963,Em curso,3301,Queda de árvore,0,0,0,0,2025-03-20T02:42:00Z,Almada,Setúbal,Área Metropolitana De Lisboa,-9.19674,38.63034
25113982,São João de Lourosa,Viseu Dão Lafões,310,2025-03-20T02:43:00Z,25113982,Em despacho,3301,Queda de árvore,0,0,0,0,2025-03-20T02:43:00Z,Viseu,Viseu,Centro,-7.919233,40.615482
25113998,Cascais e Estoril,Grande Lisboa,311,2025-03-20T02:44:00Z,25113998,Em curso,3301,Queda de árvore,0,0,0,0,2025-03-20T02:44:00Z,Cascais,Lisboa,Área Metropolitana De Lisboa,-9.419397,38.700982
25114015,"S.pedro e Santiago, S.maria e S.miguel e Matacães",Oeste,311,2025-03-20T02:47:00Z,25114015,Em despacho,3329,Queda de estruturas temporárias ou móveis,0,0,0,0,2025-03-20T02:47:00Z,Torres Vedras,Lisboa,Centro,-9.25368,39.0773
25114030,Benavente,Lezíria do Tejo,311,2025-03-20T02:41:00Z,25114030,Em curso,3301,Queda de árvore,0,0,0,0,2025-03-20T02:41:00Z,Benavente,Santarém,Alentejo,-8.787727,38.953978
25114146,Brito,Ave,309,2025-03-20T02:59:00Z,25114146,Em despacho,3321,Dano na rede de fornecimento de eletricidade ,0,2,0,4,2025-03-20T02:59:00Z,Guimarães,Braga,Norte,-8.35944,41.45358
25114164,Salvaterra de Magos e Foros de Salvaterra,Lezíria do Tejo,311,2025-03-20T03:00:00Z,25114164,Em conclusão,3301,Queda de árvore,0,1,0,4,2025-03-20T03:00:00Z,Salvaterra De Magos,Santarém,Alentejo,-8.776518,39.055667
25114199,Mafra,Grande Lisboa,311,2025-03-20T03:04:00Z,25114199,Em despacho,3311,Queda de elementos de estruturas edificados,0,0,0,0,2025-03-20T03:04:00Z,Mafra,Lisboa,Área Metropolitana De Lisboa,-9.351689,38.95828
25114213,Campo,Viseu Dão Lafões,310,2025-03-20T02:57:00Z,25114213,Em curso,3301,Queda de árvore,0,1,0,2,2025-03-20T02:57:00Z,Viseu,Viseu,Centro,-7.924696,40.705094
25114283,Sernancelhe e Sarzeda,Douro,309,2025-03-20T03:09:00Z,25114283,Em despacho,3301,Queda de árvore,0,2,0,7,2025-03-20T03:09:00Z,Sernancelhe,Viseu,Norte,-7.511299,40.896763
25114364,Rio de Mouro,Grande Lisboa,311,2025-03-20T03:18:00Z,25114364,Em despacho,3301,Queda de árvore,0,1,0,5,2025-03-20T03:18:00Z,Sintra,Lisboa,Área Metropolitana De Lisboa,-9.344466,38.753258
25114381,Carvalhal Redondo e Aguieira,Viseu Dão Lafões,310,2025-03-20T03:19:00Z,25114381,Em curso,3301,Queda de árvore,0,3,0,5,2025-03-20T03:19:00Z,Nelas,Viseu,Centro,-7.900593,40.538002
25113776,Algueirão-Mem Martins,Grande Lisboa,311,2025-03-20T02:26:00Z,25113776,Em despacho,3311,Queda de elementos de estruturas edificados,0,0,0,0,2025-03-20T02:26:00Z,Sintra,Lisboa,Área Metropolitana De Lisboa,-9.342778,38.79861
25113794,Ramada e Caneças,Grande Lisboa,311,2025-03-20T02:28:00Z,25113794,Em despacho,3311,Queda de elementos de estruturas edificados,0,0,0,0,2025-03-20T02:28:00Z,Odivelas,Lisboa,Área Metropolitana De Lisboa,-9.209321,38.80893
25113844,Venda do Pinheiro e Santo Estêvão Das Galés,Grande Lisboa,311,2025-03-20T02:32:00Z,25113844,Em despacho,3301,Queda de árvore,0,0,0,0,2025-03-20T02:32:00Z,Mafra,Lisboa,Área Metropolitana De Lisboa,-9.220361,38.92791
25113851,Mina de Água,Grande Lisboa,311,2025-03-20T02:31:00Z,25113851,Em despacho,3311,Queda de elementos de estruturas edificados,0,0,0,0,2025-03-20T02:31:00Z,Amadora,Lisboa,Área Metropolitana De Lisboa,-9.236908,38.777438
25113908,"Seixal, Arrentela e Aldeia de Paio Pires",Península de Setúbal,311,2025-03-20T02:37:00Z,25113908,Em curso,3321,Dano na rede de fornecimento de eletricidade ,0,0,0,0,2025-03-20T02:37:00Z,Seixal,Setúbal,Área Metropolitana De Lisboa,-9.0987,38.62593
25113910,Pó,Oeste,311,2025-03-20T02:27:00Z,25113910,Em curso,3301,Queda de árvore,0,3,0,6,2025-03-20T02:27:00Z,Bombarral,Leiria,Centro,-9.214362,39.309208
25113926,Carvalhal,Alentejo Litoral,312,2025-03-20T02:27:00Z,25113926,Em despacho,3301,Queda de árvore,0,4,0,9,2025-03-20T02:27:00Z,Grândola,Setúbal,Alentejo,-8.859443,38.458082
25113953,Colares,Grande Lisboa,311,2025-03-20T02:30:00Z,25113953,Em curso,3301,Queda de árvore,0,4,0,10,2025-03-20T02:30:00Z,Sintra,Lisboa,Área Metropolitana De Lisboa,-9.474758,38.77242
25113967,Santo António da Charneca,Península de Setúbal,311,2025-03-20T00:36:00Z,25113967,Em curso,3301,Queda de árvore,0,1,0,5,2025-03-20T00:36:00Z,Barreiro,Setúbal,Área Metropolitana De Lisboa,-9.029919,38.624451
25114414,Cela,Oeste,311,2025-03-20T03:20:00Z,25114414,Em curso,3301,Queda de árvore,0,2,0,4,2025-03-20T03:20:00Z,Alcobaça,Leiria,Centro,-9.051565,39.501598
25114467,Escalos de Cima e Lousa,Beira Baixa,310,2025-03-20T03:25:00Z,25114467,Em resolução,3301,Queda de árvore,0,3,0,5,2025-03-20T03:25:00Z,Castelo Branco,Castelo Branco,Centro,-7.411242,39.91978
25114481,Longueira/Almograve,Alentejo Litoral,312,2025-03-20T03:30:00Z,25114481,Em curso,3301,Queda de árvore,0,1,0,3,2025-03-20T03:30:00Z,Odemira,Beja,Alentejo,-8.756731,37.651736
25114498,Fornos,Tâmega e Sousa,309,2025-03-20T03:30:00Z,25114498,Em curso,3301,Queda de árvore,0,1,0,2,2025-03-20T03:30:00Z,Castelo De Paiva,Aveiro,Norte,-8.253646,41.054438
25114548,Queluz e Belas,Grande Lisboa,311,2025-03-20T03:20:00Z,25114548,Em despacho,3301,Queda de árvore,0,1,0,2,2025-03-20T03:20:00Z,Sintra,Lisboa,Área Metropolitana De Lisboa,-9.271667,38.786881
25114565,Vila Franca Das Naves e Feital,Beiras e Serra da Estrela,310,2025-03-20T03:33:00Z,25114565,Em despacho,3301,Queda de árvore,0,2,0,6,2025-03-20T03:33:00Z,Trancoso,Guarda,Centro,-7.258443,40.723136
25114598,Alhos Vedros,Península de Setúbal,311,2025-03-20T00:30:00Z,25114598,Em curso,3301,Queda de árvore,0,1,0,2,2025-03-20T00:30:00Z,Moita,Setúbal,Área Metropolitana De Lisboa,-9.026889,38.657804
25114617,Lousa,Grande Lisboa,311,2025-03-20T03:45:00Z,25114617,Em despacho,3301,Queda de árvore,0,0,0,0,2025-03-20T03:45:00Z,Loures,Lisboa,Área Metropolitana De Lisboa,-9.209783,38.88899
25114700,Foz do Arelho,Oeste,311,2025-03-20T03:52:00Z,25114700,Em curso,3301,Queda de árvore,0,1,0,5,2025-03-20T03:52:00Z,Caldas Da Rainha,Leiria,Centro,-9.207478,39.434512
25114701,Fornos de Algodres,Beiras e Serra da Estrela,310,2025-03-20T03:53:00Z,25114701,Em despacho,3301,Queda de árvore,0,3,0,9,2025-03-20T03:53:00Z,Fornos De Algodres,Guarda,Centro,-7.525771,40.610486
25114715,Beja (Santiago Maior e São João Baptista),Baixo Alentejo,312,2025-03-20T03:10:00Z,25114715,Em despacho,3301,Queda de árvore,0,1,0,5,2025-03-20T03:10:00Z,Beja,Beja,Alentejo,-7.902989,38.011769
25114717,Ramalhal,Oeste,311,2025-03-20T03:05:00Z,25114717,Em despacho,3301,Queda de árvore,0,1,0,3,2025-03-20T03:05:00Z,Torres Vedras,Lisboa,Centro,-9.206411,39.137293
25114781,Lago,Cávado,309,2025-03-20T04:02:00Z,25114781,Em curso,3311,Queda de elementos de estruturas edificados,0,1,0,2,2025-03-20T04:02:00Z,Amares,Braga,Norte,-8.42077,41.61692
25114782,Poiares (Santo André),Região de Coimbra,310,2025-03-20T04:01:00Z,25114782,Em despacho,3321,Dano na rede de fornecimento de eletricidade ,0,1,0,1,2025-03-20T04:01:00Z,Vila Nova De Poiares,Coimbra,Centro,-8.268202,40.211252
25114815,Buarcos,Região de Coimbra,310,2025-03-20T04:05:00Z,25114815,Em despacho,3301,Queda de árvore,0,1,0,1,2025-03-20T04:05:00Z,Figueira Da Foz,Coimbra,Centro,-8.874837,40.17654
25114831,Alijó,Douro,309,2025-03-20T04:07:00Z,25114831,Em despacho,3311,Queda de elementos de estruturas edificados,0,1,0,3,2025-03-20T04:07:00Z,Alijó,Vila Real,Norte,-7.486133,41.286513
25114835,Cacém e São Marcos,Grande Lisboa,311,2025-03-20T04:07:00Z,25114835,Em despacho,3301,Queda de árvore,0,0,0,0,2025-03-20T04:07:00Z,Sintra,Lisboa,Área Metropolitana De Lisboa,-9.30124,38.75068
25114867,Casal de Cambra,Grande Lisboa,311,2025-03-20T04:00:00Z,25114867,Em despacho,3311,Queda de elementos de estruturas edificados,0,1,0,2,2025-03-20T04:00:00Z,Sintra,Lisboa,Área Metropolitana De Lisboa,-9.232552,38.801888
25114882,a Dos Negros,Oeste,311,2025-03-20T04:04:00Z,25114882,Em despacho,3301,Queda de árvore,0,2,0,9,2025-03-20T04:04:00Z,Óbidos,Leiria,Centro,-9.108747,39.350719
25114982,Loulé (São Sebastião),Algarve,313,2025-03-20T04:24:00Z,25114982,Em despacho,3301,Queda de árvore,0,1,0,2,2025-03-20T04:24:00Z,Loulé,Faro,Algarve,-8.02349,37.14926
25114985,Moita,Península de Setúbal,311,2025-03-20T04:05:00Z,25114985,Em curso,3311,Queda de elementos de estruturas edificados,0,1,0,3,2025-03-20T04:05:00Z,Moita,Setúbal,Área Metropolitana De Lisboa,-8.985364,38.643702
25115085,"Real, Ataíde e Oliveira",Tâmega e Sousa,309,2025-03-20T04:37:00Z,25115085,Em curso,3301,Queda de árvore,0,1,0,3,2025-03-20T04:37:00Z,Amarante,Porto,Norte,-8.174173,41.25846
25115099,Covas e Vila Nova de Oliveirinha,Região de Coimbra,310,2025-03-20T04:39:00Z,25115099,Em despacho,3301,Queda de árvore,0,1,0,2,2025-03-20T04:39:00Z,Tábua,Coimbra,Centro,-7.909423,40.366016
25115116,Fazendas de Almeirim,Lezíria do Tejo,311,2025-03-20T04:40:00Z,25115116,Em despacho,3301,Queda de árvore,0,1,0,4,2025-03-20T04:40:00Z,Almeirim,Santarém,Alentejo,-8.476829,39.182269
25115117,Santo António Dos Olivais,Região de Coimbra,310,2025-03-20T04:34:00Z,25115117,Em despacho,3311,Queda de elementos de estruturas edificados,0,1,0,3,2025-03-20T04:34:00Z,Coimbra,Coimbra,Centro,-8.426807,40.217261
25115133,Santo Agostinho e São João Baptista e Santo Amador,Baixo Alentejo,312,2025-03-20T04:16:00Z,25115133,Em despacho,3301,Queda de árvore,0,2,0,6,2025-03-20T04:16:00Z,Moura,Beja,Alentejo,-7.400781,38.132137
25115135,Fornos,Tâmega e Sousa,309,2025-03-20T04:40:00Z,25115135,Em resolução,3301,Queda de árvore,0,1,0,2,2025-03-20T04:40:00Z,Castelo De Paiva,Aveiro,Norte,-8.265185,41.062239
25115150,Torrão,Alentejo Litoral,312,2025-03-20T04:45:00Z,25115150,Em despacho,3301,Queda de árvore,0,4,0,9,2025-03-20T04:45:00Z,Alcácer Do Sal,Setúbal,Alentejo,-8.367086,38.190745
25115169,Alcaria Ruiva,Baixo Alentejo,312,2025-03-20T04:45:00Z,25115169,Em curso,3301,Queda de árvore,0,1,0,2,2025-03-20T04:45:00Z,Mértola,Beja,Alentejo,-7.754772,37.713133
25115184,Barreiros e Cepões,Viseu Dão Lafões,310,2025-03-20T04:23:00Z,25115184,Em despacho,3301,Queda de árvore,0,1,0,2,2025-03-20T04:23:00Z,Viseu,Viseu,Centro,-7.808679,40.751202
25115219,Arca e Varzielas,Viseu Dão Lafões,310,2025-03-20T04:57:00Z,25115219,Em curso,3301,Queda de árvore,0,1,0,3,2025-03-20T04:57:00Z,Oliveira De Frades,Viseu,Centro,-8.180254,40.59843
25115235,Poiares,Douro,309,2025-03-20T04:45:00Z,25115235,Em despacho,3301,Queda de árvore,0,1,0,3,2025-03-20T04:45:00Z,Freixo De Espada à Cinta,Bragança,Norte,-6.847067,41.065058
25114001,Azeitão (São Lourenço e São Simão),Península de Setúbal,311,2025-03-20T02:46:00Z,25114001,Em curso,3301,Queda de árvore,0,0,0,0,2025-03-20T02:46:00Z,Setúbal,Setúbal,Área Metropolitana De Lisboa,-9.021503,38.53171
25114026,Gove,Tâmega e Sousa,309,2025-03-20T02:47:00Z,25114026,Em conclusão,3311,Queda de elementos de estruturas edificados,0,0,0,0,2025-03-20T02:47:00Z,Baião,Porto,Norte,-8.04192,41.12053
25114069,Alcabideche,Grande Lisboa,311,2025-03-20T02:52:00Z,25114069,Em despacho,3315,Inundação de estruturas por precipitação intensa,0,0,0,0,2025-03-20T02:52:00Z,Cascais,Lisboa,Área Metropolitana De Lisboa,-9.45321,38.75341
25114126,"Oeiras e S. Julião da Barra, Paço de Arcos e Caxias",Grande Lisboa,311,2025-03-20T02:57:00Z,25114126,Em despacho,3301,Queda de árvore,0,0,0,0,2025-03-20T02:57:00Z,Oeiras,Lisboa,Área Metropolitana De Lisboa,-9.27078,38.71533
25114219,Corroios,Península de Setúbal,311,2025-03-20T03:06:00Z,25114219,Em curso,3301,Queda de árvore,0,0,0,0,2025-03-20T03:06:00Z,Seixal,Setúbal,Área Metropolitana De Lisboa,-9.15172,38.57536
25114260,Midões,Região de Coimbra,310,2025-03-20T03:10:00Z,25114260,Em despacho,3301,Queda de árvore,0,1,0,2,2025-03-20T03:10:00Z,Tábua,Coimbra,Centro,-7.959948,40.405726
25114294,"Oeiras e S. Julião da Barra, Paço de Arcos e Caxias",Grande Lisboa,311,2025-03-20T03:13:00Z,25114294,Em despacho,3301,Queda de árvore,0,1,0,5,2025-03-20T03:13:00Z,Oeiras,Lisboa,Área Metropolitana De Lisboa,-9.32693,38.69181
25114337,Romariz,Area M. Porto,309,2025-03-20T03:17:00Z,25114337,Em despacho,3301,Queda de árvore,0,0,0,0,2025-03-20T03:17:00Z,Santa Maria Da Feira,Aveiro,Norte,-8.46628,40.9398
25113482,São João Das Lampas e Terrugem,Grande Lisboa,311,2025-03-20T01:54:00Z,25113482,Em despacho,3301,Queda de árvore,0,0,0,0,2025-03-20T01:54:00Z,Sintra,Lisboa,Área Metropolitana De Lisboa,-9.436253,38.869236
25113491,Chamusca e Pinheiro Grande,Lezíria do Tejo,311,2025-03-20T01:56:00Z,25113491,Em despacho,3301,Queda de árvore,0,1,0,2,2025-03-20T01:56:00Z,Chamusca,Santarém,Alentejo,-8.490477,39.362372
25113516,Samora Correia,Lezíria do Tejo,311,2025-03-20T00:53:00Z,25113516,Em curso,3309,Desabamento de estruturas edificadas,0,0,0,0,2025-03-20T00:53:00Z,Benavente,Santarém,Alentejo,-8.868908,38.935447
25113527,Fernão Ferro,Península de Setúbal,311,2025-03-20T02:01:00Z,25113527,Em curso,3301,Queda de árvore,0,0,0,0,2025-03-20T02:01:00Z,Seixal,Setúbal,Área Metropolitana De Lisboa,-9.09935,38.56798
25113616,"Enxara do Bispo, Gradil e Vila Franca do Rosário",Grande Lisboa,311,2025-03-20T01:30:00Z,25113616,Em curso,3321,Dano na rede de fornecimento de eletricidade ,0,0,0,0,2025-03-20T01:30:00Z,Mafra,Lisboa,Área Metropolitana De Lisboa,-9.260847,38.962848
25113650,Carcavelos e Parede,Grande Lisboa,311,2025-03-20T02:12:00Z,25113650,Em despacho,3301,Queda de árvore,0,0,0,0,2025-03-20T02:12:00Z,Cascais,Lisboa,Área Metropolitana De Lisboa,-9.325114,38.69928
25113661,Cepos e Teixeira,Região de Coimbra,310,2025-03-19T23:46:00Z,25113661,Em despacho,3301,Queda de árvore,0,1,0,2,2025-03-19T23:46:00Z,Arganil,Coimbra,Centro,-7.973479,40.160791
25113666,Pechão,Algarve,313,2025-03-20T02:02:00Z,25113666,Em curso,3301,Queda de árvore,0,1,0,2,2025-03-20T02:02:00Z,Olhão,Faro,Algarve,-7.868861,37.056355
25113686,Alpiarça,Lezíria do Tejo,311,2025-03-20T02:17:00Z,25113686,Em despacho,3321,Dano na rede de fornecimento de eletricidade ,0,1,0,1,2025-03-20T02:17:00Z,Alpiarça,Santarém,Alentejo,-8.57695,39.25462
25113700,São João Das Lampas e Terrugem,Grande Lisboa,311,2025-03-20T02:19:00Z,25113700,Em despacho,3321,Dano na rede de fornecimento de eletricidade ,0,0,0,0,2025-03-20T02:19:00Z,Sintra,Lisboa,Área Metropolitana De Lisboa,-9.39833,38.92588
25113711,Folques,Região de Coimbra,310,2025-03-20T02:20:00Z,25113711,Em despacho,3301,Queda de árvore,0,1,0,2,2025-03-20T02:20:00Z,Arganil,Coimbra,Centro,-7.999029,40.23407
25113741,Carregal do Sal,Viseu Dão Lafões,310,2025-03-20T02:17:00Z,25113741,Em despacho,3329,Queda de estruturas temporárias ou móveis,0,2,0,4,2025-03-20T02:17:00Z,Carregal Do Sal,Viseu,Centro,-7.999939,40.437298
25113768,São João Das Lampas e Terrugem,Grande Lisboa,311,2025-03-20T02:26:00Z,25113768,Em despacho,3301,Queda de árvore,0,0,0,0,2025-03-20T02:26:00Z,Sintra,Lisboa,Área Metropolitana De Lisboa,-9.41128,38.85702
25113866,Bensafrim e Barão de São João,Algarve,313,2025-03-20T01:30:00Z,25113866,Em despacho,3301,Queda de árvore,0,1,0,3,2025-03-20T01:30:00Z,Lagos,Faro,Algarve,-8.733104,37.158743
25113875,Charneca de Caparica e Sobreda,Península de Setúbal,311,2025-03-20T02:35:00Z,25113875,Em curso,3321,Dano na rede de fornecimento de eletricidade ,0,0,0,0,2025-03-20T02:35:00Z,Almada,Setúbal,Área Metropolitana De Lisboa,-9.17345,38.58643
25113902,"Almada, Cova da Piedade, Pragal e Cacilhas",Península de Setúbal,311,2025-03-20T00:52:00Z,25113902,Em curso,3301,Queda de árvore,0,1,0,3,2025-03-20T00:52:00Z,Almada,Setúbal,Área Metropolitana De Lisboa,-9.168395,38.671949
25113911,Sapataria,Oeste,311,2025-03-20T02:15:00Z,25113911,Em despacho,3301,Queda de árvore,0,1,0,3,2025-03-20T02:15:00Z,Sobral De Monte Agraço,Lisboa,Centro,-9.198053,38.966232
25113927,"Almada, Cova da Piedade, Pragal e Cacilhas",Península de Setúbal,311,2025-03-20T02:38:00Z,25113927,Em curso,3301,Queda de árvore,0,0,0,0,2025-03-20T02:38:00Z,Almada,Setúbal,Área Metropolitana De Lisboa,-9.16689,38.67327
25113968,Beja (Santiago Maior e São João Baptista),Baixo Alentejo,312,2025-03-20T01:55:00Z,25113968,Em conclusão,3301,Queda de árvore,0,1,0,2,2025-03-20T01:55:00Z,Beja,Beja,Alentejo,-7.87003,38.014111
25114378,Samora Correia,Lezíria do Tejo,311,2025-03-20T03:07:00Z,25114378,Em despacho,3321,Dano na rede de fornecimento de eletricidade ,0,1,0,3,2025-03-20T03:07:00Z,Benavente,Santarém,Alentejo,-8.868908,38.935447
25114396,Almagreira,Região de Leiria,310,2025-03-20T03:00:00Z,25114396,Em despacho,3301,Queda de árvore,0,1,0,3,2025-03-20T03:00:00Z,Pombal,Leiria,Centro,-8.706962,40.005471
25114401,Mértola,Baixo Alentejo,312,2025-03-20T03:17:00Z,25114401,Em curso,3301,Queda de árvore,0,0,0,0,2025-03-20T03:17:00Z,Mértola,Beja,Alentejo,-7.720218,37.719977
25114403,Alvaiázere,Região de Leiria,310,2025-03-20T03:18:00Z,25114403,Em despacho,3301,Queda de árvore,0,1,0,2,2025-03-20T03:18:00Z,Alvaiázere,Leiria,Centro,-8.400663,39.842672
25114412,Rio de Mouro,Grande Lisboa,311,2025-03-20T03:24:00Z,25114412,Em despacho,3311,Queda de elementos de estruturas edificados,0,0,0,0,2025-03-20T03:24:00Z,Sintra,Lisboa,Área Metropolitana De Lisboa,-9.3418,38.78651
25114444,Charneca de Caparica e Sobreda,Península de Setúbal,311,2025-03-20T03:27:00Z,25114444,Em curso,3301,Queda de árvore,0,0,0,0,2025-03-20T03:27:00Z,Almada,Setúbal,Área Metropolitana De Lisboa,-9.183841,38.59734
25114471,Mira,Região de Coimbra,310,2025-03-20T03:25:00Z,25114471,Em despacho,3301,Queda de árvore,0,1,0,2,2025-03-20T03:25:00Z,Mira,Coimbra,Centro,-8.735184,40.415987
25114505,Valada,Lezíria do Tejo,311,2025-03-20T03:33:00Z,25114505,Em conclusão,3301,Queda de árvore,0,0,0,0,2025-03-20T03:33:00Z,Cartaxo,Santarém,Alentejo,-8.736603,39.136708
25114521,Santa Maria do Castelo e Santiago e Santa Susana,Alentejo Litoral,312,2025-03-20T03:17:00Z,25114521,Em despacho,3301,Queda de árvore,0,2,0,3,2025-03-20T03:17:00Z,Alcácer Do Sal,Setúbal,Alentejo,-8.319754,38.42776
25114546,São João de Lourosa,Viseu Dão Lafões,310,2025-03-20T03:32:00Z,25114546,Em conclusão,3301,Queda de árvore,0,1,0,2,2025-03-20T03:32:00Z,Viseu,Viseu,Centro,-7.922843,40.594777
25113970,Pontinha e Famões,Grande Lisboa,311,2025-03-20T02:43:00Z,25113970,Em despacho,3315,Inundação de estruturas por precipitação intensa,0,0,0,0,2025-03-20T02:43:00Z,Odivelas,Lisboa,Área Metropolitana De Lisboa,-9.19871,38.76359
25113993,Corroios,Península de Setúbal,311,2025-03-20T02:45:00Z,25113993,Em curso,3301,Queda de árvore,0,0,0,0,2025-03-20T02:45:00Z,Seixal,Setúbal,Área Metropolitana De Lisboa,-9.1512,38.58007
25113995,"Oeiras e S. Julião da Barra, Paço de Arcos e Caxias",Grande Lisboa,311,2025-03-20T02:45:00Z,25113995,Em despacho,3301,Queda de árvore,0,0,0,0,2025-03-20T02:45:00Z,Oeiras,Lisboa,Área Metropolitana De Lisboa,-9.272,38.70125
25114000,Aguiar da Beira e Coruche,Viseu Dão Lafões,310,2025-03-20T02:42:00Z,25114000,Em curso,3301,Queda de árvore,0,1,0,2,2025-03-20T02:42:00Z,Aguiar Da Beira,Guarda,Centro,-7.565847,40.766682
25114075,Ribafeita,Viseu Dão Lafões,310,2025-03-20T02:51:00Z,25114075,Em despacho,3301,Queda de árvore,0,1,0,3,2025-03-20T02:51:00Z,Viseu,Viseu,Centro,-8.026556,40.750706
25114095,Pinhal Novo,Península de Setúbal,311,2025-03-20T02:30:00Z,25114095,Em curso,3301,Queda de árvore,0,2,0,3,2025-03-20T02:30:00Z,Palmela,Setúbal,Área Metropolitana De Lisboa,-8.91294,38.637902
25114100,Ventosa,Oeste,311,2025-03-20T02:41:00Z,25114100,Em despacho,3301,Queda de árvore,0,1,0,3,2025-03-20T02:41:00Z,Torres Vedras,Lisboa,Centro,-9.297362,39.041844
25114136,Azambuja,Lezíria do Tejo,311,2025-03-20T02:57:00Z,25114136,Em despacho,3301,Queda de árvore,0,1,0,1,2025-03-20T02:57:00Z,Azambuja,Lisboa,Alentejo,-8.864506,39.067885
25114159,"Oeiras e S. Julião da Barra, Paço de Arcos e Caxias",Grande Lisboa,311,2025-03-20T03:00:00Z,25114159,Em despacho,3301,Queda de árvore,0,0,0,0,2025-03-20T03:00:00Z,Oeiras,Lisboa,Área Metropolitana De Lisboa,-9.29439,38.70243
25115249,Alcaria Ruiva,Baixo Alentejo,312,2025-03-20T05:01:00Z,25115249,Em curso,3301,Queda de árvore,0,1,0,5,2025-03-20T05:01:00Z,Mértola,Beja,Alentejo,-7.8655,37.71755
25115268,"Perafita, Lavra e Santa Cruz do Bispo",Area M. Porto,309,2025-03-20T05:03:00Z,25115268,Em curso,3301,Queda de árvore,0,2,0,6,2025-03-20T05:03:00Z,Matosinhos,Porto,Norte,-8.696853,41.233351999999996
25115269,Chacim,Terras de Trás-os-Montes,309,2025-03-20T05:00:00Z,25115269,Em despacho,3311,Queda de elementos de estruturas edificados,0,2,0,4,2025-03-20T05:00:00Z,Macedo De Cavaleiros,Bragança,Norte,-6.903879,41.462748
25115284,Tornada e Salir do Porto,Oeste,311,2025-03-20T05:02:00Z,25115284,Em despacho,3321,Dano na rede de fornecimento de eletricidade ,0,1,0,2,2025-03-20T05:02:00Z,Caldas Da Rainha,Leiria,Centro,-9.151736,39.435014
25115286,"Santa Iria de Azoia, São João da Talha e Bobadela",Grande Lisboa,311,2025-03-20T05:06:00Z,25115286,Em despacho,3329,Queda de estruturas temporárias ou móveis,0,1,0,4,2025-03-20T05:06:00Z,Loures,Lisboa,Área Metropolitana De Lisboa,-9.08159,38.84134
25115302,"Almargem do Bispo, Pêro Pinheiro e Montelavar",Grande Lisboa,311,2025-03-20T05:07:00Z,25115302,Em despacho,3301,Queda de árvore,0,0,0,0,2025-03-20T05:07:00Z,Sintra,Lisboa,Área Metropolitana De Lisboa,-9.30988,38.83504
25115316,Padronelo,Tâmega e Sousa,309,2025-03-20T05:01:00Z,25115316,Em despacho,3301,Queda de árvore,0,1,0,3,2025-03-20T05:01:00Z,Amarante,Porto,Norte,-8.049611,41.25678
25115333,Vidais,Oeste,311,2025-03-20T04:58:00Z,25115333,Em despacho,3301,Queda de árvore,0,2,0,7,2025-03-20T04:58:00Z,Caldas Da Rainha,Leiria,Centro,-9.01255,39.357791
25114587,Carriço,Região de Leiria,310,2025-03-20T03:30:00Z,25114587,Em despacho,3301,Queda de árvore,0,1,0,2,2025-03-20T03:30:00Z,Pombal,Leiria,Centro,-8.801772,40.000458
25114619,Corroios,Península de Setúbal,311,2025-03-20T03:45:00Z,25114619,Em curso,3301,Queda de árvore,0,0,0,0,2025-03-20T03:45:00Z,Seixal,Setúbal,Área Metropolitana De Lisboa,-9.144781,38.65383
25114680,Canelas,Area M. Porto,309,2025-03-20T03:51:00Z,25114680,Em despacho,3311,Queda de elementos de estruturas edificados,0,2,0,7,2025-03-20T03:51:00Z,Vila Nova De Gaia,Porto,Norte,-8.60018,41.09491
25114712,Penacova,Tâmega e Sousa,309,2025-03-20T03:40:00Z,25114712,Em despacho,3301,Queda de árvore,0,1,0,2,2025-03-20T03:40:00Z,Felgueiras,Porto,Norte,-8.255061,41.373796
25114744,Santa Marinha do Zêzere,Tâmega e Sousa,309,2025-03-20T03:54:00Z,25114744,Em curso,3301,Queda de árvore,0,3,0,7,2025-03-20T03:54:00Z,Baião,Porto,Norte,-7.949585,41.131525
25114755,Santo Aleixo,Alto Alentejo,312,2025-03-20T03:40:00Z,25114755,Em resolução,3301,Queda de árvore,0,2,0,4,2025-03-20T03:40:00Z,Monforte,Portalegre,Alentejo,-7.38093,38.914863
25114769,Venda Nova e Pondras,Alto Tâmega e Barroso,309,2025-03-20T03:50:00Z,25114769,Em despacho,3301,Queda de árvore,0,1,0,3,2025-03-20T03:50:00Z,Montalegre,Vila Real,Norte,-7.956621,41.671752
25114771,Queluz e Belas,Grande Lisboa,311,2025-03-20T04:01:00Z,25114771,Em despacho,3301,Queda de árvore,0,0,0,0,2025-03-20T04:01:00Z,Sintra,Lisboa,Área Metropolitana De Lisboa,-9.277519,38.80015
25114780,Lousa,Grande Lisboa,311,2025-03-20T04:02:00Z,25114780,Em despacho,3301,Queda de árvore,0,0,0,0,2025-03-20T04:02:00Z,Loures,Lisboa,Área Metropolitana De Lisboa,-9.20789,38.88816
25114837,Vilar Seco,Viseu Dão Lafões,310,2025-03-20T04:07:00Z,25114837,Em curso,3301,Queda de árvore,0,1,0,2,2025-03-20T04:07:00Z,Nelas,Viseu,Centro,-7.861002,40.569518
25114869,Alcochete,Península de Setúbal,311,2025-03-20T03:00:00Z,25114869,Em curso,3301,Queda de árvore,0,1,0,1,2025-03-20T03:00:00Z,Benavente,Santarém,Alentejo,-8.91027,38.736052
25114184,Ramada e Caneças,Grande Lisboa,311,2025-03-20T03:03:00Z,25114184,Em despacho,3311,Queda de elementos de estruturas edificados,0,0,0,0,2025-03-20T03:03:00Z,Odivelas,Lisboa,Área Metropolitana De Lisboa,-9.18865,38.81316
25114234,Carvalhal,Oeste,311,2025-03-20T03:08:00Z,25114234,Em despacho,3311,Queda de elementos de estruturas edificados,0,0,0,0,2025-03-20T03:08:00Z,Bombarral,Leiria,Centro,-9.12731,39.28677
25114236,Ronfe,Ave,309,2025-03-20T03:08:00Z,25114236,Em despacho,3311,Queda de elementos de estruturas edificados,0,1,0,2,2025-03-20T03:08:00Z,Guimarães,Braga,Norte,-8.38642,41.44113
25114284,Serpa (Salvador e Santa Maria),Baixo Alentejo,312,2025-03-20T03:05:00Z,25114284,Em despacho,3301,Queda de árvore,0,1,0,2,2025-03-20T03:05:00Z,Serpa,Beja,Alentejo,-7.497192,37.804577
25114293,Lousa,Grande Lisboa,311,2025-03-20T03:13:00Z,25114293,Em despacho,3311,Queda de elementos de estruturas edificados,0,0,0,0,2025-03-20T03:13:00Z,Loures,Lisboa,Área Metropolitana De Lisboa,-9.20461,38.88559
25114318,Charneca de Caparica e Sobreda,Península de Setúbal,311,2025-03-20T03:15:00Z,25114318,Em curso,3301,Queda de árvore,0,1,0,4,2025-03-20T03:15:00Z,Almada,Setúbal,Área Metropolitana De Lisboa,-9.207191,38.62898
25114343,Samora Correia,Lezíria do Tejo,311,2025-03-20T02:57:00Z,25114343,Em despacho,3301,Queda de árvore,0,1,0,4,2025-03-20T02:57:00Z,Benavente,Santarém,Alentejo,-8.890675,38.921796
25114345,Charneca de Caparica e Sobreda,Península de Setúbal,311,2025-03-20T03:17:00Z,25114345,Em curso,3301,Queda de árvore,0,0,0,0,2025-03-20T03:17:00Z,Almada,Setúbal,Área Metropolitana De Lisboa,-9.17936,38.61397
25115336,Souselo,Tâmega e Sousa,309,2025-03-20T05:06:00Z,25115336,Em despacho,3301,Queda de árvore,0,1,0,2,2025-03-20T05:06:00Z,Cinfães,Viseu,Norte,-8.229763,41.064373
25115350,São Martinho de Árvore e Lamarosa,Região de Coimbra,310,2025-03-20T05:13:00Z,25115350,Em despacho,3301,Queda de árvore,0,0,0,0,2025-03-20T05:13:00Z,Coimbra,Coimbra,Centro,-8.551362,40.22228
25115351,Carapeços,Cávado,309,2025-03-20T05:14:00Z,25115351,Em despacho,3301,Queda de árvore,0,0,0,0,2025-03-20T05:14:00Z,Barcelos,Braga,Norte,-8.63294,41.58514
25115352,Moita Dos Ferreiros,Oeste,311,2025-03-20T04:32:00Z,25115352,Em despacho,3301,Queda de árvore,0,2,0,7,2025-03-20T04:32:00Z,Lourinhã,Lisboa,Centro,-9.227775,39.24698
25115369,Vila Verde da Raia,Alto Tâmega e Barroso,309,2025-03-20T05:05:00Z,25115369,Em curso,3301,Queda de árvore,0,2,0,7,2025-03-20T05:05:00Z,Chaves,Vila Real,Norte,-7.420961,41.789431
25115384,Casével e Vaqueiros,Lezíria do Tejo,311,2025-03-20T05:18:00Z,25115384,Em resolução,3301,Queda de árvore,0,1,0,5,2025-03-20T05:18:00Z,Santarém,Santarém,Alentejo,-8.609957,39.393413
25115402,Silgueiros,Viseu Dão Lafões,310,2025-03-20T05:21:00Z,25115402,Em despacho,3301,Queda de árvore,0,0,0,0,2025-03-20T05:21:00Z,Viseu,Viseu,Centro,-7.97615,40.55187
25115416,Pataias e Martingança,Oeste,311,2025-03-20T05:20:00Z,25115416,Em despacho,3301,Queda de árvore,0,1,0,5,2025-03-20T05:20:00Z,Alcobaça,Leiria,Centro,-8.958497,39.692336
25115417,Rio de Moinhos,Viseu Dão Lafões,310,2025-03-20T05:18:00Z,25115417,Em despacho,3301,Queda de árvore,0,1,0,2,2025-03-20T05:18:00Z,Sátão,Viseu,Centro,-7.709479,40.709459
25115433,Rocas do Vouga,Região de Aveiro,310,2025-03-20T05:14:00Z,25115433,Em curso,3321,Dano na rede de fornecimento de eletricidade ,0,1,0,3,2025-03-20T05:14:00Z,Sever Do Vouga,Aveiro,Centro,-8.353407,40.762248
25115450,Fontes,Douro,309,2025-03-20T05:24:00Z,25115450,Em despacho,3301,Queda de árvore,0,1,0,2,2025-03-20T05:24:00Z,Santa Marta De Penaguião,Vila Real,Norte,-7.823046,41.226681
25115451,Águeda e Borralha,Região de Aveiro,310,2025-03-20T05:20:00Z,25115451,Em despacho,3301,Queda de árvore,0,1,0,5,2025-03-20T05:20:00Z,Águeda,Aveiro,Centro,-8.411769,40.558606
25115452,Lorvão,Região de Coimbra,310,2025-03-20T05:25:00Z,25115452,Em despacho,3301,Queda de árvore,0,1,0,2,2025-03-20T05:25:00Z,Penacova,Coimbra,Centro,-8.328179,40.235482
25115466,Casal Comba,Região de Coimbra,310,2025-03-20T05:25:00Z,25115466,Em despacho,3301,Queda de árvore,0,1,0,3,2025-03-20T05:25:00Z,Mealhada,Aveiro,Centro,-8.462733,40.357652
25115467,Povolide,Viseu Dão Lafões,310,2025-03-20T05:27:00Z,25115467,Em despacho,3301,Queda de árvore,0,1,0,2,2025-03-20T05:27:00Z,Viseu,Viseu,Centro,-7.794893,40.667416
25115484,Santo Isidoro,Grande Lisboa,311,2025-03-20T05:31:00Z,25115484,Em despacho,3301,Queda de árvore,0,0,0,0,2025-03-20T05:31:00Z,Mafra,Lisboa,Área Metropolitana De Lisboa,-9.35978,38.99009
25115486,Maceira,Região de Leiria,310,2025-03-20T05:25:00Z,25115486,Em despacho,3301,Queda de árvore,0,2,0,7,2025-03-20T05:25:00Z,Leiria,Leiria,Centro,-8.929179,39.67723
25115517,"Boa Aldeia, Farminhão e Torredeita",Viseu Dão Lafões,310,2025-03-20T05:11:00Z,25115517,Em despacho,3301,Queda de árvore,0,1,0,2,2025-03-20T05:11:00Z,Viseu,Viseu,Centro,-8.010225,40.615614
25115519,Palhais e Coina,Península de Setúbal,311,2025-03-20T05:35:00Z,25115519,Em curso,3301,Queda de árvore,0,1,0,5,2025-03-20T05:35:00Z,Barreiro,Setúbal,Área Metropolitana De Lisboa,-9.04503,38.59544
25115533,"Nogueira, Meixedo e Vilar de Murteda",Alto Minho,309,2025-03-20T05:26:00Z,25115533,Em despacho,3301,Queda de árvore,0,1,0,2,2025-03-20T05:26:00Z,Viana Do Castelo,Viana Do Castelo,Norte,-8.725476,41.756916
25115534,Idanha-a-Nova e Alcafozes,Beira Baixa,310,2025-03-20T05:36:00Z,25115534,Em despacho,3301,Queda de árvore,0,0,0,0,2025-03-20T05:36:00Z,Idanha-a-Nova,Castelo Branco,Centro,-7.132069,39.94651
25115550,Telões,Tâmega e Sousa,309,2025-03-20T05:39:00Z,25115550,Em despacho,3301,Queda de árvore,0,0,0,0,2025-03-20T05:39:00Z,Amarante,Porto,Norte,-8.09758,41.33089
25115553,Cascais e Estoril,Grande Lisboa,311,2025-03-20T05:40:00Z,25115553,Em despacho,3301,Queda de árvore,0,0,0,0,2025-03-20T05:40:00Z,Cascais,Lisboa,Área Metropolitana De Lisboa,-9.387946,38.71141
25115567,Carvalhal Benfeito,Oeste,311,2025-03-20T05:40:00Z,25115567,Em despacho,3301,Queda de árvore,0,0,0,0,2025-03-20T05:40:00Z,Caldas Da Rainha,Leiria,Centro,-9.038958,39.42604
25115569,Canelas,Tâmega e Sousa,309,2025-03-20T05:41:00Z,25115569,Em despacho,3301,Queda de árvore,0,0,0,0,2025-03-20T05:41:00Z,Penafiel,Porto,Norte,-8.315262,41.0616
25115586,Oiã,Região de Aveiro,310,2025-03-20T05:40:00Z,25115586,Em despacho,3311,Queda de elementos de estruturas edificados,0,1,0,5,2025-03-20T05:40:00Z,Oliveira Do Bairro,Aveiro,Centro,-8.503803,40.547541
25114887,"Mangualde, Mesquitela e Cunha Alta",Viseu Dão Lafões,310,2025-03-20T04:12:00Z,25114887,Em despacho,3309,Desabamento de estruturas edificadas,0,1,0,1,2025-03-20T04:12:00Z,Mangualde,Viseu,Centro,-7.764584,40.587178
25114889,Espírito Santo,Baixo Alentejo,312,2025-03-20T04:11:00Z,25114889,Em conclusão,3301,Queda de árvore,0,0,0,0,2025-03-20T04:11:00Z,Mértola,Beja,Alentejo,-7.636103,37.551114
25114928,Juncal,Região de Leiria,310,2025-03-20T04:10:00Z,25114928,Em despacho,3301,Queda de árvore,0,2,0,6,2025-03-20T04:10:00Z,Porto De Mós,Leiria,Centro,-8.891382,39.63155
25114944,Adeganha e Cardanha,Douro,309,2025-03-20T04:19:00Z,25114944,Em despacho,3301,Queda de árvore,0,3,0,8,2025-03-20T04:19:00Z,Torre De Moncorvo,Bragança,Norte,-7.09195,41.21715
25114953,"Provesende, Gouvães Douro, S.cristóvão Douro",Douro,309,2025-03-20T04:17:00Z,25114953,Em despacho,3301,Queda de árvore,0,1,0,2,2025-03-20T04:17:00Z,Sabrosa,Vila Real,Norte,-7.548217,41.203998
25114978,Glória e Vera Cruz,Região de Aveiro,310,2025-03-20T04:12:00Z,25114978,Em despacho,3301,Queda de árvore,0,2,0,6,2025-03-20T04:12:00Z,Aveiro,Aveiro,Centro,-8.637882,40.637983
25115003,Eixo e Eirol,Região de Aveiro,310,2025-03-20T04:25:00Z,25115003,Em despacho,3301,Queda de árvore,0,2,0,6,2025-03-20T04:25:00Z,Aveiro,Aveiro,Centro,-8.564536,40.629276
25115012,Santa Cruz,Baixo Alentejo,312,2025-03-20T04:20:00Z,25115012,Em curso,3301,Queda de árvore,0,0,0,0,2025-03-20T04:20:00Z,Almodôvar,Beja,Alentejo,-7.982237,37.409247
25115014,Monchique,Algarve,313,2025-03-20T04:18:00Z,25115014,Em despacho,3301,Queda de árvore,0,1,0,3,2025-03-20T04:18:00Z,Monchique,Faro,Algarve,-8.576824,37.328951000000004
25115030,Azueira e Sobral da Abelheira,Grande Lisboa,311,2025-03-20T04:31:00Z,25115030,Em despacho,3301,Queda de árvore,0,0,0,0,2025-03-20T04:31:00Z,Mafra,Lisboa,Área Metropolitana De Lisboa,-9.291996,39.00547
25115046,Romariz,Area M. Porto,309,2025-03-20T04:28:00Z,25115046,Em despacho,3301,Queda de árvore,0,1,0,3,2025-03-20T04:28:00Z,Santa Maria Da Feira,Aveiro,Norte,-8.452556,40.945991
25115064,Lanhelas,Alto Minho,309,2025-03-20T04:35:00Z,25115064,Em curso,3301,Queda de árvore,0,2,0,5,2025-03-20T04:35:00Z,Caminha,Viana Do Castelo,Norte,-8.790106,41.906265
25115078,Sobreira,Area M. Porto,309,2025-03-20T04:36:00Z,25115078,Em despacho,3301,Queda de árvore,0,2,0,9,2025-03-20T04:36:00Z,Paredes,Porto,Norte,-8.38771,41.1585
25115080,Carnaxide e Queijas,Grande Lisboa,311,2025-03-20T04:37:00Z,25115080,Em despacho,3329,Queda de estruturas temporárias ou móveis,0,0,0,0,2025-03-20T04:37:00Z,Oeiras,Lisboa,Área Metropolitana De Lisboa,-9.21979,38.72683
25115112,Sendim,Douro,309,2025-03-20T04:40:00Z,25115112,Em despacho,3301,Queda de árvore,0,1,0,2,2025-03-20T04:40:00Z,Tabuaço,Viseu,Norte,-7.539191,41.05089
25115121,Aveleda,Area M. Porto,309,2025-03-20T04:41:00Z,25115121,Em despacho,3321,Dano na rede de fornecimento de eletricidade ,0,0,0,0,2025-03-20T04:41:00Z,Vila Do Conde,Porto,Norte,-8.69431,41.2725
25115123,Almagreira,Região de Leiria,310,2025-03-20T04:37:00Z,25115123,Em despacho,3311,Queda de elementos de estruturas edificados,0,1,0,2,2025-03-20T04:37:00Z,Pombal,Leiria,Centro,-8.690706,40.022662
25115130,Rio de Mouro,Grande Lisboa,311,2025-03-20T04:42:00Z,25115130,Em despacho,3301,Queda de árvore,0,0,0,0,2025-03-20T04:42:00Z,Sintra,Lisboa,Área Metropolitana De Lisboa,-9.35842,38.75712
25115155,Souselo,Tâmega e Sousa,309,2025-03-20T04:40:00Z,25115155,Em curso,3301,Queda de árvore,0,0,0,0,2025-03-20T04:40:00Z,Cinfães,Viseu,Norte,-8.255672,41.064951
25115162,Moita,Região de Leiria,310,2025-03-20T04:39:00Z,25115162,Em despacho,3301,Queda de árvore,0,1,0,3,2025-03-20T04:39:00Z,Marinha Grande,Leiria,Centro,-8.94346,39.702349
25115178,Palhais e Coina,Península de Setúbal,311,2025-03-20T04:14:00Z,25115178,Em curso,3301,Queda de árvore,0,0,0,0,2025-03-20T04:14:00Z,Barreiro,Setúbal,Área Metropolitana De Lisboa,-9.043332,38.595522
25115198,Macieira da Lixa e Caramos,Tâmega e Sousa,309,2025-03-20T04:47:00Z,25115198,Em curso,3301,Queda de árvore,0,3,0,6,2025-03-20T04:47:00Z,Felgueiras,Porto,Norte,-8.154645,41.35135
25114368,Samora Correia,Lezíria do Tejo,311,2025-03-20T02:59:00Z,25114368,Em resolução,3321,Dano na rede de fornecimento de eletricidade ,0,1,0,2,2025-03-20T02:59:00Z,Benavente,Santarém,Alentejo,-8.854147,38.902282
25114370,Charneca de Caparica e Sobreda,Península de Setúbal,311,2025-03-20T03:20:00Z,25114370,Em curso,3301,Queda de árvore,0,0,0,0,2025-03-20T03:20:00Z,Almada,Setúbal,Área Metropolitana De Lisboa,-9.17923,38.60275
25114377,Santa Marinha e São Pedro da Afurada,Area M. Porto,309,2025-03-20T03:21:00Z,25114377,Em despacho,3311,Queda de elementos de estruturas edificados,0,1,0,5,2025-03-20T03:21:00Z,Vila Nova De Gaia,Porto,Norte,-8.62524,41.13787
25114395,Corroios,Península de Setúbal,311,2025-03-20T03:23:00Z,25114395,Em curso,3301,Queda de árvore,0,0,0,0,2025-03-20T03:23:00Z,Seixal,Setúbal,Área Metropolitana De Lisboa,-9.156315,38.57963
25114413,São Pedro da Cadeira,Oeste,311,2025-03-20T03:00:00Z,25114413,Em despacho,3311,Queda de elementos de estruturas edificados,0,1,0,4,2025-03-20T03:00:00Z,Torres Vedras,Lisboa,Centro,-9.35655,39.058351
25114429,Almoster,Lezíria do Tejo,311,2025-03-20T03:25:00Z,25114429,Em curso,3301,Queda de árvore,0,0,0,0,2025-03-20T03:25:00Z,Santarém,Santarém,Alentejo,-8.795515,39.226827
25114443,Ericeira,Grande Lisboa,311,2025-03-20T03:27:00Z,25114443,Em despacho,3311,Queda de elementos de estruturas edificados,0,0,0,0,2025-03-20T03:27:00Z,Mafra,Lisboa,Área Metropolitana De Lisboa,-9.41106,38.95243
25114511,Póvoa de Santa Iria e Forte da Casa,Grande Lisboa,311,2025-03-20T03:15:00Z,25114511,Em curso,3301,Queda de árvore,0,2,0,9,2025-03-20T03:15:00Z,Vila Franca De Xira,Lisboa,Área Metropolitana De Lisboa,-9.080109,38.86006
