id,address,subregion,neighborhood,date,id.1,state,nature,nature_description,aerial_means,terrestrial_means,aquatic_means,operational,date.1,Concelho,Distrito,NUTII_DSG,longitude,latitude
24874428,Donai,Terras de Trás-os-Montes,309,2025-01-26T21:18:00Z,24874428,Em curso,3315,Inundação de estruturas por precipitação intensa,0,1,0,2,2025-01-26T21:18:00Z,Bragança,Bragança,Norte,-6.805385,41.830788
24874564,"Sé, Santa Maria e Meixedo",Terras de Trás-os-Montes,309,2025-01-26T21:55:00Z,24874564,Em curso,3315,Inundação de estruturas por precipitação intensa,0,1,0,2,2025-01-26T21:55:00Z,Bragança,Bragança,Norte,-6.761223,41.813164
24875382,Pampilhosa da Serra,Região de Coimbra,310,2025-01-27T06:56:00Z,24875382,Em despacho,3315,Inundação de estruturas por precipitação intensa,0,4,0,8,2025-01-27T06:56:00Z,Pampilhosa Da Serra,Coimbra,Centro,-7.953077,40.054967
24875591,Serpins,Região de Coimbra,310,2025-01-27T08:05:00Z,24875591,Em curso,3315,Inundação de estruturas por precipitação intensa,0,1,0,1,2025-01-27T08:05:00Z,Lousã,Coimbra,Centro,-8.200016,40.156377
24876200,Ceira,Região de Coimbra,310,2025-01-27T09:56:00Z,24876200,Em despacho,3315,Inundação de estruturas por precipitação intensa,0,1,0,2,2025-01-27T09:56:00Z,Coimbra,Coimbra,Centro,-8.376144,40.175952
24876277,Alhadas,Região de Coimbra,310,2025-01-27T10:00:00Z,24876277,Em despacho,3301,Queda de árvore,0,0,0,0,2025-01-27T10:00:00Z,Figueira Da Foz,Coimbra,Centro,-8.808093,40.16613
24876461,Buarcos,Região de Coimbra,310,2025-01-27T10:20:00Z,24876461,Em despacho,3315,Inundação de estruturas por precipitação intensa,0,2,0,5,2025-01-27T10:20:00Z,Figueira Da Foz,Coimbra,Centro,-8.880897,40.168384
24876802,Paião,Região de Coimbra,310,2025-01-27T11:17:00Z,24876802,Em despacho,3301,Queda de árvore,0,1,0,5,2025-01-27T11:17:00Z,Figueira Da Foz,Coimbra,Centro,-8.771908,40.062768
24851780,"São Miguel, Santa Eufémia e Rabaçal",Região de Coimbra,310,2025-01-21T23:25:00Z,24851780,Em curso,3315,Inundação de estruturas por precipitação intensa,0,0,0,0,2025-01-21T23:25:00Z,Penela,Coimbra,Centro,-8.399036,40.025502
24875862,Ramela,Beiras e Serra da Estrela,310,2025-01-27T09:01:00Z,24875862,Em despacho,3329,Queda de estruturas temporárias ou móveis,0,2,0,4,2025-01-27T09:01:00Z,Guarda,Guarda,Centro,-7.258056,40.46528
24876130,Bornes de Aguiar,Alto Tâmega e Barroso,309,2025-01-27T09:37:00Z,24876130,Em curso,3315,Inundação de estruturas por precipitação intensa,0,1,0,5,2025-01-27T09:37:00Z,Vila Pouca De Aguiar,Vila Real,Norte,-7.60702,41.543737
24878069,Sesimbra (Castelo),Península de Setúbal,311,2025-01-27T14:48:00Z,24878069,Em curso,3301,Queda de árvore,0,1,0,5,2025-01-27T14:48:00Z,Sesimbra,Setúbal,Área Metropolitana De Lisboa,-9.095542,38.465387
24878134,Friúmes e Paradela,Região de Coimbra,310,2025-01-27T14:57:00Z,24878134,Em despacho,3313,Deslizamento de terras,0,1,0,2,2025-01-27T14:57:00Z,Penacova,Coimbra,Centro,-8.244833,40.286025
24878167,Mujães,Alto Minho,309,2025-01-27T14:58:00Z,24878167,Em resolução,3301,Queda de árvore,0,0,0,0,2025-01-27T14:58:00Z,Viana Do Castelo,Viana Do Castelo,Norte,-8.708525,41.659747
24878217,Alfragide,Grande Lisboa,311,2025-01-27T14:57:00Z,24878217,Em curso,3301,Queda de árvore,0,2,0,8,2025-01-27T14:57:00Z,Amadora,Lisboa,Área Metropolitana De Lisboa,-9.225704,38.738085
24876893,"Sé, Santa Maria e Meixedo",Terras de Trás-os-Montes,309,2025-01-27T11:22:00Z,24876893,Em curso,3315,Inundação de estruturas por precipitação intensa,0,1,0,1,2025-01-27T11:22:00Z,Bragança,Bragança,Norte,-6.761223,41.813164
24878106,São Pedro de Sarracenos,Terras de Trás-os-Montes,309,2025-01-27T14:44:00Z,24878106,Em despacho,3315,Inundação de estruturas por precipitação intensa,0,1,0,2,2025-01-27T14:44:00Z,Bragança,Bragança,Norte,-6.751439,41.76443
24878297,"Ardegão, Freixo e Mato",Alto Minho,309,2025-01-27T15:32:00Z,24878297,Em conclusão,3329,Queda de estruturas temporárias ou móveis,0,1,0,3,2025-01-27T15:32:00Z,Ponte De Lima,Viana Do Castelo,Norte,-8.588227,41.656012
24878299,Nossa Senhora de Fátima,Médio Tejo,311,2025-01-27T15:26:00Z,24878299,Em conclusão,3301,Queda de árvore,0,3,0,7,2025-01-27T15:26:00Z,Entroncamento,Santarém,Centro,-8.470547,39.473775
24878388,Peniche,Oeste,311,2025-01-27T15:46:00Z,24878388,Em despacho,3301,Queda de árvore,0,2,0,6,2025-01-27T15:46:00Z,Peniche,Leiria,Centro,-9.376833,39.357166
24878406,Santa Maria Maior,Alto Tâmega e Barroso,309,2025-01-27T15:49:00Z,24878406,Em despacho,3315,Inundação de estruturas por precipitação intensa,0,1,0,3,2025-01-27T15:49:00Z,Chaves,Vila Real,Norte,-7.464751,41.742877
24878508,Delães,Ave,309,2025-01-27T16:13:00Z,24878508,Em despacho,3301,Queda de árvore,0,1,0,2,2025-01-27T16:13:00Z,Vila Nova De Famalicão,Braga,Norte,-8.40949,41.385397
24878531,Figueiró do Campo,Região de Coimbra,310,2025-01-27T16:10:00Z,24878531,Em despacho,3301,Queda de árvore,0,1,0,2,2025-01-27T16:10:00Z,Soure,Coimbra,Centro,-8.583767,40.14831
24878266,Vila Chã,Area M. Porto,309,2025-01-27T15:24:00Z,24878266,Em despacho,3321,Dano na rede de fornecimento de eletricidade ,0,1,0,2,2025-01-27T15:24:00Z,Vila Do Conde,Porto,Norte,-8.723164,41.296654
24878284,Praia de Mira,Região de Coimbra,310,2025-01-27T15:28:00Z,24878284,Em curso,3301,Queda de árvore,0,4,0,11,2025-01-27T15:28:00Z,Mira,Coimbra,Centro,-8.8004270000000009,40.460655
24878484,Assafarge e Antanhol,Região de Coimbra,310,2025-01-27T16:04:00Z,24878484,Em despacho,3301,Queda de árvore,0,1,0,2,2025-01-27T16:04:00Z,Coimbra,Coimbra,Centro,-8.480619,40.172983
24878520,Sobradelo da Goma,Ave,309,2025-01-27T16:07:00Z,24878520,Em despacho,3301,Queda de árvore,0,2,0,4,2025-01-27T16:07:00Z,Póvoa De Lanhoso,Braga,Norte,-8.173432,41.558597
24878536,Vilar de Mouros,Alto Minho,309,2025-01-27T16:06:00Z,24878536,Em curso,3301,Queda de árvore,0,1,0,4,2025-01-27T16:06:00Z,Caminha,Viana Do Castelo,Norte,-8.811405,41.880553
24878553,Lourinhã e Atalaia,Oeste,311,2025-01-27T16:02:00Z,24878553,Em curso,3301,Queda de árvore,0,1,0,2,2025-01-27T16:02:00Z,Lourinhã,Lisboa,Centro,-9.311131,39.244365
24878569,Gafanha da Encarnação,Região de Aveiro,310,2025-01-27T16:17:00Z,24878569,Em despacho,3301,Queda de árvore,0,1,0,5,2025-01-27T16:17:00Z,Ílhavo,Aveiro,Centro,-8.73345,40.617714
24878653,Poceirão e Marateca,Península de Setúbal,311,2025-01-27T16:31:00Z,24878653,Em despacho,3301,Queda de árvore,0,1,0,3,2025-01-27T16:31:00Z,Palmela,Setúbal,Área Metropolitana De Lisboa,-8.771449,38.612637
24878671,Algueirão-Mem Martins,Grande Lisboa,311,2025-01-27T16:41:00Z,24878671,Em despacho,3311,Queda de elementos de estruturas edificados,0,0,0,0,2025-01-27T16:41:00Z,Sintra,Lisboa,Área Metropolitana De Lisboa,-9.322761,38.8027
24878701,Alfeizerão,Oeste,311,2025-01-27T16:41:00Z,24878701,Em despacho,3301,Queda de árvore,0,1,0,2,2025-01-27T16:41:00Z,Alcobaça,Leiria,Centro,-9.110786,39.496611
24878704,Salto,Alto Tâmega e Barroso,309,2025-01-27T16:44:00Z,24878704,Em despacho,1107,Nevão,0,3,0,6,2025-01-27T16:44:00Z,Montalegre,Vila Real,Norte,-7.953108,41.639334
24878721,Alcanhões,Lezíria do Tejo,311,2025-01-27T16:48:00Z,24878721,Em despacho,3313,Deslizamento de terras,0,1,0,1,2025-01-27T16:48:00Z,Santarém,Santarém,Alentejo,-8.668655,39.295935
24878547,Glória e Vera Cruz,Região de Aveiro,310,2025-01-27T16:10:00Z,24878547,Em curso,3301,Queda de árvore,0,1,0,2,2025-01-27T16:10:00Z,Aveiro,Aveiro,Centro,-8.659223,40.645992
24878608,Lourinhã e Atalaia,Oeste,311,2025-01-27T16:30:00Z,24878608,Em despacho,3311,Queda de elementos de estruturas edificados,0,0,0,0,2025-01-27T16:30:00Z,Lourinhã,Lisboa,Centro,-9.33236,39.266665
24878631,Minde,Médio Tejo,311,2025-01-27T16:32:00Z,24878631,Em conclusão,3321,Dano na rede de fornecimento de eletricidade ,0,1,0,5,2025-01-27T16:32:00Z,Alcanena,Santarém,Centro,-8.685588,39.531838
24878681,"Marvila, Ribeira Santarém, S.salvador, S.nicolau",Lezíria do Tejo,311,2025-01-27T16:42:00Z,24878681,Em despacho,3309,Desabamento de estruturas edificadas,0,1,0,5,2025-01-27T16:42:00Z,Santarém,Santarém,Alentejo,-8.678591,39.231938
24878692,Rio Meão,Area M. Porto,309,2025-01-27T16:16:00Z,24878692,Em despacho,3329,Queda de estruturas temporárias ou móveis,0,1,0,2,2025-01-27T16:16:00Z,Santa Maria Da Feira,Aveiro,Norte,-8.586854,40.956066
24878708,Espinho,Area M. Porto,309,2025-01-27T16:44:00Z,24878708,Em despacho,3329,Queda de estruturas temporárias ou móveis,0,1,0,3,2025-01-27T16:44:00Z,Espinho,Aveiro,Norte,-8.64903,41.00893
24878722,Costa da Caparica,Península de Setúbal,311,2025-01-27T16:46:00Z,24878722,Em despacho,3329,Queda de estruturas temporárias ou móveis,0,1,0,4,2025-01-27T16:46:00Z,Almada,Setúbal,Área Metropolitana De Lisboa,-9.227696,38.642583
24878724,Vila Nova de Tazem,Beiras e Serra da Estrela,310,2025-01-27T16:48:00Z,24878724,Em despacho,3329,Queda de estruturas temporárias ou móveis,0,1,0,4,2025-01-27T16:48:00Z,Gouveia,Guarda,Centro,-7.716662,40.505068
24875937,Açores e Velosa,Beiras e Serra da Estrela,310,2025-01-27T09:15:00Z,24875937,Em despacho,3301,Queda de árvore,0,2,0,4,2025-01-27T09:15:00Z,Celorico Da Beira,Guarda,Centro,-7.293622,40.654959
24877623,Ega,Região de Coimbra,310,2025-01-27T13:34:00Z,24877623,Em conclusão,3301,Queda de árvore,0,2,0,4,2025-01-27T13:34:00Z,Condeixa-a-Nova,Coimbra,Centro,-8.53647,40.09942
24877910,Constantim e Vale de Nogueiras,Douro,309,2025-01-27T14:24:00Z,24877910,Em despacho,3309,Desabamento de estruturas edificadas,0,0,0,0,2025-01-27T14:24:00Z,Vila Real,Vila Real,Norte,-7.711022,41.27386
24878043,Salto,Alto Tâmega e Barroso,309,2025-01-27T14:30:00Z,24878043,Em despacho,3301,Queda de árvore,0,1,0,4,2025-01-27T14:30:00Z,Montalegre,Vila Real,Norte,-7.930242,41.659104
24878060,"Sé, Santa Maria e Meixedo",Terras de Trás-os-Montes,309,2025-01-27T14:20:00Z,24878060,Em despacho,3315,Inundação de estruturas por precipitação intensa,0,1,0,2,2025-01-27T14:20:00Z,Bragança,Bragança,Norte,-6.761223,41.813164
24878394,Gafanha da Boa Hora,Região de Aveiro,310,2025-01-27T15:51:00Z,24878394,Em despacho,3301,Queda de árvore,0,1,0,2,2025-01-27T15:51:00Z,Vagos,Aveiro,Centro,-8.750652,40.560891
24875758,Valhelhas,Beiras e Serra da Estrela,310,2025-01-27T08:41:00Z,24875758,Em curso,3301,Queda de árvore,0,1,0,2,2025-01-27T08:41:00Z,Guarda,Guarda,Centro,-7.405093,40.406271
24876708,Montaria,Alto Minho,309,2025-01-27T10:59:00Z,24876708,Em curso,3301,Queda de árvore,0,2,0,4,2025-01-27T10:59:00Z,Viana Do Castelo,Viana Do Castelo,Norte,-8.694724,41.798689
24876783,Santo António Dos Olivais,Região de Coimbra,310,2025-01-27T10:56:00Z,24876783,Em despacho,3315,Inundação de estruturas por precipitação intensa,0,1,0,2,2025-01-27T10:56:00Z,Coimbra,Coimbra,Centro,-8.426807,40.217261
24877003,Malagueira e Horta Das Figueiras,Alentejo Central,312,2025-01-27T11:41:00Z,24877003,Em conclusão,3315,Inundação de estruturas por precipitação intensa,0,1,0,2,2025-01-27T11:41:00Z,Évora,Évora,Alentejo,-7.924277,38.57285
24877228,Eiras e São Paulo de Frades,Região de Coimbra,310,2025-01-27T12:14:00Z,24877228,Em despacho,3301,Queda de árvore,0,1,0,2,2025-01-27T12:14:00Z,Coimbra,Coimbra,Centro,-8.392843,40.24436
24877871,Cepos e Teixeira,Região de Coimbra,310,2025-01-27T14:07:00Z,24877871,Em despacho,3301,Queda de árvore,0,1,0,4,2025-01-27T14:07:00Z,Arganil,Coimbra,Centro,-7.973479,40.160791
24878057,Salto,Alto Tâmega e Barroso,309,2025-01-27T14:42:00Z,24878057,Em despacho,3301,Queda de árvore,0,1,0,4,2025-01-27T14:42:00Z,Montalegre,Vila Real,Norte,-7.929191,41.611383
24878139,"Sé, Santa Maria e Meixedo",Terras de Trás-os-Montes,309,2025-01-27T14:59:00Z,24878139,Em despacho,3315,Inundação de estruturas por precipitação intensa,0,1,0,2,2025-01-27T14:59:00Z,Bragança,Bragança,Norte,-6.761223,41.813164
24878443,Buarcos,Região de Coimbra,310,2025-01-27T15:54:00Z,24878443,Em despacho,3315,Inundação de estruturas por precipitação intensa,0,1,0,3,2025-01-27T15:54:00Z,Figueira Da Foz,Coimbra,Centro,-8.880897,40.168384
24878459,Barroselas e Carvoeiro,Alto Minho,309,2025-01-27T15:34:00Z,24878459,Em despacho,3301,Queda de árvore,0,1,0,3,2025-01-27T15:34:00Z,Viana Do Castelo,Viana Do Castelo,Norte,-8.673486,41.654026
24878460,Candoso (São Martinho),Ave,309,2025-01-27T16:00:00Z,24878460,Em despacho,3311,Queda de elementos de estruturas edificados,0,2,0,3,2025-01-27T16:00:00Z,Guimarães,Braga,Norte,-8.332216,41.42214
24878461,Refóios do Lima,Alto Minho,309,2025-01-27T16:01:00Z,24878461,Em curso,3301,Queda de árvore,0,1,0,2,2025-01-27T16:01:00Z,Ponte De Lima,Viana Do Castelo,Norte,-8.540179,41.800597
24878462,"Mealhada, Ventosa do Bairro e Antes",Região de Coimbra,310,2025-01-27T16:01:00Z,24878462,Em curso,3301,Queda de árvore,0,2,0,4,2025-01-27T16:01:00Z,Mealhada,Aveiro,Centro,-8.458111,40.375676
24878476,Grijó e Sermonde,Area M. Porto,309,2025-01-27T16:00:00Z,24878476,Em despacho,3301,Queda de árvore,0,2,0,4,2025-01-27T16:00:00Z,Vila Nova De Gaia,Porto,Norte,-8.579955,41.030201
24878495,Tramagal,Médio Tejo,311,2025-01-27T16:12:00Z,24878495,Em resolução,3315,Inundação de estruturas por precipitação intensa,0,1,0,2,2025-01-27T16:12:00Z,Abrantes,Santarém,Centro,-8.249298,39.461042
24878559,Urrô,Area M. Porto,309,2025-01-27T16:16:00Z,24878559,Em despacho,3301,Queda de árvore,0,1,0,2,2025-01-27T16:16:00Z,Arouca,Aveiro,Norte,-8.292055,40.898489
24878562,Campanhã,Area M. Porto,309,2025-01-27T15:44:00Z,24878562,Em despacho,3301,Queda de árvore,0,1,0,4,2025-01-27T15:44:00Z,Porto,Porto,Norte,-8.571543,41.154223
24878593,Paranhos,Area M. Porto,309,2025-01-27T15:29:00Z,24878593,Em despacho,3315,Inundação de estruturas por precipitação intensa,0,1,0,5,2025-01-27T15:29:00Z,Porto,Porto,Norte,-8.604254,41.174248
24878629,Beja (Santiago Maior e São João Baptista),Baixo Alentejo,312,2025-01-27T15:13:00Z,24878629,Em curso,3301,Queda de árvore,0,0,0,0,2025-01-27T15:13:00Z,Beja,Beja,Alentejo,-7.87003,38.014111
24878280,Barroselas e Carvoeiro,Alto Minho,309,2025-01-27T15:16:00Z,24878280,Em despacho,3311,Queda de elementos de estruturas edificados,0,1,0,2,2025-01-27T15:16:00Z,Viana Do Castelo,Viana Do Castelo,Norte,-8.673486,41.654026
24878496,Vila Nova de Foz Côa,Douro,309,2025-01-27T16:06:00Z,24878496,Em despacho,3301,Queda de árvore,0,1,0,4,2025-01-27T16:06:00Z,Vila Nova De Foz Côa,Guarda,Norte,-7.138248,41.084145
24878571,"Cedofeita, Ildefonso, Sé, Miragaia, Nicolau e Vitória",Area M. Porto,309,2025-01-27T15:20:00Z,24878571,Em despacho,3311,Queda de elementos de estruturas edificados,0,1,0,5,2025-01-27T15:20:00Z,Porto,Porto,Norte,-8.615939,41.15359
24878600,Gaeiras,Oeste,311,2025-01-27T16:16:00Z,24878600,Em despacho,3301,Queda de árvore,0,1,0,2,2025-01-27T16:16:00Z,Óbidos,Leiria,Centro,-9.13344,39.373927
24878607,Carvalhais,Terras de Trás-os-Montes,309,2025-01-27T16:29:00Z,24878607,Em despacho,3301,Queda de árvore,0,2,0,6,2025-01-27T16:29:00Z,Mirandela,Bragança,Norte,-7.17977,41.5106
24878623,Carvalhal,Oeste,311,2025-01-27T16:30:00Z,24878623,Em despacho,3321,Dano na rede de fornecimento de eletricidade ,0,1,0,2,2025-01-27T16:30:00Z,Bombarral,Leiria,Centro,-9.136946,39.294636
24878641,Poceirão e Marateca,Península de Setúbal,311,2025-01-27T16:26:00Z,24878641,Em despacho,3301,Queda de árvore,0,1,0,1,2025-01-27T16:26:00Z,Palmela,Setúbal,Área Metropolitana De Lisboa,-8.751295,38.672199
24878657,"S.maria, S.miguel, S.martinho, S.pedro Penaferrim",Grande Lisboa,311,2025-01-27T16:38:00Z,24878657,Em despacho,3321,Dano na rede de fornecimento de eletricidade ,0,1,0,2,2025-01-27T16:38:00Z,Sintra,Lisboa,Área Metropolitana De Lisboa,-9.363811,38.743917
24878642,Massamá e Monte Abraão,Grande Lisboa,311,2025-01-27T16:26:00Z,24878642,Em despacho,3301,Queda de árvore,0,1,0,2,2025-01-27T16:26:00Z,Sintra,Lisboa,Área Metropolitana De Lisboa,-9.280008,38.753778
24878645,Alvega e Concavada,Médio Tejo,311,2025-01-27T16:33:00Z,24878645,Em despacho,3301,Queda de árvore,0,2,0,4,2025-01-27T16:33:00Z,Abrantes,Santarém,Centro,-8.065718,39.452075
24878659,Beja (Salvador e Santa Maria da Feira),Baixo Alentejo,312,2025-01-27T15:30:00Z,24878659,Em conclusão,3301,Queda de árvore,0,0,0,0,2025-01-27T15:30:00Z,Beja,Beja,Alentejo,-7.857487,38.018587
24878662,São João da Boa Vista,Região de Coimbra,310,2025-01-27T16:35:00Z,24878662,Em despacho,3301,Queda de árvore,0,1,0,2,2025-01-27T16:35:00Z,Tábua,Coimbra,Centro,-8.008366,40.340948
24878694,São Domingos de Rana,Grande Lisboa,311,2025-01-27T16:34:00Z,24878694,Em despacho,3321,Dano na rede de fornecimento de eletricidade ,0,1,0,3,2025-01-27T16:34:00Z,Cascais,Lisboa,Área Metropolitana De Lisboa,-9.340115,38.702729
24878710,Loures,Grande Lisboa,311,2025-01-27T16:38:00Z,24878710,Em despacho,3301,Queda de árvore,0,1,0,5,2025-01-27T16:38:00Z,Loures,Lisboa,Área Metropolitana De Lisboa,-9.176421,38.828612
24878728,Chamusca e Pinheiro Grande,Lezíria do Tejo,311,2025-01-27T16:51:00Z,24878728,Em despacho,3301,Queda de árvore,0,1,0,2,2025-01-27T16:51:00Z,Chamusca,Santarém,Alentejo,-8.490477,39.362372
24878707,"Oeiras e S. Julião da Barra, Paço de Arcos e Caxias",Grande Lisboa,311,2025-01-27T16:40:00Z,24878707,Em despacho,3329,Queda de estruturas temporárias ou móveis,0,1,0,5,2025-01-27T16:40:00Z,Oeiras,Lisboa,Área Metropolitana De Lisboa,-9.310159,38.698531
