id,address,subregion,neighborhood,date,id.1,state,nature,nature_description,aerial_means,terrestrial_means,aquatic_means,operational,date.1,Concelho,Distrito,NUTII_DSG,longitude,latitude,state_2
25832672,Piódão,Região de Coimbra,310,2025-08-13T05:08:00Z,25832672,Em Resolução/Conclusão,3103,Incêndio rural,0,41,0,136,2025-08-13T05:08:00Z,Arganil,Coimbra,Centro,-7.81972,40.23083,Resolução/Conclusão
25840417,Lousã e Vilarinho,Região de Coimbra,310,2025-08-14T13:46:00Z,25840417,Em Resolução/Conclusão,3101,Incêndio rural,0,3,0,7,2025-08-14T13:46:00Z,Lousã,Coimbra,Centro,-8.201561,40.080016,Resolução/Conclusão
25911638,Moledo,Viseu Dão Lafões,310,2025-08-28T16:35:00Z,25911638,Em Resolução/Conclusão,3103,Incêndio rural,0,6,0,20,2025-08-28T16:35:00Z,Castro Daire,Viseu,Centro,-7.875873,40.821295,Resolução/Conclusão
25912272,Armil,Ave,309,2025-08-28T19:21:00Z,25912272,Em Resolução/Conclusão,3103,Incêndio rural,0,1,0,5,2025-08-28T19:21:00Z,Fafe,Braga,Norte,-8.18856,41.416,Resolução/Conclusão
25912358,Beja (Salvador e Santa Maria da Feira),Baixo Alentejo,312,2025-08-28T19:48:00Z,25912358,Em Despacho,3105,Incêndio rural,0,4,0,17,2025-08-28T19:48:00Z,Beja,Beja,Alentejo,-7.867701,38.028521,Despacho
25912363,Vermoil,Região de Leiria,310,2025-08-28T19:49:00Z,25912363,Em Despacho,3103,Incêndio rural,0,3,0,14,2025-08-28T19:49:00Z,Pombal,Leiria,Centro,-8.703191,39.87191,Despacho
25813482,Freches e Torres,Beiras e Serra da Estrela,310,2025-08-09T16:21:00Z,25813482,Em Resolução/Conclusão,3103,Incêndio rural,0,1,0,5,2025-08-09T16:21:00Z,Trancoso,Guarda,Centro,-7.363745,40.709022,Resolução/Conclusão
25832250,Ferreira de Aves,Viseu Dão Lafões,310,2025-08-13T00:03:00Z,25832250,Em Resolução/Conclusão,3103,Incêndio rural,0,1,0,2,2025-08-13T00:03:00Z,Sátão,Viseu,Centro,-7.647793,40.79568,Resolução/Conclusão
25836309,Cinfães,Tâmega e Sousa,309,2025-08-13T18:17:00Z,25836309,Em Resolução/Conclusão,3103,Incêndio rural,0,1,0,2,2025-08-13T18:17:00Z,Cinfães,Viseu,Norte,-8.071502,41.049757,Resolução/Conclusão
25910498,Cortiçadas de Lavre e Lavre,Alentejo Central,312,2025-08-28T12:32:00Z,25910498,Em Resolução/Conclusão,3103,Incêndio rural,0,26,0,80,2025-08-28T12:32:00Z,Montemor-o-Novo,Évora,Alentejo,-8.362108,38.73748,Resolução/Conclusão
25910697,Chancelaria,Médio Tejo,311,2025-08-28T13:19:00Z,25910697,Em Resolução/Conclusão,3103,Incêndio rural,0,2,0,7,2025-08-28T13:19:00Z,Torres Novas,Santarém,Centro,-8.568325,39.54473,Resolução/Conclusão
25910796,Gralhas,Alto Tâmega e Barroso,309,2025-08-28T13:42:00Z,25910796,Em Resolução/Conclusão,3103,Incêndio rural,0,5,0,19,2025-08-28T13:42:00Z,Montalegre,Vila Real,Norte,-7.719135,41.880207,Resolução/Conclusão
25911099,Chavães,Douro,309,2025-08-28T14:29:00Z,25911099,Em Resolução/Conclusão,3103,Incêndio rural,0,9,0,30,2025-08-28T14:29:00Z,Tabuaço,Viseu,Norte,-7.553807,41.09554,Resolução/Conclusão
25911281,Moimenta de Maceira Dão e Lobelhe do Mato,Viseu Dão Lafões,310,2025-08-28T15:09:00Z,25911281,Em Resolução/Conclusão,3103,Incêndio rural,0,31,0,96,2025-08-28T15:09:00Z,Mangualde,Viseu,Centro,-7.835496,40.578377,Resolução/Conclusão
25911886,Retorta e Tougues,Area M. Porto,309,2025-08-28T17:23:00Z,25911886,Em Despacho,3103,Incêndio rural,0,0,0,0,2025-08-28T17:23:00Z,Vila Do Conde,Porto,Norte,-8.697618,41.352775,Despacho
25911999,"Canedo, Vale e Vila Maior",Area M. Porto,309,2025-08-28T17:54:00Z,25911999,Em Resolução/Conclusão,3103,Incêndio rural,0,1,0,2,2025-08-28T17:54:00Z,Santa Maria Da Feira,Aveiro,Norte,-8.468336,41.006898,Resolução/Conclusão
25912003,Azias,Alto Minho,309,2025-08-28T18:01:00Z,25912003,Em Resolução/Conclusão,3103,Incêndio rural,0,3,0,11,2025-08-28T18:01:00Z,Ponte Da Barca,Viana Do Castelo,Norte,-8.364303,41.774615,Resolução/Conclusão
25883011,Almofala,Viseu Dão Lafões,310,2025-08-22T17:00:00Z,25883011,Em Resolução/Conclusão,3103,Incêndio rural,0,1,0,2,2025-08-22T17:00:00Z,Castro Daire,Viseu,Centro,-7.767003,40.956183,Resolução/Conclusão
25887019,Pedrógão Grande,Região de Leiria,310,2025-08-23T14:27:00Z,25887019,Em Resolução/Conclusão,3101,Incêndio rural,0,6,0,21,2025-08-23T14:27:00Z,Pedrógão Grande,Leiria,Centro,-8.15364,39.9136,Resolução/Conclusão
25906523,Picão e Ermida,Viseu Dão Lafões,310,2025-08-27T15:26:00Z,25906523,Em Resolução/Conclusão,3103,Incêndio rural,0,1,0,2,2025-08-27T15:26:00Z,Castro Daire,Viseu,Centro,-7.9416079999999996,40.947432,Resolução/Conclusão
25910026,Santa Lucrécia de Algeriz e Navarra,Cávado,309,2025-08-28T11:02:00Z,25910026,Em Resolução/Conclusão,3103,Incêndio rural,0,0,0,0,2025-08-28T11:02:00Z,Braga,Braga,Norte,-8.376365,41.605148,Resolução/Conclusão
25911762,"Vale (São Cosme), Telhado e Portela",Ave,309,2025-08-28T17:07:00Z,25911762,Em Resolução/Conclusão,3105,Incêndio rural,0,3,0,12,2025-08-28T17:07:00Z,Vila Nova De Famalicão,Braga,Norte,-8.475612,41.450452,Resolução/Conclusão
25911921,Aldeia do Mato e Souto,Médio Tejo,311,2025-08-28T17:44:00Z,25911921,Em Resolução/Conclusão,3103,Incêndio rural,0,8,0,28,2025-08-28T17:44:00Z,Abrantes,Santarém,Centro,-8.288055,39.541112,Resolução/Conclusão
25911996,Lamas e Cercal,Oeste,311,2025-08-28T18:00:00Z,25911996,Em Resolução/Conclusão,3105,Incêndio rural,0,1,0,5,2025-08-28T18:00:00Z,Cadaval,Lisboa,Centro,-9.057162,39.221439,Resolução/Conclusão
25846480,Sabugal e Aldeia de Santo António,Beiras e Serra da Estrela,310,2025-08-15T14:41:00Z,25846480,Em Resolução/Conclusão,3103,Incêndio rural,0,11,0,33,2025-08-15T14:41:00Z,Sabugal,Guarda,Centro,-7.125037,40.34023,Resolução/Conclusão
25851895,Sortelha,Beiras e Serra da Estrela,310,2025-08-16T14:53:00Z,25851895,Em Resolução/Conclusão,3103,Incêndio rural,0,3,0,15,2025-08-16T14:53:00Z,Sabugal,Guarda,Centro,-7.254367,40.318488,Resolução/Conclusão
25910055,Rebordelo,Terras de Trás-os-Montes,309,2025-08-28T11:08:00Z,25910055,Em Curso,3103,Incêndio rural,3,116,0,357,2025-08-28T11:08:00Z,Vinhais,Bragança,Norte,-7.134773,41.765422,Curso
25910638,Vale,Alto Minho,309,2025-08-28T13:04:00Z,25910638,Em Resolução/Conclusão,3103,Incêndio rural,0,6,0,25,2025-08-28T13:04:00Z,Arcos De Valdevez,Viana Do Castelo,Norte,-8.336287,41.861395,Resolução/Conclusão
25911105,"Requeixo, Nossa Senhora de Fátima e Nariz",Região de Aveiro,310,2025-08-28T14:36:00Z,25911105,Em Resolução/Conclusão,3101,Incêndio rural,0,32,0,111,2025-08-28T14:36:00Z,Aveiro,Aveiro,Centro,-8.555615,40.599955,Resolução/Conclusão
25911894,Santa Maria de Emeres,Alto Tâmega e Barroso,309,2025-08-28T17:34:00Z,25911894,Em Resolução/Conclusão,3103,Incêndio rural,0,5,0,15,2025-08-28T17:34:00Z,Valpaços,Vila Real,Norte,-7.389857,41.536922,Resolução/Conclusão
25912230,Famalicão,Oeste,311,2025-08-28T19:08:00Z,25912230,Em Resolução/Conclusão,3103,Incêndio rural,1,14,0,57,2025-08-28T19:08:00Z,Nazaré,Leiria,Centro,-9.088998,39.518408,Resolução/Conclusão
