id,address,subregion,neighborhood,date,id.1,state,nature,nature_description,aerial_means,terrestrial_means,aquatic_means,operational,date.1,Concelho,Distrito,NUTII_DSG,longitude,latitude,state_2
25599382,Almaceda,Beira Baixa,310,2025-06-29T17:03:00Z,25599382,Em Resolução/Conclusão,3101,Incêndio rural,0,15,0,44,2025-06-29T17:03:00Z,Castelo Branco,Castelo Branco,Centro,-7.65644,39.97,Resolução/Conclusão
25612309,Portela e Extremo,Alto Minho,309,2025-07-01T23:31:00Z,25612309,Em Curso,3103,Incêndio rural,0,9,0,35,2025-07-01T23:31:00Z,Arcos De Valdevez,Viana Do Castelo,Norte,-8.46703,41.947547,Curso
25609774,Meinedo,Tâmega e Sousa,309,2025-07-01T14:32:00Z,25609774,Em Resolução/Conclusão,3103,Incêndio rural,0,4,0,15,2025-07-01T14:32:00Z,Lousada,Porto,Norte,-8.24293,41.25225,Resolução/Conclusão
25611092,Barbacena e Vila Fernando,Alto Alentejo,312,2025-07-01T18:35:00Z,25611092,Em Resolução/Conclusão,3105,Incêndio rural,0,0,0,0,2025-07-01T18:35:00Z,Elvas,Portalegre,Alentejo,-7.30867,38.937875,Resolução/Conclusão
25611445,Almendra,Douro,309,2025-07-01T19:48:00Z,25611445,Em Resolução/Conclusão,3103,Incêndio rural,0,1,0,2,2025-07-01T19:48:00Z,Vila Nova De Foz Côa,Guarda,Norte,-7.055158,40.97822,Resolução/Conclusão
25612328,Fragoso,Cávado,309,2025-07-01T23:40:00Z,25612328,Em Resolução/Conclusão,3101,Incêndio rural,0,4,0,14,2025-07-01T23:40:00Z,Barcelos,Braga,Norte,-8.703137,41.611108,Resolução/Conclusão
25603618,Messejana,Baixo Alentejo,312,2025-06-30T13:09:00Z,25603618,Em Resolução/Conclusão,3101,Incêndio rural,0,17,0,48,2025-06-30T13:09:00Z,Aljustrel,Beja,Alentejo,-8.169013,37.814978,Resolução/Conclusão
25605147,Vale do Côa,Beiras e Serra da Estrela,310,2025-06-30T17:42:00Z,25605147,Em Resolução/Conclusão,3103,Incêndio rural,0,7,0,23,2025-06-30T17:42:00Z,Pinhel,Guarda,Centro,-7.114995,40.946045,Resolução/Conclusão
25610143,Nossa Senhora Das Misericórdias,Médio Tejo,311,2025-07-01T15:32:00Z,25610143,Em Resolução/Conclusão,3103,Incêndio rural,0,1,0,5,2025-07-01T15:32:00Z,Ourém,Santarém,Centro,-8.600277,39.655883,Resolução/Conclusão
25612369,Almendra,Douro,309,2025-07-01T23:52:00Z,25612369,Em Despacho,3103,Incêndio rural,0,4,0,16,2025-07-01T23:52:00Z,Vila Nova De Foz Côa,Guarda,Norte,-7.019086,40.97769,Despacho
25610953,Barbacena e Vila Fernando,Alto Alentejo,312,2025-07-01T18:18:00Z,25610953,Em Resolução/Conclusão,3101,Incêndio rural,0,20,0,66,2025-07-01T18:18:00Z,Elvas,Portalegre,Alentejo,-7.318435,38.920227,Resolução/Conclusão
25611134,NA,NA,0,2025-07-01T18:49:00Z,25611134,Em Resolução/Conclusão,3103,Incêndio rural,1,2,0,9,2025-07-01T18:49:00Z,NA,NA,NA,-7.043042,41.965998,Resolução/Conclusão
25611301,"Algodres, Vale de Afonsinho e Vilar de Amargo",Beiras e Serra da Estrela,310,2025-07-01T19:25:00Z,25611301,Em Resolução/Conclusão,3103,Incêndio rural,0,19,0,72,2025-07-01T19:25:00Z,Figueira De Castelo Rodrigo,Guarda,Centro,-7.002512,40.960853,Resolução/Conclusão
25612339,Portela e Extremo,Alto Minho,309,2025-07-01T23:38:00Z,25612339,Em Curso,3103,Incêndio rural,0,2,0,7,2025-07-01T23:38:00Z,Arcos De Valdevez,Viana Do Castelo,Norte,-8.475668,41.955318,Curso
25612437,Odivelas,Grande Lisboa,311,2025-07-02T00:20:00Z,25612437,Em Resolução/Conclusão,3103,Incêndio rural,0,2,0,10,2025-07-02T00:20:00Z,Odivelas,Lisboa,Área Metropolitana De Lisboa,-9.18444,38.78194,Resolução/Conclusão
