id,address,subregion,neighborhood,date,id.1,state,nature,nature_description,aerial_means,terrestrial_means,aquatic_means,operational,date.1,Concelho,Distrito,NUTII_DSG,longitude,latitude,state_2
25622582,Fornelos e Queijada,Alto Minho,309,2025-07-03T20:51:00Z,25622582,Em Resolução/Conclusão,3103,Incêndio rural,0,2,0,9,2025-07-03T20:51:00Z,Ponte De Lima,Viana Do Castelo,Norte,-8.540544,41.732269,Resolução/Conclusão
25622685,Carregueira,Lezíria do Tejo,311,2025-07-03T21:09:00Z,25622685,Em Resolução/Conclusão,3111,Queima,0,2,0,10,2025-07-03T21:09:00Z,Chamusca,Santarém,Alentejo,-8.417562,39.42559,Resolução/Conclusão
25622717,Ferreira-a-Nova,Região de Coimbra,310,2025-07-03T21:21:00Z,25622717,Em Despacho,3103,Incêndio rural,0,5,0,22,2025-07-03T21:21:00Z,Figueira Da Foz,Coimbra,Centro,-8.740439,40.214236,Despacho
25610143,Nossa Senhora Das Misericórdias,Médio Tejo,311,2025-07-01T15:32:00Z,25610143,Em Resolução/Conclusão,3103,Incêndio rural,0,1,0,5,2025-07-01T15:32:00Z,Ourém,Santarém,Centro,-8.600277,39.655883,Resolução/Conclusão
25620464,Cativelos,Beiras e Serra da Estrela,310,2025-07-03T13:45:00Z,25620464,Em Resolução/Conclusão,3103,Incêndio rural,0,3,0,8,2025-07-03T13:45:00Z,Gouveia,Guarda,Centro,-7.704635,40.546025,Resolução/Conclusão
25620664,Côja e Barril de Alva,Região de Coimbra,310,2025-07-03T14:22:00Z,25620664,Em Resolução/Conclusão,3101,Incêndio rural,0,34,0,96,2025-07-03T14:22:00Z,Arganil,Coimbra,Centro,-7.95667,40.2725,Resolução/Conclusão
25621432,Amendoeira,Terras de Trás-os-Montes,309,2025-07-03T16:42:00Z,25621432,Em Resolução/Conclusão,3103,Incêndio rural,0,2,0,7,2025-07-03T16:42:00Z,Macedo De Cavaleiros,Bragança,Norte,-6.990148,41.55541,Resolução/Conclusão
25621641,São Miguel do Rio Torto e Rossio Ao Sul do Tejo,Médio Tejo,311,2025-07-03T17:22:00Z,25621641,Em Resolução/Conclusão,3105,Incêndio rural,0,1,0,2,2025-07-03T17:22:00Z,Abrantes,Santarém,Centro,-8.196103,39.43087,Resolução/Conclusão
25622629,Fonte de Angeão e Covão do Lobo,Região de Aveiro,310,2025-07-03T20:59:00Z,25622629,Em Resolução/Conclusão,3105,Incêndio rural,0,1,0,5,2025-07-03T20:59:00Z,Vagos,Aveiro,Centro,-8.647015,40.441629,Resolução/Conclusão
25599382,Almaceda,Beira Baixa,310,2025-06-29T17:03:00Z,25599382,Em Resolução/Conclusão,3101,Incêndio rural,0,4,0,13,2025-06-29T17:03:00Z,Castelo Branco,Castelo Branco,Centro,-7.645695,39.962858,Resolução/Conclusão
25621694,"Bustos, Troviscal e Mamarrosa",Região de Aveiro,310,2025-07-03T17:39:00Z,25621694,Em Resolução/Conclusão,3101,Incêndio rural,0,3,0,10,2025-07-03T17:39:00Z,Oliveira Do Bairro,Aveiro,Centro,-8.556472,40.474195,Resolução/Conclusão
25621801,Lomba,Area M. Porto,309,2025-07-03T18:03:00Z,25621801,Em Resolução/Conclusão,3103,Incêndio rural,0,1,0,2,2025-07-03T18:03:00Z,Gondomar,Porto,Norte,-8.408252,41.034001,Resolução/Conclusão
25622171,"Barcel, Marmelos e Valverde da Gestosa",Terras de Trás-os-Montes,309,2025-07-03T19:16:00Z,25622171,Em Curso,3103,Incêndio rural,0,23,0,83,2025-07-03T19:16:00Z,Mirandela,Bragança,Norte,-7.21564,41.391697,Curso
25622185,Fornos,Tâmega e Sousa,309,2025-07-03T19:19:00Z,25622185,Em Curso,3103,Incêndio rural,0,13,0,46,2025-07-03T19:19:00Z,Cinfães,Viseu,Norte,-8.235655,41.066475,Curso
25622328,"N. S. da Vila, N. S. do Bispo e Silveiras",Alentejo Central,312,2025-07-03T19:50:00Z,25622328,Em Resolução/Conclusão,3103,Incêndio rural,0,0,0,0,2025-07-03T19:50:00Z,Montemor-o-Novo,Évora,Alentejo,-8.236407,38.60366,Resolução/Conclusão
25622462,Sortes,Terras de Trás-os-Montes,309,2025-07-03T20:22:00Z,25622462,Em Curso,3103,Incêndio rural,0,9,0,36,2025-07-03T20:22:00Z,Bragança,Bragança,Norte,-6.838812,41.700238,Curso
25622521,Podence e Santa Combinha,Terras de Trás-os-Montes,309,2025-07-03T20:38:00Z,25622521,Em Despacho,3103,Incêndio rural,0,0,0,0,2025-07-03T20:38:00Z,Macedo De Cavaleiros,Bragança,Norte,-6.915205,41.61426,Despacho
25620835,Recarei,Area M. Porto,309,2025-07-03T14:40:00Z,25620835,Em Resolução/Conclusão,3103,Incêndio rural,0,12,0,33,2025-07-03T14:40:00Z,Paredes,Porto,Norte,-8.427998,41.160472,Resolução/Conclusão
25622107,Vascoveiro,Beiras e Serra da Estrela,310,2025-07-03T19:03:00Z,25622107,Em Resolução/Conclusão,3103,Incêndio rural,0,6,0,21,2025-07-03T19:03:00Z,Pinhel,Guarda,Centro,-7.07463,40.739772,Resolução/Conclusão
25622339,Carregueira,Lezíria do Tejo,311,2025-07-03T19:55:00Z,25622339,Em Resolução/Conclusão,3105,Incêndio rural,0,2,0,4,2025-07-03T19:55:00Z,Chamusca,Santarém,Alentejo,-8.43161,39.431148,Resolução/Conclusão
25622580,Ribeira do Neiva,Cávado,309,2025-07-03T20:50:00Z,25622580,Em Curso,3103,Incêndio rural,0,4,0,20,2025-07-03T20:50:00Z,Vila Verde,Braga,Norte,-8.51215,41.728757,Curso
25622603,Corval,Alentejo Central,312,2025-07-03T20:56:00Z,25622603,Em Resolução/Conclusão,3103,Incêndio rural,0,2,0,7,2025-07-03T20:56:00Z,Reguengos De Monsaraz,Évora,Alentejo,-7.465278,38.444932,Resolução/Conclusão
25622619,"Canedo, Vale e Vila Maior",Area M. Porto,309,2025-07-03T20:58:00Z,25622619,Em Despacho,3103,Incêndio rural,0,1,0,5,2025-07-03T20:58:00Z,Santa Maria Da Feira,Aveiro,Norte,-8.50435,41.00555,Despacho
25622753,Castelões,Ave,309,2025-07-03T21:27:00Z,25622753,Em Despacho,3103,Incêndio rural,0,3,0,14,2025-07-03T21:27:00Z,Vila Nova De Famalicão,Braga,Norte,-8.434668,41.40953,Despacho
