id,address,subregion,neighborhood,date,id.1,state,nature,nature_description,aerial_means,terrestrial_means,aquatic_means,operational,date.1,Concelho,Distrito,NUTII_DSG,longitude,latitude
24914160,Nazaré,Oeste,311,2025-02-04T13:38:00Z,24914160,Em curso,3321,Dano na rede de fornecimento de eletricidade ,0,2,0,3,2025-02-04T13:38:00Z,Nazaré,Leiria,Centro,-9.062127,39.596083
24914583,São Bernardo,Região de Aveiro,310,2025-02-04T15:00:00Z,24914583,Em conclusão,3321,Dano na rede de fornecimento de eletricidade ,0,2,0,6,2025-02-04T15:00:00Z,Aveiro,Aveiro,Centro,-8.61244,40.60656
24877003,Malagueira e Horta Das Figueiras,Alentejo Central,312,2025-01-27T11:41:00Z,24877003,Em conclusão,3315,Inundação de estruturas por precipitação intensa,0,0,0,0,2025-01-27T11:41:00Z,Évora,Évora,Alentejo,-7.924277,38.57285
24913301,São João Baptista,Médio Tejo,311,2025-02-04T10:40:00Z,24913301,Em despacho,3301,Queda de árvore,0,1,0,1,2025-02-04T10:40:00Z,Entroncamento,Santarém,Centro,-8.472394,39.461503
24914473,Gulpilhares e Valadares,Area M. Porto,309,2025-02-04T14:35:00Z,24914473,Em despacho,3301,Queda de árvore,0,1,0,5,2025-02-04T14:35:00Z,Vila Nova De Gaia,Porto,Norte,-8.637978,41.084091
