id,address,subregion,neighborhood,date,id.1,state,nature,nature_description,aerial_means,terrestrial_means,aquatic_means,operational,date.1,Concelho,Distrito,NUTII_DSG,longitude,latitude,state_2
26140962,Avessadas e Rosém,Tâmega e Sousa,309,2025-10-15T14:10:00Z,26140962,Em Resolução/Conclusão,3103,Incêndio rural,0,1,0,5,2025-10-15T14:10:00Z,Marco De Canaveses,Porto,Norte,-8.190742,41.160777,Resolução/Conclusão
26142350,Chorense e Monte,Cávado,309,2025-10-15T19:02:00Z,26142350,Em Resolução/Conclusão,3103,Incêndio rural,0,6,0,27,2025-10-15T19:02:00Z,Terras De Bouro,Braga,Norte,-8.234,41.708437000000004,Resolução/Conclusão
26142950,Fervença,Tâmega e Sousa,309,2025-10-15T21:20:00Z,26142950,Em Despacho,3105,Incêndio rural,0,1,0,5,2025-10-15T21:20:00Z,Celorico De Basto,Braga,Norte,-8.080109,41.36041,Despacho
26141641,"Ovar, São João, Arada e São Vicente de Pereira Jusã",Região de Aveiro,310,2025-10-15T16:24:00Z,26141641,Em Resolução/Conclusão,3103,Incêndio rural,0,4,0,10,2025-10-15T16:24:00Z,Ovar,Aveiro,Centro,-8.563633,40.8693,Resolução/Conclusão
26142313,Aguiã,Alto Minho,309,2025-10-15T18:53:00Z,26142313,Em Resolução/Conclusão,3103,Incêndio rural,0,2,0,5,2025-10-15T18:53:00Z,Arcos De Valdevez,Viana Do Castelo,Norte,-8.45017,41.882708,Resolução/Conclusão
26140802,Talhadas,Região de Aveiro,310,2025-10-15T13:42:00Z,26140802,Em Resolução/Conclusão,3101,Incêndio rural,0,6,0,17,2025-10-15T13:42:00Z,Sever Do Vouga,Aveiro,Centro,-8.320335,40.682953,Resolução/Conclusão
26142957,"Santa Maria da Feira, Travanca, Sanfins e Espargo",Area M. Porto,309,2025-10-15T21:12:00Z,26142957,Em Resolução/Conclusão,3111,Queima,0,2,0,7,2025-10-15T21:12:00Z,Santa Maria Da Feira,Aveiro,Norte,-8.555837,40.9255,Resolução/Conclusão
26142974,Arouca e Burgo,Area M. Porto,309,2025-10-15T21:17:00Z,26142974,Em Resolução/Conclusão,3103,Incêndio rural,0,3,0,12,2025-10-15T21:17:00Z,Arouca,Aveiro,Norte,-8.248269,40.914583,Resolução/Conclusão
26141878,"Soeira, Fresulfe e Mofreita",Terras de Trás-os-Montes,309,2025-10-15T17:20:00Z,26141878,Em Resolução/Conclusão,3103,Incêndio rural,0,2,0,7,2025-10-15T17:20:00Z,Vinhais,Bragança,Norte,-6.906108,41.939292,Resolução/Conclusão
26142430,Louredo,Area M. Porto,309,2025-10-15T19:15:00Z,26142430,Em Resolução/Conclusão,3103,Incêndio rural,0,1,0,5,2025-10-15T19:15:00Z,Paredes,Porto,Norte,-8.343133,41.23802,Resolução/Conclusão
26142628,Fontoura,Alto Minho,309,2025-10-15T19:55:00Z,26142628,Em Resolução/Conclusão,3103,Incêndio rural,0,4,0,19,2025-10-15T19:55:00Z,Valença,Viana Do Castelo,Norte,-8.6228,41.963058,Resolução/Conclusão
26142678,"Refojos de Basto, Outeiro e Painzela",Ave,309,2025-10-15T20:09:00Z,26142678,Em Curso,3103,Incêndio rural,0,2,0,10,2025-10-15T20:09:00Z,Cabeceiras De Basto,Braga,Norte,-7.98507,41.51442,Curso
26142687,Santa Leocádia,Alto Tâmega e Barroso,309,2025-10-15T20:11:00Z,26142687,Em Resolução/Conclusão,3103,Incêndio rural,0,4,0,14,2025-10-15T20:11:00Z,Chaves,Vila Real,Norte,-7.476787,41.616445,Resolução/Conclusão
26142764,Costa,Ave,309,2025-10-15T20:28:00Z,26142764,Em Curso,3103,Incêndio rural,0,1,0,2,2025-10-15T20:28:00Z,Guimarães,Braga,Norte,-8.283141,41.44088,Curso
