id,address,subregion,neighborhood,date,id.1,state,nature,nature_description,aerial_means,terrestrial_means,aquatic_means,operational,date.1,Concelho,Distrito,NUTII_DSG,longitude,latitude
25483818,Quinta do Conde,Península de Setúbal,311,2025-06-06T02:33:00Z,25483818,Em conclusão,3105,Incêndio rural,0,2,0,9,2025-06-06T02:33:00Z,Sesimbra,Setúbal,Área Metropolitana De Lisboa,-9.03613,38.570355
25483688,Mindelo,Area M. Porto,309,2025-06-06T01:01:00Z,25483688,Em conclusão,2201,Incêndio em equipamentos ou produtos,0,2,0,6,2025-06-06T01:01:00Z,Vila Do Conde,Porto,Norte,-8.730293,41.3097
25483806,Atouguia da Baleia,Oeste,311,2025-06-06T02:27:00Z,25483806,Em curso,2201,Incêndio em equipamentos ou produtos,0,3,0,10,2025-06-06T02:27:00Z,Peniche,Leiria,Centro,-9.32056,39.30575
25483712,Marinha Grande,Região de Leiria,310,2025-06-06T01:03:00Z,25483712,Em despacho,3203,Detritos confinados,0,1,0,2,2025-06-06T01:03:00Z,Marinha Grande,Leiria,Centro,-8.919612,39.758352
25483743,"Almada, Cova da Piedade, Pragal e Cacilhas",Península de Setúbal,311,2025-06-06T01:29:00Z,25483743,Em curso,2127,"Incêndio em edifícios e recintos industriais, oficinas e armazéns",0,5,0,15,2025-06-06T01:29:00Z,Almada,Setúbal,Área Metropolitana De Lisboa,-9.173069,38.677312
