id,address,subregion,neighborhood,date,id.1,state,nature,nature_description,aerial_means,terrestrial_means,aquatic_means,operational,date.1,Concelho,Distrito,NUTII_DSG,longitude,latitude,state_2
25735859,Pussos São Pedro,Região de Leiria,310,2025-07-26T11:20:00Z,25735859,Em Resolução/Conclusão,3101,Incêndio rural,1,4,0,23,2025-07-26T11:20:00Z,Alvaiázere,Leiria,Centro,-8.350118,39.835842,Resolução/Conclusão
25735962,Recarei,Area M. Porto,309,2025-07-26T11:44:00Z,25735962,Em Despacho,3101,Incêndio rural,1,0,0,6,2025-07-26T11:44:00Z,Paredes,Porto,Norte,-8.414286,41.153815,Despacho
25727257,Santiago de Piães,Tâmega e Sousa,309,2025-07-24T17:40:00Z,25727257,Em Resolução/Conclusão,3103,Incêndio rural,0,2,0,10,2025-07-24T17:40:00Z,Cinfães,Viseu,Norte,-8.173138,41.025392,Resolução/Conclusão
25735145,Samora Correia,Lezíria do Tejo,311,2025-07-26T08:57:00Z,25735145,Em Resolução/Conclusão,3105,Incêndio rural,0,8,0,31,2025-07-26T08:57:00Z,Benavente,Santarém,Alentejo,-8.89139,38.89694,Resolução/Conclusão
25735715,Nogueira e Silva Escura,Area M. Porto,309,2025-07-26T10:46:00Z,25735715,Em Resolução/Conclusão,3103,Incêndio rural,0,2,0,6,2025-07-26T10:46:00Z,Maia,Porto,Norte,-8.594448,41.236453,Resolução/Conclusão
25735831,Sabadim,Alto Minho,309,2025-07-26T11:13:00Z,25735831,Em Resolução/Conclusão,3105,Incêndio rural,0,1,0,5,2025-07-26T11:13:00Z,Arcos De Valdevez,Viana Do Castelo,Norte,-8.440652,41.907735,Resolução/Conclusão
25735863,Lustosa e Barrosas (Santo Estêvão),Tâmega e Sousa,309,2025-07-26T11:23:00Z,25735863,Em Resolução/Conclusão,3103,Incêndio rural,1,4,0,26,2025-07-26T11:23:00Z,Lousada,Porto,Norte,-8.31353,41.33044,Resolução/Conclusão
25729082,São Jorge e Ermelo,Alto Minho,309,2025-07-25T04:45:00Z,25729082,Em Resolução/Conclusão,3101,Incêndio rural,0,16,0,51,2025-07-25T04:45:00Z,Arcos De Valdevez,Viana Do Castelo,Norte,-8.356835,41.818005,Resolução/Conclusão
25735801,Cantanhede e Pocariça,Região de Coimbra,310,2025-07-26T11:02:00Z,25735801,Em Resolução/Conclusão,3105,Incêndio rural,0,2,0,7,2025-07-26T11:02:00Z,Cantanhede,Coimbra,Centro,-8.58806,40.35056,Resolução/Conclusão
25735885,Miranda do Douro,Terras de Trás-os-Montes,309,2025-07-26T11:25:00Z,25735885,Em Curso,3103,Incêndio rural,2,10,0,40,2025-07-26T11:25:00Z,Miranda Do Douro,Bragança,Norte,-6.245727,41.563985,Curso
25730832,Aveleda e Rio de Onor,Terras de Trás-os-Montes,309,2025-07-25T12:07:00Z,25730832,Em Resolução/Conclusão,3103,Incêndio rural,0,17,0,59,2025-07-25T12:07:00Z,Bragança,Bragança,Norte,-6.707873,41.891435,Resolução/Conclusão
25734678,Quintiães e Aguiar,Cávado,309,2025-07-26T06:15:00Z,25734678,Em Resolução/Conclusão,3103,Incêndio rural,0,3,0,9,2025-07-26T06:15:00Z,Barcelos,Braga,Norte,-8.660918,41.629673,Resolução/Conclusão
25735899,Estremoz (Santa Maria e Santo André),Alentejo Central,312,2025-07-26T11:27:00Z,25735899,Em Resolução/Conclusão,3105,Incêndio rural,0,6,0,20,2025-07-26T11:27:00Z,Estremoz,Évora,Alentejo,-7.576865,38.839093,Resolução/Conclusão
