id,address,subregion,neighborhood,date,id.1,state,nature,nature_description,aerial_means,terrestrial_means,aquatic_means,operational,date.1,Concelho,Distrito,NUTII_DSG,longitude,latitude,state_2
25681265,Malagueira e Horta Das Figueiras,Alentejo Central,312,2025-07-15T12:16:00Z,25681265,Em Resolução/Conclusão,3105,Incêndio rural,0,5,0,21,2025-07-15T12:16:00Z,Évora,Évora,Alentejo,-7.919813,38.535772,Resolução/Conclusão
25681665,"S.pedro e Santiago, S.maria e S.miguel e Matacães",Oeste,311,2025-07-15T13:47:00Z,25681665,Em Curso,3103,Incêndio rural,0,6,0,20,2025-07-15T13:47:00Z,Torres Vedras,Lisboa,Centro,-9.21485,39.08472,Curso
25665133,Lindoso,Alto Minho,309,2025-07-12T02:50:00Z,25665133,Em Resolução/Conclusão,3103,Incêndio rural,0,2,0,9,2025-07-12T02:50:00Z,Ponte Da Barca,Viana Do Castelo,Norte,-8.224007,41.852543,Resolução/Conclusão
25677014,Alcórrego e Maranhão,Alto Alentejo,312,2025-07-14T15:07:00Z,25677014,Em Resolução/Conclusão,3101,Incêndio rural,0,11,0,37,2025-07-14T15:07:00Z,Avis,Portalegre,Alentejo,-7.895798,38.982193,Resolução/Conclusão
25681110,Beja (Salvador e Santa Maria da Feira),Baixo Alentejo,312,2025-07-15T11:51:00Z,25681110,Em Resolução/Conclusão,3105,Incêndio rural,0,2,0,7,2025-07-15T11:51:00Z,Beja,Beja,Alentejo,-7.866732,38.028367,Resolução/Conclusão
25681159,Avantos e Romeu,Terras de Trás-os-Montes,309,2025-07-15T12:00:00Z,25681159,Em Resolução/Conclusão,3103,Incêndio rural,0,7,0,26,2025-07-15T12:00:00Z,Mirandela,Bragança,Norte,-7.094395,41.53114,Resolução/Conclusão
25681178,Vale,Alto Minho,309,2025-07-15T12:07:00Z,25681178,Em Resolução/Conclusão,3103,Incêndio rural,0,2,0,7,2025-07-15T12:07:00Z,Arcos De Valdevez,Viana Do Castelo,Norte,-8.342435,41.860022,Resolução/Conclusão
25681100,Sendim e Atenor,Terras de Trás-os-Montes,309,2025-07-15T11:45:00Z,25681100,Em Resolução/Conclusão,3103,Incêndio rural,0,9,0,32,2025-07-15T11:45:00Z,Miranda Do Douro,Bragança,Norte,-6.433873,41.404508,Resolução/Conclusão
25681469,São Mamede de Infesta e Senhora da Hora,Area M. Porto,309,2025-07-15T13:02:00Z,25681469,Em Resolução/Conclusão,3105,Incêndio rural,0,2,0,7,2025-07-15T13:02:00Z,Matosinhos,Porto,Norte,-8.616737,41.184302,Resolução/Conclusão
25681570,Nespereira,Tâmega e Sousa,309,2025-07-15T13:27:00Z,25681570,Em Curso,3101,Incêndio rural,1,10,0,43,2025-07-15T13:27:00Z,Cinfães,Viseu,Norte,-8.17601,41.008988,Curso
25603618,Messejana,Baixo Alentejo,312,2025-06-30T13:09:00Z,25603618,Em Resolução/Conclusão,3101,Incêndio rural,0,0,0,0,2025-06-30T13:09:00Z,Aljustrel,Beja,Alentejo,-8.169013,37.814978,Resolução/Conclusão
25681114,"S. Mig. Pinheiro, S. Pedro Solis e S. Sebastião Carros",Baixo Alentejo,312,2025-07-15T11:44:00Z,25681114,Em Resolução/Conclusão,3105,Incêndio rural,0,1,0,5,2025-07-15T11:44:00Z,Mértola,Beja,Alentejo,-7.901305,37.480835,Resolução/Conclusão
25681516,Cantelães,Ave,309,2025-07-15T13:13:00Z,25681516,Em Resolução/Conclusão,3103,Incêndio rural,0,3,0,14,2025-07-15T13:13:00Z,Vieira Do Minho,Braga,Norte,-8.109991,41.6508,Resolução/Conclusão
25681700,Alenquer (Santo Estêvão e Triana),Oeste,311,2025-07-15T13:53:00Z,25681700,Em Despacho,3103,Incêndio rural,0,0,0,0,2025-07-15T13:53:00Z,Alenquer,Lisboa,Centro,-8.989469,39.082345,Despacho
25681644,Lustosa e Barrosas (Santo Estêvão),Tâmega e Sousa,309,2025-07-15T13:44:00Z,25681644,Em Despacho,3103,Incêndio rural,1,1,0,11,2025-07-15T13:44:00Z,Lousada,Porto,Norte,-8.322863,41.33742,Despacho
