id,address,subregion,neighborhood,date,id.1,state,nature,nature_description,aerial_means,terrestrial_means,aquatic_means,operational,date.1,Concelho,Distrito,NUTII_DSG,longitude,latitude
24877003,Malagueira e Horta Das Figueiras,Alentejo Central,312,2025-01-27T11:41:00Z,24877003,Em conclusão,3315,Inundação de estruturas por precipitação intensa,0,0,0,0,2025-01-27T11:41:00Z,Évora,Évora,Alentejo,-7.924277,38.57285
24909241,Peniche,Oeste,311,2025-02-03T12:04:00Z,24909241,Em curso,3321,Dano na rede de fornecimento de eletricidade ,0,1,0,2,2025-02-03T12:04:00Z,Peniche,Leiria,Centro,-9.376833,39.357166
24909456,Alcafache,Viseu Dão Lafões,310,2025-02-03T12:55:00Z,24909456,Em despacho,3301,Queda de árvore,0,1,0,2,2025-02-03T12:55:00Z,Mangualde,Viseu,Centro,-7.866117,40.600064
24851780,"São Miguel, Santa Eufémia e Rabaçal",Região de Coimbra,310,2025-01-21T23:25:00Z,24851780,Em curso,3315,Inundação de estruturas por precipitação intensa,0,0,0,0,2025-01-21T23:25:00Z,Penela,Coimbra,Centro,-8.399036,40.025502
24909377,Santo António Dos Cavaleiros e Frielas,Grande Lisboa,311,2025-02-03T12:45:00Z,24909377,Em despacho,3317,Inundação de estruturas por água canalizada,0,0,0,0,2025-02-03T12:45:00Z,Loures,Lisboa,Área Metropolitana De Lisboa,-9.16334,38.81613
