id,address,subregion,neighborhood,date,id.1,state,nature,nature_description,aerial_means,terrestrial_means,aquatic_means,operational,date.1,Concelho,Distrito,NUTII_DSG,longitude,latitude,state_2
25951176,Sandomil,Beiras e Serra da Estrela,310,2025-09-06T10:29:00Z,25951176,Em Resolução/Conclusão,3103,Incêndio rural,0,2,0,10,2025-09-06T10:29:00Z,Seia,Guarda,Centro,-7.76001,40.351547,Resolução/Conclusão
26046771,Salvador e Santo Aleixo de Além-Tâmega,Alto Tâmega e Barroso,309,2025-09-26T09:50:00Z,26046771,Em Despacho,3103,Incêndio rural,0,1,0,5,2025-09-26T09:50:00Z,Ribeira De Pena,Vila Real,Norte,-7.83023,41.49276,Despacho
26037389,Sande e São Lourenço,Tâmega e Sousa,309,2025-09-24T11:40:00Z,26037389,Em Resolução/Conclusão,3103,Incêndio rural,0,1,0,5,2025-09-24T11:40:00Z,Marco De Canaveses,Porto,Norte,-8.18871,41.112067,Resolução/Conclusão
26045895,Bougado (São Martinho e Santiago),Area M. Porto,309,2025-09-26T05:08:00Z,26045895,Em Resolução/Conclusão,3103,Incêndio rural,0,5,0,16,2025-09-26T05:08:00Z,Trofa,Porto,Norte,-8.559707,41.309898,Resolução/Conclusão
26013065,Mezio e Moura Morta,Viseu Dão Lafões,310,2025-09-19T11:05:00Z,26013065,Em Resolução/Conclusão,3103,Incêndio rural,0,2,0,6,2025-09-19T11:05:00Z,Castro Daire,Viseu,Centro,-7.878187,40.98632,Resolução/Conclusão
26013919,Ervedal e Vila Franca da Beira,Região de Coimbra,310,2025-09-19T13:25:00Z,26013919,Em Resolução/Conclusão,3101,Incêndio rural,0,0,0,0,2025-09-19T13:25:00Z,Oliveira Do Hospital,Coimbra,Centro,-7.90472,40.43917,Resolução/Conclusão
26031908,Arcozelo Das Maias,Viseu Dão Lafões,310,2025-09-23T10:21:00Z,26031908,Em Resolução/Conclusão,3103,Incêndio rural,0,0,0,0,2025-09-23T10:21:00Z,Oliveira De Frades,Viseu,Centro,-8.27871,40.723646,Resolução/Conclusão
26046809,"Seixal, Arrentela e Aldeia de Paio Pires",Península de Setúbal,311,2025-09-26T09:55:00Z,26046809,Em Resolução/Conclusão,3103,Incêndio rural,1,6,0,28,2025-09-26T09:55:00Z,Seixal,Setúbal,Área Metropolitana De Lisboa,-9.07,38.60611,Resolução/Conclusão
26013405,Barreiros e Cepões,Viseu Dão Lafões,310,2025-09-19T11:56:00Z,26013405,Em Resolução/Conclusão,3103,Incêndio rural,0,0,0,0,2025-09-19T11:56:00Z,Viseu,Viseu,Centro,-7.786007,40.76602,Resolução/Conclusão
26022995,Bordeira,Algarve,313,2025-09-21T12:21:00Z,26022995,Em Resolução/Conclusão,3103,Incêndio rural,0,122,0,362,2025-09-21T12:21:00Z,Aljezur,Faro,Algarve,-8.825374,37.23495,Resolução/Conclusão
26045226,Alvares,Região de Coimbra,310,2025-09-25T21:48:00Z,26045226,Em Resolução/Conclusão,3101,Incêndio rural,0,1,0,5,2025-09-25T21:48:00Z,Góis,Coimbra,Centro,-8.092095,40.053722,Resolução/Conclusão
26045457,Lorvão,Região de Coimbra,310,2025-09-25T23:23:00Z,26045457,Em Resolução/Conclusão,3103,Incêndio rural,0,3,0,8,2025-09-25T23:23:00Z,Penacova,Coimbra,Centro,-8.32361,40.23278,Resolução/Conclusão
26046760,"Camarate, Unhos e Apelação",Grande Lisboa,311,2025-09-26T09:42:00Z,26046760,Em Resolução/Conclusão,3103,Incêndio rural,0,1,0,5,2025-09-26T09:42:00Z,Loures,Lisboa,Área Metropolitana De Lisboa,-9.123232,38.812862,Resolução/Conclusão
26046878,Vilarelho da Raia,Alto Tâmega e Barroso,309,2025-09-26T10:05:00Z,26046878,Em Despacho,3103,Incêndio rural,1,4,0,24,2025-09-26T10:05:00Z,Chaves,Vila Real,Norte,-7.45125,41.8428,Despacho
