id,address,subregion,neighborhood,date,id.1,state,nature,nature_description,aerial_means,terrestrial_means,aquatic_means,operational,date.1,Concelho,Distrito,NUTII_DSG,longitude,latitude,state_2
25951176,Sandomil,Beiras e Serra da Estrela,310,2025-09-06T10:29:00Z,25951176,Em Resolução/Conclusão,3103,Incêndio rural,0,15,0,52,2025-09-06T10:29:00Z,Seia,Guarda,Centro,-7.76001,40.351547,Resolução/Conclusão
25981808,"Avidagos, Navalho e Pereira",Terras de Trás-os-Montes,309,2025-09-12T20:38:00Z,25981808,Em Resolução/Conclusão,3103,Incêndio rural,0,2,0,7,2025-09-12T20:38:00Z,Mirandela,Bragança,Norte,-7.264448,41.359912,Resolução/Conclusão
25983781,Carrapichana,Beiras e Serra da Estrela,310,2025-09-13T10:35:00Z,25983781,Em Resolução/Conclusão,3103,Incêndio rural,0,5,0,19,2025-09-13T10:35:00Z,Celorico Da Beira,Guarda,Centro,-7.489677,40.56135,Resolução/Conclusão
25983846,São João Baptista e Santa Maria Dos Olivais,Médio Tejo,311,2025-09-13T10:50:00Z,25983846,Em Resolução/Conclusão,3103,Incêndio rural,1,3,0,15,2025-09-13T10:50:00Z,Tomar,Santarém,Centro,-8.362825,39.598243,Resolução/Conclusão
25980131,Carva e Vilares,Douro,309,2025-09-12T14:27:00Z,25980131,Em Resolução/Conclusão,3103,Incêndio rural,4,103,0,333,2025-09-12T14:27:00Z,Murça,Vila Real,Norte,-7.55901,41.401343,Resolução/Conclusão
25980930,Santo André Das Tojeiras,Beira Baixa,310,2025-09-12T17:08:00Z,25980930,Em Resolução/Conclusão,3101,Incêndio rural,1,24,0,78,2025-09-12T17:08:00Z,Castelo Branco,Castelo Branco,Centro,-7.72701,39.809058,Resolução/Conclusão
25983804,Vila de Rei,Beira Baixa,310,2025-09-13T10:40:00Z,25983804,Em Resolução/Conclusão,3103,Incêndio rural,0,3,0,8,2025-09-13T10:40:00Z,Vila De Rei,Castelo Branco,Centro,-8.160448,39.67207,Resolução/Conclusão
25983906,Pombal,Região de Leiria,310,2025-09-13T11:02:00Z,25983906,Em Resolução/Conclusão,3103,Incêndio rural,0,3,0,15,2025-09-13T11:02:00Z,Pombal,Leiria,Centro,-8.63174,39.92206,Resolução/Conclusão
25983376,Franco e Vila Boa,Terras de Trás-os-Montes,309,2025-09-13T08:50:00Z,25983376,Em Curso,3111,Queima,0,0,0,0,2025-09-13T08:50:00Z,Mirandela,Bragança,Norte,-7.339332,41.40396,Curso
