id,address,subregion,neighborhood,date,id.1,state,nature,nature_description,aerial_means,terrestrial_means,aquatic_means,operational,date.1,Concelho,Distrito,NUTII_DSG,longitude,latitude,state_2
25852580,São João de Tarouca,Douro,309,2025-08-16T17:00:00Z,25852580,Em Resolução/Conclusão,3103,Incêndio rural,0,3,0,10,2025-08-16T17:00:00Z,Tarouca,Viseu,Norte,-7.760748,40.986773,Resolução/Conclusão
25846480,Sabugal e Aldeia de Santo António,Beiras e Serra da Estrela,310,2025-08-15T14:41:00Z,25846480,Em Resolução/Conclusão,3103,Incêndio rural,0,67,0,217,2025-08-15T14:41:00Z,Sabugal,Guarda,Centro,-7.125037,40.34023,Resolução/Conclusão
25872720,Lagares e Figueira,Tâmega e Sousa,309,2025-08-20T15:59:00Z,25872720,Em Resolução/Conclusão,3103,Incêndio rural,0,6,0,17,2025-08-20T15:59:00Z,Penafiel,Porto,Norte,-8.333503,41.126387,Resolução/Conclusão
25818455,Sobral de São Miguel,Beiras e Serra da Estrela,310,2025-08-10T15:02:00Z,25818455,Em Resolução/Conclusão,3103,Incêndio rural,0,1,0,1,2025-08-10T15:02:00Z,Covilhã,Castelo Branco,Centro,-7.77307,40.200173,Resolução/Conclusão
25878733,Eiras e São Paulo de Frades,Região de Coimbra,310,2025-08-21T20:05:00Z,25878733,Em Resolução/Conclusão,3103,Incêndio rural,0,4,0,14,2025-08-21T20:05:00Z,Coimbra,Coimbra,Centro,-8.42972,40.22972,Resolução/Conclusão
25867021,Carrazeda de Ansiães,Douro,309,2025-08-19T13:27:00Z,25867021,Em Resolução/Conclusão,3103,Incêndio rural,0,15,0,47,2025-08-19T13:27:00Z,Carrazeda De Ansiães,Bragança,Norte,-7.28399,41.211137,Resolução/Conclusão
25877898,Asseiceira,Médio Tejo,311,2025-08-21T16:44:00Z,25877898,Em Resolução/Conclusão,3103,Incêndio rural,0,6,0,16,2025-08-21T16:44:00Z,Tomar,Santarém,Centro,-8.380645,39.49352,Resolução/Conclusão
25832672,Piódão,Região de Coimbra,310,2025-08-13T05:08:00Z,25832672,Em Curso,3103,Incêndio rural,1,545,0,1592,2025-08-13T05:08:00Z,Arganil,Coimbra,Centro,-7.81972,40.23083,Curso
25877960,Portel,Alentejo Central,312,2025-08-21T16:56:00Z,25877960,Em Resolução/Conclusão,3101,Incêndio rural,0,24,0,71,2025-08-21T16:56:00Z,Portel,Évora,Alentejo,-7.654497,38.303767,Resolução/Conclusão
25877476,Cornes,Alto Minho,309,2025-08-21T15:14:00Z,25877476,Em Resolução/Conclusão,3101,Incêndio rural,0,4,0,8,2025-08-21T15:14:00Z,Vila Nova De Cerveira,Viana Do Castelo,Norte,-8.674012,41.962943,Resolução/Conclusão
25878014,Briteiros São Salvador e Briteiros Santa Leocádia,Ave,309,2025-08-21T17:08:00Z,25878014,Em Resolução/Conclusão,3103,Incêndio rural,0,3,0,12,2025-08-21T17:08:00Z,Guimarães,Braga,Norte,-8.340663,41.519047,Resolução/Conclusão
25857322,"Barcel, Marmelos e Valverde da Gestosa",Terras de Trás-os-Montes,309,2025-08-17T15:53:00Z,25857322,Em Resolução/Conclusão,3103,Incêndio rural,0,45,0,118,2025-08-17T15:53:00Z,Mirandela,Bragança,Norte,-7.209414,41.409479,Resolução/Conclusão
25876858,Escariz,Area M. Porto,309,2025-08-21T13:15:00Z,25876858,Em Resolução/Conclusão,3103,Incêndio rural,0,2,0,7,2025-08-21T13:15:00Z,Arouca,Aveiro,Norte,-8.398517,40.916555,Resolução/Conclusão
25859212,Moimenta,Cávado,309,2025-08-17T23:49:00Z,25859212,Em Resolução/Conclusão,3103,Incêndio rural,0,2,0,9,2025-08-17T23:49:00Z,Terras De Bouro,Braga,Norte,-8.303262,41.711533,Resolução/Conclusão
25877785,Santa Lucrécia de Algeriz e Navarra,Cávado,309,2025-08-21T16:21:00Z,25877785,Em Resolução/Conclusão,3103,Incêndio rural,0,2,0,6,2025-08-21T16:21:00Z,Braga,Braga,Norte,-8.376852,41.60522,Resolução/Conclusão
25877947,Ferreira de Aves,Viseu Dão Lafões,310,2025-08-21T16:53:00Z,25877947,Em Resolução/Conclusão,3103,Incêndio rural,0,3,0,8,2025-08-21T16:53:00Z,Sátão,Viseu,Centro,-7.695562,40.841757,Resolução/Conclusão
25877702,Santa Clara,Grande Lisboa,311,2025-08-21T16:01:00Z,25877702,Em Resolução/Conclusão,3105,Incêndio rural,0,5,0,16,2025-08-21T16:01:00Z,Lisboa,Lisboa,Área Metropolitana De Lisboa,-9.15003,38.783452,Resolução/Conclusão
25845171,Pêra do Moço,Beiras e Serra da Estrela,310,2025-08-15T10:44:00Z,25845171,Em Resolução/Conclusão,3103,Incêndio rural,0,0,0,0,2025-08-15T10:44:00Z,Guarda,Guarda,Centro,-7.20956,40.61267,Resolução/Conclusão
25847211,Campelo,Região de Leiria,310,2025-08-15T17:01:00Z,25847211,Em Resolução/Conclusão,3101,Incêndio rural,0,7,0,26,2025-08-15T17:01:00Z,Figueiró Dos Vinhos,Leiria,Centro,-8.258518,39.952923,Resolução/Conclusão
25861685,Santa Catarina da Serra e Chainça,Região de Leiria,310,2025-08-18T13:03:00Z,25861685,Em Resolução/Conclusão,3103,Incêndio rural,0,1,0,2,2025-08-18T13:03:00Z,Leiria,Leiria,Centro,-8.698656,39.708305,Resolução/Conclusão
25878865,Lobão da Beira,Viseu Dão Lafões,310,2025-08-21T20:38:00Z,25878865,Em Despacho,3103,Incêndio rural,0,4,0,17,2025-08-21T20:38:00Z,Tondela,Viseu,Centro,-8.02926,40.52999,Despacho
25872413,Cinco Vilas e Reigada,Beiras e Serra da Estrela,310,2025-08-20T14:58:00Z,25872413,Em Curso,3103,Incêndio rural,0,60,0,204,2025-08-20T14:58:00Z,Figueira De Castelo Rodrigo,Guarda,Centro,-6.95815,40.775573,Curso
25878213,Sobradelo da Goma,Ave,309,2025-08-21T17:58:00Z,25878213,Em Resolução/Conclusão,3103,Incêndio rural,0,3,0,12,2025-08-21T17:58:00Z,Póvoa De Lanhoso,Braga,Norte,-8.171308,41.570048,Resolução/Conclusão
25877564,Rego,Tâmega e Sousa,309,2025-08-21T15:38:00Z,25877564,Em Resolução/Conclusão,3103,Incêndio rural,0,3,0,10,2025-08-21T15:38:00Z,Celorico De Basto,Braga,Norte,-8.09839,41.437692,Resolução/Conclusão
25878884,Antime e Silvares (São Clemente),Ave,309,2025-08-21T20:42:00Z,25878884,Em Despacho,3103,Incêndio rural,0,0,0,0,2025-08-21T20:42:00Z,Fafe,Braga,Norte,-8.180549,41.42807,Despacho
25846016,Poiares,Douro,309,2025-08-15T13:17:00Z,25846016,Em Resolução/Conclusão,3103,Incêndio rural,0,24,0,67,2025-08-15T13:17:00Z,Freixo De Espada à Cinta,Bragança,Norte,-6.843393,41.075787,Resolução/Conclusão
25878595,"Barcelos, V. Boa e V. Frescainha",Cávado,309,2025-08-21T19:20:00Z,25878595,Em Resolução/Conclusão,3105,Incêndio rural,0,3,0,9,2025-08-21T19:20:00Z,Barcelos,Braga,Norte,-8.644462,41.523548,Resolução/Conclusão
25877627,Navió e Vitorino Dos Piães,Alto Minho,309,2025-08-21T15:46:00Z,25877627,Em Resolução/Conclusão,3103,Incêndio rural,0,8,0,27,2025-08-21T15:46:00Z,Ponte De Lima,Viana Do Castelo,Norte,-8.640008,41.668517,Resolução/Conclusão
25840417,Lousã e Vilarinho,Região de Coimbra,310,2025-08-14T13:46:00Z,25840417,Em Resolução/Conclusão,3101,Incêndio rural,0,18,0,54,2025-08-14T13:46:00Z,Lousã,Coimbra,Centro,-8.201561,40.080016,Resolução/Conclusão
25878880,"Marvila, Ribeira Santarém, S.salvador, S.nicolau",Lezíria do Tejo,311,2025-08-21T20:41:00Z,25878880,Em Despacho,3103,Incêndio rural,0,1,0,5,2025-08-21T20:41:00Z,Santarém,Santarém,Alentejo,-8.678591,39.231938,Despacho
25832250,Ferreira de Aves,Viseu Dão Lafões,310,2025-08-13T00:03:00Z,25832250,Em Resolução/Conclusão,3103,Incêndio rural,0,15,0,48,2025-08-13T00:03:00Z,Sátão,Viseu,Centro,-7.647793,40.79568,Resolução/Conclusão
25878391,Freixial e Juncal do Campo,Beira Baixa,310,2025-08-21T18:33:00Z,25878391,Em Resolução/Conclusão,3103,Incêndio rural,0,0,0,0,2025-08-21T18:33:00Z,Castelo Branco,Castelo Branco,Centro,-7.543638,39.928285,Resolução/Conclusão
25851721,Arnóia,Tâmega e Sousa,309,2025-08-16T14:24:00Z,25851721,Em Resolução/Conclusão,3103,Incêndio rural,0,6,0,24,2025-08-16T14:24:00Z,Celorico De Basto,Braga,Norte,-7.994469,41.369836,Resolução/Conclusão
25867995,Lomba,Area M. Porto,309,2025-08-19T16:36:00Z,25867995,Em Resolução/Conclusão,3103,Incêndio rural,0,3,0,12,2025-08-19T16:36:00Z,Gondomar,Porto,Norte,-8.41085,41.05968,Resolução/Conclusão
25836309,Cinfães,Tâmega e Sousa,309,2025-08-13T18:17:00Z,25836309,Em Resolução/Conclusão,3103,Incêndio rural,0,2,0,7,2025-08-13T18:17:00Z,Cinfães,Viseu,Norte,-8.071502,41.049757,Resolução/Conclusão
25878693,São João de Areias,Viseu Dão Lafões,310,2025-08-21T19:53:00Z,25878693,Em Resolução/Conclusão,3103,Incêndio rural,0,8,0,31,2025-08-21T19:53:00Z,Santa Comba Dão,Viseu,Centro,-8.100095,40.383132,Resolução/Conclusão
25877572,"Mangualde, Mesquitela e Cunha Alta",Viseu Dão Lafões,310,2025-08-21T15:35:00Z,25877572,Em Resolução/Conclusão,3103,Incêndio rural,0,3,0,5,2025-08-21T15:35:00Z,Mangualde,Viseu,Centro,-7.772483,40.598923,Resolução/Conclusão
25860828,Vilar de Perdizes e Meixide,Alto Tâmega e Barroso,309,2025-08-18T10:25:00Z,25860828,Em Resolução/Conclusão,3103,Incêndio rural,0,101,0,313,2025-08-18T10:25:00Z,NA,NA,NA,-7.63634,41.880008,Resolução/Conclusão
25877725,São Cipriano e Vil de Souto,Viseu Dão Lafões,310,2025-08-21T16:05:00Z,25877725,Em Resolução/Conclusão,3103,Incêndio rural,0,11,0,32,2025-08-21T16:05:00Z,Viseu,Viseu,Centro,-7.959537,40.61783,Resolução/Conclusão
25813482,Freches e Torres,Beiras e Serra da Estrela,310,2025-08-09T16:21:00Z,25813482,Em Resolução/Conclusão,3103,Incêndio rural,0,11,0,36,2025-08-09T16:21:00Z,Trancoso,Guarda,Centro,-7.363745,40.709022,Resolução/Conclusão
25840505,Ribeira de Nisa e Carreiras,Alto Alentejo,312,2025-08-14T14:01:00Z,25840505,Em Resolução/Conclusão,3101,Incêndio rural,0,3,0,9,2025-08-14T14:01:00Z,Portalegre,Portalegre,Alentejo,-7.47009,39.374707,Resolução/Conclusão
25868316,"Espírito Santo, Nossa Senhora da Graça e São Simão",Alto Alentejo,312,2025-08-19T17:52:00Z,25868316,Em Resolução/Conclusão,3101,Incêndio rural,0,2,0,7,2025-08-19T17:52:00Z,Nisa,Portalegre,Alentejo,-7.710377,39.493737,Resolução/Conclusão
