id,address,subregion,neighborhood,date,id.1,state,nature,nature_description,aerial_means,terrestrial_means,aquatic_means,operational,date.1,Concelho,Distrito,NUTII_DSG,longitude,latitude,state_2
25603618,Messejana,Baixo Alentejo,312,2025-06-30T13:09:00Z,25603618,Em Resolução/Conclusão,3101,Incêndio rural,0,7,0,17,2025-06-30T13:09:00Z,Aljustrel,Beja,Alentejo,-8.169013,37.814978,Resolução/Conclusão
25605147,Vale do Côa,Beiras e Serra da Estrela,310,2025-06-30T17:42:00Z,25605147,Em Resolução/Conclusão,3103,Incêndio rural,0,5,0,16,2025-06-30T17:42:00Z,Pinhel,Guarda,Centro,-7.114995,40.946045,Resolução/Conclusão
25610143,Nossa Senhora Das Misericórdias,Médio Tejo,311,2025-07-01T15:32:00Z,25610143,Em Resolução/Conclusão,3103,Incêndio rural,0,1,0,5,2025-07-01T15:32:00Z,Ourém,Santarém,Centro,-8.600277,39.655883,Resolução/Conclusão
25614914,Serpa (Salvador e Santa Maria),Baixo Alentejo,312,2025-07-02T12:58:00Z,25614914,Em Resolução/Conclusão,3105,Incêndio rural,0,3,0,5,2025-07-02T12:58:00Z,Serpa,Beja,Alentejo,-7.613587,37.988957,Resolução/Conclusão
25615500,Frazão Arreigada,Tâmega e Sousa,309,2025-07-02T14:45:00Z,25615500,Em Resolução/Conclusão,3101,Incêndio rural,0,1,0,5,2025-07-02T14:45:00Z,Paços De Ferreira,Porto,Norte,-8.402858,41.24433,Resolução/Conclusão
25599382,Almaceda,Beira Baixa,310,2025-06-29T17:03:00Z,25599382,Em Resolução/Conclusão,3101,Incêndio rural,0,16,0,51,2025-06-29T17:03:00Z,Castelo Branco,Castelo Branco,Centro,-7.645695,39.962858,Resolução/Conclusão
25612309,Portela e Extremo,Alto Minho,309,2025-07-01T23:31:00Z,25612309,Em Resolução/Conclusão,3103,Incêndio rural,0,2,0,6,2025-07-01T23:31:00Z,Arcos De Valdevez,Viana Do Castelo,Norte,-8.46703,41.947547,Resolução/Conclusão
25614308,Romariz,Area M. Porto,309,2025-07-02T11:13:00Z,25614308,Em Resolução/Conclusão,3103,Incêndio rural,0,1,0,5,2025-07-02T11:13:00Z,Santa Maria Da Feira,Aveiro,Norte,-8.46242,40.93556,Resolução/Conclusão
25615342,Vialonga,Grande Lisboa,311,2025-07-02T14:19:00Z,25615342,Em Resolução/Conclusão,3103,Incêndio rural,0,1,0,2,2025-07-02T14:19:00Z,Vila Franca De Xira,Lisboa,Área Metropolitana De Lisboa,-9.07833,38.8784,Resolução/Conclusão
25615369,Alvega e Concavada,Médio Tejo,311,2025-07-02T14:26:00Z,25615369,Em Resolução/Conclusão,3103,Incêndio rural,0,1,0,3,2025-07-02T14:26:00Z,Abrantes,Santarém,Centro,-8.065718,39.452075,Resolução/Conclusão
25615474,Pego,Médio Tejo,311,2025-07-02T14:41:00Z,25615474,Em Resolução/Conclusão,3103,Incêndio rural,1,15,0,61,2025-07-02T14:41:00Z,Abrantes,Santarém,Centro,-8.128793,39.449722,Resolução/Conclusão
25615633,Gândaras,Região de Coimbra,310,2025-07-02T15:09:00Z,25615633,Em Resolução/Conclusão,3105,Incêndio rural,0,2,0,7,2025-07-02T15:09:00Z,Lousã,Coimbra,Centro,-8.27333,40.11528,Resolução/Conclusão
25615812,Recezinhos (São Mamede),Tâmega e Sousa,309,2025-07-02T15:40:00Z,25615812,Em Resolução/Conclusão,3103,Incêndio rural,0,5,0,20,2025-07-02T15:40:00Z,Penafiel,Porto,Norte,-8.22663,41.24178,Resolução/Conclusão
25615817,Freixiel,Terras de Trás-os-Montes,309,2025-07-02T15:38:00Z,25615817,Em Resolução/Conclusão,3103,Incêndio rural,0,3,0,9,2025-07-02T15:38:00Z,Vila Flor,Bragança,Norte,-7.226323,41.332278,Resolução/Conclusão
25615835,"Santa Iria de Azoia, São João da Talha e Bobadela",Grande Lisboa,311,2025-07-02T15:42:00Z,25615835,Em Resolução/Conclusão,3105,Incêndio rural,0,2,0,7,2025-07-02T15:42:00Z,Loures,Lisboa,Área Metropolitana De Lisboa,-9.09161,38.82809,Resolução/Conclusão
25610953,Barbacena e Vila Fernando,Alto Alentejo,312,2025-07-01T18:18:00Z,25610953,Em Resolução/Conclusão,3101,Incêndio rural,0,4,0,13,2025-07-01T18:18:00Z,Elvas,Portalegre,Alentejo,-7.318435,38.920227,Resolução/Conclusão
25611301,"Algodres, Vale de Afonsinho e Vilar de Amargo",Beiras e Serra da Estrela,310,2025-07-01T19:25:00Z,25611301,Em Resolução/Conclusão,3103,Incêndio rural,1,12,0,55,2025-07-01T19:25:00Z,Figueira De Castelo Rodrigo,Guarda,Centro,-7.002512,40.960853,Resolução/Conclusão
25615264,Gondarém,Alto Minho,309,2025-07-02T14:08:00Z,25615264,Em Resolução/Conclusão,3103,Incêndio rural,0,3,0,10,2025-07-02T14:08:00Z,Vila Nova De Cerveira,Viana Do Castelo,Norte,-8.733052,41.91415,Resolução/Conclusão
25616046,Darque,Alto Minho,309,2025-07-02T16:27:00Z,25616046,Em Resolução/Conclusão,3105,Incêndio rural,0,3,0,11,2025-07-02T16:27:00Z,Viana Do Castelo,Viana Do Castelo,Norte,-8.795873,41.681498,Resolução/Conclusão
25616134,Penafiel,Tâmega e Sousa,309,2025-07-02T16:51:00Z,25616134,Em Despacho,3103,Incêndio rural,1,4,0,26,2025-07-02T16:51:00Z,Penafiel,Porto,Norte,-8.27044,41.21152,Despacho
25613433,Távora e Pereiro,Douro,309,2025-07-02T09:03:00Z,25613433,Em Resolução/Conclusão,3103,Incêndio rural,0,3,0,9,2025-07-02T09:03:00Z,Tabuaço,Viseu,Norte,-7.555308,41.108568,Resolução/Conclusão
25615489,Oliveira do Hospital e São Paio de Gramaços,Região de Coimbra,310,2025-07-02T14:44:00Z,25615489,Em Resolução/Conclusão,3105,Incêndio rural,0,9,0,29,2025-07-02T14:44:00Z,Oliveira Do Hospital,Coimbra,Centro,-7.840497,40.349323,Resolução/Conclusão
25615756,Brinches,Baixo Alentejo,312,2025-07-02T15:23:00Z,25615756,Em Resolução/Conclusão,3103,Incêndio rural,0,11,0,35,2025-07-02T15:23:00Z,Serpa,Beja,Alentejo,-7.617565,38.05776,Resolução/Conclusão
25615771,Serpa (Salvador e Santa Maria),Baixo Alentejo,312,2025-07-02T15:34:00Z,25615771,Em Resolução/Conclusão,3105,Incêndio rural,0,8,0,26,2025-07-02T15:34:00Z,Serpa,Beja,Alentejo,-7.568214,37.90113,Resolução/Conclusão
25616107,Baguim do Monte (Rio Tinto),Area M. Porto,309,2025-07-02T16:38:00Z,25616107,Em Despacho,3103,Incêndio rural,0,2,0,8,2025-07-02T16:38:00Z,Gondomar,Porto,Norte,-8.53037,41.19393,Despacho
25616157,Sobrosa,Area M. Porto,309,2025-07-02T16:47:00Z,25616157,Em Despacho,3103,Incêndio rural,0,1,0,5,2025-07-02T16:47:00Z,Paredes,Porto,Norte,-8.35807,41.25644,Despacho
25616205,Três Povos,Beiras e Serra da Estrela,310,2025-07-02T16:57:00Z,25616205,Em Despacho,3111,Queima,0,1,0,5,2025-07-02T16:57:00Z,Fundão,Castelo Branco,Centro,-7.298676,40.247058,Despacho
