id,address,subregion,neighborhood,date,id.1,state,nature,nature_description,aerial_means,terrestrial_means,aquatic_means,operational,date.1,Concelho,Distrito,NUTII_DSG,longitude,latitude
25532590,Aveleda,Tâmega e Sousa,309,2025-06-16T10:00:00Z,25532590,Em despacho,3107,Consolidação de rescaldo de incêndio rural,0,1,0,5,2025-06-16T10:00:00Z,Lousada,Porto,Norte,-8.237408,41.284248
25525290,Selmes,Baixo Alentejo,312,2025-06-14T16:14:00Z,25525290,Em conclusão,3105,Incêndio rural,0,0,0,0,2025-06-14T16:14:00Z,Vidigueira,Beja,Alentejo,-7.724372,38.135682
25531624,Ceivães e Badim,Alto Minho,309,2025-06-16T05:00:00Z,25531624,Em conclusão,3103,Incêndio rural,0,8,0,23,2025-06-16T05:00:00Z,Monção,Viana Do Castelo,Norte,-8.375257,42.073545
25532242,Souselas e Botão,Região de Coimbra,310,2025-06-16T08:57:00Z,25532242,Em conclusão,2301,Incêndio em transporte rodoviário,0,2,0,8,2025-06-16T08:57:00Z,Coimbra,Coimbra,Centro,-8.42083,40.29278
25532691,Golegã,Lezíria do Tejo,311,2025-06-16T10:19:00Z,25532691,Em conclusão,2301,Incêndio em transporte rodoviário,0,2,0,7,2025-06-16T10:19:00Z,Golegã,Santarém,Alentejo,-8.47166,39.442068
25532818,Penafiel,Tâmega e Sousa,309,2025-06-16T10:35:00Z,25532818,Em despacho,3107,Consolidação de rescaldo de incêndio rural,0,2,0,10,2025-06-16T10:35:00Z,Penafiel,Porto,Norte,-8.255315,41.231415
25532434,Ermelo e Pardelhas,Ave,309,2025-06-16T09:30:00Z,25532434,Em curso,3107,Consolidação de rescaldo de incêndio rural,0,2,0,9,2025-06-16T09:30:00Z,Mondim De Basto,Vila Real,Norte,-7.844007,41.359233
25532518,Almeida,Beiras e Serra da Estrela,310,2025-06-16T09:47:00Z,25532518,Em conclusão,2101,Incêndio em edifícios habitacionais,0,4,0,14,2025-06-16T09:47:00Z,Almeida,Guarda,Centro,-6.905285,40.730197
25532704,Anha,Alto Minho,309,2025-06-16T10:22:00Z,25532704,Em curso,3105,Incêndio rural,0,1,0,5,2025-06-16T10:22:00Z,Viana Do Castelo,Viana Do Castelo,Norte,-8.798785,41.66957
