id,address,subregion,neighborhood,date,id.1,state,nature,nature_description,aerial_means,terrestrial_means,aquatic_means,operational,date.1,Concelho,Distrito,NUTII_DSG,longitude,latitude,state_2
25639296,"Leiria, Pousos, Barreira e Cortes",Região de Leiria,310,2025-07-07T06:31:00Z,25639296,Em Despacho,3103,Incêndio rural,0,1,0,2,2025-07-07T06:31:00Z,Leiria,Leiria,Centro,-8.79837,39.73329,Despacho
25638830,Vila Franca de Xira,Grande Lisboa,311,2025-07-07T00:10:00Z,25638830,Em Resolução/Conclusão,3103,Incêndio rural,0,0,0,0,2025-07-07T00:10:00Z,Vila Franca De Xira,Lisboa,Área Metropolitana De Lisboa,-8.979327,38.952098,Resolução/Conclusão
25638914,Recezinhos (São Martinho),Tâmega e Sousa,309,2025-07-07T01:11:00Z,25638914,Em Resolução/Conclusão,3103,Incêndio rural,0,2,0,10,2025-07-07T01:11:00Z,Penafiel,Porto,Norte,-8.21437,41.230505,Resolução/Conclusão
25636341,Navió e Vitorino Dos Piães,Alto Minho,309,2025-07-06T13:36:00Z,25636341,Em Resolução/Conclusão,3103,Incêndio rural,0,11,0,36,2025-07-06T13:36:00Z,Ponte De Lima,Viana Do Castelo,Norte,-8.636015,41.674557,Resolução/Conclusão
25636995,Graça,Região de Leiria,310,2025-07-06T16:00:00Z,25636995,Em Resolução/Conclusão,3101,Incêndio rural,0,1,0,2,2025-07-06T16:00:00Z,Pedrógão Grande,Leiria,Centro,-8.220789,39.883478,Resolução/Conclusão
25637334,São Miguel de Acha,Beira Baixa,310,2025-07-06T17:22:00Z,25637334,Em Resolução/Conclusão,3105,Incêndio rural,0,6,0,15,2025-07-06T17:22:00Z,Idanha-a-Nova,Castelo Branco,Centro,-7.277732,39.997078,Resolução/Conclusão
