id,address,subregion,neighborhood,date,id.1,state,nature,nature_description,aerial_means,terrestrial_means,aquatic_means,operational,date.1,Concelho,Distrito,NUTII_DSG,longitude,latitude
25533448,"N.s. Conceição, S. Brás Matos, Juromenha",Alentejo Central,312,2025-06-16T12:26:00Z,25533448,Em conclusão,3105,Incêndio rural,0,3,0,5,2025-06-16T12:26:00Z,Alandroal,Évora,Alentejo,-7.367343,38.691792
25533546,Capelins (Santo António),Alentejo Central,312,2025-06-16T12:49:00Z,25533546,Em resolução,3103,Incêndio rural,0,42,0,122,2025-06-16T12:49:00Z,Alandroal,Évora,Alentejo,-7.336945,38.553132
25534652,São Bartolomeu de Messines,Algarve,313,2025-06-16T16:32:00Z,25534652,Em conclusão,3103,Incêndio rural,0,14,0,38,2025-06-16T16:32:00Z,Silves,Faro,Algarve,-8.304745,37.253222
25534702,Ruivães e Novais,Ave,309,2025-06-16T16:38:00Z,25534702,Em conclusão,3103,Incêndio rural,0,5,0,14,2025-06-16T16:38:00Z,Vila Nova De Famalicão,Braga,Norte,-8.428942,41.39486
25535718,Portimão,Algarve,313,2025-06-16T20:32:00Z,25535718,Em despacho,3103,Incêndio rural,0,4,0,17,2025-06-16T20:32:00Z,Portimão,Faro,Algarve,-8.532608,37.137966
25535771,Vila do Conde,Area M. Porto,309,2025-06-16T20:40:00Z,25535771,Em despacho,2127,"Incêndio em edifícios e recintos industriais, oficinas e armazéns",0,1,0,5,2025-06-16T20:40:00Z,Vila Do Conde,Porto,Norte,-8.745714,41.359468
25535804,Sertã,Beira Baixa,310,2025-06-16T20:48:00Z,25535804,Em curso,2101,Incêndio em edifícios habitacionais,0,2,0,7,2025-06-16T20:48:00Z,Sertã,Castelo Branco,Centro,-8.103914,39.808756
25533491,Ferreira do Alentejo e Canhestros,Baixo Alentejo,312,2025-06-16T12:38:00Z,25533491,Em conclusão,3105,Incêndio rural,0,4,0,5,2025-06-16T12:38:00Z,Ferreira Do Alentejo,Beja,Alentejo,-8.286327,38.025772
25533984,Bacelo e Senhora da Saúde,Alentejo Central,312,2025-06-16T14:18:00Z,25533984,Em conclusão,3103,Incêndio rural,0,7,0,26,2025-06-16T14:18:00Z,Évora,Évora,Alentejo,-7.869122,38.593644
25534277,Caldas de São Jorge e Pigeiros,Area M. Porto,309,2025-06-16T15:11:00Z,25534277,Em conclusão,3101,Incêndio rural,0,17,0,52,2025-06-16T15:11:00Z,Santa Maria Da Feira,Aveiro,Norte,-8.486413,40.939453
25534756,Redondo,Alentejo Central,312,2025-06-16T16:49:00Z,25534756,Em conclusão,3103,Incêndio rural,0,0,0,0,2025-06-16T16:49:00Z,Redondo,Évora,Alentejo,-7.516817,38.672308
25534804,Alvares,Região de Coimbra,310,2025-06-16T17:00:00Z,25534804,Em conclusão,3101,Incêndio rural,0,13,0,34,2025-06-16T17:00:00Z,Góis,Coimbra,Centro,-8.08667,40.05333
25535674,Ceivães e Badim,Alto Minho,309,2025-06-16T20:20:00Z,25535674,Em despacho,3107,Consolidação de rescaldo de incêndio rural,0,3,0,7,2025-06-16T20:20:00Z,Monção,Viana Do Castelo,Norte,-8.375257,42.073545
25535726,"Almada, Cova da Piedade, Pragal e Cacilhas",Península de Setúbal,311,2025-06-16T20:34:00Z,25535726,Em curso,3103,Incêndio rural,0,5,0,19,2025-06-16T20:34:00Z,Almada,Setúbal,Área Metropolitana De Lisboa,-9.16543,38.66543
25533960,Nossa Senhora da Tourega e Nossa Senhora de Guadalupe,Alentejo Central,312,2025-06-16T14:13:00Z,25533960,Em resolução,3101,Incêndio rural,0,47,0,124,2025-06-16T14:13:00Z,Évora,Évora,Alentejo,-8.04123,38.527212
25534587,Moimenta,Tâmega e Sousa,309,2025-06-16T16:18:00Z,25534587,Em curso,3103,Incêndio rural,0,13,0,48,2025-06-16T16:18:00Z,Cinfães,Viseu,Norte,-8.200023,41.04336
25535321,a Dos Cunhados e Maceira,Oeste,311,2025-06-16T18:54:00Z,25535321,Em conclusão,3103,Incêndio rural,0,3,0,9,2025-06-16T18:54:00Z,Torres Vedras,Lisboa,Centro,-9.34976,39.151691
25535473,Alpedrinha,Beiras e Serra da Estrela,310,2025-06-16T19:29:00Z,25535473,Em conclusão,3103,Incêndio rural,0,3,0,12,2025-06-16T19:29:00Z,Fundão,Castelo Branco,Centro,-7.469485,40.083783
25535650,Estremoz (Santa Maria e Santo André),Alentejo Central,312,2025-06-16T20:15:00Z,25535650,Em conclusão,3103,Incêndio rural,0,2,0,5,2025-06-16T20:15:00Z,Estremoz,Évora,Alentejo,-7.578113,38.850477
25535723,Beja (Santiago Maior e São João Baptista),Baixo Alentejo,312,2025-06-16T20:20:00Z,25535723,Em curso,2301,Incêndio em transporte rodoviário,0,1,0,4,2025-06-16T20:20:00Z,Beja,Beja,Alentejo,-7.87003,38.014111
25532434,Ermelo e Pardelhas,Ave,309,2025-06-16T09:30:00Z,25532434,Em resolução,3107,Consolidação de rescaldo de incêndio rural,0,3,0,11,2025-06-16T09:30:00Z,Mondim De Basto,Vila Real,Norte,-7.844007,41.359233
25533857,São Bento do Mato,Alentejo Central,312,2025-06-16T13:54:00Z,25533857,Em conclusão,3103,Incêndio rural,0,6,0,26,2025-06-16T13:54:00Z,Évora,Évora,Alentejo,-7.757107,38.691162
25534493,Miranda do Douro,Terras de Trás-os-Montes,309,2025-06-16T15:50:00Z,25534493,Em conclusão,3103,Incêndio rural,0,2,0,6,2025-06-16T15:50:00Z,Miranda Do Douro,Bragança,Norte,-6.281433,41.504767
25535043,Agrela,Area M. Porto,309,2025-06-16T17:56:00Z,25535043,Em conclusão,3103,Incêndio rural,0,4,0,13,2025-06-16T17:56:00Z,Santo Tirso,Porto,Norte,-8.46854,41.25528
25535612,Duas Igrejas,Area M. Porto,309,2025-06-16T20:05:00Z,25535612,Em curso,3103,Incêndio rural,0,3,0,15,2025-06-16T20:05:00Z,Paredes,Porto,Norte,-8.3704,41.2367
25535695,Quinta do Anjo,Península de Setúbal,311,2025-06-16T20:22:00Z,25535695,Em conclusão,3105,Incêndio rural,0,1,0,5,2025-06-16T20:22:00Z,Palmela,Setúbal,Área Metropolitana De Lisboa,-8.981035,38.571427
25535740,Beduído e Veiros,Região de Aveiro,310,2025-06-16T20:37:00Z,25535740,Em curso,3107,Consolidação de rescaldo de incêndio rural,0,5,0,16,2025-06-16T20:37:00Z,Estarreja,Aveiro,Centro,-8.59503,40.75912
25535742,Ramalde,Area M. Porto,309,2025-06-16T20:37:00Z,25535742,Em resolução,3203,Detritos confinados,0,1,0,4,2025-06-16T20:37:00Z,Porto,Porto,Norte,-8.643888,41.16583
25535747,Alvares,Região de Coimbra,310,2025-06-16T20:38:00Z,25535747,Em resolução,3103,Incêndio rural,0,6,0,20,2025-06-16T20:38:00Z,Góis,Coimbra,Centro,-8.07249,40.03204
