id,address,subregion,neighborhood,date,id.1,state,nature,nature_description,aerial_means,terrestrial_means,aquatic_means,operational,date.1,Concelho,Distrito,NUTII_DSG,longitude,latitude
25596255,Bonfim,Area M. Porto,309,2025-06-29T02:03:00Z,25596255,Em resolução,2129,Incêndio em edifícios degradados ou devolutos,0,4,0,17,2025-06-29T02:03:00Z,Porto,Porto,Norte,-8.60155,41.15811
25596575,Válega,Região de Aveiro,310,2025-06-29T05:41:00Z,25596575,Em despacho,2201,Incêndio em equipamentos ou produtos,0,1,0,5,2025-06-29T05:41:00Z,Ovar,Aveiro,Centro,-8.563313,40.84501
25596589,Quarteira,Algarve,313,2025-06-29T05:45:00Z,25596589,Em despacho,2201,Incêndio em equipamentos ou produtos,0,1,0,5,2025-06-29T05:45:00Z,Loulé,Faro,Algarve,-8.1072,37.074665
25596565,Silves,Algarve,313,2025-06-29T05:32:00Z,25596565,Em conclusão,3103,Incêndio rural,0,2,0,10,2025-06-29T05:32:00Z,Silves,Faro,Algarve,-8.504821,37.209239
25596583,Baixa da Banheira e Vale da Amoreira,Península de Setúbal,311,2025-06-29T05:49:00Z,25596583,Em curso,2301,Incêndio em transporte rodoviário,0,2,0,7,2025-06-29T05:49:00Z,Moita,Setúbal,Área Metropolitana De Lisboa,-9.04209,38.6571
25593470,Duas Igrejas,Tâmega e Sousa,309,2025-06-28T14:16:00Z,25593470,Em conclusão,3103,Incêndio rural,0,1,0,5,2025-06-28T14:16:00Z,Penafiel,Porto,Norte,-8.278005,41.170128
25596242,Penacova,Tâmega e Sousa,309,2025-06-29T01:57:00Z,25596242,Em resolução,3103,Incêndio rural,0,1,0,5,2025-06-29T01:57:00Z,Felgueiras,Porto,Norte,-8.25192,41.369067
25596570,Vilar e Mosteiró,Area M. Porto,309,2025-06-29T05:18:00Z,25596570,Em conclusão,2127,"Incêndio em edifícios e recintos industriais, oficinas e armazéns",0,1,0,5,2025-06-29T05:18:00Z,Vila Do Conde,Porto,Norte,-8.669158,41.28357
