id,address,subregion,neighborhood,date,id.1,state,nature,nature_description,aerial_means,terrestrial_means,aquatic_means,operational,date.1,Concelho,Distrito,NUTII_DSG,longitude,latitude
25224572,Quelfes,Algarve,313,2025-04-11T01:59:00Z,25224572,Em despacho,3321,Dano na rede de fornecimento de eletricidade ,0,2,0,7,2025-04-11T01:59:00Z,Olhão,Faro,Algarve,-7.820507,37.058941
25224493,Abrantes (São Vicente e São João) e Alferrarede,Médio Tejo,311,2025-04-11T01:05:00Z,25224493,Em conclusão,3317,Inundação de estruturas por água canalizada,0,1,0,2,2025-04-11T01:05:00Z,Abrantes,Santarém,Centro,-8.19131,39.47355
25070044,Praia do Ribatejo,Médio Tejo,311,2025-03-10T19:30:00Z,25070044,Em curso,1101,Cheia,0,0,0,0,2025-03-10T19:30:00Z,Vila Nova Da Barquinha,Santarém,Centro,-8.357309,39.485638
25071496,São Manços e São Vicente do Pigeiro,Alentejo Central,312,2025-03-11T13:18:00Z,25071496,Em conclusão,1101,Cheia,0,0,0,0,2025-03-11T13:18:00Z,Évora,Évora,Alentejo,-7.713313,38.513673
25202441,Serpa (Salvador e Santa Maria),Baixo Alentejo,312,2025-04-06T10:25:00Z,25202441,Em conclusão,1101,Cheia,0,0,0,0,2025-04-06T10:25:00Z,Serpa,Beja,Alentejo,-7.555783,37.88592
25068300,Almeirim,Lezíria do Tejo,311,2025-03-10T20:52:00Z,25068300,Em curso,1101,Cheia,0,0,0,0,2025-03-10T20:52:00Z,Almeirim,Santarém,Alentejo,-8.635002,39.187436
25224478,"Alto do Seixalinho, Santo André e Verderena",Península de Setúbal,311,2025-04-11T00:44:00Z,25224478,Em despacho,3315,Inundação de estruturas por precipitação intensa,0,1,0,3,2025-04-11T00:44:00Z,Barreiro,Setúbal,Área Metropolitana De Lisboa,-9.065968,38.6593
