id,address,subregion,neighborhood,date,id.1,state,nature,nature_description,aerial_means,terrestrial_means,aquatic_means,operational,date.1,Concelho,Distrito,NUTII_DSG,longitude,latitude,state_2
25818455,Sobral de São Miguel,Beiras e Serra da Estrela,310,2025-08-10T15:02:00Z,25818455,Em Resolução/Conclusão,3103,Incêndio rural,0,1,0,1,2025-08-10T15:02:00Z,Covilhã,Castelo Branco,Centro,-7.77307,40.200173,Resolução/Conclusão
25846480,Sabugal e Aldeia de Santo António,Beiras e Serra da Estrela,310,2025-08-15T14:41:00Z,25846480,Em Resolução/Conclusão,3103,Incêndio rural,0,13,0,43,2025-08-15T14:41:00Z,Sabugal,Guarda,Centro,-7.125037,40.34023,Resolução/Conclusão
25852580,São João de Tarouca,Douro,309,2025-08-16T17:00:00Z,25852580,Em Resolução/Conclusão,3103,Incêndio rural,0,3,0,12,2025-08-16T17:00:00Z,Tarouca,Viseu,Norte,-7.760748,40.986773,Resolução/Conclusão
25891770,São Martinho de Antas e Paradela de Guiães,Douro,309,2025-08-24T15:06:00Z,25891770,Em Resolução/Conclusão,3101,Incêndio rural,0,41,0,137,2025-08-24T15:06:00Z,Sabrosa,Vila Real,Norte,-7.640418,41.23664,Resolução/Conclusão
25813482,Freches e Torres,Beiras e Serra da Estrela,310,2025-08-09T16:21:00Z,25813482,Em Resolução/Conclusão,3103,Incêndio rural,0,2,0,10,2025-08-09T16:21:00Z,Trancoso,Guarda,Centro,-7.363745,40.709022,Resolução/Conclusão
25832250,Ferreira de Aves,Viseu Dão Lafões,310,2025-08-13T00:03:00Z,25832250,Em Resolução/Conclusão,3103,Incêndio rural,0,1,0,5,2025-08-13T00:03:00Z,Sátão,Viseu,Centro,-7.647793,40.79568,Resolução/Conclusão
25836309,Cinfães,Tâmega e Sousa,309,2025-08-13T18:17:00Z,25836309,Em Resolução/Conclusão,3103,Incêndio rural,0,1,0,2,2025-08-13T18:17:00Z,Cinfães,Viseu,Norte,-8.071502,41.049757,Resolução/Conclusão
25840505,Ribeira de Nisa e Carreiras,Alto Alentejo,312,2025-08-14T14:01:00Z,25840505,Em Resolução/Conclusão,3101,Incêndio rural,0,2,0,7,2025-08-14T14:01:00Z,Portalegre,Portalegre,Alentejo,-7.47009,39.374707,Resolução/Conclusão
25851721,Arnóia,Tâmega e Sousa,309,2025-08-16T14:24:00Z,25851721,Em Resolução/Conclusão,3103,Incêndio rural,0,7,0,27,2025-08-16T14:24:00Z,Celorico De Basto,Braga,Norte,-7.994469,41.369836,Resolução/Conclusão
25877725,São Cipriano e Vil de Souto,Viseu Dão Lafões,310,2025-08-21T16:05:00Z,25877725,Em Resolução/Conclusão,3103,Incêndio rural,0,0,0,0,2025-08-21T16:05:00Z,Viseu,Viseu,Centro,-7.959537,40.61783,Resolução/Conclusão
25882003,"Mamouros, Alva e Ribolhos",Viseu Dão Lafões,310,2025-08-22T13:50:00Z,25882003,Em Resolução/Conclusão,3103,Incêndio rural,0,1,0,1,2025-08-22T13:50:00Z,Castro Daire,Viseu,Centro,-7.972402,40.848113,Resolução/Conclusão
25891313,Cervães,Cávado,309,2025-08-24T13:23:00Z,25891313,Em Resolução/Conclusão,3103,Incêndio rural,0,5,0,16,2025-08-24T13:23:00Z,Vila Verde,Braga,Norte,-8.525457,41.612832,Resolução/Conclusão
25891462,Faíl e Vila Chã de Sá,Viseu Dão Lafões,310,2025-08-24T12:41:00Z,25891462,Em Resolução/Conclusão,3103,Incêndio rural,0,0,0,0,2025-08-24T12:41:00Z,Viseu,Viseu,Centro,-7.956645,40.601897,Resolução/Conclusão
25897476,Vila Nova de Cacela,Algarve,313,2025-08-25T18:08:00Z,25897476,Em Resolução/Conclusão,3103,Incêndio rural,0,2,0,4,2025-08-25T18:08:00Z,Vila Real De Santo António,Faro,Algarve,-7.51971,37.16834,Resolução/Conclusão
25861685,Santa Catarina da Serra e Chainça,Região de Leiria,310,2025-08-18T13:03:00Z,25861685,Em Resolução/Conclusão,3103,Incêndio rural,0,1,0,2,2025-08-18T13:03:00Z,Leiria,Leiria,Centro,-8.698656,39.708305,Resolução/Conclusão
25883011,Almofala,Viseu Dão Lafões,310,2025-08-22T17:00:00Z,25883011,Em Resolução/Conclusão,3103,Incêndio rural,0,3,0,14,2025-08-22T17:00:00Z,Castro Daire,Viseu,Centro,-7.767003,40.956183,Resolução/Conclusão
25887019,Pedrógão Grande,Região de Leiria,310,2025-08-23T14:27:00Z,25887019,Em Resolução/Conclusão,3101,Incêndio rural,0,52,0,171,2025-08-23T14:27:00Z,Pedrógão Grande,Leiria,Centro,-8.15364,39.9136,Resolução/Conclusão
25892294,Cótimos,Beiras e Serra da Estrela,310,2025-08-24T17:26:00Z,25892294,Em Resolução/Conclusão,3103,Incêndio rural,0,1,0,5,2025-08-24T17:26:00Z,Trancoso,Guarda,Centro,-7.272495,40.826932,Resolução/Conclusão
25893480,Este (São Pedro e São Mamede),Cávado,309,2025-08-24T23:22:00Z,25893480,Em Resolução/Conclusão,3103,Incêndio rural,0,3,0,8,2025-08-24T23:22:00Z,Braga,Braga,Norte,-8.368823,41.555605,Resolução/Conclusão
25896563,Vilela,Area M. Porto,309,2025-08-25T14:55:00Z,25896563,Em Resolução/Conclusão,3103,Incêndio rural,0,2,0,10,2025-08-25T14:55:00Z,Paredes,Porto,Norte,-8.390771,41.233108,Resolução/Conclusão
25897422,Sanfins,Alto Tâmega e Barroso,309,2025-08-25T17:55:00Z,25897422,Em Resolução/Conclusão,3103,Incêndio rural,0,2,0,10,2025-08-25T17:55:00Z,Chaves,Vila Real,Norte,-7.312573,41.819528,Resolução/Conclusão
25897506,Monte e Queimadela,Ave,309,2025-08-25T18:14:00Z,25897506,Em Resolução/Conclusão,3103,Incêndio rural,0,2,0,9,2025-08-25T18:14:00Z,Fafe,Braga,Norte,-8.147192,41.49976,Resolução/Conclusão
25897911,Benquerença,Beira Baixa,310,2025-08-25T19:56:00Z,25897911,Em Resolução/Conclusão,3105,Incêndio rural,0,6,0,18,2025-08-25T19:56:00Z,Penamacor,Castelo Branco,Centro,-7.21394,40.219233,Resolução/Conclusão
25897990,Nogueira da Regedoura,Area M. Porto,309,2025-08-25T20:11:00Z,25897990,Em Curso,3103,Incêndio rural,0,1,0,5,2025-08-25T20:11:00Z,Santa Maria Da Feira,Aveiro,Norte,-8.582356,41.007084,Curso
25832672,Piódão,Região de Coimbra,310,2025-08-13T05:08:00Z,25832672,Em Resolução/Conclusão,3103,Incêndio rural,0,210,0,625,2025-08-13T05:08:00Z,Arganil,Coimbra,Centro,-7.81972,40.23083,Resolução/Conclusão
25840417,Lousã e Vilarinho,Região de Coimbra,310,2025-08-14T13:46:00Z,25840417,Em Resolução/Conclusão,3101,Incêndio rural,0,3,0,7,2025-08-14T13:46:00Z,Lousã,Coimbra,Centro,-8.201561,40.080016,Resolução/Conclusão
25896498,Esmolfe,Viseu Dão Lafões,310,2025-08-25T14:43:00Z,25896498,Em Resolução/Conclusão,3103,Incêndio rural,0,1,0,4,2025-08-25T14:43:00Z,Penalva Do Castelo,Viseu,Centro,-7.673287,40.679115,Resolução/Conclusão
25896673,Ruivães e Campos,Ave,309,2025-08-25T15:20:00Z,25896673,Em Resolução/Conclusão,3103,Incêndio rural,0,16,0,59,2025-08-25T15:20:00Z,Vieira Do Minho,Braga,Norte,-8.055852,41.672477,Resolução/Conclusão
25896889,Cabana Maior,Alto Minho,309,2025-08-25T16:03:00Z,25896889,Em Resolução/Conclusão,3101,Incêndio rural,0,12,0,35,2025-08-25T16:03:00Z,Arcos De Valdevez,Viana Do Castelo,Norte,-8.35358,41.871546,Resolução/Conclusão
25897250,Viade de Baixo e Fervidelas,Alto Tâmega e Barroso,309,2025-08-25T17:20:00Z,25897250,Em Curso,3103,Incêndio rural,0,25,0,83,2025-08-25T17:20:00Z,Montalegre,Vila Real,Norte,-7.860477,41.725298,Curso
25897768,"Juncais, Vila Ruiva e Vila Soeiro do Chão",Beiras e Serra da Estrela,310,2025-08-25T19:15:00Z,25897768,Em Resolução/Conclusão,3103,Incêndio rural,0,12,0,39,2025-08-25T19:15:00Z,Fornos De Algodres,Guarda,Centro,-7.503858,40.583345,Resolução/Conclusão
