id,address,subregion,neighborhood,date,id.1,state,nature,nature_description,aerial_means,terrestrial_means,aquatic_means,operational,date.1,Concelho,Distrito,NUTII_DSG,longitude,latitude,state_2
25748118,Canelas e Espiunca,Area M. Porto,309,2025-07-28T17:16:00Z,25748118,Em Curso,3101,Incêndio rural,0,239,0,677,2025-07-28T17:16:00Z,Arouca,Aveiro,Norte,-8.212231,40.969918,Curso
25749320,Rebordões (Santa Maria),Alto Minho,309,2025-07-28T22:47:00Z,25749320,Em Curso,3103,Incêndio rural,0,54,0,159,2025-07-28T22:47:00Z,Ponte De Lima,Viana Do Castelo,Norte,-8.588365,41.729993,Curso
25749641,Silva Escura e Dornelas,Região de Aveiro,310,2025-07-29T01:02:00Z,25749641,Em Resolução/Conclusão,3101,Incêndio rural,0,22,0,68,2025-07-29T01:02:00Z,Sever Do Vouga,Aveiro,Centro,-8.399623,40.769354,Resolução/Conclusão
25753666,São Cristóvão de Nogueira,Tâmega e Sousa,309,2025-07-29T18:21:00Z,25753666,Em Curso,3103,Incêndio rural,0,10,0,37,2025-07-29T18:21:00Z,Cinfães,Viseu,Norte,-8.134771,41.05519,Curso
25755320,Aguda,Região de Leiria,310,2025-07-30T03:51:00Z,25755320,Em Resolução/Conclusão,3101,Incêndio rural,0,1,0,2,2025-07-30T03:51:00Z,Figueiró Dos Vinhos,Leiria,Centro,-8.325572,39.927893,Resolução/Conclusão
25756006,Pinhanços,Beiras e Serra da Estrela,310,2025-07-30T09:07:00Z,25756006,Em Resolução/Conclusão,3103,Incêndio rural,0,29,0,98,2025-07-30T09:07:00Z,Seia,Guarda,Centro,-7.708132,40.473517,Resolução/Conclusão
25756459,Nespereira,Tâmega e Sousa,309,2025-07-30T10:20:00Z,25756459,Em Curso,3103,Incêndio rural,0,15,0,62,2025-07-30T10:20:00Z,Cinfães,Viseu,Norte,-8.130378,41.039695,Curso
25758448,São Cristóvão de Nogueira,Tâmega e Sousa,309,2025-07-30T16:26:00Z,25758448,Em Curso,3101,Incêndio rural,0,1,0,5,2025-07-30T16:26:00Z,Cinfães,Viseu,Norte,-8.12263,41.07751,Curso
25759833,Agrela,Area M. Porto,309,2025-07-30T21:34:00Z,25759833,Em Resolução/Conclusão,3103,Incêndio rural,0,2,0,6,2025-07-30T21:34:00Z,Santo Tirso,Porto,Norte,-8.47265,41.26154,Resolução/Conclusão
25749937,Tarouquela,Tâmega e Sousa,309,2025-07-29T04:11:00Z,25749937,Em Curso,3103,Incêndio rural,0,14,0,49,2025-07-29T04:11:00Z,Cinfães,Viseu,Norte,-8.173308,41.072792,Curso
25751046,Castelejo,Beiras e Serra da Estrela,310,2025-07-29T10:13:00Z,25751046,Em Resolução/Conclusão,3103,Incêndio rural,0,1,0,5,2025-07-29T10:13:00Z,Fundão,Castelo Branco,Centro,-7.604291,40.108879,Resolução/Conclusão
25751241,Molelos,Viseu Dão Lafões,310,2025-07-29T10:43:00Z,25751241,Em Resolução/Conclusão,3103,Incêndio rural,0,0,0,0,2025-07-29T10:43:00Z,Tondela,Viseu,Centro,-8.09574,40.551495,Resolução/Conclusão
25751355,"Crato e Mártires, Flor da Rosa e Vale do Peso",Alto Alentejo,312,2025-07-29T10:59:00Z,25751355,Em Resolução/Conclusão,3105,Incêndio rural,0,1,0,5,2025-07-29T10:59:00Z,Crato,Portalegre,Alentejo,-7.641857,39.351982,Resolução/Conclusão
25751893,"Espírito Santo, Nossa Senhora da Graça e São Simão",Alto Alentejo,312,2025-07-29T12:32:00Z,25751893,Em Resolução/Conclusão,3101,Incêndio rural,0,38,0,114,2025-07-29T12:32:00Z,Nisa,Portalegre,Alentejo,-7.634827,39.571162,Resolução/Conclusão
25753170,"Leiria, Pousos, Barreira e Cortes",Região de Leiria,310,2025-07-29T16:36:00Z,25753170,Em Resolução/Conclusão,3101,Incêndio rural,0,1,0,2,2025-07-29T16:36:00Z,Leiria,Leiria,Centro,-8.795755,39.709552,Resolução/Conclusão
25755083,Avelar,Região de Leiria,310,2025-07-30T00:57:00Z,25755083,Em Resolução/Conclusão,3103,Incêndio rural,0,1,0,2,2025-07-30T00:57:00Z,Ansião,Leiria,Centro,-8.341278,39.93576,Resolução/Conclusão
25755669,Lordelo,Area M. Porto,309,2025-07-30T07:51:00Z,25755669,Em Resolução/Conclusão,3103,Incêndio rural,0,1,0,5,2025-07-30T07:51:00Z,Paredes,Porto,Norte,-8.419573,41.244742,Resolução/Conclusão
25757766,Calde,Viseu Dão Lafões,310,2025-07-30T14:19:00Z,25757766,Em Resolução/Conclusão,3101,Incêndio rural,0,4,0,7,2025-07-30T14:19:00Z,Viseu,Viseu,Centro,-7.898995,40.758803,Resolução/Conclusão
25758825,Algueirão-Mem Martins,Grande Lisboa,311,2025-07-30T17:27:00Z,25758825,Em Resolução/Conclusão,3105,Incêndio rural,0,0,0,0,2025-07-30T17:27:00Z,Sintra,Lisboa,Área Metropolitana De Lisboa,-9.300803,38.812933,Resolução/Conclusão
25758986,São João de Areias,Viseu Dão Lafões,310,2025-07-30T18:19:00Z,25758986,Em Resolução/Conclusão,3103,Incêndio rural,0,9,0,34,2025-07-30T18:19:00Z,Santa Comba Dão,Viseu,Centro,-8.068341,40.390527,Resolução/Conclusão
25749681,Fornos de Maceira Dão,Viseu Dão Lafões,310,2025-07-29T01:19:00Z,25749681,Em Resolução/Conclusão,3103,Incêndio rural,0,3,0,11,2025-07-29T01:19:00Z,Mangualde,Viseu,Centro,-7.806963,40.617022,Resolução/Conclusão
25750701,Capela,Tâmega e Sousa,309,2025-07-29T09:26:00Z,25750701,Em Curso,3103,Incêndio rural,0,50,0,180,2025-07-29T09:26:00Z,Penafiel,Porto,Norte,-8.345202,41.09353,Curso
25755329,Ansião,Região de Leiria,310,2025-07-30T03:57:00Z,25755329,Em Resolução/Conclusão,3101,Incêndio rural,0,1,0,2,2025-07-30T03:57:00Z,Ansião,Leiria,Centro,-8.413872,39.930002,Resolução/Conclusão
25757286,Santa Cruz do Douro e São Tomé de Covelas,Tâmega e Sousa,309,2025-07-30T12:52:00Z,25757286,Em Curso,3103,Incêndio rural,0,11,0,39,2025-07-30T12:52:00Z,Baião,Porto,Norte,-7.971262,41.122462,Curso
25757971,Ninho do Açor e Sobral do Campo,Beira Baixa,310,2025-07-30T14:54:00Z,25757971,Em Resolução/Conclusão,3101,Incêndio rural,0,15,0,57,2025-07-30T14:54:00Z,Castelo Branco,Castelo Branco,Centro,-7.569988,39.996368,Resolução/Conclusão
25758740,"Perafita, Lavra e Santa Cruz do Bispo",Area M. Porto,309,2025-07-30T17:24:00Z,25758740,Em Resolução/Conclusão,3103,Incêndio rural,0,4,0,12,2025-07-30T17:24:00Z,Matosinhos,Porto,Norte,-8.70921,41.23828,Resolução/Conclusão
25759707,Portela e Extremo,Alto Minho,309,2025-07-30T21:04:00Z,25759707,Em Resolução/Conclusão,3103,Incêndio rural,0,1,0,5,2025-07-30T21:04:00Z,Arcos De Valdevez,Viana Do Castelo,Norte,-8.47613,41.961655,Resolução/Conclusão
25759936,Almodôvar e Graça Dos Padrões,Baixo Alentejo,312,2025-07-30T22:00:00Z,25759936,Em Despacho,3105,Incêndio rural,0,7,0,21,2025-07-30T22:00:00Z,Almodôvar,Beja,Alentejo,-7.964508,37.526866,Despacho
25760000,Urqueira,Médio Tejo,311,2025-07-30T22:19:00Z,25760000,Em Resolução/Conclusão,3103,Incêndio rural,0,3,0,12,2025-07-30T22:19:00Z,Ourém,Santarém,Centro,-8.583377,39.733128,Resolução/Conclusão
25760019,Sertã,Beira Baixa,310,2025-07-30T22:28:00Z,25760019,Em Resolução/Conclusão,3103,Incêndio rural,0,5,0,18,2025-07-30T22:28:00Z,Sertã,Castelo Branco,Centro,-8.119677,39.850932,Resolução/Conclusão
25760086,Vila Seca,Cávado,309,2025-07-30T22:47:00Z,25760086,Em Curso,3103,Incêndio rural,0,2,0,10,2025-07-30T22:47:00Z,Barcelos,Braga,Norte,-8.69124,41.4932,Curso
25760167,São Lourenço do Bairro,Região de Aveiro,310,2025-07-30T23:07:00Z,25760167,Em Despacho,3111,Queima,0,1,0,5,2025-07-30T23:07:00Z,Anadia,Aveiro,Centro,-8.463135,40.4396,Despacho
25759068,Valadares,Viseu Dão Lafões,310,2025-07-30T18:37:00Z,25759068,Em Resolução/Conclusão,3105,Incêndio rural,0,2,0,6,2025-07-30T18:37:00Z,São Pedro Do Sul,Viseu,Centro,-8.203518,40.75472,Resolução/Conclusão
25759527,Pontinha e Famões,Grande Lisboa,311,2025-07-30T20:21:00Z,25759527,Em Resolução/Conclusão,3103,Incêndio rural,0,3,0,8,2025-07-30T20:21:00Z,Odivelas,Lisboa,Área Metropolitana De Lisboa,-9.19715,38.77595,Resolução/Conclusão
25759681,Friande,Tâmega e Sousa,309,2025-07-30T20:58:00Z,25759681,Em Resolução/Conclusão,3103,Incêndio rural,0,0,0,0,2025-07-30T20:58:00Z,Felgueiras,Porto,Norte,-8.163292,41.361557,Resolução/Conclusão
25759920,Vila Boa do Bispo,Tâmega e Sousa,309,2025-07-30T22:00:00Z,25759920,Em Resolução/Conclusão,3103,Incêndio rural,0,2,0,7,2025-07-30T22:00:00Z,Marco De Canaveses,Porto,Norte,-8.203532,41.120443,Resolução/Conclusão
25759972,Brinches,Baixo Alentejo,312,2025-07-30T22:13:00Z,25759972,Em Despacho,3105,Incêndio rural,0,1,0,2,2025-07-30T22:13:00Z,Serpa,Beja,Alentejo,-7.60385,38.0373,Despacho
25760049,Sertã,Beira Baixa,310,2025-07-30T22:31:00Z,25760049,Em Resolução/Conclusão,3103,Incêndio rural,0,2,0,7,2025-07-30T22:31:00Z,Sertã,Castelo Branco,Centro,-8.118513,39.851167,Resolução/Conclusão
25759994,Santa Bárbara de Padrões,Baixo Alentejo,312,2025-07-30T22:18:00Z,25759994,Em Despacho,3105,Incêndio rural,0,3,0,5,2025-07-30T22:18:00Z,Castro Verde,Beja,Alentejo,-7.98653,37.63562,Despacho
25760008,Torrão,Alentejo Litoral,312,2025-07-30T22:12:00Z,25760008,Em Resolução/Conclusão,3103,Incêndio rural,0,3,0,7,2025-07-30T22:12:00Z,Alcácer Do Sal,Setúbal,Alentejo,-8.22005,38.272367,Resolução/Conclusão
25760176,Caparica e Trafaria,Península de Setúbal,311,2025-07-30T23:10:00Z,25760176,Em Despacho,3103,Incêndio rural,0,3,0,11,2025-07-30T23:10:00Z,Almada,Setúbal,Área Metropolitana De Lisboa,-9.205063,38.66628,Despacho
25738747,Lindoso,Alto Minho,309,2025-07-26T21:47:00Z,25738747,Em Curso,3103,Incêndio rural,0,148,0,428,2025-07-26T21:47:00Z,Ponte Da Barca,Viana Do Castelo,Norte,-8.220528,41.865272,Curso
25747773,Aranhas,Beira Baixa,310,2025-07-28T16:36:00Z,25747773,Em Resolução/Conclusão,3103,Incêndio rural,0,92,0,271,2025-07-28T16:36:00Z,Penamacor,Castelo Branco,Centro,-7.14438,40.117542,Resolução/Conclusão
25749611,Sameice e Santa Eulália,Beiras e Serra da Estrela,310,2025-07-29T00:44:00Z,25749611,Em Resolução/Conclusão,3103,Incêndio rural,0,1,0,5,2025-07-29T00:44:00Z,Seia,Guarda,Centro,-7.77621,40.42021,Resolução/Conclusão
25750845,Fornos,Tâmega e Sousa,309,2025-07-29T09:46:00Z,25750845,Em Resolução/Conclusão,3103,Incêndio rural,0,6,0,18,2025-07-29T09:46:00Z,Castelo De Paiva,Aveiro,Norte,-8.247077,41.050502,Resolução/Conclusão
25751999,Pombal,Região de Leiria,310,2025-07-29T12:53:00Z,25751999,Em Resolução/Conclusão,3101,Incêndio rural,0,1,0,2,2025-07-29T12:53:00Z,Pombal,Leiria,Centro,-8.6801,39.93227,Resolução/Conclusão
25752083,Alcanede,Lezíria do Tejo,311,2025-07-29T13:12:00Z,25752083,Em Resolução/Conclusão,3103,Incêndio rural,0,43,0,140,2025-07-29T13:12:00Z,Santarém,Santarém,Alentejo,-8.802682,39.405543,Resolução/Conclusão
25755418,"Silvares, Pias, Nogueira e Alvarenga",Tâmega e Sousa,309,2025-07-30T05:16:00Z,25755418,Em Resolução/Conclusão,3103,Incêndio rural,0,2,0,6,2025-07-30T05:16:00Z,Lousada,Porto,Norte,-8.278102,41.301833,Resolução/Conclusão
25756620,Recarei,Area M. Porto,309,2025-07-30T10:47:00Z,25756620,Em Curso,3103,Incêndio rural,0,75,0,247,2025-07-30T10:47:00Z,Paredes,Porto,Norte,-8.416721,41.151,Curso
25757792,Algueirão-Mem Martins,Grande Lisboa,311,2025-07-30T14:19:00Z,25757792,Em Resolução/Conclusão,3105,Incêndio rural,0,6,0,13,2025-07-30T14:19:00Z,Sintra,Lisboa,Área Metropolitana De Lisboa,-9.302759,38.808498,Resolução/Conclusão
25759169,Algueirão-Mem Martins,Grande Lisboa,311,2025-07-30T19:01:00Z,25759169,Em Resolução/Conclusão,3103,Incêndio rural,0,0,0,0,2025-07-30T19:01:00Z,Sintra,Lisboa,Área Metropolitana De Lisboa,-9.300218,38.813273,Resolução/Conclusão
25759687,São Jorge e Ermelo,Alto Minho,309,2025-07-30T20:55:00Z,25759687,Em Resolução/Conclusão,3103,Incêndio rural,0,1,0,5,2025-07-30T20:55:00Z,Arcos De Valdevez,Viana Do Castelo,Norte,-8.371484,41.827394,Resolução/Conclusão
25760147,Cercal,Alentejo Litoral,312,2025-07-30T23:03:00Z,25760147,Em Despacho,3103,Incêndio rural,0,1,0,5,2025-07-30T23:03:00Z,Santiago Do Cacém,Setúbal,Alentejo,-8.67803,37.79898,Despacho
25760149,Laranjeiro e Feijó,Península de Setúbal,311,2025-07-30T23:04:00Z,25760149,Em Despacho,3103,Incêndio rural,0,1,0,5,2025-07-30T23:04:00Z,Almada,Setúbal,Área Metropolitana De Lisboa,-9.158599,38.656697,Despacho
25760174,Paradela,Alto Tâmega e Barroso,309,2025-07-30T23:07:00Z,25760174,Em Despacho,3103,Incêndio rural,0,5,0,27,2025-07-30T23:07:00Z,Chaves,Vila Real,Norte,-7.334691,41.807978,Despacho
25760179,Brinches,Baixo Alentejo,312,2025-07-30T22:09:00Z,25760179,Em Despacho,3105,Incêndio rural,0,5,0,12,2025-07-30T22:09:00Z,Serpa,Beja,Alentejo,-7.59252,38.037977,Despacho
25759946,"S. Mig. Pinheiro, S. Pedro Solis e S. Sebastião Carros",Baixo Alentejo,312,2025-07-30T22:07:00Z,25759946,Em Despacho,3105,Incêndio rural,0,11,0,37,2025-07-30T22:07:00Z,Mértola,Beja,Alentejo,-7.912885,37.50153,Despacho
25759957,Ribeira do Neiva,Cávado,309,2025-07-30T22:06:00Z,25759957,Em Curso,3103,Incêndio rural,0,5,0,17,2025-07-30T22:06:00Z,Vila Verde,Braga,Norte,-8.50881,41.698721,Curso
25759987,Basto (São Clemente),Tâmega e Sousa,309,2025-07-30T22:17:00Z,25759987,Em Resolução/Conclusão,3103,Incêndio rural,0,3,0,12,2025-07-30T22:17:00Z,Celorico De Basto,Braga,Norte,-8.03288,41.45841,Resolução/Conclusão
