id,address,subregion,neighborhood,date,id.1,state,nature,nature_description,aerial_means,terrestrial_means,aquatic_means,operational,date.1,Concelho,Distrito,NUTII_DSG,longitude,latitude
25063971,Salir,Algarve,313,2025-03-09T23:45:00Z,25063971,Em resolução,3313,Deslizamento de terras,0,3,0,3,2025-03-09T23:45:00Z,Loulé,Faro,Algarve,-7.945758,37.230723
25064916,Santo Antão e São Julião do Tojal,Grande Lisboa,311,2025-03-10T08:56:00Z,25064916,Em despacho,3315,Inundação de estruturas por precipitação intensa,0,1,0,4,2025-03-10T08:56:00Z,Loures,Lisboa,Área Metropolitana De Lisboa,-9.137133,38.85709
25065325,Odeceixe,Algarve,313,2025-03-10T10:09:00Z,25065325,Em despacho,3301,Queda de árvore,0,2,0,6,2025-03-10T10:09:00Z,Aljezur,Faro,Algarve,-8.742576,37.399882
25065343,Vialonga,Grande Lisboa,311,2025-03-10T10:28:00Z,25065343,Em conclusão,3315,Inundação de estruturas por precipitação intensa,0,1,0,5,2025-03-10T10:28:00Z,Vila Franca De Xira,Lisboa,Área Metropolitana De Lisboa,-9.106591,38.858941
25065377,Fazendas de Almeirim,Lezíria do Tejo,311,2025-03-10T10:37:00Z,25065377,Em curso,3321,Dano na rede de fornecimento de eletricidade ,0,1,0,2,2025-03-10T10:37:00Z,Almeirim,Santarém,Alentejo,-8.538074,39.165858
25065502,Lagos (São Sebastião e Santa Maria),Algarve,313,2025-03-10T10:52:00Z,25065502,Em conclusão,3329,Queda de estruturas temporárias ou móveis,0,1,0,5,2025-03-10T10:52:00Z,Lagos,Faro,Algarve,-8.668524,37.100485
25065518,Carnaxide e Queijas,Grande Lisboa,311,2025-03-10T10:53:00Z,25065518,Em conclusão,3329,Queda de estruturas temporárias ou móveis,0,2,0,6,2025-03-10T10:53:00Z,Oeiras,Lisboa,Área Metropolitana De Lisboa,-9.25881,38.722457
25059714,Torrão,Alentejo Litoral,312,2025-03-08T22:10:00Z,25059714,Em curso,1101,Cheia,0,2,0,3,2025-03-08T22:10:00Z,Alcácer Do Sal,Setúbal,Alentejo,-8.359133,38.252053
25065114,Santana do Mato,Lezíria do Tejo,311,2025-03-10T09:46:00Z,25065114,Em despacho,3333,Rutura de barragem,0,2,0,4,2025-03-10T09:46:00Z,Coruche,Santarém,Alentejo,-8.468222,38.831897
25065430,Venda do Pinheiro e Santo Estêvão Das Galés,Grande Lisboa,311,2025-03-10T10:31:00Z,25065430,Em despacho,3315,Inundação de estruturas por precipitação intensa,0,1,0,5,2025-03-10T10:31:00Z,Mafra,Lisboa,Área Metropolitana De Lisboa,-9.268324,38.887204
25063232,Santa Maria do Castelo e Santiago e Santa Susana,Alentejo Litoral,312,2025-03-09T19:02:00Z,25063232,Em curso,1101,Cheia,0,1,0,1,2025-03-09T19:02:00Z,Alcácer Do Sal,Setúbal,Alentejo,-8.48167,38.29806
25064922,Arruda Dos Vinhos,Oeste,311,2025-03-10T09:03:00Z,25064922,Em curso,3315,Inundação de estruturas por precipitação intensa,0,2,0,3,2025-03-10T09:03:00Z,Arruda Dos Vinhos,Lisboa,Centro,-9.098654,39.001645
25065354,Nazaré,Oeste,311,2025-03-10T10:29:00Z,25065354,Em curso,3315,Inundação de estruturas por precipitação intensa,0,1,0,2,2025-03-10T10:29:00Z,Nazaré,Leiria,Centro,-9.062127,39.596083
25065355,Aljezur,Algarve,313,2025-03-10T10:22:00Z,25065355,Em despacho,3313,Deslizamento de terras,0,2,0,2,2025-03-10T10:22:00Z,Aljezur,Faro,Algarve,-8.737814,37.325409
25065574,Salvaterra de Magos e Foros de Salvaterra,Lezíria do Tejo,311,2025-03-10T11:10:00Z,25065574,Em conclusão,3315,Inundação de estruturas por precipitação intensa,0,1,0,1,2025-03-10T11:10:00Z,Salvaterra De Magos,Santarém,Alentejo,-8.73342,39.006483
25060596,Santo André,Alentejo Litoral,312,2025-03-09T07:42:00Z,25060596,Em curso,1101,Cheia,0,0,0,0,2025-03-09T07:42:00Z,Santiago Do Cacém,Setúbal,Alentejo,-8.766964,38.100976
25064774,Aljezur,Algarve,313,2025-03-10T08:41:00Z,25064774,Em curso,3301,Queda de árvore,0,1,0,4,2025-03-10T08:41:00Z,Aljezur,Faro,Algarve,-8.803144,37.313343
25064801,Mira,Região de Coimbra,310,2025-03-10T08:34:00Z,25064801,Em despacho,3315,Inundação de estruturas por precipitação intensa,0,1,0,1,2025-03-10T08:34:00Z,Mira,Coimbra,Centro,-8.734102,40.4268
25065185,Moscavide e Portela,Grande Lisboa,311,2025-03-10T10:02:00Z,25065185,Em curso,3313,Deslizamento de terras,0,2,0,7,2025-03-10T10:02:00Z,Loures,Lisboa,Área Metropolitana De Lisboa,-9.104095,38.779
25065403,Marmelete,Algarve,313,2025-03-10T10:26:00Z,25065403,Em despacho,3313,Deslizamento de terras,0,1,0,2,2025-03-10T10:26:00Z,Monchique,Faro,Algarve,-8.697881,37.26614
25065460,Sado,Península de Setúbal,311,2025-03-10T10:41:00Z,25065460,Em despacho,3301,Queda de árvore,0,1,0,5,2025-03-10T10:41:00Z,Setúbal,Setúbal,Área Metropolitana De Lisboa,-8.830049,38.498799
25065467,Cartaxo e Vale da Pinta,Lezíria do Tejo,311,2025-03-10T10:50:00Z,25065467,Em despacho,3309,Desabamento de estruturas edificadas,0,1,0,2,2025-03-10T10:50:00Z,Cartaxo,Santarém,Alentejo,-8.794948,39.166481
25065478,"Amarante (São Gonçalo), Madalena, Cepelos e Gatão",Tâmega e Sousa,309,2025-03-10T10:50:00Z,25065478,Em despacho,3301,Queda de árvore,0,1,0,1,2025-03-10T10:50:00Z,Amarante,Porto,Norte,-8.085399,41.267605
25065585,Benavente,Lezíria do Tejo,311,2025-03-10T11:12:00Z,25065585,Em conclusão,3315,Inundação de estruturas por precipitação intensa,0,3,0,5,2025-03-10T11:12:00Z,Benavente,Santarém,Alentejo,-8.8096,38.97811
25065606,São João Das Lampas e Terrugem,Grande Lisboa,311,2025-03-10T11:17:00Z,25065606,Em despacho,3315,Inundação de estruturas por precipitação intensa,0,0,0,0,2025-03-10T11:17:00Z,Sintra,Lisboa,Área Metropolitana De Lisboa,-9.358215,38.887195
25065657,Gavião e Atalaia,Alto Alentejo,312,2025-03-10T11:23:00Z,25065657,Em despacho,3313,Deslizamento de terras,0,1,0,2,2025-03-10T11:23:00Z,Gavião,Portalegre,Alentejo,-7.960047,39.430351
25065580,"Enxara do Bispo, Gradil e Vila Franca do Rosário",Grande Lisboa,311,2025-03-10T11:00:00Z,25065580,Em despacho,3313,Deslizamento de terras,0,1,0,2,2025-03-10T11:00:00Z,Mafra,Lisboa,Área Metropolitana De Lisboa,-9.269618,38.968258
25065647,Alverca do Ribatejo e Sobralinho,Grande Lisboa,311,2025-03-10T11:22:00Z,25065647,Em despacho,3301,Queda de árvore,0,0,0,0,2025-03-10T11:22:00Z,Vila Franca De Xira,Lisboa,Área Metropolitana De Lisboa,-9.04568,38.90465
