id,address,subregion,neighborhood,date,id.1,state,nature,nature_description,aerial_means,terrestrial_means,aquatic_means,operational,date.1,Concelho,Distrito,NUTII_DSG,longitude,latitude,state_2
25951176,Sandomil,Beiras e Serra da Estrela,310,2025-09-06T10:29:00Z,25951176,Em Resolução/Conclusão,3103,Incêndio rural,0,2,0,10,2025-09-06T10:29:00Z,Seia,Guarda,Centro,-7.76001,40.351547,Resolução/Conclusão
25989064,Vila de Rei,Beira Baixa,310,2025-09-14T13:32:00Z,25989064,Em Resolução/Conclusão,3101,Incêndio rural,0,45,0,146,2025-09-14T13:32:00Z,Vila De Rei,Castelo Branco,Centro,-8.152412,39.660802,Resolução/Conclusão
25989230,Constantim e Vale de Nogueiras,Douro,309,2025-09-14T14:04:00Z,25989230,Em Resolução/Conclusão,3103,Incêndio rural,0,0,0,0,2025-09-14T14:04:00Z,Vila Real,Vila Real,Norte,-7.695305,41.285477,Resolução/Conclusão
25989646,Igreja Nova e Cheleiros,Grande Lisboa,311,2025-09-14T15:52:00Z,25989646,Em Resolução/Conclusão,3103,Incêndio rural,0,5,0,15,2025-09-14T15:52:00Z,Mafra,Lisboa,Área Metropolitana De Lisboa,-9.321884,38.919998,Resolução/Conclusão
25989715,Fregim,Tâmega e Sousa,309,2025-09-14T16:14:00Z,25989715,Em Resolução/Conclusão,3103,Incêndio rural,0,1,0,5,2025-09-14T16:14:00Z,Amarante,Porto,Norte,-8.136773,41.28082,Resolução/Conclusão
25832672,Piódão,Região de Coimbra,310,2025-08-13T05:08:00Z,25832672,Em Resolução/Conclusão,3103,Incêndio rural,0,0,0,0,2025-08-13T05:08:00Z,Arganil,Coimbra,Centro,-7.81972,40.23083,Resolução/Conclusão
25984495,São Salvador da Aramenha,Alto Alentejo,312,2025-09-13T13:28:00Z,25984495,Em Resolução/Conclusão,3101,Incêndio rural,0,3,0,9,2025-09-13T13:28:00Z,Marvão,Portalegre,Alentejo,-7.39094,39.36988,Resolução/Conclusão
25989123,Abragão,Tâmega e Sousa,309,2025-09-14T13:45:00Z,25989123,Em Resolução/Conclusão,3105,Incêndio rural,0,1,0,5,2025-09-14T13:45:00Z,Penafiel,Porto,Norte,-8.220402,41.156537,Resolução/Conclusão
25989527,Arnóia,Tâmega e Sousa,309,2025-09-14T15:22:00Z,25989527,Em Resolução/Conclusão,3103,Incêndio rural,0,6,0,23,2025-09-14T15:22:00Z,Celorico De Basto,Braga,Norte,-8.006077,41.35945,Resolução/Conclusão
25989759,Cabeça Santa,Tâmega e Sousa,309,2025-09-14T16:25:00Z,25989759,Em Resolução/Conclusão,3103,Incêndio rural,0,1,0,5,2025-09-14T16:25:00Z,Penafiel,Porto,Norte,-8.277577,41.13621,Resolução/Conclusão
25989494,"Enxara do Bispo, Gradil e Vila Franca do Rosário",Grande Lisboa,311,2025-09-14T15:08:00Z,25989494,Em Resolução/Conclusão,3103,Incêndio rural,0,3,0,8,2025-09-14T15:08:00Z,Mafra,Lisboa,Área Metropolitana De Lisboa,-9.212012,38.950757,Resolução/Conclusão
25989592,Alfarela de Jales,Alto Tâmega e Barroso,309,2025-09-14T15:40:00Z,25989592,Em Resolução/Conclusão,3103,Incêndio rural,1,5,0,31,2025-09-14T15:40:00Z,Vila Pouca De Aguiar,Vila Real,Norte,-7.565322,41.454693,Resolução/Conclusão
25980131,Carva e Vilares,Douro,309,2025-09-12T14:27:00Z,25980131,Em Resolução/Conclusão,3103,Incêndio rural,2,87,0,256,2025-09-12T14:27:00Z,Murça,Vila Real,Norte,-7.55901,41.401343,Resolução/Conclusão
25980930,Santo André Das Tojeiras,Beira Baixa,310,2025-09-12T17:08:00Z,25980930,Em Resolução/Conclusão,3101,Incêndio rural,0,5,0,17,2025-09-12T17:08:00Z,Castelo Branco,Castelo Branco,Centro,-7.72701,39.809058,Resolução/Conclusão
25988971,Vialonga,Grande Lisboa,311,2025-09-14T13:07:00Z,25988971,Em Resolução/Conclusão,3103,Incêndio rural,0,7,0,24,2025-09-14T13:07:00Z,Vila Franca De Xira,Lisboa,Área Metropolitana De Lisboa,-9.091665,38.862668,Resolução/Conclusão
25989487,Planalto de Monforte (Oucidres e Bobadela),Alto Tâmega e Barroso,309,2025-09-14T15:08:00Z,25989487,Em Resolução/Conclusão,3103,Incêndio rural,0,4,0,19,2025-09-14T15:08:00Z,Chaves,Vila Real,Norte,-7.317415,41.763295,Resolução/Conclusão
25989624,Pombeiro da Beira,Região de Coimbra,310,2025-09-14T15:50:00Z,25989624,Em Resolução/Conclusão,3101,Incêndio rural,0,1,0,4,2025-09-14T15:50:00Z,Arganil,Coimbra,Centro,-8.125,40.22667,Resolução/Conclusão
