id,address,subregion,neighborhood,date,id.1,state,nature,nature_description,aerial_means,terrestrial_means,aquatic_means,operational,date.1,Concelho,Distrito,NUTII_DSG,longitude,latitude
25316776,Guarda,Beiras e Serra da Estrela,310,2025-05-02T07:17:00Z,25316776,Em conclusão,3311,Queda de elementos de estruturas edificados,0,9,0,18,2025-05-02T07:17:00Z,Guarda,Guarda,Centro,-7.269039,40.539292
25321995,Vila do Bispo e Raposeira,Algarve,313,2025-05-03T08:20:00Z,25321995,Em curso,3301,Queda de árvore,0,1,0,5,2025-05-03T08:20:00Z,Vila Do Bispo,Faro,Algarve,-8.865778,37.141777
25071496,São Manços e São Vicente do Pigeiro,Alentejo Central,312,2025-03-11T13:18:00Z,25071496,Em conclusão,1101,Cheia,0,0,0,0,2025-03-11T13:18:00Z,Évora,Évora,Alentejo,-7.713313,38.513673
25318424,Nossa Senhora da Graça Dos Degolados,Alto Alentejo,312,2025-05-02T13:10:00Z,25318424,Em conclusão,1103,Vento forte,0,0,0,0,2025-05-02T13:10:00Z,Campo Maior,Portalegre,Alentejo,-7.12147,39.062622
25322320,"Algés, Linda-a-Velha e Cruz Quebrada-Dafundo",Grande Lisboa,311,2025-05-03T10:12:00Z,25322320,Em despacho,3311,Queda de elementos de estruturas edificados,0,1,0,3,2025-05-03T10:12:00Z,Oeiras,Lisboa,Área Metropolitana De Lisboa,-9.22967,38.696612
