id,address,subregion,neighborhood,date,id.1,state,nature,nature_description,aerial_means,terrestrial_means,aquatic_means,operational,date.1,Concelho,Distrito,NUTII_DSG,longitude,latitude,state_2
25749681,Fornos de Maceira Dão,Viseu Dão Lafões,310,2025-07-29T01:19:00Z,25749681,Em Resolução/Conclusão,3103,Incêndio rural,0,6,0,18,2025-07-29T01:19:00Z,Mangualde,Viseu,Centro,-7.806963,40.617022,Resolução/Conclusão
25750701,Capela,Tâmega e Sousa,309,2025-07-29T09:26:00Z,25750701,Em Curso,3103,Incêndio rural,0,47,0,168,2025-07-29T09:26:00Z,Penafiel,Porto,Norte,-8.345202,41.09353,Curso
25755329,Ansião,Região de Leiria,310,2025-07-30T03:57:00Z,25755329,Em Resolução/Conclusão,3101,Incêndio rural,0,1,0,2,2025-07-30T03:57:00Z,Ansião,Leiria,Centro,-8.413872,39.930002,Resolução/Conclusão
25756818,Beça,Alto Tâmega e Barroso,309,2025-07-30T11:19:00Z,25756818,Em Resolução/Conclusão,3101,Incêndio rural,0,1,0,4,2025-07-30T11:19:00Z,Boticas,Vila Real,Norte,-7.696038,41.690308,Resolução/Conclusão
25757286,Santa Cruz do Douro e São Tomé de Covelas,Tâmega e Sousa,309,2025-07-30T12:52:00Z,25757286,Em Curso,3103,Incêndio rural,0,13,0,46,2025-07-30T12:52:00Z,Baião,Porto,Norte,-7.971262,41.122462,Curso
25757436,Rego,Tâmega e Sousa,309,2025-07-30T13:21:00Z,25757436,Em Resolução/Conclusão,3103,Incêndio rural,0,0,0,0,2025-07-30T13:21:00Z,Celorico De Basto,Braga,Norte,-8.079918,41.437935,Resolução/Conclusão
25757671,São Jorge e Ermelo,Alto Minho,309,2025-07-30T14:05:00Z,25757671,Em Resolução/Conclusão,3103,Incêndio rural,0,1,0,4,2025-07-30T14:05:00Z,Arcos De Valdevez,Viana Do Castelo,Norte,-8.382293,41.821069,Resolução/Conclusão
25757853,São Jorge e Ermelo,Alto Minho,309,2025-07-30T14:35:00Z,25757853,Em Resolução/Conclusão,3103,Incêndio rural,0,3,0,11,2025-07-30T14:35:00Z,Arcos De Valdevez,Viana Do Castelo,Norte,-8.35418,41.81357,Resolução/Conclusão
25757971,Ninho do Açor e Sobral do Campo,Beira Baixa,310,2025-07-30T14:54:00Z,25757971,Em Resolução/Conclusão,3101,Incêndio rural,0,17,0,64,2025-07-30T14:54:00Z,Castelo Branco,Castelo Branco,Centro,-7.569988,39.996368,Resolução/Conclusão
25738747,Lindoso,Alto Minho,309,2025-07-26T21:47:00Z,25738747,Em Curso,3103,Incêndio rural,6,150,0,444,2025-07-26T21:47:00Z,Ponte Da Barca,Viana Do Castelo,Norte,-8.220528,41.865272,Curso
25747773,Aranhas,Beira Baixa,310,2025-07-28T16:36:00Z,25747773,Em Resolução/Conclusão,3103,Incêndio rural,0,107,0,320,2025-07-28T16:36:00Z,Penamacor,Castelo Branco,Centro,-7.14438,40.117542,Resolução/Conclusão
25749611,Sameice e Santa Eulália,Beiras e Serra da Estrela,310,2025-07-29T00:44:00Z,25749611,Em Resolução/Conclusão,3103,Incêndio rural,0,1,0,5,2025-07-29T00:44:00Z,Seia,Guarda,Centro,-7.77621,40.42021,Resolução/Conclusão
25750845,Fornos,Tâmega e Sousa,309,2025-07-29T09:46:00Z,25750845,Em Resolução/Conclusão,3103,Incêndio rural,0,12,0,42,2025-07-29T09:46:00Z,Castelo De Paiva,Aveiro,Norte,-8.247077,41.050502,Resolução/Conclusão
25751999,Pombal,Região de Leiria,310,2025-07-29T12:53:00Z,25751999,Em Resolução/Conclusão,3101,Incêndio rural,0,4,0,9,2025-07-29T12:53:00Z,Pombal,Leiria,Centro,-8.6801,39.93227,Resolução/Conclusão
25752083,Alcanede,Lezíria do Tejo,311,2025-07-29T13:12:00Z,25752083,Em Resolução/Conclusão,3103,Incêndio rural,0,71,0,216,2025-07-29T13:12:00Z,Santarém,Santarém,Alentejo,-8.802682,39.405543,Resolução/Conclusão
25755418,"Silvares, Pias, Nogueira e Alvarenga",Tâmega e Sousa,309,2025-07-30T05:16:00Z,25755418,Em Resolução/Conclusão,3103,Incêndio rural,0,2,0,10,2025-07-30T05:16:00Z,Lousada,Porto,Norte,-8.278102,41.301833,Resolução/Conclusão
25755452,Travancas e Roriz,Alto Tâmega e Barroso,309,2025-07-30T06:01:00Z,25755452,Em Resolução/Conclusão,3103,Incêndio rural,0,2,0,9,2025-07-30T06:01:00Z,Chaves,Vila Real,Norte,-7.319995,41.815377,Resolução/Conclusão
25756620,Recarei,Area M. Porto,309,2025-07-30T10:47:00Z,25756620,Em Curso,3103,Incêndio rural,4,73,0,254,2025-07-30T10:47:00Z,Paredes,Porto,Norte,-8.416721,41.151,Curso
25757488,Antime e Silvares (São Clemente),Ave,309,2025-07-30T13:27:00Z,25757488,Em Resolução/Conclusão,3103,Incêndio rural,0,1,0,5,2025-07-30T13:27:00Z,Fafe,Braga,Norte,-8.16342,41.430679,Resolução/Conclusão
25757792,Algueirão-Mem Martins,Grande Lisboa,311,2025-07-30T14:19:00Z,25757792,Em Resolução/Conclusão,3105,Incêndio rural,0,12,0,36,2025-07-30T14:19:00Z,Sintra,Lisboa,Área Metropolitana De Lisboa,-9.302759,38.808498,Resolução/Conclusão
25757849,Porto Salvo,Grande Lisboa,311,2025-07-30T14:32:00Z,25757849,Em Resolução/Conclusão,3103,Incêndio rural,0,1,0,1,2025-07-30T14:32:00Z,Oeiras,Lisboa,Área Metropolitana De Lisboa,-9.30779,38.7268,Resolução/Conclusão
25749937,Tarouquela,Tâmega e Sousa,309,2025-07-29T04:11:00Z,25749937,Em Curso,3103,Incêndio rural,0,15,0,50,2025-07-29T04:11:00Z,Cinfães,Viseu,Norte,-8.173308,41.072792,Curso
25751046,Castelejo,Beiras e Serra da Estrela,310,2025-07-29T10:13:00Z,25751046,Em Resolução/Conclusão,3103,Incêndio rural,0,1,0,5,2025-07-29T10:13:00Z,Fundão,Castelo Branco,Centro,-7.604291,40.108879,Resolução/Conclusão
25751241,Molelos,Viseu Dão Lafões,310,2025-07-29T10:43:00Z,25751241,Em Resolução/Conclusão,3103,Incêndio rural,0,6,0,21,2025-07-29T10:43:00Z,Tondela,Viseu,Centro,-8.09574,40.551495,Resolução/Conclusão
25751355,"Crato e Mártires, Flor da Rosa e Vale do Peso",Alto Alentejo,312,2025-07-29T10:59:00Z,25751355,Em Resolução/Conclusão,3103,Incêndio rural,0,1,0,4,2025-07-29T10:59:00Z,Crato,Portalegre,Alentejo,-7.641857,39.351982,Resolução/Conclusão
25751893,"Espírito Santo, Nossa Senhora da Graça e São Simão",Alto Alentejo,312,2025-07-29T12:32:00Z,25751893,Em Resolução/Conclusão,3101,Incêndio rural,0,74,0,229,2025-07-29T12:32:00Z,Nisa,Portalegre,Alentejo,-7.634827,39.571162,Resolução/Conclusão
25753170,"Leiria, Pousos, Barreira e Cortes",Região de Leiria,310,2025-07-29T16:36:00Z,25753170,Em Resolução/Conclusão,3101,Incêndio rural,0,1,0,2,2025-07-29T16:36:00Z,Leiria,Leiria,Centro,-8.795755,39.709552,Resolução/Conclusão
25755083,Avelar,Região de Leiria,310,2025-07-30T00:57:00Z,25755083,Em Resolução/Conclusão,3103,Incêndio rural,0,2,0,4,2025-07-30T00:57:00Z,Ansião,Leiria,Centro,-8.341278,39.93576,Resolução/Conclusão
25755669,Lordelo,Area M. Porto,309,2025-07-30T07:51:00Z,25755669,Em Resolução/Conclusão,3103,Incêndio rural,0,14,0,62,2025-07-30T07:51:00Z,Paredes,Porto,Norte,-8.419573,41.244742,Resolução/Conclusão
25757766,Calde,Viseu Dão Lafões,310,2025-07-30T14:19:00Z,25757766,Em Resolução/Conclusão,3103,Incêndio rural,0,12,0,28,2025-07-30T14:19:00Z,Viseu,Viseu,Centro,-7.898995,40.758803,Resolução/Conclusão
25757884,Sopo,Alto Minho,309,2025-07-30T14:39:00Z,25757884,Em Resolução/Conclusão,3101,Incêndio rural,0,3,0,9,2025-07-30T14:39:00Z,Vila Nova De Cerveira,Viana Do Castelo,Norte,-8.763965,41.887023,Resolução/Conclusão
25758477,Poceirão e Marateca,Península de Setúbal,311,2025-07-30T16:30:00Z,25758477,Em Resolução/Conclusão,3105,Incêndio rural,0,5,0,19,2025-07-30T16:30:00Z,Palmela,Setúbal,Área Metropolitana De Lisboa,-8.637103,38.652213,Resolução/Conclusão
25757890,Milharado,Grande Lisboa,311,2025-07-30T14:41:00Z,25757890,Em Resolução/Conclusão,3103,Incêndio rural,0,4,0,9,2025-07-30T14:41:00Z,Mafra,Lisboa,Área Metropolitana De Lisboa,-9.170143,38.951171,Resolução/Conclusão
25758401,Agrela,Area M. Porto,309,2025-07-30T16:17:00Z,25758401,Em Resolução/Conclusão,3103,Incêndio rural,0,4,0,12,2025-07-30T16:17:00Z,Santo Tirso,Porto,Norte,-8.47265,41.26154,Resolução/Conclusão
25759169,Algueirão-Mem Martins,Grande Lisboa,311,2025-07-30T19:01:00Z,25759169,Em Despacho,3103,Incêndio rural,0,5,0,22,2025-07-30T19:01:00Z,Sintra,Lisboa,Área Metropolitana De Lisboa,-9.300218,38.813273,Despacho
25758203,Brinches,Baixo Alentejo,312,2025-07-30T15:40:00Z,25758203,Em Resolução/Conclusão,3105,Incêndio rural,0,2,0,2,2025-07-30T15:40:00Z,Serpa,Beja,Alentejo,-7.605583,38.033695,Resolução/Conclusão
25758271,Beiral do Lima,Alto Minho,309,2025-07-30T15:51:00Z,25758271,Em Resolução/Conclusão,3103,Incêndio rural,0,1,0,5,2025-07-30T15:51:00Z,Ponte De Lima,Viana Do Castelo,Norte,-8.4876,41.770902,Resolução/Conclusão
25758574,Mourão,Alentejo Central,312,2025-07-30T16:51:00Z,25758574,Em Resolução/Conclusão,3105,Incêndio rural,0,1,0,4,2025-07-30T16:51:00Z,Mourão,Évora,Alentejo,-7.33863,38.388713,Resolução/Conclusão
25758607,Oldrões,Tâmega e Sousa,309,2025-07-30T16:42:00Z,25758607,Em Resolução/Conclusão,3103,Incêndio rural,0,2,0,7,2025-07-30T16:42:00Z,Penafiel,Porto,Norte,-8.304665,41.146828,Resolução/Conclusão
25758740,"Perafita, Lavra e Santa Cruz do Bispo",Area M. Porto,309,2025-07-30T17:24:00Z,25758740,Em Resolução/Conclusão,3101,Incêndio rural,0,6,0,19,2025-07-30T17:24:00Z,Matosinhos,Porto,Norte,-8.70921,41.23828,Resolução/Conclusão
25759024,Benavente,Lezíria do Tejo,311,2025-07-30T18:26:00Z,25759024,Em Resolução/Conclusão,3105,Incêndio rural,0,1,0,5,2025-07-30T18:26:00Z,Benavente,Santarém,Alentejo,-8.670345,38.909508,Resolução/Conclusão
25758825,Algueirão-Mem Martins,Grande Lisboa,311,2025-07-30T17:27:00Z,25758825,Em Resolução/Conclusão,3105,Incêndio rural,0,3,0,12,2025-07-30T17:27:00Z,Sintra,Lisboa,Área Metropolitana De Lisboa,-9.300803,38.812933,Resolução/Conclusão
25758859,Modivas,Area M. Porto,309,2025-07-30T17:54:00Z,25758859,Em Despacho,3103,Incêndio rural,0,1,0,5,2025-07-30T17:54:00Z,Vila Do Conde,Porto,Norte,-8.700411,41.3012,Despacho
25758986,São João de Areias,Viseu Dão Lafões,310,2025-07-30T18:19:00Z,25758986,Em Resolução/Conclusão,3103,Incêndio rural,0,12,0,50,2025-07-30T18:19:00Z,Santa Comba Dão,Viseu,Centro,-8.068341,40.390527,Resolução/Conclusão
25759059,"Mangualde, Mesquitela e Cunha Alta",Viseu Dão Lafões,310,2025-07-30T18:33:00Z,25759059,Em Resolução/Conclusão,3103,Incêndio rural,1,7,0,28,2025-07-30T18:33:00Z,Mangualde,Viseu,Centro,-7.77737,40.631302,Resolução/Conclusão
25759068,Valadares,Viseu Dão Lafões,310,2025-07-30T18:37:00Z,25759068,Em Resolução/Conclusão,3105,Incêndio rural,0,5,0,21,2025-07-30T18:37:00Z,São Pedro Do Sul,Viseu,Centro,-8.203518,40.75472,Resolução/Conclusão
25759120,Capinha,Beiras e Serra da Estrela,310,2025-07-30T18:49:00Z,25759120,Em Resolução/Conclusão,3103,Incêndio rural,1,11,0,47,2025-07-30T18:49:00Z,Fundão,Castelo Branco,Centro,-7.372828,40.20147,Resolução/Conclusão
25759145,Abraveses,Viseu Dão Lafões,310,2025-07-30T18:54:00Z,25759145,Em Resolução/Conclusão,3103,Incêndio rural,0,1,0,4,2025-07-30T18:54:00Z,Viseu,Viseu,Centro,-7.93289,40.6857,Resolução/Conclusão
25748118,Canelas e Espiunca,Area M. Porto,309,2025-07-28T17:16:00Z,25748118,Em Curso,3101,Incêndio rural,4,246,0,698,2025-07-28T17:16:00Z,Arouca,Aveiro,Norte,-8.212231,40.969918,Curso
25749320,Rebordões (Santa Maria),Alto Minho,309,2025-07-28T22:47:00Z,25749320,Em Curso,3103,Incêndio rural,0,55,0,164,2025-07-28T22:47:00Z,Ponte De Lima,Viana Do Castelo,Norte,-8.588365,41.729993,Curso
25749641,Silva Escura e Dornelas,Região de Aveiro,310,2025-07-29T01:02:00Z,25749641,Em Resolução/Conclusão,3101,Incêndio rural,0,31,0,94,2025-07-29T01:02:00Z,Sever Do Vouga,Aveiro,Centro,-8.399623,40.769354,Resolução/Conclusão
25753666,São Cristóvão de Nogueira,Tâmega e Sousa,309,2025-07-29T18:21:00Z,25753666,Em Curso,3103,Incêndio rural,0,10,0,37,2025-07-29T18:21:00Z,Cinfães,Viseu,Norte,-8.134771,41.05519,Curso
25755320,Aguda,Região de Leiria,310,2025-07-30T03:51:00Z,25755320,Em Resolução/Conclusão,3101,Incêndio rural,0,1,0,2,2025-07-30T03:51:00Z,Figueiró Dos Vinhos,Leiria,Centro,-8.325572,39.927893,Resolução/Conclusão
25755571,Maceira,Beiras e Serra da Estrela,310,2025-07-30T07:20:00Z,25755571,Em Resolução/Conclusão,3103,Incêndio rural,0,1,0,5,2025-07-30T07:20:00Z,Fornos De Algodres,Guarda,Centro,-7.475667,40.697278,Resolução/Conclusão
25756006,Pinhanços,Beiras e Serra da Estrela,310,2025-07-30T09:07:00Z,25756006,Em Resolução/Conclusão,3103,Incêndio rural,0,50,0,164,2025-07-30T09:07:00Z,Seia,Guarda,Centro,-7.708132,40.473517,Resolução/Conclusão
25756459,Nespereira,Tâmega e Sousa,309,2025-07-30T10:20:00Z,25756459,Em Curso,3103,Incêndio rural,0,6,0,32,2025-07-30T10:20:00Z,Cinfães,Viseu,Norte,-8.130378,41.039695,Curso
25757579,Coronado (São Romão e São Mamede),Area M. Porto,309,2025-07-30T13:42:00Z,25757579,Em Resolução/Conclusão,3103,Incêndio rural,0,5,0,8,2025-07-30T13:42:00Z,Trofa,Porto,Norte,-8.570827,41.295073,Resolução/Conclusão
25758365,Calde,Viseu Dão Lafões,310,2025-07-30T16:09:00Z,25758365,Em Resolução/Conclusão,3103,Incêndio rural,0,3,0,8,2025-07-30T16:09:00Z,Viseu,Viseu,Centro,-7.912173,40.762867,Resolução/Conclusão
25758413,Ota,Oeste,311,2025-07-30T16:19:00Z,25758413,Em Resolução/Conclusão,3103,Incêndio rural,0,1,0,5,2025-07-30T16:19:00Z,Alenquer,Lisboa,Centro,-8.995265,39.155392,Resolução/Conclusão
25758448,São Cristóvão de Nogueira,Tâmega e Sousa,309,2025-07-30T16:26:00Z,25758448,Em Curso,3101,Incêndio rural,0,1,0,5,2025-07-30T16:26:00Z,Cinfães,Viseu,Norte,-8.12263,41.07751,Curso
25758732,Campo e Sobrado,Area M. Porto,309,2025-07-30T17:23:00Z,25758732,Em Curso,3103,Incêndio rural,0,1,0,5,2025-07-30T17:23:00Z,Valongo,Porto,Norte,-8.46935,41.21752,Curso
25758848,Miranda,Alto Minho,309,2025-07-30T17:45:00Z,25758848,Em Curso,3101,Incêndio rural,0,2,0,9,2025-07-30T17:45:00Z,Arcos De Valdevez,Viana Do Castelo,Norte,-8.51755,41.825633,Curso
25758913,Âncora,Alto Minho,309,2025-07-30T18:01:00Z,25758913,Em Resolução/Conclusão,3103,Incêndio rural,0,1,0,5,2025-07-30T18:01:00Z,Caminha,Viana Do Castelo,Norte,-8.858095,41.804362,Resolução/Conclusão
25758998,"S.pedro e Santiago, S.maria e S.miguel e Matacães",Oeste,311,2025-07-30T18:21:00Z,25758998,Em Resolução/Conclusão,3103,Incêndio rural,0,5,0,17,2025-07-30T18:21:00Z,Torres Vedras,Lisboa,Centro,-9.283374,39.105033,Resolução/Conclusão
25759050,Lobrigos (S. Miguel e S. João Baptista) e Sanhoane,Douro,309,2025-07-30T18:35:00Z,25759050,Em Resolução/Conclusão,3103,Incêndio rural,0,3,0,12,2025-07-30T18:35:00Z,Peso Da Régua,Vila Real,Norte,-7.777767,41.176802,Resolução/Conclusão
25759100,Andrães,Douro,309,2025-07-30T18:43:00Z,25759100,Em Despacho,3103,Incêndio rural,0,3,0,15,2025-07-30T18:43:00Z,Peso Da Régua,Vila Real,Norte,-7.777767,41.176802,Despacho
25759164,Nogueira do Cravo e Pindelo,Area M. Porto,309,2025-07-30T18:58:00Z,25759164,Em Despacho,3103,Incêndio rural,0,1,0,5,2025-07-30T18:58:00Z,Oliveira De Azeméis,Aveiro,Norte,-8.444791,40.87669,Despacho
25759214,Vagos e Santo António,Região de Aveiro,310,2025-07-30T19:13:00Z,25759214,Em Despacho,3101,Incêndio rural,1,4,0,27,2025-07-30T19:13:00Z,Vagos,Aveiro,Centro,-8.68837,40.56489,Despacho
