id,address,subregion,neighborhood,date,id.1,state,nature,nature_description,aerial_means,terrestrial_means,aquatic_means,operational,date.1,Concelho,Distrito,NUTII_DSG,longitude,latitude,state_2
25748118,Canelas e Espiunca,Area M. Porto,309,2025-07-28T17:16:00Z,25748118,Em Resolução/Conclusão,3101,Incêndio rural,0,135,0,366,2025-07-28T17:16:00Z,Arouca,Aveiro,Norte,-8.212231,40.969918,Resolução/Conclusão
25749320,Rebordões (Santa Maria),Alto Minho,309,2025-07-28T22:47:00Z,25749320,Em Resolução/Conclusão,3103,Incêndio rural,0,5,0,13,2025-07-28T22:47:00Z,Ponte De Lima,Viana Do Castelo,Norte,-8.588365,41.729993,Resolução/Conclusão
25749641,Silva Escura e Dornelas,Região de Aveiro,310,2025-07-29T01:02:00Z,25749641,Em Resolução/Conclusão,3101,Incêndio rural,0,4,0,14,2025-07-29T01:02:00Z,Sever Do Vouga,Aveiro,Centro,-8.399623,40.769354,Resolução/Conclusão
25756006,Pinhanços,Beiras e Serra da Estrela,310,2025-07-30T09:07:00Z,25756006,Em Resolução/Conclusão,3103,Incêndio rural,0,3,0,12,2025-07-30T09:07:00Z,Seia,Guarda,Centro,-7.708132,40.473517,Resolução/Conclusão
25756459,Nespereira,Tâmega e Sousa,309,2025-07-30T10:20:00Z,25756459,Em Resolução/Conclusão,3103,Incêndio rural,0,6,0,25,2025-07-30T10:20:00Z,Cinfães,Viseu,Norte,-8.130378,41.039695,Resolução/Conclusão
25763964,Pêro Viseu,Beiras e Serra da Estrela,310,2025-07-31T16:58:00Z,25763964,Em Resolução/Conclusão,3103,Incêndio rural,0,1,0,5,2025-07-31T16:58:00Z,Fundão,Castelo Branco,Centro,-7.457652,40.199215,Resolução/Conclusão
25772621,Pedrógão,Baixo Alentejo,312,2025-08-02T10:24:00Z,25772621,Em Resolução/Conclusão,3105,Incêndio rural,0,0,0,0,2025-08-02T10:24:00Z,Vidigueira,Beja,Alentejo,-7.636893,38.113387,Resolução/Conclusão
25773386,Sedielos,Douro,309,2025-08-02T13:01:00Z,25773386,Em Resolução/Conclusão,3103,Incêndio rural,0,2,0,7,2025-08-02T13:01:00Z,Peso Da Régua,Vila Real,Norte,-7.847317,41.194685,Resolução/Conclusão
25773522,Lordelo,Area M. Porto,309,2025-08-02T13:27:00Z,25773522,Em Resolução/Conclusão,3103,Incêndio rural,0,17,0,71,2025-08-02T13:27:00Z,Paredes,Porto,Norte,-8.427873,41.229753,Resolução/Conclusão
25773874,"Codessoso, Curros e Fiães do Tâmega",Alto Tâmega e Barroso,309,2025-08-02T14:31:00Z,25773874,Em Resolução/Conclusão,3103,Incêndio rural,0,3,0,11,2025-08-02T14:31:00Z,Boticas,Vila Real,Norte,-7.720935,41.64856,Resolução/Conclusão
25773989,"Pinheiro da Bemposta, Travanca e Palmaz",Area M. Porto,309,2025-08-02T14:57:00Z,25773989,Em Resolução/Conclusão,3103,Incêndio rural,0,2,0,7,2025-08-02T14:57:00Z,Oliveira De Azeméis,Aveiro,Norte,-8.4691,40.806643,Resolução/Conclusão
25774005,Pechão,Algarve,313,2025-08-02T15:01:00Z,25774005,Em Resolução/Conclusão,3103,Incêndio rural,0,2,0,4,2025-08-02T15:01:00Z,Olhão,Faro,Algarve,-7.855399,37.048215,Resolução/Conclusão
25774123,Oliveira do Douro,Tâmega e Sousa,309,2025-08-02T15:28:00Z,25774123,Em Resolução/Conclusão,3103,Incêndio rural,0,1,0,5,2025-08-02T15:28:00Z,Cinfães,Viseu,Norte,-8.059738,41.079775,Resolução/Conclusão
25774423,Turiz,Cávado,309,2025-08-02T16:37:00Z,25774423,Em Resolução/Conclusão,3105,Incêndio rural,0,1,0,2,2025-08-02T16:37:00Z,Vila Verde,Braga,Norte,-8.459682,41.631265,Resolução/Conclusão
25774827,"Lobão, Gião, Louredo e Guisande",Area M. Porto,309,2025-08-02T18:00:00Z,25774827,Em Resolução/Conclusão,3103,Incêndio rural,0,3,0,12,2025-08-02T18:00:00Z,Santa Maria Da Feira,Aveiro,Norte,-8.48063,40.98479,Resolução/Conclusão
25774860,Santa Cruz do Douro e São Tomé de Covelas,Tâmega e Sousa,309,2025-08-02T18:12:00Z,25774860,Em Curso,3103,Incêndio rural,1,3,0,19,2025-08-02T18:12:00Z,Baião,Porto,Norte,-7.978365,41.121627,Curso
25774876,Lustosa e Barrosas (Santo Estêvão),Tâmega e Sousa,309,2025-08-02T18:10:00Z,25774876,Em Resolução/Conclusão,3103,Incêndio rural,0,1,0,5,2025-08-02T18:10:00Z,Lousada,Porto,Norte,-8.31196,41.33042,Resolução/Conclusão
25774908,Quinta do Anjo,Península de Setúbal,311,2025-08-02T18:23:00Z,25774908,Em Resolução/Conclusão,3103,Incêndio rural,0,2,0,7,2025-08-02T18:23:00Z,Palmela,Setúbal,Área Metropolitana De Lisboa,-9.013236,38.57918,Resolução/Conclusão
25749937,Moimenta,Tâmega e Sousa,309,2025-07-29T04:11:00Z,25749937,Em Resolução/Conclusão,3103,Incêndio rural,0,2,0,7,2025-07-29T04:11:00Z,Cinfães,Viseu,Norte,-8.173308,41.072792,Resolução/Conclusão
25751241,Molelos,Viseu Dão Lafões,310,2025-07-29T10:43:00Z,25751241,Em Resolução/Conclusão,3103,Incêndio rural,0,2,0,7,2025-07-29T10:43:00Z,Tondela,Viseu,Centro,-8.09574,40.551495,Resolução/Conclusão
25751893,"Espírito Santo, Nossa Senhora da Graça e São Simão",Alto Alentejo,312,2025-07-29T12:32:00Z,25751893,Em Resolução/Conclusão,3101,Incêndio rural,0,2,0,6,2025-07-29T12:32:00Z,Nisa,Portalegre,Alentejo,-7.634827,39.571162,Resolução/Conclusão
25763650,Milagres,Região de Leiria,310,2025-07-31T15:58:00Z,25763650,Em Resolução/Conclusão,3101,Incêndio rural,0,1,0,2,2025-07-31T15:58:00Z,Leiria,Leiria,Centro,-8.792217,39.793427,Resolução/Conclusão
25767817,Dardavaz,Viseu Dão Lafões,310,2025-08-01T11:54:00Z,25767817,Em Resolução/Conclusão,3103,Incêndio rural,0,0,0,0,2025-08-01T11:54:00Z,Tondela,Viseu,Centro,-8.120597,40.489477,Resolução/Conclusão
25768094,Arcozelo Das Maias,Viseu Dão Lafões,310,2025-08-01T12:46:00Z,25768094,Em Resolução/Conclusão,3103,Incêndio rural,0,0,0,0,2025-08-01T12:46:00Z,Oliveira De Frades,Viseu,Centro,-8.269723,40.732348,Resolução/Conclusão
25770852,Gondar,Tâmega e Sousa,309,2025-08-01T22:29:00Z,25770852,Em Resolução/Conclusão,3103,Incêndio rural,0,14,0,39,2025-08-01T22:29:00Z,Amarante,Porto,Norte,-8.02366,41.27024,Resolução/Conclusão
25771363,Santa Marinha do Zêzere,Tâmega e Sousa,309,2025-08-02T01:56:00Z,25771363,Em Resolução/Conclusão,3103,Incêndio rural,0,9,0,28,2025-08-02T01:56:00Z,Baião,Porto,Norte,-7.954528,41.158205,Resolução/Conclusão
25773183,Moimenta,Tâmega e Sousa,309,2025-08-02T12:13:00Z,25773183,Em Resolução/Conclusão,3103,Incêndio rural,0,1,0,5,2025-08-02T12:13:00Z,Cinfães,Viseu,Norte,-8.191768,41.043198,Resolução/Conclusão
25750701,Capela,Tâmega e Sousa,309,2025-07-29T09:26:00Z,25750701,Em Resolução/Conclusão,3103,Incêndio rural,0,28,0,91,2025-07-29T09:26:00Z,Penafiel,Porto,Norte,-8.345202,41.09353,Resolução/Conclusão
25762916,Cota,Viseu Dão Lafões,310,2025-07-31T13:40:00Z,25762916,Em Resolução/Conclusão,3101,Incêndio rural,0,0,0,0,2025-07-31T13:40:00Z,Viseu,Viseu,Centro,-7.801223,40.780375,Resolução/Conclusão
25765473,Sameice e Santa Eulália,Beiras e Serra da Estrela,310,2025-07-31T23:02:00Z,25765473,Em Resolução/Conclusão,3103,Incêndio rural,0,1,0,5,2025-07-31T23:02:00Z,Seia,Guarda,Centro,-7.775783,40.420218,Resolução/Conclusão
25767796,"Mangualde, Mesquitela e Cunha Alta",Viseu Dão Lafões,310,2025-08-01T11:50:00Z,25767796,Em Resolução/Conclusão,3103,Incêndio rural,0,1,0,5,2025-08-01T11:50:00Z,Mangualde,Viseu,Centro,-7.788212,40.612402,Resolução/Conclusão
25771657,Caria,Douro,309,2025-08-02T05:01:00Z,25771657,Em Resolução/Conclusão,3101,Incêndio rural,0,3,0,10,2025-08-02T05:01:00Z,Moimenta Da Beira,Viseu,Norte,-7.591073,40.94778,Resolução/Conclusão
25773478,Fregim,Tâmega e Sousa,309,2025-08-02T13:22:00Z,25773478,Em Resolução/Conclusão,3103,Incêndio rural,0,10,0,37,2025-08-02T13:22:00Z,Amarante,Porto,Norte,-8.135155,41.273745,Resolução/Conclusão
25773480,Chafé,Alto Minho,309,2025-08-02T13:23:00Z,25773480,Em Resolução/Conclusão,3103,Incêndio rural,0,7,0,20,2025-08-02T13:23:00Z,Viana Do Castelo,Viana Do Castelo,Norte,-8.808112,41.641332,Resolução/Conclusão
25773830,Andrães,Douro,309,2025-08-02T14:23:00Z,25773830,Em Curso,3103,Incêndio rural,9,57,0,209,2025-08-02T14:23:00Z,Vila Real,Vila Real,Norte,-7.671293,41.267593,Curso
25774013,Croca,Tâmega e Sousa,309,2025-08-02T15:03:00Z,25774013,Em Resolução/Conclusão,3103,Incêndio rural,0,5,0,18,2025-08-02T15:03:00Z,Penafiel,Porto,Norte,-8.248818,41.225235,Resolução/Conclusão
25774033,Rio Mau e Arcos,Area M. Porto,309,2025-08-02T15:10:00Z,25774033,Em Resolução/Conclusão,3103,Incêndio rural,0,2,0,7,2025-08-02T15:10:00Z,Vila Do Conde,Porto,Norte,-8.670633,41.405553,Resolução/Conclusão
25774734,Monte Córdova,Area M. Porto,309,2025-08-02T17:44:00Z,25774734,Em Resolução/Conclusão,3103,Incêndio rural,0,4,0,15,2025-08-02T17:44:00Z,Santo Tirso,Porto,Norte,-8.411128,41.31745,Resolução/Conclusão
25774405,NA,NA,0,2025-08-02T16:30:00Z,25774405,Em Resolução/Conclusão,3103,Incêndio rural,0,8,0,28,2025-08-02T16:30:00Z,NA,NA,NA,-7.276065,41.873633,Resolução/Conclusão
25774578,Eiras e Mei,Alto Minho,309,2025-08-02T17:11:00Z,25774578,Em Curso,3101,Incêndio rural,0,4,0,15,2025-08-02T17:11:00Z,Arcos De Valdevez,Viana Do Castelo,Norte,-8.482893,41.921638,Curso
25774873,"Ardegão, Arnozela e Seidões",Ave,309,2025-08-02T18:15:00Z,25774873,Em Curso,3103,Incêndio rural,1,4,0,25,2025-08-02T18:15:00Z,Fafe,Braga,Norte,-8.13186,41.39801,Curso
25774783,Seara,Alto Minho,309,2025-08-02T17:50:00Z,25774783,Em Curso,3103,Incêndio rural,0,2,0,7,2025-08-02T17:50:00Z,Ponte De Lima,Viana Do Castelo,Norte,-8.612312,41.729533000000004,Curso
25774851,Figueiró (Santiago e Santa Cristina),Tâmega e Sousa,309,2025-08-02T18:11:00Z,25774851,Em Resolução/Conclusão,3103,Incêndio rural,0,0,0,0,2025-08-02T18:11:00Z,Amarante,Porto,Norte,-8.1663,41.29651,Resolução/Conclusão
25774883,Arnóia,Tâmega e Sousa,309,2025-08-02T18:20:00Z,25774883,Em Despacho,3103,Incêndio rural,2,6,0,34,2025-08-02T18:20:00Z,Celorico De Basto,Braga,Norte,-8.00144,41.34423,Despacho
25774935,Macieira da Lixa e Caramos,Tâmega e Sousa,309,2025-08-02T18:33:00Z,25774935,Em Despacho,3105,Incêndio rural,0,0,0,0,2025-08-02T18:33:00Z,Felgueiras,Porto,Norte,-8.164082,41.34853,Despacho
25738747,Lindoso,Alto Minho,309,2025-07-26T21:47:00Z,25738747,Em Curso,3103,Incêndio rural,3,193,0,595,2025-07-26T21:47:00Z,Ponte Da Barca,Viana Do Castelo,Norte,-8.220528,41.865272,Curso
25747773,Aranhas,Beira Baixa,310,2025-07-28T16:36:00Z,25747773,Em Resolução/Conclusão,3103,Incêndio rural,0,12,0,40,2025-07-28T16:36:00Z,Penamacor,Castelo Branco,Centro,-7.14438,40.117542,Resolução/Conclusão
25751999,Pombal,Região de Leiria,310,2025-07-29T12:53:00Z,25751999,Em Resolução/Conclusão,3101,Incêndio rural,0,1,0,2,2025-07-29T12:53:00Z,Pombal,Leiria,Centro,-8.6801,39.93227,Resolução/Conclusão
25752083,Alcanede,Lezíria do Tejo,311,2025-07-29T13:12:00Z,25752083,Em Resolução/Conclusão,3103,Incêndio rural,0,13,0,43,2025-07-29T13:12:00Z,Santarém,Santarém,Alentejo,-8.802682,39.405543,Resolução/Conclusão
25756620,Recarei,Area M. Porto,309,2025-07-30T10:47:00Z,25756620,Em Resolução/Conclusão,3103,Incêndio rural,0,14,0,33,2025-07-30T10:47:00Z,Paredes,Porto,Norte,-8.416721,41.151,Resolução/Conclusão
25766089,"Sande, Vilarinho, Barros e Gomide",Cávado,309,2025-08-01T04:35:00Z,25766089,Em Resolução/Conclusão,3103,Incêndio rural,0,13,0,38,2025-08-01T04:35:00Z,Vila Verde,Braga,Norte,-8.38083,41.72917,Resolução/Conclusão
25773627,"Sandim, Olival, Lever e Crestuma",Area M. Porto,309,2025-08-02T13:46:00Z,25773627,Em Resolução/Conclusão,3103,Incêndio rural,0,1,0,6,2025-08-02T13:46:00Z,Vila Nova De Gaia,Porto,Norte,-8.520597,41.030422,Resolução/Conclusão
25774095,Paredes,Area M. Porto,309,2025-08-02T15:22:00Z,25774095,Em Curso,3103,Incêndio rural,0,0,0,0,2025-08-02T15:22:00Z,Paredes,Porto,Norte,-8.32128,41.22435,Curso
25774159,Benavente,Lezíria do Tejo,311,2025-08-02T15:40:00Z,25774159,Em Resolução/Conclusão,3101,Incêndio rural,0,6,0,13,2025-08-02T15:40:00Z,Benavente,Santarém,Alentejo,-8.770595,38.983043,Resolução/Conclusão
25774545,Alfena,Area M. Porto,309,2025-08-02T17:06:00Z,25774545,Em Resolução/Conclusão,3103,Incêndio rural,0,2,0,8,2025-08-02T17:06:00Z,Valongo,Porto,Norte,-8.524632,41.247165,Resolução/Conclusão
25774622,Valdreu,Cávado,309,2025-08-02T17:25:00Z,25774622,Em Resolução/Conclusão,3103,Incêndio rural,0,4,0,20,2025-08-02T17:25:00Z,Vila Verde,Braga,Norte,-8.338562,41.721778,Resolução/Conclusão
25774720,Vilar de Andorinho,Area M. Porto,309,2025-08-02T17:41:00Z,25774720,Em Resolução/Conclusão,3103,Incêndio rural,0,1,0,6,2025-08-02T17:41:00Z,Vila Nova De Gaia,Porto,Norte,-8.567418,41.092548,Resolução/Conclusão
25774788,Cacia,Região de Aveiro,310,2025-08-02T17:53:00Z,25774788,Em Resolução/Conclusão,3103,Incêndio rural,0,2,0,7,2025-08-02T17:53:00Z,Aveiro,Aveiro,Centro,-8.601405,40.667987,Resolução/Conclusão
