id,address,subregion,neighborhood,date,id.1,state,nature,nature_description,aerial_means,terrestrial_means,aquatic_means,operational,date.1,Concelho,Distrito,NUTII_DSG,longitude,latitude,state_2
25682868,Sertã,Beira Baixa,310,2025-07-15T17:30:00Z,25682868,Em Resolução/Conclusão,3101,Incêndio rural,0,6,0,24,2025-07-15T17:30:00Z,Sertã,Castelo Branco,Centro,-8.092748,39.819602,Resolução/Conclusão
25684624,Padreiro (Salvador e Santa Cristina),Alto Minho,309,2025-07-16T03:28:00Z,25684624,Em Despacho,3105,Incêndio rural,0,1,0,5,2025-07-16T03:28:00Z,Arcos De Valdevez,Viana Do Castelo,Norte,-8.481436,41.80008,Despacho
25683021,Vilar de Pinheiro,Area M. Porto,309,2025-07-15T18:04:00Z,25683021,Em Resolução/Conclusão,3103,Incêndio rural,0,1,0,5,2025-07-15T18:04:00Z,Vila Do Conde,Porto,Norte,-8.675347,41.270887,Resolução/Conclusão
25683360,"São Pedro do Sul, Várzea e Baiões",Viseu Dão Lafões,310,2025-07-15T19:20:00Z,25683360,Em Resolução/Conclusão,3103,Incêndio rural,0,0,0,0,2025-07-15T19:20:00Z,São Pedro Do Sul,Viseu,Centro,-8.05393,40.780768,Resolução/Conclusão
25684455,Torrados e Sousa,Tâmega e Sousa,309,2025-07-16T01:13:00Z,25684455,Em Resolução/Conclusão,3103,Incêndio rural,0,3,0,12,2025-07-16T01:13:00Z,Felgueiras,Porto,Norte,-8.25094,41.35127,Resolução/Conclusão
25682254,Panque,Cávado,309,2025-07-15T15:31:00Z,25682254,Em Resolução/Conclusão,3101,Incêndio rural,0,8,0,31,2025-07-15T15:31:00Z,Barcelos,Braga,Norte,-8.607035,41.626113,Resolução/Conclusão
25682641,São Bento,Região de Leiria,310,2025-07-15T16:44:00Z,25682641,Em Resolução/Conclusão,3101,Incêndio rural,0,6,0,18,2025-07-15T16:44:00Z,Porto De Mós,Leiria,Centro,-8.746241,39.52425,Resolução/Conclusão
25683057,Messejana,Baixo Alentejo,312,2025-07-15T18:10:00Z,25683057,Em Resolução/Conclusão,3105,Incêndio rural,0,45,0,133,2025-07-15T18:10:00Z,Aljustrel,Beja,Alentejo,-8.253787,37.845618,Resolução/Conclusão
25684110,São Félix,Viseu Dão Lafões,310,2025-07-15T22:42:00Z,25684110,Em Resolução/Conclusão,3103,Incêndio rural,0,1,0,2,2025-07-15T22:42:00Z,São Pedro Do Sul,Viseu,Centro,-8.053007,40.778302,Resolução/Conclusão
