id,address,subregion,neighborhood,date,id.1,state,nature,nature_description,aerial_means,terrestrial_means,aquatic_means,operational,date.1,Concelho,Distrito,NUTII_DSG,longitude,latitude
25059714,Torrão,Alentejo Litoral,312,2025-03-08T22:10:00Z,25059714,Em curso,1101,Cheia,0,0,0,0,2025-03-08T22:10:00Z,Alcácer Do Sal,Setúbal,Alentejo,-8.359133,38.252053
25065700,São Salvador e Santa Maria,Alentejo Litoral,312,2025-03-10T09:00:00Z,25065700,Em curso,3313,Deslizamento de terras,0,2,0,3,2025-03-10T09:00:00Z,Odemira,Beja,Alentejo,-8.643495,37.596661
25066365,Reguengo e São Julião,Alto Alentejo,312,2025-03-10T13:47:00Z,25066365,Em conclusão,3301,Queda de árvore,0,0,0,0,2025-03-10T13:47:00Z,Portalegre,Portalegre,Alentejo,-7.40139,39.30139
25066467,Sé e São Lourenço,Alto Alentejo,312,2025-03-10T13:56:00Z,25066467,Em conclusão,3301,Queda de árvore,0,0,0,0,2025-03-10T13:56:00Z,Portalegre,Portalegre,Alentejo,-7.412372,39.282628
25066950,Sé e São Lourenço,Alto Alentejo,312,2025-03-10T15:40:00Z,25066950,Em conclusão,3313,Deslizamento de terras,0,1,0,5,2025-03-10T15:40:00Z,Portalegre,Portalegre,Alentejo,-7.402905,39.288733
25067153,Figueira Dos Cavaleiros,Baixo Alentejo,312,2025-03-10T16:13:00Z,25067153,Em despacho,3301,Queda de árvore,0,0,0,0,2025-03-10T16:13:00Z,Ferreira Do Alentejo,Beja,Alentejo,-8.283967,38.107288
25067270,Pedroso e Seixezelo,Area M. Porto,309,2025-03-10T16:44:00Z,25067270,Em despacho,3315,Inundação de estruturas por precipitação intensa,0,1,0,3,2025-03-10T16:44:00Z,Vila Nova De Gaia,Porto,Norte,-8.55785,41.06333
25067352,Santa Marinha e São Pedro da Afurada,Area M. Porto,309,2025-03-10T17:10:00Z,25067352,Em despacho,3315,Inundação de estruturas por precipitação intensa,0,0,0,0,2025-03-10T17:10:00Z,Vila Nova De Gaia,Porto,Norte,-8.648161,41.14226
25067471,Santa Marinha e São Pedro da Afurada,Area M. Porto,309,2025-03-10T17:35:00Z,25067471,Em despacho,3315,Inundação de estruturas por precipitação intensa,0,1,0,4,2025-03-10T17:35:00Z,Vila Nova De Gaia,Porto,Norte,-8.6346,41.12813
25066213,Venda do Pinheiro e Santo Estêvão Das Galés,Grande Lisboa,311,2025-03-10T13:02:00Z,25066213,Em conclusão,3311,Queda de elementos de estruturas edificados,0,1,0,1,2025-03-10T13:02:00Z,Mafra,Lisboa,Área Metropolitana De Lisboa,-9.208921,38.921996
25066245,São Salvador e Santa Maria,Alentejo Litoral,312,2025-03-10T12:29:00Z,25066245,Em despacho,3321,Dano na rede de fornecimento de eletricidade ,0,1,0,1,2025-03-10T12:29:00Z,Odemira,Beja,Alentejo,-8.650536,37.594321
25066522,Reguengo e São Julião,Alto Alentejo,312,2025-03-10T14:12:00Z,25066522,Em conclusão,3301,Queda de árvore,0,0,0,0,2025-03-10T14:12:00Z,Portalegre,Portalegre,Alentejo,-7.403278,39.298715
25067040,Sé e São Lourenço,Alto Alentejo,312,2025-03-10T15:45:00Z,25067040,Em conclusão,3301,Queda de árvore,0,1,0,2,2025-03-10T15:45:00Z,Portalegre,Portalegre,Alentejo,-7.407555,39.284165
25067333,Vimeiro,Oeste,311,2025-03-10T16:55:00Z,25067333,Em conclusão,3313,Deslizamento de terras,0,3,0,4,2025-03-10T16:55:00Z,Alcobaça,Leiria,Centro,-9.029884,39.481301
25067615,Paranhos,Area M. Porto,309,2025-03-10T18:03:00Z,25067615,Em despacho,3315,Inundação de estruturas por precipitação intensa,0,0,0,0,2025-03-10T18:03:00Z,Porto,Porto,Norte,-8.60637,41.16422
25067701,Canidelo,Area M. Porto,309,2025-03-10T18:13:00Z,25067701,Em despacho,3315,Inundação de estruturas por precipitação intensa,0,1,0,4,2025-03-10T18:13:00Z,Vila Nova De Gaia,Porto,Norte,-8.647622,41.133197
25067790,Santa Marinha e São Pedro da Afurada,Area M. Porto,309,2025-03-10T18:08:00Z,25067790,Em despacho,3315,Inundação de estruturas por precipitação intensa,0,1,0,3,2025-03-10T18:08:00Z,Vila Nova De Gaia,Porto,Norte,-8.624714,41.132843
25067755,Santa Marinha e São Pedro da Afurada,Area M. Porto,309,2025-03-10T18:38:00Z,25067755,Em despacho,3315,Inundação de estruturas por precipitação intensa,0,0,0,0,2025-03-10T18:38:00Z,Vila Nova De Gaia,Porto,Norte,-8.62476,41.1364
25067820,Asseiceira,Médio Tejo,311,2025-03-10T18:55:00Z,25067820,Em despacho,3313,Deslizamento de terras,0,1,0,2,2025-03-10T18:55:00Z,Tomar,Santarém,Centro,-8.380857,39.533791
25067836,Alcantarilha e Pêra,Algarve,313,2025-03-10T18:46:00Z,25067836,Em curso,3301,Queda de árvore,0,1,0,5,2025-03-10T18:46:00Z,Silves,Faro,Algarve,-8.352626,37.169974
25067839,Marinhais,Lezíria do Tejo,311,2025-03-10T18:58:00Z,25067839,Em conclusão,3315,Inundação de estruturas por precipitação intensa,0,1,0,5,2025-03-10T18:58:00Z,Salvaterra De Magos,Santarém,Alentejo,-8.704894,39.048061
25067824,Marinhais,Lezíria do Tejo,311,2025-03-10T18:55:00Z,25067824,Em despacho,3315,Inundação de estruturas por precipitação intensa,0,1,0,4,2025-03-10T18:55:00Z,Salvaterra De Magos,Santarém,Alentejo,-8.704894,39.048061
25067886,Monchique,Algarve,313,2025-03-10T18:54:00Z,25067886,Em despacho,3313,Deslizamento de terras,0,1,0,2,2025-03-10T18:54:00Z,Monchique,Faro,Algarve,-8.634373,37.379053
25067906,Bonfim,Area M. Porto,309,2025-03-10T19:00:00Z,25067906,Em despacho,3315,Inundação de estruturas por precipitação intensa,0,1,0,4,2025-03-10T19:00:00Z,Porto,Porto,Norte,-8.591769,41.150542
25067921,Montijo e Afonsoeiro,Península de Setúbal,311,2025-03-10T19:01:00Z,25067921,Em despacho,3315,Inundação de estruturas por precipitação intensa,0,1,0,3,2025-03-10T19:01:00Z,Montijo,Setúbal,Área Metropolitana De Lisboa,-8.975715,38.702323
25064801,Mira,Região de Coimbra,310,2025-03-10T08:34:00Z,25064801,Em despacho,3315,Inundação de estruturas por precipitação intensa,0,1,0,1,2025-03-10T08:34:00Z,Mira,Coimbra,Centro,-8.734102,40.4268
25065928,Sé e São Lourenço,Alto Alentejo,312,2025-03-10T12:15:00Z,25065928,Em conclusão,3309,Desabamento de estruturas edificadas,0,0,0,0,2025-03-10T12:15:00Z,Portalegre,Portalegre,Alentejo,-7.4066090000000004,39.288378
25065953,Sé e São Lourenço,Alto Alentejo,312,2025-03-10T12:21:00Z,25065953,Em conclusão,3301,Queda de árvore,0,1,0,1,2025-03-10T12:21:00Z,Portalegre,Portalegre,Alentejo,-7.405434,39.281244
25066773,"Almargem do Bispo, Pêro Pinheiro e Montelavar",Grande Lisboa,311,2025-03-10T14:30:00Z,25066773,Em despacho,3315,Inundação de estruturas por precipitação intensa,0,2,0,6,2025-03-10T14:30:00Z,Sintra,Lisboa,Área Metropolitana De Lisboa,-9.304885,38.867927
25067364,Paranhos,Area M. Porto,309,2025-03-10T17:12:00Z,25067364,Em despacho,3315,Inundação de estruturas por precipitação intensa,0,0,0,0,2025-03-10T17:12:00Z,Porto,Porto,Norte,-8.60156,41.16693
25067448,"Cedofeita, Ildefonso, Sé, Miragaia, Nicolau e Vitória",Area M. Porto,309,2025-03-10T17:28:00Z,25067448,Em despacho,3315,Inundação de estruturas por precipitação intensa,0,0,0,0,2025-03-10T17:28:00Z,Porto,Porto,Norte,-8.61777,41.1517
25067534,"Cedofeita, Ildefonso, Sé, Miragaia, Nicolau e Vitória",Area M. Porto,309,2025-03-10T17:46:00Z,25067534,Em despacho,3315,Inundação de estruturas por precipitação intensa,0,0,0,0,2025-03-10T17:46:00Z,Porto,Porto,Norte,-8.615939,41.15359
25067589,Paranhos,Area M. Porto,309,2025-03-10T17:56:00Z,25067589,Em despacho,3315,Inundação de estruturas por precipitação intensa,0,0,0,0,2025-03-10T17:56:00Z,Porto,Porto,Norte,-8.604254,41.174248
25063232,Santa Maria do Castelo e Santiago e Santa Susana,Alentejo Litoral,312,2025-03-09T19:02:00Z,25063232,Em curso,1101,Cheia,0,0,0,0,2025-03-09T19:02:00Z,Alcácer Do Sal,Setúbal,Alentejo,-8.48167,38.29806
25064922,Arruda Dos Vinhos,Oeste,311,2025-03-10T09:03:00Z,25064922,Em curso,3315,Inundação de estruturas por precipitação intensa,0,1,0,1,2025-03-10T09:03:00Z,Arruda Dos Vinhos,Lisboa,Centro,-9.098654,39.001645
25066126,Sé e São Lourenço,Alto Alentejo,312,2025-03-10T12:30:00Z,25066126,Em conclusão,3301,Queda de árvore,0,0,0,0,2025-03-10T12:30:00Z,Portalegre,Portalegre,Alentejo,-7.421847,39.289553
25066273,Sé e São Lourenço,Alto Alentejo,312,2025-03-10T13:02:00Z,25066273,Em conclusão,3309,Desabamento de estruturas edificadas,0,0,0,0,2025-03-10T13:02:00Z,Portalegre,Portalegre,Alentejo,-7.417375,39.288735
25066293,São Salvador e Santa Maria,Alentejo Litoral,312,2025-03-10T13:26:00Z,25066293,Em despacho,3301,Queda de árvore,0,1,0,2,2025-03-10T13:26:00Z,Odemira,Beja,Alentejo,-8.650536,37.594321
25066357,Sé e São Lourenço,Alto Alentejo,312,2025-03-10T13:27:00Z,25066357,Em conclusão,3309,Desabamento de estruturas edificadas,0,0,0,0,2025-03-10T13:27:00Z,Portalegre,Portalegre,Alentejo,-7.405077,39.28866
25066393,Sé e São Lourenço,Alto Alentejo,312,2025-03-10T13:30:00Z,25066393,Em conclusão,3309,Desabamento de estruturas edificadas,0,0,0,0,2025-03-10T13:30:00Z,Portalegre,Portalegre,Alentejo,-7.40493,39.2887
25066793,Sé e São Lourenço,Alto Alentejo,312,2025-03-10T15:06:00Z,25066793,Em conclusão,3301,Queda de árvore,0,1,0,4,2025-03-10T15:06:00Z,Portalegre,Portalegre,Alentejo,-7.404387,39.297978
25067578,Paranhos,Area M. Porto,309,2025-03-10T17:55:00Z,25067578,Em despacho,3315,Inundação de estruturas por precipitação intensa,0,1,0,2,2025-03-10T17:55:00Z,Porto,Porto,Norte,-8.58969,41.17954
25067612,Marinhais,Lezíria do Tejo,311,2025-03-10T18:02:00Z,25067612,Em conclusão,3315,Inundação de estruturas por precipitação intensa,0,1,0,1,2025-03-10T18:02:00Z,Salvaterra De Magos,Santarém,Alentejo,-8.704894,39.048061
25067628,"Cedofeita, Ildefonso, Sé, Miragaia, Nicolau e Vitória",Area M. Porto,309,2025-03-10T18:06:00Z,25067628,Em despacho,3315,Inundação de estruturas por precipitação intensa,0,1,0,3,2025-03-10T18:06:00Z,Porto,Porto,Norte,-8.6182,41.15012
25067630,Santa Maria do Castelo e Santiago e Santa Susana,Alentejo Litoral,312,2025-03-10T17:53:00Z,25067630,Em curso,3313,Deslizamento de terras,0,2,0,3,2025-03-10T17:53:00Z,Alcácer Do Sal,Setúbal,Alentejo,-8.513732,38.402515
25067679,Algueirão-Mem Martins,Grande Lisboa,311,2025-03-10T17:45:00Z,25067679,Em despacho,3301,Queda de árvore,0,1,0,2,2025-03-10T17:45:00Z,Sintra,Lisboa,Área Metropolitana De Lisboa,-9.340934,38.801232
25067695,Benfica do Ribatejo,Lezíria do Tejo,311,2025-03-10T18:20:00Z,25067695,Em conclusão,3315,Inundação de estruturas por precipitação intensa,0,1,0,5,2025-03-10T18:20:00Z,Almeirim,Santarém,Alentejo,-8.688346,39.147223
25067714,Castelo Branco,Beira Baixa,310,2025-03-10T18:20:00Z,25067714,Em curso,3315,Inundação de estruturas por precipitação intensa,0,2,0,3,2025-03-10T18:20:00Z,Castelo Branco,Castelo Branco,Centro,-7.454262,39.86254
25067716,Salir,Algarve,313,2025-03-10T18:27:00Z,25067716,Em despacho,3313,Deslizamento de terras,0,1,0,2,2025-03-10T18:27:00Z,Loulé,Faro,Algarve,-7.957935,37.23457
25067775,Madalena,Area M. Porto,309,2025-03-10T18:45:00Z,25067775,Em despacho,3315,Inundação de estruturas por precipitação intensa,0,0,0,0,2025-03-10T18:45:00Z,Vila Nova De Gaia,Porto,Norte,-8.64005,41.11209
25067798,Canidelo,Area M. Porto,309,2025-03-10T18:33:00Z,25067798,Em despacho,3315,Inundação de estruturas por precipitação intensa,0,3,0,11,2025-03-10T18:33:00Z,Vila Nova De Gaia,Porto,Norte,-8.652723,41.127681
25067818,Alcabideche,Grande Lisboa,311,2025-03-10T18:43:00Z,25067818,Em despacho,3301,Queda de árvore,0,1,0,5,2025-03-10T18:43:00Z,Cascais,Lisboa,Área Metropolitana De Lisboa,-9.438785,38.755713
25067902,Angeja,Região de Aveiro,310,2025-03-10T19:05:00Z,25067902,Em despacho,3313,Deslizamento de terras,0,1,0,2,2025-03-10T19:05:00Z,Albergaria-a-Velha,Aveiro,Centro,-8.56369,40.681509
25067916,Albergaria-a-Velha e Valmaior,Região de Aveiro,310,2025-03-10T19:05:00Z,25067916,Em despacho,3313,Deslizamento de terras,0,1,0,2,2025-03-10T19:05:00Z,Albergaria-a-Velha,Aveiro,Centro,-8.479745,40.688996
25067795,Alcains,Beira Baixa,310,2025-03-10T18:48:00Z,25067795,Em curso,3315,Inundação de estruturas por precipitação intensa,0,1,0,2,2025-03-10T18:48:00Z,Castelo Branco,Castelo Branco,Centro,-7.454748,39.915759
25067812,Salvaterra de Magos e Foros de Salvaterra,Lezíria do Tejo,311,2025-03-10T18:54:00Z,25067812,Em curso,3315,Inundação de estruturas por precipitação intensa,0,1,0,4,2025-03-10T18:54:00Z,Salvaterra De Magos,Santarém,Alentejo,-8.766002,39.022647
25067831,Carnide,Região de Leiria,310,2025-03-10T18:55:00Z,25067831,Em despacho,3301,Queda de árvore,0,1,0,5,2025-03-10T18:55:00Z,Pombal,Leiria,Centro,-8.725724,39.872986
25067878,Madalena,Area M. Porto,309,2025-03-10T19:07:00Z,25067878,Em despacho,3315,Inundação de estruturas por precipitação intensa,0,0,0,0,2025-03-10T19:07:00Z,Vila Nova De Gaia,Porto,Norte,-8.64865,41.10778
