id,address,subregion,neighborhood,date,id.1,state,nature,nature_description,aerial_means,terrestrial_means,aquatic_means,operational,date.1,Concelho,Distrito,NUTII_DSG,longitude,latitude
24794459,Alcanena e Vila Moreira,Médio Tejo,311,2025-01-09T09:04:00Z,24794459,Em conclusão,3311,Queda de elementos de estruturas edificados,0,0,0,0,2025-01-09T09:04:00Z,Alcanena,Santarém,Centro,-8.666413,39.458072
24797401,"Verim, Friande e Ajude",Ave,309,2025-01-09T18:39:00Z,24797401,Em despacho,3313,Deslizamento de terras,0,2,0,2,2025-01-09T18:39:00Z,Póvoa De Lanhoso,Braga,Norte,-8.287844,41.640453
24796850,Mateus,Douro,309,2025-01-09T16:34:00Z,24796850,Em curso,3317,Inundação de estruturas por água canalizada,0,1,0,2,2025-01-09T16:34:00Z,Vila Real,Vila Real,Norte,-7.71247,41.300675
24797341,Argoncilhe,Area M. Porto,309,2025-01-09T18:17:00Z,24797341,Em despacho,3311,Queda de elementos de estruturas edificados,0,1,0,4,2025-01-09T18:17:00Z,Santa Maria Da Feira,Aveiro,Norte,-8.551679,41.028236
24797496,Atouguia da Baleia,Oeste,311,2025-01-09T18:58:00Z,24797496,Em despacho,3321,Dano na rede de fornecimento de eletricidade ,0,1,0,3,2025-01-09T18:58:00Z,Peniche,Leiria,Centro,-9.298623,39.328254
24797286,Buarcos,Região de Coimbra,310,2025-01-09T18:07:00Z,24797286,Em despacho,3329,Queda de estruturas temporárias ou móveis,0,2,0,7,2025-01-09T18:07:00Z,Figueira Da Foz,Coimbra,Centro,-8.853671,40.146943
