id,address,subregion,neighborhood,date,id.1,state,nature,nature_description,aerial_means,terrestrial_means,aquatic_means,operational,date.1,Concelho,Distrito,NUTII_DSG,longitude,latitude
24901602,Odiáxere,Algarve,313,2025-02-01T13:58:00Z,24901602,Em conclusão,3301,Queda de árvore,0,0,0,0,2025-02-01T13:58:00Z,Lagos,Faro,Algarve,-8.666629,37.150953
24901797,Arca e Ponte de Lima,Alto Minho,309,2025-02-01T15:10:00Z,24901797,Em curso,3301,Queda de árvore,0,1,0,2,2025-02-01T15:10:00Z,Ponte De Lima,Viana Do Castelo,Norte,-8.577281,41.761526
24901863,São Vicente do Paul e Vale de Figueira,Lezíria do Tejo,311,2025-02-01T15:27:00Z,24901863,Em conclusão,3301,Queda de árvore,0,1,0,2,2025-02-01T15:27:00Z,Santarém,Santarém,Alentejo,-8.654088,39.363554
24877003,Malagueira e Horta Das Figueiras,Alentejo Central,312,2025-01-27T11:41:00Z,24877003,Em conclusão,3315,Inundação de estruturas por precipitação intensa,0,0,0,0,2025-01-27T11:41:00Z,Évora,Évora,Alentejo,-7.924277,38.57285
24901821,Ceira,Região de Coimbra,310,2025-02-01T14:57:00Z,24901821,Em curso,3313,Deslizamento de terras,0,1,0,2,2025-02-01T14:57:00Z,Coimbra,Coimbra,Centro,-8.376144,40.175952
24851780,"São Miguel, Santa Eufémia e Rabaçal",Região de Coimbra,310,2025-01-21T23:25:00Z,24851780,Em curso,3315,Inundação de estruturas por precipitação intensa,0,0,0,0,2025-01-21T23:25:00Z,Penela,Coimbra,Centro,-8.399036,40.025502
24901583,Vila do Bispo e Raposeira,Algarve,313,2025-02-01T14:10:00Z,24901583,Em conclusão,3301,Queda de árvore,0,1,0,4,2025-02-01T14:10:00Z,Vila Do Bispo,Faro,Algarve,-8.90908,37.083835
