id,address,subregion,neighborhood,date,id.1,state,nature,nature_description,aerial_means,terrestrial_means,aquatic_means,operational,date.1,Concelho,Distrito,NUTII_DSG,longitude,latitude
25063971,Salir,Algarve,313,2025-03-09T23:45:00Z,25063971,Em resolução,3313,Deslizamento de terras,0,3,0,3,2025-03-09T23:45:00Z,Loulé,Faro,Algarve,-7.945758,37.230723
25064916,Santo Antão e São Julião do Tojal,Grande Lisboa,311,2025-03-10T08:56:00Z,25064916,Em despacho,3315,Inundação de estruturas por precipitação intensa,0,1,0,4,2025-03-10T08:56:00Z,Loures,Lisboa,Área Metropolitana De Lisboa,-9.137133,38.85709
25065325,Odeceixe,Algarve,313,2025-03-10T10:09:00Z,25065325,Em curso,3301,Queda de árvore,0,1,0,4,2025-03-10T10:09:00Z,Aljezur,Faro,Algarve,-8.742576,37.399882
25065377,Fazendas de Almeirim,Lezíria do Tejo,311,2025-03-10T10:37:00Z,25065377,Em curso,3321,Dano na rede de fornecimento de eletricidade ,0,1,0,2,2025-03-10T10:37:00Z,Almeirim,Santarém,Alentejo,-8.538074,39.165858
25063232,Santa Maria do Castelo e Santiago e Santa Susana,Alentejo Litoral,312,2025-03-09T19:02:00Z,25063232,Em curso,1101,Cheia,0,1,0,1,2025-03-09T19:02:00Z,Alcácer Do Sal,Setúbal,Alentejo,-8.48167,38.29806
25064922,Arruda Dos Vinhos,Oeste,311,2025-03-10T09:03:00Z,25064922,Em curso,3315,Inundação de estruturas por precipitação intensa,0,2,0,3,2025-03-10T09:03:00Z,Arruda Dos Vinhos,Lisboa,Centro,-9.098654,39.001645
25065354,Nazaré,Oeste,311,2025-03-10T10:29:00Z,25065354,Em conclusão,3315,Inundação de estruturas por precipitação intensa,0,1,0,2,2025-03-10T10:29:00Z,Nazaré,Leiria,Centro,-9.062127,39.596083
25065574,Salvaterra de Magos e Foros de Salvaterra,Lezíria do Tejo,311,2025-03-10T11:10:00Z,25065574,Em conclusão,3315,Inundação de estruturas por precipitação intensa,0,1,0,1,2025-03-10T11:10:00Z,Salvaterra De Magos,Santarém,Alentejo,-8.759168,39.005492
25065606,São João Das Lampas e Terrugem,Grande Lisboa,311,2025-03-10T11:17:00Z,25065606,Em conclusão,3315,Inundação de estruturas por precipitação intensa,0,1,0,2,2025-03-10T11:17:00Z,Sintra,Lisboa,Área Metropolitana De Lisboa,-9.358215,38.887195
25065657,Gavião e Atalaia,Alto Alentejo,312,2025-03-10T11:23:00Z,25065657,Em curso,3309,Desabamento de estruturas edificadas,0,3,0,5,2025-03-10T11:23:00Z,Gavião,Portalegre,Alentejo,-7.950913,39.428242
25065722,Igreja Nova e Cheleiros,Grande Lisboa,311,2025-03-10T11:32:00Z,25065722,Em despacho,3315,Inundação de estruturas por precipitação intensa,0,1,0,2,2025-03-10T11:32:00Z,Mafra,Lisboa,Área Metropolitana De Lisboa,-9.321418,38.89208
25065720,Gavião e Atalaia,Alto Alentejo,312,2025-03-10T11:35:00Z,25065720,Em despacho,3313,Deslizamento de terras,0,0,0,0,2025-03-10T11:35:00Z,Gavião,Portalegre,Alentejo,-7.960047,39.430351
25065761,Salvaterra de Magos e Foros de Salvaterra,Lezíria do Tejo,311,2025-03-10T11:43:00Z,25065761,Em resolução,3315,Inundação de estruturas por precipitação intensa,0,2,0,6,2025-03-10T11:43:00Z,Salvaterra De Magos,Santarém,Alentejo,-8.790194,39.028695
25065786,São João Das Lampas e Terrugem,Grande Lisboa,311,2025-03-10T11:35:00Z,25065786,Em despacho,3315,Inundação de estruturas por precipitação intensa,0,1,0,2,2025-03-10T11:35:00Z,Sintra,Lisboa,Área Metropolitana De Lisboa,-9.404642,38.905614
25065836,Alverca do Ribatejo e Sobralinho,Grande Lisboa,311,2025-03-10T11:57:00Z,25065836,Em despacho,3313,Deslizamento de terras,0,0,0,0,2025-03-10T11:57:00Z,Vila Franca De Xira,Lisboa,Área Metropolitana De Lisboa,-9.064747,38.918733
25065838,Ereira e Lapa,Lezíria do Tejo,311,2025-03-10T11:56:00Z,25065838,Em despacho,3309,Desabamento de estruturas edificadas,0,1,0,2,2025-03-10T11:56:00Z,Cartaxo,Santarém,Alentejo,-8.863341,39.178682
25065805,Bucelas,Grande Lisboa,311,2025-03-10T11:43:00Z,25065805,Em resolução,3315,Inundação de estruturas por precipitação intensa,0,1,0,4,2025-03-10T11:43:00Z,Loures,Lisboa,Área Metropolitana De Lisboa,-9.168413,38.911553
25065842,Almeirim,Lezíria do Tejo,311,2025-03-10T11:57:00Z,25065842,Em despacho,3315,Inundação de estruturas por precipitação intensa,0,1,0,4,2025-03-10T11:57:00Z,Almeirim,Santarém,Alentejo,-8.588832,39.142251
25064774,Aljezur,Algarve,313,2025-03-10T08:41:00Z,25064774,Em curso,3301,Queda de árvore,0,1,0,4,2025-03-10T08:41:00Z,Aljezur,Faro,Algarve,-8.803144,37.313343
25064801,Mira,Região de Coimbra,310,2025-03-10T08:34:00Z,25064801,Em despacho,3315,Inundação de estruturas por precipitação intensa,0,1,0,1,2025-03-10T08:34:00Z,Mira,Coimbra,Centro,-8.734102,40.4268
25065403,Marmelete,Algarve,313,2025-03-10T10:26:00Z,25065403,Em despacho,3313,Deslizamento de terras,0,1,0,2,2025-03-10T10:26:00Z,Monchique,Faro,Algarve,-8.697881,37.26614
25065460,Sado,Península de Setúbal,311,2025-03-10T10:41:00Z,25065460,Em despacho,3301,Queda de árvore,0,1,0,5,2025-03-10T10:41:00Z,Setúbal,Setúbal,Área Metropolitana De Lisboa,-8.830049,38.498799
25065719,Carnaxide e Queijas,Grande Lisboa,311,2025-03-10T11:29:00Z,25065719,Em conclusão,3315,Inundação de estruturas por precipitação intensa,0,1,0,5,2025-03-10T11:29:00Z,Oeiras,Lisboa,Área Metropolitana De Lisboa,-9.259903,38.718843
25065735,Odeceixe,Algarve,313,2025-03-10T11:30:00Z,25065735,Em despacho,3301,Queda de árvore,0,2,0,6,2025-03-10T11:30:00Z,Aljezur,Faro,Algarve,-8.752101,37.416337
25065794,Santo Antão e São Julião do Tojal,Grande Lisboa,311,2025-03-10T11:45:00Z,25065794,Em despacho,3313,Deslizamento de terras,0,1,0,3,2025-03-10T11:45:00Z,Loures,Lisboa,Área Metropolitana De Lisboa,-9.149352,38.868485
25065803,Arranhó,Oeste,311,2025-03-10T11:40:00Z,25065803,Em despacho,3315,Inundação de estruturas por precipitação intensa,0,1,0,1,2025-03-10T11:40:00Z,Arruda Dos Vinhos,Lisboa,Centro,-9.132157,38.956907
25065812,Aljezur,Algarve,313,2025-03-10T11:44:00Z,25065812,Em despacho,3313,Deslizamento de terras,0,2,0,4,2025-03-10T11:44:00Z,Aljezur,Faro,Algarve,-8.793034,37.300808
25059714,Torrão,Alentejo Litoral,312,2025-03-08T22:10:00Z,25059714,Em curso,1101,Cheia,0,2,0,3,2025-03-08T22:10:00Z,Alcácer Do Sal,Setúbal,Alentejo,-8.359133,38.252053
25065114,Santana do Mato,Lezíria do Tejo,311,2025-03-10T09:46:00Z,25065114,Em despacho,3333,Rutura de barragem,0,2,0,4,2025-03-10T09:46:00Z,Coruche,Santarém,Alentejo,-8.468222,38.831897
25065647,Alverca do Ribatejo e Sobralinho,Grande Lisboa,311,2025-03-10T11:22:00Z,25065647,Em curso,3301,Queda de árvore,0,1,0,5,2025-03-10T11:22:00Z,Vila Franca De Xira,Lisboa,Área Metropolitana De Lisboa,-9.04568,38.90465
25065681,Ferreira do Alentejo e Canhestros,Baixo Alentejo,312,2025-03-10T11:30:00Z,25065681,Em despacho,3301,Queda de árvore,0,1,0,3,2025-03-10T11:30:00Z,Ferreira Do Alentejo,Beja,Alentejo,-8.2895,38.03496
25065837,Amora,Península de Setúbal,311,2025-03-10T11:38:00Z,25065837,Em despacho,3317,Inundação de estruturas por água canalizada,0,1,0,3,2025-03-10T11:38:00Z,Seixal,Setúbal,Área Metropolitana De Lisboa,-9.115993,38.621057
25065700,São Salvador e Santa Maria,Alentejo Litoral,312,2025-03-10T09:00:00Z,25065700,Em curso,3313,Deslizamento de terras,0,2,0,3,2025-03-10T09:00:00Z,Odemira,Beja,Alentejo,-8.639472,37.591393
25065797,Benavente,Lezíria do Tejo,311,2025-03-10T11:50:00Z,25065797,Em resolução,3315,Inundação de estruturas por precipitação intensa,0,1,0,2,2025-03-10T11:50:00Z,Benavente,Santarém,Alentejo,-8.804753,38.980872
25065800,Caparica e Trafaria,Península de Setúbal,311,2025-03-10T11:41:00Z,25065800,Em despacho,3315,Inundação de estruturas por precipitação intensa,0,1,0,3,2025-03-10T11:41:00Z,Almada,Setúbal,Área Metropolitana De Lisboa,-9.215111,38.660442
25065817,Salvaterra de Magos e Foros de Salvaterra,Lezíria do Tejo,311,2025-03-10T11:54:00Z,25065817,Em despacho,3315,Inundação de estruturas por precipitação intensa,0,1,0,5,2025-03-10T11:54:00Z,Salvaterra De Magos,Santarém,Alentejo,-8.73342,39.006483
25065831,"Alhandra, São João Dos Montes e Calhandriz",Grande Lisboa,311,2025-03-10T11:45:00Z,25065831,Em despacho,3315,Inundação de estruturas por precipitação intensa,0,1,0,3,2025-03-10T11:45:00Z,Vila Franca De Xira,Lisboa,Área Metropolitana De Lisboa,-9.045634,38.956716
25065866,"Almargem do Bispo, Pêro Pinheiro e Montelavar",Grande Lisboa,311,2025-03-10T11:20:00Z,25065866,Em curso,3315,Inundação de estruturas por precipitação intensa,0,0,0,0,2025-03-10T11:20:00Z,Sintra,Lisboa,Área Metropolitana De Lisboa,-9.335912,38.863107
