id,address,subregion,neighborhood,date,id.1,state,nature,nature_description,aerial_means,terrestrial_means,aquatic_means,operational,date.1,Concelho,Distrito,NUTII_DSG,longitude,latitude,state_2
26184835,Montijo e Afonsoeiro,Península de Setúbal,311,2025-10-24T17:31:00Z,26184835,Em Despacho,3103,Incêndio rural,0,1,0,5,2025-10-24T17:31:00Z,Montijo,Setúbal,Área Metropolitana De Lisboa,-8.973058,38.71715,Despacho
26184456,Rio de Mouro,Grande Lisboa,311,2025-10-24T15:51:00Z,26184456,Em Resolução/Conclusão,3103,Incêndio rural,0,2,0,7,2025-10-24T15:51:00Z,Sintra,Lisboa,Área Metropolitana De Lisboa,-9.320668,38.758695,Resolução/Conclusão
26160929,Caranguejeira,Região de Leiria,310,2025-10-19T16:50:00Z,26160929,Em Resolução/Conclusão,3101,Incêndio rural,0,1,0,2,2025-10-19T16:50:00Z,Leiria,Leiria,Centro,-8.697637,39.726483,Resolução/Conclusão
26184418,Pinhal do Norte,Douro,309,2025-10-24T15:57:00Z,26184418,Em Resolução/Conclusão,3103,Incêndio rural,0,2,0,6,2025-10-24T15:57:00Z,Carrazeda De Ansiães,Bragança,Norte,-7.358265,41.326938,Resolução/Conclusão
26184831,Porto Covo,Alentejo Litoral,312,2025-10-24T17:28:00Z,26184831,Em Despacho,3111,Queima,0,0,0,0,2025-10-24T17:28:00Z,Sines,Setúbal,Alentejo,-8.73,37.86417,Despacho
