id,address,subregion,neighborhood,date,id.1,state,nature,nature_description,aerial_means,terrestrial_means,aquatic_means,operational,date.1,Concelho,Distrito,NUTII_DSG,longitude,latitude
25504248,Corroios,Península de Setúbal,311,2025-06-10T08:36:00Z,25504248,Em conclusão,3201,Detritos não confinados,0,2,0,5,2025-06-10T08:36:00Z,Seixal,Setúbal,Área Metropolitana De Lisboa,-9.156509,38.644129
25504437,Alcantarilha e Pêra,Algarve,313,2025-06-10T09:26:00Z,25504437,Em curso,3103,Incêndio rural,0,4,0,17,2025-06-10T09:26:00Z,Silves,Faro,Algarve,-8.330372,37.12936
25504047,Monte Redondo,Alto Minho,309,2025-06-10T07:50:00Z,25504047,Em curso,3103,Incêndio rural,0,4,0,12,2025-06-10T07:50:00Z,Arcos De Valdevez,Viana Do Castelo,Norte,-8.44661,41.833125
25503556,Portela e Extremo,Alto Minho,309,2025-06-10T00:57:00Z,25503556,Em conclusão,3103,Incêndio rural,0,2,0,7,2025-06-10T00:57:00Z,Arcos De Valdevez,Viana Do Castelo,Norte,-8.464202,41.960325
25504093,Landim,Ave,309,2025-06-10T08:09:00Z,25504093,Em conclusão,2101,Incêndio em edifícios habitacionais,0,2,0,7,2025-06-10T08:09:00Z,Vila Nova De Famalicão,Braga,Norte,-8.47016,41.390687
25504408,Macieira de Cambra,Area M. Porto,309,2025-06-10T09:10:00Z,25504408,Em despacho,3107,Consolidação de rescaldo de incêndio rural,0,1,0,5,2025-06-10T09:10:00Z,Vale De Cambra,Aveiro,Norte,-8.369678,40.87889
