id,address,subregion,neighborhood,date,id.1,state,nature,nature_description,aerial_means,terrestrial_means,aquatic_means,operational,date.1,Concelho,Distrito,NUTII_DSG,longitude,latitude,state_2
26119150,Prado (São Miguel),Cávado,309,2025-10-11T01:42:00Z,26119150,Em Resolução/Conclusão,3103,Incêndio rural,0,7,0,26,2025-10-11T01:42:00Z,Vila Verde,Braga,Norte,-8.437767,41.6985,Resolução/Conclusão
26119319,Murtosa,Região de Aveiro,310,2025-10-11T03:50:00Z,26119319,Em Resolução/Conclusão,3105,Incêndio rural,0,5,0,14,2025-10-11T03:50:00Z,Murtosa,Aveiro,Centro,-8.643857,40.738175,Resolução/Conclusão
26114630,Seixo da Beira,Região de Coimbra,310,2025-10-10T08:46:00Z,26114630,Em Resolução/Conclusão,3101,Incêndio rural,0,5,0,14,2025-10-10T08:46:00Z,Oliveira Do Hospital,Coimbra,Centro,-7.851872,40.421183,Resolução/Conclusão
26119160,Moimenta e Montouto,Terras de Trás-os-Montes,309,2025-10-11T01:45:00Z,26119160,Em Resolução/Conclusão,3103,Incêndio rural,0,8,0,33,2025-10-11T01:45:00Z,Vinhais,Bragança,Norte,-6.965835,41.949908,Resolução/Conclusão
26119377,Charneca de Caparica e Sobreda,Península de Setúbal,311,2025-10-11T04:38:00Z,26119377,Em Resolução/Conclusão,3103,Incêndio rural,0,0,0,0,2025-10-11T04:38:00Z,Almada,Setúbal,Área Metropolitana De Lisboa,-9.208642,38.628285,Resolução/Conclusão
26119396,Ruivães e Novais,Ave,309,2025-10-11T04:50:00Z,26119396,Em Resolução/Conclusão,3103,Incêndio rural,0,4,0,17,2025-10-11T04:50:00Z,Vila Nova De Famalicão,Braga,Norte,-8.42954,41.3882,Resolução/Conclusão
26115854,Gralhas,Alto Tâmega e Barroso,309,2025-10-10T12:13:00Z,26115854,Em Resolução/Conclusão,3103,Incêndio rural,0,21,0,56,2025-10-10T12:13:00Z,Montalegre,Vila Real,Norte,-7.72346,41.854762,Resolução/Conclusão
26119441,Santo António da Charneca,Península de Setúbal,311,2025-10-11T05:46:00Z,26119441,Em Resolução/Conclusão,3103,Incêndio rural,0,3,0,15,2025-10-11T05:46:00Z,Barreiro,Setúbal,Área Metropolitana De Lisboa,-9.01995,38.60528,Resolução/Conclusão
