id,address,subregion,neighborhood,date,id.1,state,nature,nature_description,aerial_means,terrestrial_means,aquatic_means,operational,date.1,Concelho,Distrito,NUTII_DSG,longitude,latitude
24888293,Pernes,Lezíria do Tejo,311,2025-01-29T16:41:00Z,24888293,Em curso,3301,Queda de árvore,0,0,0,0,2025-01-29T16:41:00Z,Santarém,Santarém,Alentejo,-8.658865,39.381547
24999613,Alcantarilha e Pêra,Algarve,313,2025-02-23T14:15:00Z,24999613,Em despacho,3311,Queda de elementos de estruturas edificados,0,1,0,5,2025-02-23T14:15:00Z,Silves,Faro,Algarve,-8.352626,37.169974
24999663,São João Baptista e Santa Maria Dos Olivais,Médio Tejo,311,2025-02-23T14:38:00Z,24999663,Em curso,3321,Dano na rede de fornecimento de eletricidade ,0,3,0,9,2025-02-23T14:38:00Z,Tomar,Santarém,Centro,-8.405552,39.602187
24877003,Malagueira e Horta Das Figueiras,Alentejo Central,312,2025-01-27T11:41:00Z,24877003,Em conclusão,3315,Inundação de estruturas por precipitação intensa,0,0,0,0,2025-01-27T11:41:00Z,Évora,Évora,Alentejo,-7.924277,38.57285
24999206,Barcarena,Grande Lisboa,311,2025-02-23T12:52:00Z,24999206,Em conclusão,3321,Dano na rede de fornecimento de eletricidade ,0,0,0,0,2025-02-23T12:52:00Z,Oeiras,Lisboa,Área Metropolitana De Lisboa,-9.277392,38.733987
