id,address,subregion,neighborhood,date,id.1,state,nature,nature_description,aerial_means,terrestrial_means,aquatic_means,operational,date.1,Concelho,Distrito,NUTII_DSG,longitude,latitude,state_2
26095818,Montijo e Afonsoeiro,Península de Setúbal,311,2025-10-06T11:40:00Z,26095818,Em Resolução/Conclusão,3103,Incêndio rural,0,2,0,7,2025-10-06T11:40:00Z,Montijo,Setúbal,Área Metropolitana De Lisboa,-8.975715,38.702323,Resolução/Conclusão
26096068,Guilhabreu,Area M. Porto,309,2025-10-06T12:18:00Z,26096068,Em Despacho,3101,Incêndio rural,1,2,0,16,2025-10-06T12:18:00Z,Vila Do Conde,Porto,Norte,-8.632162,41.292639,Despacho
26096120,a Dos Cunhados e Maceira,Oeste,311,2025-10-06T12:34:00Z,26096120,Em Despacho,3103,Incêndio rural,0,4,0,17,2025-10-06T12:34:00Z,Torres Vedras,Lisboa,Centro,-9.32045,39.15584,Despacho
26093991,Santa Comba,Beiras e Serra da Estrela,310,2025-10-06T01:09:00Z,26093991,Em Resolução/Conclusão,3103,Incêndio rural,0,6,0,15,2025-10-06T01:09:00Z,Seia,Guarda,Centro,-7.745905,40.442718,Resolução/Conclusão
26094776,Meixedo e Padornelos,Alto Tâmega e Barroso,309,2025-10-06T08:40:00Z,26094776,Em Resolução/Conclusão,3103,Incêndio rural,0,5,0,16,2025-10-06T08:40:00Z,Montalegre,Vila Real,Norte,-7.750963,41.864478,Resolução/Conclusão
26095380,Santa Maria do Castelo e Santiago e Santa Susana,Alentejo Litoral,312,2025-10-06T10:27:00Z,26095380,Em Resolução/Conclusão,3103,Incêndio rural,0,9,0,28,2025-10-06T10:27:00Z,Alcácer Do Sal,Setúbal,Alentejo,-8.350748,38.494853,Resolução/Conclusão
26095321,Nossa Senhora da Expectação,Alto Alentejo,312,2025-10-06T10:06:00Z,26095321,Em Resolução/Conclusão,3105,Incêndio rural,0,7,0,22,2025-10-06T10:06:00Z,Campo Maior,Portalegre,Alentejo,-6.962463,39.019298,Resolução/Conclusão
26095973,Proença-a-Nova e Peral,Beira Baixa,310,2025-10-06T12:07:00Z,26095973,Em Resolução/Conclusão,3105,Incêndio rural,0,8,0,27,2025-10-06T12:07:00Z,Proença-a-Nova,Castelo Branco,Centro,-7.933695,39.754177,Resolução/Conclusão
26096106,Quiaios,Região de Coimbra,310,2025-10-06T12:28:00Z,26096106,Em Curso,3105,Incêndio rural,0,4,0,14,2025-10-06T12:28:00Z,Figueira Da Foz,Coimbra,Centro,-8.86,40.190131,Curso
26093602,Castro Daire,Viseu Dão Lafões,310,2025-10-05T22:05:00Z,26093602,Em Resolução/Conclusão,3103,Incêndio rural,0,16,0,55,2025-10-05T22:05:00Z,Castro Daire,Viseu,Centro,-7.927072,40.927072,Resolução/Conclusão
26094440,Rio de Moinhos,Tâmega e Sousa,309,2025-10-06T07:03:00Z,26094440,Em Resolução/Conclusão,3101,Incêndio rural,0,9,0,31,2025-10-06T07:03:00Z,Penafiel,Porto,Norte,-8.265447,41.119273,Resolução/Conclusão
26095946,"O. Azeméis, Riba-Ul, Ul, Macinhata Seixa, Madail",Area M. Porto,309,2025-10-06T12:01:00Z,26095946,Em Resolução/Conclusão,3103,Incêndio rural,0,1,0,5,2025-10-06T12:01:00Z,Oliveira De Azeméis,Aveiro,Norte,-8.482939,40.836334,Resolução/Conclusão
