id,address,subregion,neighborhood,date,id.1,state,nature,nature_description,aerial_means,terrestrial_means,aquatic_means,operational,date.1,Concelho,Distrito,NUTII_DSG,longitude,latitude
25070044,Praia do Ribatejo,Médio Tejo,311,2025-03-10T19:30:00Z,25070044,Em curso,1101,Cheia,0,0,0,0,2025-03-10T19:30:00Z,Vila Nova Da Barquinha,Santarém,Centro,-8.357309,39.485638
25071496,São Manços e São Vicente do Pigeiro,Alentejo Central,312,2025-03-11T13:18:00Z,25071496,Em conclusão,1101,Cheia,0,0,0,0,2025-03-11T13:18:00Z,Évora,Évora,Alentejo,-7.713313,38.513673
25202441,Serpa (Salvador e Santa Maria),Baixo Alentejo,312,2025-04-06T10:25:00Z,25202441,Em conclusão,1101,Cheia,0,0,0,0,2025-04-06T10:25:00Z,Serpa,Beja,Alentejo,-7.555783,37.88592
25240612,"Oeiras e S. Julião da Barra, Paço de Arcos e Caxias",Grande Lisboa,311,2025-04-14T15:30:00Z,25240612,Em despacho,3311,Queda de elementos de estruturas edificados,0,1,0,4,2025-04-14T15:30:00Z,Oeiras,Lisboa,Área Metropolitana De Lisboa,-9.310159,38.698531
25068300,Almeirim,Lezíria do Tejo,311,2025-03-10T20:52:00Z,25068300,Em curso,1101,Cheia,0,0,0,0,2025-03-10T20:52:00Z,Almeirim,Santarém,Alentejo,-8.635002,39.187436
25240490,São Gregório e Santa Justa,Alentejo Central,312,2025-04-14T15:15:00Z,25240490,Em despacho,3301,Queda de árvore,0,1,0,4,2025-04-14T15:15:00Z,Arraiolos,Évora,Alentejo,-7.903175,38.787527
25238581,Alcobaça e Vestiaria,Oeste,311,2025-04-14T08:50:00Z,25238581,Em curso,3301,Queda de árvore,0,1,0,2,2025-04-14T08:50:00Z,Alcobaça,Leiria,Centro,-8.970766,39.549944000000004
