id,address,subregion,neighborhood,date,id.1,state,nature,nature_description,aerial_means,terrestrial_means,aquatic_means,operational,date.1,Concelho,Distrito,NUTII_DSG,longitude,latitude
25525290,Selmes,Baixo Alentejo,312,2025-06-14T16:14:00Z,25525290,Em conclusão,3105,Incêndio rural,0,23,0,60,2025-06-14T16:14:00Z,Vidigueira,Beja,Alentejo,-7.724372,38.135682
25526878,Beja (Salvador e Santa Maria da Feira),Baixo Alentejo,312,2025-06-14T23:30:00Z,25526878,Em conclusão,3105,Incêndio rural,0,0,0,0,2025-06-14T23:30:00Z,Beja,Beja,Alentejo,-7.848662,38.02333
25526995,Canidelo,Area M. Porto,309,2025-06-15T00:18:00Z,25526995,Em curso,2117,Incêndio em edifícios comerciais e gares de transporte,0,7,0,21,2025-06-15T00:18:00Z,Vila Nova De Gaia,Porto,Norte,-8.647093,41.117247
25526548,Colares,Grande Lisboa,311,2025-06-14T21:52:00Z,25526548,Em curso,2201,Incêndio em equipamentos ou produtos,0,2,0,6,2025-06-14T21:52:00Z,Sintra,Lisboa,Área Metropolitana De Lisboa,-9.493446,38.78241
25525879,Ermelo e Pardelhas,Ave,309,2025-06-14T18:47:00Z,25525879,Em resolução,3107,Consolidação de rescaldo de incêndio rural,0,2,0,7,2025-06-14T18:47:00Z,Mondim De Basto,Vila Real,Norte,-7.835478,41.355555
25526687,Santo Estêvão,Lezíria do Tejo,311,2025-06-14T22:38:00Z,25526687,Em conclusão,3201,Detritos não confinados,0,9,0,29,2025-06-14T22:38:00Z,Benavente,Santarém,Alentejo,-8.752147,38.871665
25526853,Guarda,Beiras e Serra da Estrela,310,2025-06-14T23:23:00Z,25526853,Em conclusão,3103,Incêndio rural,0,1,0,2,2025-06-14T23:23:00Z,Guarda,Guarda,Centro,-7.260869,40.536751
25526969,Monte Real e Carvide,Região de Leiria,310,2025-06-15T00:05:00Z,25526969,Em resolução,3101,Incêndio rural,0,3,0,14,2025-06-15T00:05:00Z,Leiria,Leiria,Centro,-8.872496,39.82621
25526971,Campanhã,Area M. Porto,309,2025-06-15T00:06:00Z,25526971,Em despacho,3203,Detritos confinados,0,1,0,5,2025-06-15T00:06:00Z,Porto,Porto,Norte,-8.579389,41.15929
