id,address,subregion,neighborhood,date,id.1,state,nature,nature_description,aerial_means,terrestrial_means,aquatic_means,operational,date.1,Concelho,Distrito,NUTII_DSG,longitude,latitude,state_2
25665133,Lindoso,Alto Minho,309,2025-07-12T02:50:00Z,25665133,Em Resolução/Conclusão,3103,Incêndio rural,0,2,0,9,2025-07-12T02:50:00Z,Ponte Da Barca,Viana Do Castelo,Norte,-8.224007,41.852543,Resolução/Conclusão
25677014,Alcórrego e Maranhão,Alto Alentejo,312,2025-07-14T15:07:00Z,25677014,Em Resolução/Conclusão,3101,Incêndio rural,0,11,0,37,2025-07-14T15:07:00Z,Avis,Portalegre,Alentejo,-7.895798,38.982193,Resolução/Conclusão
25681644,Lustosa e Barrosas (Santo Estêvão),Tâmega e Sousa,309,2025-07-15T13:44:00Z,25681644,Em Resolução/Conclusão,3103,Incêndio rural,0,3,0,15,2025-07-15T13:44:00Z,Lousada,Porto,Norte,-8.318738,41.342972,Resolução/Conclusão
25682028,Serzedo e Perosinho,Area M. Porto,309,2025-07-15T14:39:00Z,25682028,Em Resolução/Conclusão,3105,Incêndio rural,0,1,0,5,2025-07-15T14:39:00Z,Vila Nova De Gaia,Porto,Norte,-8.622615,41.044325,Resolução/Conclusão
25682131,"Britelo, Gémeos e Ourilhe",Tâmega e Sousa,309,2025-07-15T15:07:00Z,25682131,Em Despacho,3103,Incêndio rural,1,5,0,28,2025-07-15T15:07:00Z,Celorico De Basto,Braga,Norte,-8.002944,41.387233,Despacho
25682051,Alfeizerão,Oeste,311,2025-07-15T14:50:00Z,25682051,Em Resolução/Conclusão,3111,Queima,0,0,0,0,2025-07-15T14:50:00Z,Alcobaça,Leiria,Centro,-9.111769,39.47104,Resolução/Conclusão
25682076,Alfena,Area M. Porto,309,2025-07-15T14:56:00Z,25682076,Em Resolução/Conclusão,3103,Incêndio rural,0,1,0,5,2025-07-15T14:56:00Z,Valongo,Porto,Norte,-8.527778,41.228322,Resolução/Conclusão
25682101,Carregal,Douro,309,2025-07-15T14:59:00Z,25682101,Em Curso,3103,Incêndio rural,1,6,0,26,2025-07-15T14:59:00Z,Sernancelhe,Viseu,Norte,-7.568219,40.901558,Curso
25682108,Lanhelas,Alto Minho,309,2025-07-15T15:02:00Z,25682108,Em Despacho,3103,Incêndio rural,1,4,0,21,2025-07-15T15:02:00Z,Caminha,Viana Do Castelo,Norte,-8.783442,41.9107,Despacho
25681100,Sendim e Atenor,Terras de Trás-os-Montes,309,2025-07-15T11:45:00Z,25681100,Em Resolução/Conclusão,3103,Incêndio rural,0,9,0,32,2025-07-15T11:45:00Z,Miranda Do Douro,Bragança,Norte,-6.433873,41.404508,Resolução/Conclusão
25681570,Nespereira,Tâmega e Sousa,309,2025-07-15T13:27:00Z,25681570,Em Resolução/Conclusão,3101,Incêndio rural,0,11,0,38,2025-07-15T13:27:00Z,Cinfães,Viseu,Norte,-8.17601,41.008988,Resolução/Conclusão
25681786,Sobrosa,Area M. Porto,309,2025-07-15T14:07:00Z,25681786,Em Resolução/Conclusão,3103,Incêndio rural,1,2,0,16,2025-07-15T14:07:00Z,Paredes,Porto,Norte,-8.340574,41.25571,Resolução/Conclusão
25681820,Orada,Alentejo Central,312,2025-07-15T14:13:00Z,25681820,Em Resolução/Conclusão,3105,Incêndio rural,0,6,0,21,2025-07-15T14:13:00Z,Borba,Évora,Alentejo,-7.453363,38.889517,Resolução/Conclusão
25682037,"Aver-o-Mar, Amorim e Terroso",Area M. Porto,309,2025-07-15T14:47:00Z,25682037,Em Resolução/Conclusão,3103,Incêndio rural,0,4,0,13,2025-07-15T14:47:00Z,Póvoa De Varzim,Porto,Norte,-8.734177,41.422432,Resolução/Conclusão
25682055,Águas Santas,Area M. Porto,309,2025-07-15T14:51:00Z,25682055,Em Resolução/Conclusão,3103,Incêndio rural,0,5,0,15,2025-07-15T14:51:00Z,Maia,Porto,Norte,-8.572325,41.22519,Resolução/Conclusão
25603618,Messejana,Baixo Alentejo,312,2025-06-30T13:09:00Z,25603618,Em Resolução/Conclusão,3101,Incêndio rural,0,0,0,0,2025-06-30T13:09:00Z,Aljustrel,Beja,Alentejo,-8.169013,37.814978,Resolução/Conclusão
25681114,"S. Mig. Pinheiro, S. Pedro Solis e S. Sebastião Carros",Baixo Alentejo,312,2025-07-15T11:44:00Z,25681114,Em Resolução/Conclusão,3105,Incêndio rural,0,1,0,5,2025-07-15T11:44:00Z,Mértola,Beja,Alentejo,-7.901305,37.480835,Resolução/Conclusão
25682155,Campo de Besteiros,Viseu Dão Lafões,310,2025-07-15T15:09:00Z,25682155,Em Resolução/Conclusão,3105,Incêndio rural,0,2,0,6,2025-07-15T15:09:00Z,Tondela,Viseu,Centro,-8.128399,40.561647,Resolução/Conclusão
25682115,Benquerenças,Beira Baixa,310,2025-07-15T15:03:00Z,25682115,Em Resolução/Conclusão,3105,Incêndio rural,0,4,0,14,2025-07-15T15:03:00Z,Castelo Branco,Castelo Branco,Centro,-7.538647,39.785373,Resolução/Conclusão
