id,address,subregion,neighborhood,date,id.1,state,nature,nature_description,aerial_means,terrestrial_means,aquatic_means,operational,date.1,Concelho,Distrito,NUTII_DSG,longitude,latitude,state_2
25686168,Proença-a-Velha,Beira Baixa,310,2025-07-16T11:11:00Z,25686168,Em Resolução/Conclusão,3101,Incêndio rural,0,1,0,4,2025-07-16T11:11:00Z,Idanha-a-Nova,Castelo Branco,Centro,-7.206996,40.02141,Resolução/Conclusão
25687915,Cidade da Maia,Area M. Porto,309,2025-07-16T16:52:00Z,25687915,Em Resolução/Conclusão,3103,Incêndio rural,0,3,0,14,2025-07-16T16:52:00Z,Maia,Porto,Norte,-8.614095,41.229822,Resolução/Conclusão
25682254,Panque,Cávado,309,2025-07-15T15:31:00Z,25682254,Em Resolução/Conclusão,3101,Incêndio rural,0,14,0,37,2025-07-15T15:31:00Z,Barcelos,Braga,Norte,-8.607035,41.626113,Resolução/Conclusão
25682641,São Bento,Região de Leiria,310,2025-07-15T16:44:00Z,25682641,Em Resolução/Conclusão,3101,Incêndio rural,0,4,0,12,2025-07-15T16:44:00Z,Porto De Mós,Leiria,Centro,-8.746525,39.524688,Resolução/Conclusão
25683057,Messejana,Baixo Alentejo,312,2025-07-15T18:10:00Z,25683057,Em Resolução/Conclusão,3101,Incêndio rural,0,22,0,65,2025-07-15T18:10:00Z,Aljustrel,Beja,Alentejo,-8.253787,37.845618,Resolução/Conclusão
25684761,Travancas e Roriz,Alto Tâmega e Barroso,309,2025-07-16T06:16:00Z,25684761,Em Resolução/Conclusão,3103,Incêndio rural,0,5,0,19,2025-07-16T06:16:00Z,Chaves,Vila Real,Norte,-7.321297,41.815978,Resolução/Conclusão
25686450,Santana da Azinha,Beiras e Serra da Estrela,310,2025-07-16T12:08:00Z,25686450,Em Resolução/Conclusão,3103,Incêndio rural,0,0,0,0,2025-07-16T12:08:00Z,Guarda,Guarda,Centro,-7.209047,40.480347,Resolução/Conclusão
25686799,Souto Maior,Douro,309,2025-07-16T13:19:00Z,25686799,Em Curso,3101,Incêndio rural,10,57,0,203,2025-07-16T13:19:00Z,Sabrosa,Vila Real,Norte,-7.57839,41.287518,Curso
25687169,"Aboim, Felgueiras, Gontim e Pedraído",Ave,309,2025-07-16T14:24:00Z,25687169,Em Resolução/Conclusão,3103,Incêndio rural,0,5,0,16,2025-07-16T14:24:00Z,Fafe,Braga,Norte,-8.108798,41.552007,Resolução/Conclusão
25687468,Beja (Salvador e Santa Maria da Feira),Baixo Alentejo,312,2025-07-16T15:16:00Z,25687468,Em Resolução/Conclusão,3105,Incêndio rural,0,4,0,12,2025-07-16T15:16:00Z,Beja,Beja,Alentejo,-7.853402,38.01134,Resolução/Conclusão
25687535,Canaviais,Alentejo Central,312,2025-07-16T15:29:00Z,25687535,Em Resolução/Conclusão,3103,Incêndio rural,0,8,0,28,2025-07-16T15:29:00Z,Évora,Évora,Alentejo,-7.901167,38.615815,Resolução/Conclusão
25687953,Recezinhos (São Martinho),Tâmega e Sousa,309,2025-07-16T17:11:00Z,25687953,Em Despacho,3101,Incêndio rural,1,2,0,16,2025-07-16T17:11:00Z,Penafiel,Porto,Norte,-8.21824,41.23319,Despacho
25686241,Pedrógão Pequeno,Beira Baixa,310,2025-07-16T11:31:00Z,25686241,Em Resolução/Conclusão,3101,Incêndio rural,0,3,0,9,2025-07-16T11:31:00Z,Sertã,Castelo Branco,Centro,-8.081258,39.915592,Resolução/Conclusão
25686593,Leomil,Douro,309,2025-07-16T12:43:00Z,25686593,Em Resolução/Conclusão,3103,Incêndio rural,0,9,0,33,2025-07-16T12:43:00Z,Moimenta Da Beira,Viseu,Norte,-7.650842,40.979292,Resolução/Conclusão
25686977,Beja (Salvador e Santa Maria da Feira),Baixo Alentejo,312,2025-07-16T13:54:00Z,25686977,Em Resolução/Conclusão,3105,Incêndio rural,0,3,0,8,2025-07-16T13:54:00Z,Beja,Beja,Alentejo,-7.864253,38.02921,Resolução/Conclusão
25687726,"Ovar, São João, Arada e São Vicente de Pereira Jusã",Região de Aveiro,310,2025-07-16T16:12:00Z,25687726,Em Resolução/Conclusão,3105,Incêndio rural,0,2,0,7,2025-07-16T16:12:00Z,Ovar,Aveiro,Centro,-8.61219,40.856415,Resolução/Conclusão
25687746,Termas de São Vicente,Tâmega e Sousa,309,2025-07-16T16:15:00Z,25687746,Em Resolução/Conclusão,3103,Incêndio rural,0,2,0,7,2025-07-16T16:15:00Z,Penafiel,Porto,Norte,-8.294563,41.11486,Resolução/Conclusão
25687827,Rochoso e Monte Margarida,Beiras e Serra da Estrela,310,2025-07-16T16:35:00Z,25687827,Em Curso,3103,Incêndio rural,1,11,0,48,2025-07-16T16:35:00Z,Guarda,Guarda,Centro,-7.106608,40.527017,Curso
25682868,Sertã,Beira Baixa,310,2025-07-15T17:30:00Z,25682868,Em Resolução/Conclusão,3101,Incêndio rural,0,5,0,18,2025-07-15T17:30:00Z,Sertã,Castelo Branco,Centro,-8.092748,39.819602,Resolução/Conclusão
25686587,Mosteiros,Alto Alentejo,312,2025-07-16T12:39:00Z,25686587,Em Resolução/Conclusão,3105,Incêndio rural,0,16,0,53,2025-07-16T12:39:00Z,Arronches,Portalegre,Alentejo,-7.321508,39.167365,Resolução/Conclusão
25687214,Pena Verde,Viseu Dão Lafões,310,2025-07-16T14:28:00Z,25687214,Em Resolução/Conclusão,3103,Incêndio rural,0,10,0,38,2025-07-16T14:28:00Z,Aguiar Da Beira,Guarda,Centro,-7.509458,40.713056,Resolução/Conclusão
25687507,Borba (Matriz),Alentejo Central,312,2025-07-16T15:23:00Z,25687507,Em Resolução/Conclusão,3103,Incêndio rural,0,2,0,7,2025-07-16T15:23:00Z,Borba,Évora,Alentejo,-7.42478,38.822997,Resolução/Conclusão
25687689,Ourentã,Região de Coimbra,310,2025-07-16T16:04:00Z,25687689,Em Resolução/Conclusão,3101,Incêndio rural,2,26,0,104,2025-07-16T16:04:00Z,Cantanhede,Coimbra,Centro,-8.546934,40.391214,Resolução/Conclusão
