id,address,subregion,neighborhood,date,id.1,state,nature,nature_description,aerial_means,terrestrial_means,aquatic_means,operational,date.1,Concelho,Distrito,NUTII_DSG,longitude,latitude
24789474,Macieira da Lixa e Caramos,Tâmega e Sousa,309,2025-01-08T08:16:00Z,24789474,Em conclusão,3321,Dano na rede de fornecimento de eletricidade ,0,1,0,5,2025-01-08T08:16:00Z,Felgueiras,Porto,Norte,-8.149387,41.34853
24789523,Canelas,Area M. Porto,309,2025-01-08T08:12:00Z,24789523,Em curso,3301,Queda de árvore,0,1,0,4,2025-01-08T08:12:00Z,Vila Nova De Gaia,Porto,Norte,-8.60069,41.096258
24789524,Areosa,Alto Minho,309,2025-01-08T08:30:00Z,24789524,Em despacho,3315,Inundação de estruturas por precipitação intensa,0,0,0,0,2025-01-08T08:30:00Z,Viana Do Castelo,Viana Do Castelo,Norte,-8.843621,41.7015
24789540,Airó,Cávado,309,2025-01-08T08:24:00Z,24789540,Em curso,3321,Dano na rede de fornecimento de eletricidade ,0,3,0,6,2025-01-08T08:24:00Z,Barcelos,Braga,Norte,-8.558943,41.50844
24789610,Mazarefes e Vila Fria,Alto Minho,309,2025-01-08T08:47:00Z,24789610,Em despacho,3301,Queda de árvore,0,2,0,4,2025-01-08T08:47:00Z,Viana Do Castelo,Viana Do Castelo,Norte,-8.763235,41.669174
24789625,Santa Maria Maior e Monserrate e Meadela,Alto Minho,309,2025-01-08T08:52:00Z,24789625,Em despacho,3315,Inundação de estruturas por precipitação intensa,0,0,0,0,2025-01-08T08:52:00Z,Viana Do Castelo,Viana Do Castelo,Norte,-8.81652,41.703882
24789370,Alcanena e Vila Moreira,Médio Tejo,311,2025-01-08T07:50:00Z,24789370,Em curso,3311,Queda de elementos de estruturas edificados,0,1,0,2,2025-01-08T07:50:00Z,Alcanena,Santarém,Centro,-8.669221,39.464869
24789422,Alcanena e Vila Moreira,Médio Tejo,311,2025-01-08T08:00:00Z,24789422,Em despacho,3311,Queda de elementos de estruturas edificados,0,1,0,3,2025-01-08T08:00:00Z,Alcanena,Santarém,Centro,-8.669221,39.464869
24789522,"Braga (Maximinos, Sé e Cividade)",Cávado,309,2025-01-08T08:30:00Z,24789522,Em despacho,3301,Queda de árvore,0,1,0,3,2025-01-08T08:30:00Z,Braga,Braga,Norte,-8.44536,41.54902
24789527,Coronado (São Romão e São Mamede),Area M. Porto,309,2025-01-08T08:30:00Z,24789527,Em despacho,3321,Dano na rede de fornecimento de eletricidade ,0,2,0,5,2025-01-08T08:30:00Z,Trofa,Porto,Norte,-8.575427,41.272553
24789536,Alcanena e Vila Moreira,Médio Tejo,311,2025-01-08T08:30:00Z,24789536,Em curso,3311,Queda de elementos de estruturas edificados,0,4,0,9,2025-01-08T08:30:00Z,Alcanena,Santarém,Centro,-8.669221,39.464869
24777071,Pedrógão Grande,Região de Leiria,310,2025-01-05T13:18:00Z,24777071,Em conclusão,3309,Desabamento de estruturas edificadas,0,1,0,1,2025-01-05T13:18:00Z,Pedrógão Grande,Leiria,Centro,-8.177567,39.933038
24789344,Alcanena e Vila Moreira,Médio Tejo,311,2025-01-08T07:40:00Z,24789344,Em despacho,3311,Queda de elementos de estruturas edificados,0,1,0,2,2025-01-08T07:40:00Z,Alcanena,Santarém,Centro,-8.669221,39.464869
24789362,Alcanena e Vila Moreira,Médio Tejo,311,2025-01-08T07:46:00Z,24789362,Em curso,3311,Queda de elementos de estruturas edificados,0,1,0,2,2025-01-08T07:46:00Z,Alcanena,Santarém,Centro,-8.669221,39.464869
24789428,Alcanena e Vila Moreira,Médio Tejo,311,2025-01-08T08:01:00Z,24789428,Em despacho,3311,Queda de elementos de estruturas edificados,0,1,0,2,2025-01-08T08:01:00Z,Alcanena,Santarém,Centro,-8.667184,39.45825
24789444,Afife,Alto Minho,309,2025-01-08T08:10:00Z,24789444,Em despacho,3301,Queda de árvore,0,1,0,2,2025-01-08T08:10:00Z,Viana Do Castelo,Viana Do Castelo,Norte,-8.862576,41.77008
24789578,Santa Maria Maior e Monserrate e Meadela,Alto Minho,309,2025-01-08T08:41:00Z,24789578,Em despacho,3315,Inundação de estruturas por precipitação intensa,0,0,0,0,2025-01-08T08:41:00Z,Viana Do Castelo,Viana Do Castelo,Norte,-8.81652,41.703882
24789587,"Esposende, Marinhas e Gandra",Cávado,309,2025-01-08T08:40:00Z,24789587,Em despacho,3301,Queda de árvore,0,1,0,2,2025-01-08T08:40:00Z,Esposende,Braga,Norte,-8.748898,41.529201
24789646,Lindoso,Alto Minho,309,2025-01-08T08:57:00Z,24789646,Em despacho,3301,Queda de árvore,0,0,0,0,2025-01-08T08:57:00Z,Ponte Da Barca,Viana Do Castelo,Norte,-8.24756,41.860898
24789671,Vila Chã (São João Baptista e Santiago),Alto Minho,309,2025-01-08T08:52:00Z,24789671,Em despacho,3301,Queda de árvore,0,1,0,3,2025-01-08T08:52:00Z,Ponte Da Barca,Viana Do Castelo,Norte,-8.321554,41.789773
24789367,Alcanena e Vila Moreira,Médio Tejo,311,2025-01-08T07:44:00Z,24789367,Em curso,3311,Queda de elementos de estruturas edificados,0,1,0,2,2025-01-08T07:44:00Z,Alcanena,Santarém,Centro,-8.669221,39.464869
24789401,Alcanena e Vila Moreira,Médio Tejo,311,2025-01-08T07:57:00Z,24789401,Em despacho,3311,Queda de elementos de estruturas edificados,0,1,0,3,2025-01-08T07:57:00Z,Alcanena,Santarém,Centro,-8.669221,39.464869
24789501,Este (São Pedro e São Mamede),Cávado,309,2025-01-08T08:19:00Z,24789501,Em despacho,3301,Queda de árvore,0,1,0,2,2025-01-08T08:19:00Z,Braga,Braga,Norte,-8.356951,41.570113
24789535,Alcanena e Vila Moreira,Médio Tejo,311,2025-01-08T08:30:00Z,24789535,Em despacho,3311,Queda de elementos de estruturas edificados,0,1,0,4,2025-01-08T08:30:00Z,Alcanena,Santarém,Centro,-8.669221,39.464869
24789566,Montaria,Alto Minho,309,2025-01-08T08:38:00Z,24789566,Em curso,3315,Inundação de estruturas por precipitação intensa,0,0,0,0,2025-01-08T08:38:00Z,Viana Do Castelo,Viana Do Castelo,Norte,-8.727952,41.803774
24789585,Santa Maria Maior e Monserrate e Meadela,Alto Minho,309,2025-01-08T08:43:00Z,24789585,Em despacho,3315,Inundação de estruturas por precipitação intensa,0,0,0,0,2025-01-08T08:43:00Z,Viana Do Castelo,Viana Do Castelo,Norte,-8.823112,41.6952
24789615,Ericeira,Grande Lisboa,311,2025-01-08T08:47:00Z,24789615,Em conclusão,3301,Queda de árvore,0,0,0,0,2025-01-08T08:47:00Z,Mafra,Lisboa,Área Metropolitana De Lisboa,-9.394346,38.975082
24789635,Miranda do Corvo,Região de Coimbra,310,2025-01-08T08:55:00Z,24789635,Em despacho,3301,Queda de árvore,0,1,0,2,2025-01-08T08:55:00Z,Miranda Do Corvo,Coimbra,Centro,-8.320689,40.076991
24789668,Areosa,Alto Minho,309,2025-01-08T09:02:00Z,24789668,Em despacho,3315,Inundação de estruturas por precipitação intensa,0,0,0,0,2025-01-08T09:02:00Z,Viana Do Castelo,Viana Do Castelo,Norte,-8.8476,41.70303
24789702,Riba de Âncora,Alto Minho,309,2025-01-08T08:55:00Z,24789702,Em despacho,3315,Inundação de estruturas por precipitação intensa,0,1,0,3,2025-01-08T08:55:00Z,Caminha,Viana Do Castelo,Norte,-8.836088,41.804708
24789716,Santa Maria Maior e Monserrate e Meadela,Alto Minho,309,2025-01-08T09:08:00Z,24789716,Em despacho,3315,Inundação de estruturas por precipitação intensa,0,1,0,2,2025-01-08T09:08:00Z,Viana Do Castelo,Viana Do Castelo,Norte,-8.81652,41.703882
24789718,"Esposende, Marinhas e Gandra",Cávado,309,2025-01-08T09:05:00Z,24789718,Em despacho,3301,Queda de árvore,0,2,0,4,2025-01-08T09:05:00Z,Esposende,Braga,Norte,-8.77323,41.541808
24789734,Santa Maria Maior e Monserrate e Meadela,Alto Minho,309,2025-01-08T08:15:00Z,24789734,Em despacho,3315,Inundação de estruturas por precipitação intensa,0,1,0,2,2025-01-08T08:15:00Z,Viana Do Castelo,Viana Do Castelo,Norte,-8.81652,41.703882
24789705,Santa Maria Maior e Monserrate e Meadela,Alto Minho,309,2025-01-08T08:12:00Z,24789705,Em despacho,3315,Inundação de estruturas por precipitação intensa,0,1,0,2,2025-01-08T08:12:00Z,Viana Do Castelo,Viana Do Castelo,Norte,-8.81652,41.703882
24789712,Ventosa,Viseu Dão Lafões,310,2025-01-08T09:09:00Z,24789712,Em despacho,3301,Queda de árvore,0,2,0,6,2025-01-08T09:09:00Z,Vouzela,Viseu,Centro,-8.113007,40.712031
24789545,Areosa,Alto Minho,309,2025-01-08T08:23:00Z,24789545,Em despacho,3315,Inundação de estruturas por precipitação intensa,0,0,0,0,2025-01-08T08:23:00Z,Viana Do Castelo,Viana Do Castelo,Norte,-8.841057,41.722906
24789572,"Barcelos, V. Boa e V. Frescainha",Cávado,309,2025-01-08T08:35:00Z,24789572,Em despacho,3311,Queda de elementos de estruturas edificados,0,1,0,2,2025-01-08T08:35:00Z,Barcelos,Braga,Norte,-8.631632,41.537528
24789604,Valongo,Area M. Porto,309,2025-01-08T08:44:00Z,24789604,Em resolução,3301,Queda de árvore,0,2,0,4,2025-01-08T08:44:00Z,Valongo,Porto,Norte,-8.48714,41.18783
24789606,Areosa,Alto Minho,309,2025-01-08T08:48:00Z,24789606,Em despacho,3329,Queda de estruturas temporárias ou móveis,0,0,0,0,2025-01-08T08:48:00Z,Viana Do Castelo,Viana Do Castelo,Norte,-8.841057,41.722906
24789622,Vila Fria e Vizela (São Jorge),Tâmega e Sousa,309,2025-01-08T08:47:00Z,24789622,Em despacho,3301,Queda de árvore,0,1,0,2,2025-01-08T08:47:00Z,Felgueiras,Porto,Norte,-8.247903,41.381907
