id,address,subregion,neighborhood,date,id.1,state,nature,nature_description,aerial_means,terrestrial_means,aquatic_means,operational,date.1,Concelho,Distrito,NUTII_DSG,longitude,latitude,state_2
26022995,Bordeira,Algarve,313,2025-09-21T12:21:00Z,26022995,Em Resolução/Conclusão,3103,Incêndio rural,0,7,0,22,2025-09-21T12:21:00Z,Aljezur,Faro,Algarve,-8.825374,37.23495,Resolução/Conclusão
26063056,Recarei,Area M. Porto,309,2025-09-29T15:02:00Z,26063056,Em Resolução/Conclusão,3103,Incêndio rural,0,1,0,5,2025-09-29T15:02:00Z,Paredes,Porto,Norte,-8.409203,41.161558,Resolução/Conclusão
26063690,Santana da Serra,Baixo Alentejo,312,2025-09-29T16:55:00Z,26063690,Em Resolução/Conclusão,3103,Incêndio rural,0,1,0,5,2025-09-29T16:55:00Z,Ourique,Beja,Alentejo,-8.278515,37.51561,Resolução/Conclusão
25951176,Sandomil,Beiras e Serra da Estrela,310,2025-09-06T10:29:00Z,25951176,Em Resolução/Conclusão,3103,Incêndio rural,0,2,0,10,2025-09-06T10:29:00Z,Seia,Guarda,Centro,-7.76001,40.351547,Resolução/Conclusão
26063249,"Cambeses do Rio, Donões e Mourilhe",Alto Tâmega e Barroso,309,2025-09-29T15:38:00Z,26063249,Em Despacho,3103,Incêndio rural,0,1,0,5,2025-09-29T15:38:00Z,Montalegre,Vila Real,Norte,-7.838146,41.846175,Despacho
26063632,Vilarandelo,Alto Tâmega e Barroso,309,2025-09-29T16:50:00Z,26063632,Em Resolução/Conclusão,3103,Incêndio rural,0,1,0,5,2025-09-29T16:50:00Z,Valpaços,Vila Real,Norte,-7.32503,41.666675,Resolução/Conclusão
26050704,Tortosendo,Beiras e Serra da Estrela,310,2025-09-26T23:04:00Z,26050704,Em Resolução/Conclusão,3103,Incêndio rural,0,1,0,4,2025-09-26T23:04:00Z,Covilhã,Castelo Branco,Centro,-7.521592,40.251592,Resolução/Conclusão
