id,address,subregion,neighborhood,date,id.1,state,nature,nature_description,aerial_means,terrestrial_means,aquatic_means,operational,date.1,Concelho,Distrito,NUTII_DSG,longitude,latitude
24851821,Santa Maria do Castelo e Santiago e Santa Susana,Alentejo Litoral,312,2025-01-21T23:41:00Z,24851821,Em resolução,1103,Vento forte,0,11,0,21,2025-01-21T23:41:00Z,Alcácer Do Sal,Setúbal,Alentejo,-8.598678,38.397168
24860731,Parada de Cunhos,Douro,309,2025-01-23T18:25:00Z,24860731,Em despacho,3313,Deslizamento de terras,0,1,0,2,2025-01-23T18:25:00Z,Vila Real,Vila Real,Norte,-7.764275,41.285936
24860781,Vila Seca,Cávado,309,2025-01-23T18:30:00Z,24860781,Em despacho,3315,Inundação de estruturas por precipitação intensa,0,1,0,2,2025-01-23T18:30:00Z,Barcelos,Braga,Norte,-8.686561,41.499854
24851780,"São Miguel, Santa Eufémia e Rabaçal",Região de Coimbra,310,2025-01-21T23:25:00Z,24851780,Em curso,3315,Inundação de estruturas por precipitação intensa,0,0,0,0,2025-01-21T23:25:00Z,Penela,Coimbra,Centro,-8.399036,40.025502
24859785,Gondemaria e Olival,Médio Tejo,311,2025-01-23T15:04:00Z,24859785,Em despacho,3313,Deslizamento de terras,0,4,0,7,2025-01-23T15:04:00Z,Ourém,Santarém,Centro,-8.607563,39.687999
24860119,São João Das Lampas e Terrugem,Grande Lisboa,311,2025-01-23T15:55:00Z,24860119,Em conclusão,3301,Queda de árvore,0,3,0,6,2025-01-23T15:55:00Z,Sintra,Lisboa,Área Metropolitana De Lisboa,-9.404642,38.905614
24860653,Faro (Sé e São Pedro),Algarve,313,2025-01-23T18:10:00Z,24860653,Em curso,3321,Dano na rede de fornecimento de eletricidade ,0,0,0,0,2025-01-23T18:10:00Z,Faro,Faro,Algarve,-7.942032,37.01865
24860450,Avelar,Região de Leiria,310,2025-01-23T17:20:00Z,24860450,Em despacho,3315,Inundação de estruturas por precipitação intensa,0,1,0,4,2025-01-23T17:20:00Z,Ansião,Leiria,Centro,-8.365894,39.925606
