id,address,subregion,neighborhood,date,id.1,state,nature,nature_description,aerial_means,terrestrial_means,aquatic_means,operational,date.1,Concelho,Distrito,NUTII_DSG,longitude,latitude,state_2
25775263,Torgueda,Douro,309,2025-08-02T19:49:00Z,25775263,Em Resolução/Conclusão,3101,Incêndio rural,0,6,0,19,2025-08-02T19:49:00Z,Vila Real,Vila Real,Norte,-7.785983,41.274952,Resolução/Conclusão
25807426,Alvite,Douro,309,2025-08-08T14:31:00Z,25807426,Em Resolução/Conclusão,3103,Incêndio rural,0,19,0,77,2025-08-08T14:31:00Z,Moimenta Da Beira,Viseu,Norte,-7.688727,40.96613,Resolução/Conclusão
25826678,Landal,Oeste,311,2025-08-12T00:07:00Z,25826678,Em Resolução/Conclusão,3101,Incêndio rural,0,1,0,2,2025-08-12T00:07:00Z,Caldas Da Rainha,Leiria,Centro,-9.020722,39.295158,Resolução/Conclusão
25829740,NA,NA,0,2025-08-12T14:44:00Z,25829740,Em Curso,3103,Incêndio rural,0,2,0,6,2025-08-12T14:44:00Z,NA,NA,NA,-7.03798,42.004282,Curso
25830104,Campo,Viseu Dão Lafões,310,2025-08-12T15:50:00Z,25830104,Em Resolução/Conclusão,3103,Incêndio rural,0,1,0,55,2025-08-12T15:50:00Z,Viseu,Viseu,Centro,-7.924696,40.705094,Resolução/Conclusão
25832589,Estreito-Vilar Barroco,Beira Baixa,310,2025-08-13T03:47:00Z,25832589,Em Resolução/Conclusão,3101,Incêndio rural,0,1,0,5,2025-08-13T03:47:00Z,Oleiros,Castelo Branco,Centro,-7.784128,39.916948,Resolução/Conclusão
25833839,"Aldeia do Bispo, Águas e Aldeia de João Pires",Beira Baixa,310,2025-08-13T10:37:00Z,25833839,Em Resolução/Conclusão,3103,Incêndio rural,0,13,0,45,2025-08-13T10:37:00Z,Penamacor,Castelo Branco,Centro,-7.165218,40.112668,Resolução/Conclusão
25835086,"Crato e Mártires, Flor da Rosa e Vale do Peso",Alto Alentejo,312,2025-08-13T14:18:00Z,25835086,Em Resolução/Conclusão,3105,Incêndio rural,0,3,0,9,2025-08-13T14:18:00Z,Crato,Portalegre,Alentejo,-7.643667,39.343187,Resolução/Conclusão
25835113,Boivães,Alto Minho,309,2025-08-13T14:26:00Z,25835113,Em Resolução/Conclusão,3103,Incêndio rural,0,2,0,8,2025-08-13T14:26:00Z,Ponte Da Barca,Viana Do Castelo,Norte,-8.445205,41.756977,Resolução/Conclusão
25835361,Fornelos,Tâmega e Sousa,309,2025-08-13T15:08:00Z,25835361,Em Resolução/Conclusão,3103,Incêndio rural,0,2,0,7,2025-08-13T15:08:00Z,Cinfães,Viseu,Norte,-8.200179,41.02132,Resolução/Conclusão
25835404,Lustosa e Barrosas (Santo Estêvão),Tâmega e Sousa,309,2025-08-13T14:29:00Z,25835404,Em Resolução/Conclusão,3103,Incêndio rural,0,1,0,5,2025-08-13T14:29:00Z,Lousada,Porto,Norte,-8.323094,41.339488,Resolução/Conclusão
25785983,Caçarilhe e Infesta,Tâmega e Sousa,309,2025-08-04T18:22:00Z,25785983,Em Resolução/Conclusão,3103,Incêndio rural,0,5,0,19,2025-08-04T18:22:00Z,Celorico De Basto,Braga,Norte,-8.04611,41.419858,Resolução/Conclusão
25792058,Cibões e Brufe,Cávado,309,2025-08-05T19:10:00Z,25792058,Em Resolução/Conclusão,3103,Incêndio rural,0,1,0,5,2025-08-05T19:10:00Z,Terras De Bouro,Braga,Norte,-8.293932,41.764918,Resolução/Conclusão
25820422,Távora e Pereiro,Douro,309,2025-08-10T22:27:00Z,25820422,Em Curso,3103,Incêndio rural,0,80,0,248,2025-08-10T22:27:00Z,Tabuaço,Viseu,Norte,-7.55556,41.097602,Curso
25822776,Santos Evos,Viseu Dão Lafões,310,2025-08-11T11:05:00Z,25822776,Em Resolução/Conclusão,3103,Incêndio rural,0,0,0,0,2025-08-11T11:05:00Z,Viseu,Viseu,Centro,-7.810218,40.667813,Resolução/Conclusão
25830257,Vila Alva,Baixo Alentejo,312,2025-08-12T16:21:00Z,25830257,Em Resolução/Conclusão,3103,Incêndio rural,0,33,0,78,2025-08-12T16:21:00Z,Cuba,Beja,Alentejo,-7.870563,38.233373,Resolução/Conclusão
25832404,Ala e Vilarinho do Monte,Terras de Trás-os-Montes,309,2025-08-13T01:25:00Z,25832404,Em Resolução/Conclusão,3103,Incêndio rural,0,21,0,56,2025-08-13T01:25:00Z,Macedo De Cavaleiros,Bragança,Norte,-7.101645,41.632283,Resolução/Conclusão
25832672,Piódão,Região de Coimbra,310,2025-08-13T05:08:00Z,25832672,Em Curso,3103,Incêndio rural,7,189,0,625,2025-08-13T05:08:00Z,Arganil,Coimbra,Centro,-7.81972,40.23083,Curso
25832772,Vale de Espinho,Beiras e Serra da Estrela,310,2025-08-13T06:31:00Z,25832772,Em Resolução/Conclusão,3103,Incêndio rural,0,1,0,2,2025-08-13T06:31:00Z,Sabugal,Guarda,Centro,-6.9571,40.286268,Resolução/Conclusão
25833258,Vale de Espinho,Beiras e Serra da Estrela,310,2025-08-13T09:00:00Z,25833258,Em Resolução/Conclusão,3103,Incêndio rural,0,5,0,22,2025-08-13T09:00:00Z,Sabugal,Guarda,Centro,-6.92203,40.272065,Resolução/Conclusão
25773830,Andrães,Douro,309,2025-08-02T14:23:00Z,25773830,Em Resolução/Conclusão,3103,Incêndio rural,0,0,0,0,2025-08-02T14:23:00Z,Vila Real,Vila Real,Norte,-7.671293,41.267593,Resolução/Conclusão
25774883,Arnóia,Tâmega e Sousa,309,2025-08-02T18:20:00Z,25774883,Em Resolução/Conclusão,3103,Incêndio rural,0,2,0,6,2025-08-02T18:20:00Z,Celorico De Basto,Braga,Norte,-7.998983,41.348727,Resolução/Conclusão
25804968,Alvadia,Alto Tâmega e Barroso,309,2025-08-08T07:21:00Z,25804968,Em Resolução/Conclusão,3103,Incêndio rural,0,3,0,11,2025-08-08T07:21:00Z,Ribeira De Pena,Vila Real,Norte,-7.782872,41.457452,Resolução/Conclusão
25818455,Sobral de São Miguel,Beiras e Serra da Estrela,310,2025-08-10T15:02:00Z,25818455,Em Resolução/Conclusão,3103,Incêndio rural,0,50,0,140,2025-08-10T15:02:00Z,Covilhã,Castelo Branco,Centro,-7.77307,40.200173,Resolução/Conclusão
25830417,Sezures,Viseu Dão Lafões,310,2025-08-12T16:50:00Z,25830417,Em Resolução/Conclusão,3101,Incêndio rural,0,0,0,0,2025-08-12T16:50:00Z,Penalva Do Castelo,Viseu,Centro,-7.601704,40.72072,Resolução/Conclusão
25834631,Paços,Douro,309,2025-08-13T12:57:00Z,25834631,Em Resolução/Conclusão,3103,Incêndio rural,0,21,0,76,2025-08-13T12:57:00Z,Sabrosa,Vila Real,Norte,-7.620647,41.233283,Resolução/Conclusão
25834662,NA,NA,0,2025-08-13T12:57:00Z,25834662,Em Despacho,3103,Incêndio rural,0,9,0,27,2025-08-13T12:57:00Z,Moura,Beja,Alentejo,-7.014917,38.036033,Despacho
25835037,Soure,Região de Coimbra,310,2025-08-13T14:10:00Z,25835037,Em Resolução/Conclusão,3103,Incêndio rural,0,1,0,5,2025-08-13T14:10:00Z,Soure,Coimbra,Centro,-8.56639,40.05204,Resolução/Conclusão
25835103,Árvore,Area M. Porto,309,2025-08-13T14:21:00Z,25835103,Em Resolução/Conclusão,3103,Incêndio rural,0,4,0,17,2025-08-13T14:21:00Z,Vila Do Conde,Porto,Norte,-8.723351,41.34159,Resolução/Conclusão
25835176,Faíl e Vila Chã de Sá,Viseu Dão Lafões,310,2025-08-13T14:35:00Z,25835176,Em Curso,3103,Incêndio rural,4,21,0,88,2025-08-13T14:35:00Z,Viseu,Viseu,Centro,-7.951177,40.594167,Curso
25835478,Moura Morta e Vinhós,Douro,309,2025-08-13T15:26:00Z,25835478,Em Curso,3103,Incêndio rural,0,2,0,7,2025-08-13T15:26:00Z,Peso Da Régua,Vila Real,Norte,-7.832706,41.200595,Curso
25834865,Nossa Senhora de Machede,Alentejo Central,312,2025-08-13T13:38:00Z,25834865,Em Resolução/Conclusão,3105,Incêndio rural,0,9,0,27,2025-08-13T13:38:00Z,Évora,Évora,Alentejo,-7.775377,38.510625,Resolução/Conclusão
25835031,Barreiros e Cepões,Viseu Dão Lafões,310,2025-08-13T14:09:00Z,25835031,Em Resolução/Conclusão,3105,Incêndio rural,0,0,0,0,2025-08-13T14:09:00Z,Viseu,Viseu,Centro,-7.813442,40.745812,Resolução/Conclusão
25835516,Cendufe,Alto Minho,309,2025-08-13T15:35:00Z,25835516,Em Curso,3103,Incêndio rural,1,1,0,9,2025-08-13T15:35:00Z,Arcos De Valdevez,Viana Do Castelo,Norte,-8.495175,41.814215,Curso
25835530,Vila Boa de Quires e Maureles,Tâmega e Sousa,309,2025-08-13T15:36:00Z,25835530,Em Despacho,3103,Incêndio rural,1,4,0,26,2025-08-13T15:36:00Z,Marco De Canaveses,Porto,Norte,-8.201095,41.207266,Despacho
25835546,Chancelaria,Médio Tejo,311,2025-08-13T15:41:00Z,25835546,Em Despacho,3105,Incêndio rural,1,9,0,42,2025-08-13T15:41:00Z,Torres Novas,Santarém,Centro,-8.564728,39.548563,Despacho
25835612,Campo de Besteiros,Viseu Dão Lafões,310,2025-08-13T15:50:00Z,25835612,Em Resolução/Conclusão,3103,Incêndio rural,0,3,0,8,2025-08-13T15:50:00Z,Tondela,Viseu,Centro,-8.134725,40.55412,Resolução/Conclusão
25835614,"Refojos de Basto, Outeiro e Painzela",Ave,309,2025-08-13T15:54:00Z,25835614,Em Resolução/Conclusão,3103,Incêndio rural,1,3,0,20,2025-08-13T15:54:00Z,Cabeceiras De Basto,Braga,Norte,-8.01178,41.53129,Resolução/Conclusão
25835630,Sobrosa,Area M. Porto,309,2025-08-13T15:54:00Z,25835630,Em Despacho,3103,Incêndio rural,0,2,0,10,2025-08-13T15:54:00Z,Paredes,Porto,Norte,-8.343173,41.25458,Despacho
25835615,Vilarinho Das Cambas,Ave,309,2025-08-13T15:52:00Z,25835615,Em Despacho,3103,Incêndio rural,1,3,0,15,2025-08-13T15:52:00Z,Vila Nova De Famalicão,Braga,Norte,-8.559497,41.386671,Despacho
25776263,"Pena, Quintã e Vila Cova",Douro,309,2025-08-02T23:45:00Z,25776263,Em Curso,3103,Incêndio rural,2,140,0,425,2025-08-02T23:45:00Z,Vila Real,Vila Real,Norte,-7.811902,41.317355,Curso
25813482,Freches e Torres,Beiras e Serra da Estrela,310,2025-08-09T16:21:00Z,25813482,Em Curso,3103,Incêndio rural,2,171,0,520,2025-08-09T16:21:00Z,Trancoso,Guarda,Centro,-7.363745,40.709022,Curso
25824945,Povolide,Viseu Dão Lafões,310,2025-08-11T17:17:00Z,25824945,Em Resolução/Conclusão,3103,Incêndio rural,0,0,0,0,2025-08-11T17:17:00Z,Viseu,Viseu,Centro,-7.79583,40.660003,Resolução/Conclusão
25830279,"Pena, Quintã e Vila Cova",Douro,309,2025-08-12T16:21:00Z,25830279,Em Resolução/Conclusão,3103,Incêndio rural,0,2,0,7,2025-08-12T16:21:00Z,Vila Real,Vila Real,Norte,-7.86331,41.318053,Resolução/Conclusão
25830378,Ermidas-Sado,Alentejo Litoral,312,2025-08-12T16:42:00Z,25830378,Em Resolução/Conclusão,3101,Incêndio rural,0,44,0,124,2025-08-12T16:42:00Z,Santiago Do Cacém,Setúbal,Alentejo,-8.407646,38.059897,Resolução/Conclusão
25830830,Podence e Santa Combinha,Terras de Trás-os-Montes,309,2025-08-12T18:14:00Z,25830830,Em Resolução/Conclusão,3103,Incêndio rural,0,3,0,9,2025-08-12T18:14:00Z,Macedo De Cavaleiros,Bragança,Norte,-6.926542,41.595166999999996,Resolução/Conclusão
25831679,Monsanto e Idanha-a-Velha,Beira Baixa,310,2025-08-12T21:21:00Z,25831679,Em Resolução/Conclusão,3103,Incêndio rural,0,4,0,10,2025-08-12T21:21:00Z,Idanha-a-Nova,Castelo Branco,Centro,-7.143792,40.013767,Resolução/Conclusão
25831698,Cendufe,Alto Minho,309,2025-08-12T21:25:00Z,25831698,Em Resolução/Conclusão,3103,Incêndio rural,0,10,0,34,2025-08-12T21:25:00Z,Arcos De Valdevez,Viana Do Castelo,Norte,-8.504462,41.817677,Resolução/Conclusão
25832250,Ferreira de Aves,Viseu Dão Lafões,310,2025-08-13T00:03:00Z,25832250,Em Curso,3103,Incêndio rural,5,77,0,240,2025-08-13T00:03:00Z,Sátão,Viseu,Centro,-7.647793,40.79568,Curso
25835042,Pelariga,Região de Leiria,310,2025-08-13T14:10:00Z,25835042,Em Resolução/Conclusão,3101,Incêndio rural,1,6,0,27,2025-08-13T14:10:00Z,Pombal,Leiria,Centro,-8.623093,39.985692,Resolução/Conclusão
25835457,Quirás e Pinheiro Novo,Terras de Trás-os-Montes,309,2025-08-13T15:25:00Z,25835457,Em Despacho,3103,Incêndio rural,1,13,0,51,2025-08-13T15:25:00Z,Vinhais,Bragança,Norte,-7.16321,41.93028,Despacho
25835660,Vila Marim,Douro,309,2025-08-13T16:01:00Z,25835660,Em Despacho,3103,Incêndio rural,0,0,0,0,2025-08-13T16:01:00Z,Vila Real,Vila Real,Norte,-7.802139,41.3329,Despacho
