id,address,subregion,neighborhood,date,id.1,state,nature,nature_description,aerial_means,terrestrial_means,aquatic_means,operational,date.1,Concelho,Distrito,NUTII_DSG,longitude,latitude
25070044,Praia do Ribatejo,Médio Tejo,311,2025-03-10T19:30:00Z,25070044,Em curso,1101,Cheia,0,0,0,0,2025-03-10T19:30:00Z,Vila Nova Da Barquinha,Santarém,Centro,-8.357309,39.485638
25071496,São Manços e São Vicente do Pigeiro,Alentejo Central,312,2025-03-11T13:18:00Z,25071496,Em conclusão,1101,Cheia,0,0,0,0,2025-03-11T13:18:00Z,Évora,Évora,Alentejo,-7.713313,38.513673
25202441,Serpa (Salvador e Santa Maria),Baixo Alentejo,312,2025-04-06T10:25:00Z,25202441,Em conclusão,1101,Cheia,0,0,0,0,2025-04-06T10:25:00Z,Serpa,Beja,Alentejo,-7.555783,37.88592
25258894,Santa Maria Maior e Monserrate e Meadela,Alto Minho,309,2025-04-19T08:53:00Z,25258894,Em despacho,3301,Queda de árvore,0,1,0,2,2025-04-19T08:53:00Z,Viana Do Castelo,Viana Do Castelo,Norte,-8.81652,41.703882
25258907,Margem,Alto Alentejo,312,2025-04-19T08:54:00Z,25258907,Em despacho,3301,Queda de árvore,0,1,0,3,2025-04-19T08:54:00Z,Gavião,Portalegre,Alentejo,-7.91839,39.379842
25068300,Almeirim,Lezíria do Tejo,311,2025-03-10T20:52:00Z,25068300,Em curso,1101,Cheia,0,0,0,0,2025-03-10T20:52:00Z,Almeirim,Santarém,Alentejo,-8.635002,39.187436
25258638,Oliveira do Douro,Area M. Porto,309,2025-04-19T06:58:00Z,25258638,Em resolução,3311,Queda de elementos de estruturas edificados,0,5,0,11,2025-04-19T06:58:00Z,Vila Nova De Gaia,Porto,Norte,-8.585272,41.125484
