id,address,subregion,neighborhood,date,id.1,state,nature,nature_description,aerial_means,terrestrial_means,aquatic_means,operational,date.1,Concelho,Distrito,NUTII_DSG,longitude,latitude,state_2
26369407,Glória,Alentejo Central,312,2025-12-01T16:01:00Z,26369407,Em Resolução/Conclusão,3103,Incêndio rural,0,2,0,5,2025-12-01T16:01:00Z,Estremoz,Évora,Alentejo,-7.562388,38.796357,Resolução/Conclusão
26369616,Chãs,Douro,309,2025-12-01T16:58:00Z,26369616,Em Despacho,3103,Incêndio rural,0,1,0,2,2025-12-01T16:58:00Z,Vila Nova De Foz Côa,Guarda,Norte,-7.164374,40.98661,Despacho
26369752,Santa Maria Maior e Monserrate e Meadela,Alto Minho,309,2025-12-01T17:24:00Z,26369752,Em Despacho,3105,Incêndio rural,0,1,0,5,2025-12-01T17:24:00Z,Viana Do Castelo,Viana Do Castelo,Norte,-8.81652,41.703882,Despacho
26369133,Cujó,Viseu Dão Lafões,310,2025-12-01T15:02:00Z,26369133,Em Resolução/Conclusão,3103,Incêndio rural,0,2,0,5,2025-12-01T15:02:00Z,Castro Daire,Viseu,Centro,-7.834317,40.939418,Resolução/Conclusão
26369347,Arraiolos,Alentejo Central,312,2025-12-01T15:51:00Z,26369347,Em Resolução/Conclusão,3105,Incêndio rural,0,3,0,9,2025-12-01T15:51:00Z,Arraiolos,Évora,Alentejo,-7.98861,38.799262,Resolução/Conclusão
26369512,Pendilhe,Viseu Dão Lafões,310,2025-12-01T16:31:00Z,26369512,Em Resolução/Conclusão,3103,Incêndio rural,0,1,0,2,2025-12-01T16:31:00Z,Vila Nova De Paiva,Viseu,Centro,-7.814127,40.932492,Resolução/Conclusão
