id,address,subregion,neighborhood,date,id.1,state,nature,nature_description,aerial_means,terrestrial_means,aquatic_means,operational,date.1,Concelho,Distrito,NUTII_DSG,longitude,latitude,state_2
26164572,Castro Verde e Casével,Baixo Alentejo,312,2025-10-20T12:54:00Z,26164572,Em Resolução/Conclusão,3105,Incêndio rural,0,8,0,22,2025-10-20T12:54:00Z,Castro Verde,Beja,Alentejo,-8.01625,37.63235,Resolução/Conclusão
26160929,Caranguejeira,Região de Leiria,310,2025-10-19T16:50:00Z,26160929,Em Resolução/Conclusão,3101,Incêndio rural,0,1,0,2,2025-10-19T16:50:00Z,Leiria,Leiria,Centro,-8.697637,39.726483,Resolução/Conclusão
26165207,Tortosendo,Beiras e Serra da Estrela,310,2025-10-20T14:56:00Z,26165207,Em Resolução/Conclusão,3103,Incêndio rural,0,0,0,0,2025-10-20T14:56:00Z,Covilhã,Castelo Branco,Centro,-7.511453,40.231705,Resolução/Conclusão
26165566,Malveira e São Miguel de Alcainça,Grande Lisboa,311,2025-10-20T16:02:00Z,26165566,Em Resolução/Conclusão,3111,Queima,0,2,0,7,2025-10-20T16:02:00Z,Mafra,Lisboa,Área Metropolitana De Lisboa,-9.299758,38.93304,Resolução/Conclusão
26165584,Freamunde,Tâmega e Sousa,309,2025-10-20T16:00:00Z,26165584,Em Resolução/Conclusão,3103,Incêndio rural,0,1,0,3,2025-10-20T16:00:00Z,Paços De Ferreira,Porto,Norte,-8.339671,41.292638,Resolução/Conclusão
26164727,Benavente,Lezíria do Tejo,311,2025-10-20T13:30:00Z,26164727,Em Resolução/Conclusão,3103,Incêndio rural,0,9,0,35,2025-10-20T13:30:00Z,Benavente,Santarém,Alentejo,-8.680143,38.920237,Resolução/Conclusão
26165313,Vimieiro,Alentejo Central,312,2025-10-20T15:11:00Z,26165313,Em Resolução/Conclusão,3103,Incêndio rural,0,6,0,19,2025-10-20T15:11:00Z,Arraiolos,Évora,Alentejo,-7.904952,38.831922,Resolução/Conclusão
26165645,Basto,Ave,309,2025-10-20T16:17:00Z,26165645,Em Curso,3111,Queima,0,2,0,6,2025-10-20T16:17:00Z,Cabeceiras De Basto,Braga,Norte,-7.989739,41.481384,Curso
26165709,"N. S. da Vila, N. S. do Bispo e Silveiras",Alentejo Central,312,2025-10-20T16:27:00Z,26165709,Em Despacho,3105,Incêndio rural,0,1,0,5,2025-10-20T16:27:00Z,Montemor-o-Novo,Évora,Alentejo,-8.309372,38.634502,Despacho
