id,address,subregion,neighborhood,date,id.1,state,nature,nature_description,aerial_means,terrestrial_means,aquatic_means,operational,date.1,Concelho,Distrito,NUTII_DSG,longitude,latitude,state_2
25692814,Tolosa,Alto Alentejo,312,2025-07-17T16:23:00Z,25692814,Em Resolução/Conclusão,3103,Incêndio rural,0,1,0,5,2025-07-17T16:23:00Z,Nisa,Portalegre,Alentejo,-7.635642,39.486993,Resolução/Conclusão
25701002,Belmonte e Colmeal da Torre,Beiras e Serra da Estrela,310,2025-07-19T10:34:00Z,25701002,Em Resolução/Conclusão,3105,Incêndio rural,0,6,0,20,2025-07-19T10:34:00Z,Covilhã,Castelo Branco,Centro,-7.352463,40.369725,Resolução/Conclusão
25701211,Vila do Conde,Area M. Porto,309,2025-07-19T11:17:00Z,25701211,Em Resolução/Conclusão,3103,Incêndio rural,0,1,0,5,2025-07-19T11:17:00Z,Vila Do Conde,Porto,Norte,-8.748437,41.357075,Resolução/Conclusão
25686799,Souto Maior,Douro,309,2025-07-16T13:19:00Z,25686799,Em Resolução/Conclusão,3101,Incêndio rural,0,13,0,43,2025-07-16T13:19:00Z,Sabrosa,Vila Real,Norte,-7.57839,41.287518,Resolução/Conclusão
25699918,Marinhais,Lezíria do Tejo,311,2025-07-19T03:33:00Z,25699918,Em Resolução/Conclusão,3103,Incêndio rural,0,0,0,0,2025-07-19T03:33:00Z,Salvaterra De Magos,Santarém,Alentejo,-8.713452,39.042285,Resolução/Conclusão
25701072,Romeira e Várzea,Lezíria do Tejo,311,2025-07-19T10:51:00Z,25701072,Em Resolução/Conclusão,3103,Incêndio rural,0,1,0,5,2025-07-19T10:51:00Z,Santarém,Santarém,Alentejo,-8.719483,39.261095,Resolução/Conclusão
25696955,"Vilela, Seramil e Paredes Secas",Cávado,309,2025-07-18T13:36:00Z,25696955,Em Resolução/Conclusão,3101,Incêndio rural,0,3,0,15,2025-07-18T13:36:00Z,Amares,Braga,Norte,-8.309448,41.67517,Resolução/Conclusão
25701049,Tarouquela,Tâmega e Sousa,309,2025-07-19T10:12:00Z,25701049,Em Resolução/Conclusão,3103,Incêndio rural,0,2,0,10,2025-07-19T10:12:00Z,Cinfães,Viseu,Norte,-8.174778,41.075815,Resolução/Conclusão
