id,address,subregion,neighborhood,date,id.1,state,nature,nature_description,aerial_means,terrestrial_means,aquatic_means,operational,date.1,Concelho,Distrito,NUTII_DSG,longitude,latitude,state_2
26003298,Barreiros e Cepões,Viseu Dão Lafões,310,2025-09-17T12:05:00Z,26003298,Em Resolução/Conclusão,3101,Incêndio rural,0,1,0,2,2025-09-17T12:05:00Z,Viseu,Viseu,Centro,-7.825281,40.745844,Resolução/Conclusão
26013065,Mezio e Moura Morta,Viseu Dão Lafões,310,2025-09-19T11:05:00Z,26013065,Em Resolução/Conclusão,3103,Incêndio rural,0,85,0,270,2025-09-19T11:05:00Z,Castro Daire,Viseu,Centro,-7.878187,40.98632,Resolução/Conclusão
26013919,Ervedal e Vila Franca da Beira,Região de Coimbra,310,2025-09-19T13:25:00Z,26013919,Em Resolução/Conclusão,3103,Incêndio rural,0,23,0,73,2025-09-19T13:25:00Z,Oliveira Do Hospital,Coimbra,Centro,-7.90472,40.43917,Resolução/Conclusão
26017150,Travancas e Roriz,Alto Tâmega e Barroso,309,2025-09-20T06:25:00Z,26017150,Em Resolução/Conclusão,3103,Incêndio rural,0,2,0,10,2025-09-20T06:25:00Z,Chaves,Vila Real,Norte,-7.30792,41.801203,Resolução/Conclusão
25951176,Sandomil,Beiras e Serra da Estrela,310,2025-09-06T10:29:00Z,25951176,Em Resolução/Conclusão,3103,Incêndio rural,0,2,0,10,2025-09-06T10:29:00Z,Seia,Guarda,Centro,-7.76001,40.351547,Resolução/Conclusão
26019930,Edral,Terras de Trás-os-Montes,309,2025-09-20T18:06:00Z,26019930,Em Resolução/Conclusão,3103,Incêndio rural,0,1,0,2,2025-09-20T18:06:00Z,Vinhais,Bragança,Norte,-7.156528,41.840453,Resolução/Conclusão
26013405,Barreiros e Cepões,Viseu Dão Lafões,310,2025-09-19T11:56:00Z,26013405,Em Resolução/Conclusão,3103,Incêndio rural,0,28,0,84,2025-09-19T11:56:00Z,Viseu,Viseu,Centro,-7.786007,40.76602,Resolução/Conclusão
25832672,Piódão,Região de Coimbra,310,2025-08-13T05:08:00Z,25832672,Em Resolução/Conclusão,3103,Incêndio rural,0,0,0,0,2025-08-13T05:08:00Z,Arganil,Coimbra,Centro,-7.81972,40.23083,Resolução/Conclusão
26013902,Penacova,Região de Coimbra,310,2025-09-19T13:28:00Z,26013902,Em Resolução/Conclusão,3103,Incêndio rural,0,1,0,4,2025-09-19T13:28:00Z,Penacova,Coimbra,Centro,-8.32583,40.32722,Resolução/Conclusão
26016785,Gralhas,Alto Tâmega e Barroso,309,2025-09-20T01:20:00Z,26016785,Em Resolução/Conclusão,3103,Incêndio rural,0,26,0,104,2025-09-20T01:20:00Z,Montalegre,Vila Real,Norte,-7.720897,41.880163,Resolução/Conclusão
26019877,Guardão,Viseu Dão Lafões,310,2025-09-20T17:50:00Z,26019877,Em Resolução/Conclusão,3103,Incêndio rural,0,33,0,114,2025-09-20T17:50:00Z,Tondela,Viseu,Centro,-8.148484,40.610274,Resolução/Conclusão
26020459,Torre de Moncorvo,Douro,309,2025-09-20T20:26:00Z,26020459,Em Resolução/Conclusão,3103,Incêndio rural,0,10,0,26,2025-09-20T20:26:00Z,Torre De Moncorvo,Bragança,Norte,-7.06008,41.159805,Resolução/Conclusão
