id,address,subregion,neighborhood,date,id.1,state,nature,nature_description,aerial_means,terrestrial_means,aquatic_means,operational,date.1,Concelho,Distrito,NUTII_DSG,longitude,latitude,state_2
25940551,Charneca de Caparica e Sobreda,Península de Setúbal,311,2025-09-04T02:08:00Z,25940551,Em Resolução/Conclusão,3103,Incêndio rural,0,4,0,17,2025-09-04T02:08:00Z,Almada,Setúbal,Área Metropolitana De Lisboa,-9.19101,38.60813,Resolução/Conclusão
25940329,São Teotónio,Alentejo Litoral,312,2025-09-03T23:26:00Z,25940329,Em Resolução/Conclusão,3111,Queima,0,4,0,14,2025-09-03T23:26:00Z,Odemira,Beja,Alentejo,-8.733187,37.473565,Resolução/Conclusão
25832672,Piódão,Região de Coimbra,310,2025-08-13T05:08:00Z,25832672,Em Resolução/Conclusão,3103,Incêndio rural,0,17,0,47,2025-08-13T05:08:00Z,Arganil,Coimbra,Centro,-7.81972,40.23083,Resolução/Conclusão
25840417,Lousã e Vilarinho,Região de Coimbra,310,2025-08-14T13:46:00Z,25840417,Em Resolução/Conclusão,3101,Incêndio rural,0,1,0,1,2025-08-14T13:46:00Z,Lousã,Coimbra,Centro,-8.201561,40.080016,Resolução/Conclusão
25935529,Vermoil,Região de Leiria,310,2025-09-02T22:56:00Z,25935529,Em Resolução/Conclusão,3101,Incêndio rural,0,3,0,7,2025-09-02T22:56:00Z,Pombal,Leiria,Centro,-8.673463,39.83745,Resolução/Conclusão
25940484,Santo António Dos Cavaleiros e Frielas,Grande Lisboa,311,2025-09-04T01:06:00Z,25940484,Em Resolução/Conclusão,3103,Incêndio rural,0,1,0,5,2025-09-04T01:06:00Z,Loures,Lisboa,Área Metropolitana De Lisboa,-9.142675,38.811067,Resolução/Conclusão
