id,address,subregion,neighborhood,date,id.1,state,nature,nature_description,aerial_means,terrestrial_means,aquatic_means,operational,date.1,Concelho,Distrito,NUTII_DSG,longitude,latitude
24699916,Ranhados,Viseu Dão Lafões,310,2024-12-19T06:43:00Z,24699916,Em despacho,3313,Deslizamento de terras,0,1,0,2,2024-12-19T06:43:00Z,Viseu,Viseu,Centro,-7.898979,40.640423
24699925,Joane,Ave,309,2024-12-19T07:00:00Z,24699925,Em despacho,3315,Inundação de estruturas por precipitação intensa,0,0,0,0,2024-12-19T07:00:00Z,Vila Nova De Famalicão,Braga,Norte,-8.42359,41.44215
24699690,Lousã e Vilarinho,Região de Coimbra,310,2024-12-19T03:15:00Z,24699690,Em despacho,3317,Inundação de estruturas por água canalizada,0,1,0,2,2024-12-19T03:15:00Z,Lousã,Coimbra,Centro,-8.243385,40.12032
24699837,Espinho,Cávado,309,2024-12-19T05:51:00Z,24699837,Em despacho,3313,Deslizamento de terras,0,1,0,3,2024-12-19T05:51:00Z,Braga,Braga,Norte,-8.355103,41.55494
24699904,Venteira,Grande Lisboa,311,2024-12-19T06:48:00Z,24699904,Em despacho,3317,Inundação de estruturas por água canalizada,0,1,0,2,2024-12-19T06:48:00Z,Amadora,Lisboa,Área Metropolitana De Lisboa,-9.232811,38.75153
