id,address,subregion,neighborhood,date,id.1,state,nature,nature_description,aerial_means,terrestrial_means,aquatic_means,operational,date.1,Concelho,Distrito,NUTII_DSG,longitude,latitude,state_2
25951176,Sandomil,Beiras e Serra da Estrela,310,2025-09-06T10:29:00Z,25951176,Em Resolução/Conclusão,3103,Incêndio rural,0,17,0,59,2025-09-06T10:29:00Z,Seia,Guarda,Centro,-7.76001,40.351547,Resolução/Conclusão
25952858,Figueira de Castelo Rodrigo,Beiras e Serra da Estrela,310,2025-09-06T16:22:00Z,25952858,Em Resolução/Conclusão,3103,Incêndio rural,0,2,0,7,2025-09-06T16:22:00Z,Figueira De Castelo Rodrigo,Guarda,Centro,-6.934648,40.906778,Resolução/Conclusão
25978187,São Manços e São Vicente do Pigeiro,Alentejo Central,312,2025-09-12T07:50:00Z,25978187,Em Resolução/Conclusão,3103,Incêndio rural,0,2,0,7,2025-09-12T07:50:00Z,Évora,Évora,Alentejo,-7.743963,38.48338,Resolução/Conclusão
25791926,Caldas de São Jorge e Pigeiros,Area M. Porto,309,2025-08-05T18:59:00Z,25791926,Em Resolução/Conclusão,3103,Incêndio rural,0,0,0,0,2025-08-05T18:59:00Z,Santa Maria Da Feira,Aveiro,Norte,-8.496356,40.954077,Resolução/Conclusão
25832672,Piódão,Região de Coimbra,310,2025-08-13T05:08:00Z,25832672,Em Resolução/Conclusão,3103,Incêndio rural,0,14,0,40,2025-08-13T05:08:00Z,Arganil,Coimbra,Centro,-7.81972,40.23083,Resolução/Conclusão
