id,address,subregion,neighborhood,date,id.1,state,nature,nature_description,aerial_means,terrestrial_means,aquatic_means,operational,date.1,Concelho,Distrito,NUTII_DSG,longitude,latitude,state_2
26200760,Belmonte e Colmeal da Torre,Beiras e Serra da Estrela,310,2025-10-28T09:51:00Z,26200760,Em Despacho,3111,Queima,0,0,0,0,2025-10-28T09:51:00Z,Belmonte,Castelo Branco,Centro,-7.34988,40.34973,Despacho
26200371,Muge,Lezíria do Tejo,311,2025-10-28T08:38:00Z,26200371,Em Resolução/Conclusão,3111,Queima,0,3,0,7,2025-10-28T08:38:00Z,Salvaterra De Magos,Santarém,Alentejo,-8.720418,39.08555,Resolução/Conclusão
26200166,Azeitão (São Lourenço e São Simão),Península de Setúbal,311,2025-10-28T07:51:00Z,26200166,Em Despacho,3103,Incêndio rural,0,3,0,13,2025-10-28T07:51:00Z,Setúbal,Setúbal,Área Metropolitana De Lisboa,-9.01812,38.5551,Despacho
26200417,Caparica e Trafaria,Península de Setúbal,311,2025-10-28T08:42:00Z,26200417,Em Resolução/Conclusão,3111,Queima,0,0,0,0,2025-10-28T08:42:00Z,Almada,Setúbal,Área Metropolitana De Lisboa,-9.198172,38.665376,Resolução/Conclusão
26200434,Colares,Grande Lisboa,311,2025-10-28T08:51:00Z,26200434,Em Resolução/Conclusão,3105,Incêndio rural,0,1,0,4,2025-10-28T08:51:00Z,Sintra,Lisboa,Área Metropolitana De Lisboa,-9.4339479999999991,38.814853,Resolução/Conclusão
26200767,Campanhó e Paradança,Ave,309,2025-10-28T09:53:00Z,26200767,Em Despacho,3111,Queima,0,0,0,0,2025-10-28T09:53:00Z,Mondim De Basto,Vila Real,Norte,-7.934488,41.349928,Despacho
26200781,Anreade e São Romão de Aregos,Tâmega e Sousa,309,2025-10-28T09:52:00Z,26200781,Em Despacho,3103,Incêndio rural,0,1,0,5,2025-10-28T09:52:00Z,Resende,Viseu,Norte,-7.989097,41.100947,Despacho
