id,address,subregion,neighborhood,date,id.1,state,nature,nature_description,aerial_means,terrestrial_means,aquatic_means,operational,date.1,Concelho,Distrito,NUTII_DSG,longitude,latitude,state_2
25687827,Rochoso e Monte Margarida,Beiras e Serra da Estrela,310,2025-07-16T16:35:00Z,25687827,Em Resolução/Conclusão,3103,Incêndio rural,0,4,0,16,2025-07-16T16:35:00Z,Guarda,Guarda,Centro,-7.106608,40.527017,Resolução/Conclusão
25692759,Póvoa de Rio de Moinhos e Cafede,Beira Baixa,310,2025-07-17T16:10:00Z,25692759,Em Resolução/Conclusão,3105,Incêndio rural,0,1,0,5,2025-07-17T16:10:00Z,Castelo Branco,Castelo Branco,Centro,-7.507702,39.933293,Resolução/Conclusão
25694111,Ribeira do Neiva,Cávado,309,2025-07-17T21:29:00Z,25694111,Em Resolução/Conclusão,3111,Queima,0,1,0,5,2025-07-17T21:29:00Z,Vila Verde,Braga,Norte,-8.5138,41.69159,Resolução/Conclusão
25694163,Albernoa e Trindade,Baixo Alentejo,312,2025-07-17T21:44:00Z,25694163,Em Resolução/Conclusão,3105,Incêndio rural,0,18,0,58,2025-07-17T21:44:00Z,Beja,Beja,Alentejo,-7.892595,37.919073,Resolução/Conclusão
25694246,Grijó e Sermonde,Area M. Porto,309,2025-07-17T22:07:00Z,25694246,Em Resolução/Conclusão,3103,Incêndio rural,0,1,0,5,2025-07-17T22:07:00Z,Vila Nova De Gaia,Porto,Norte,-8.579955,41.030201,Resolução/Conclusão
25694247,Balazar,Area M. Porto,309,2025-07-17T22:12:00Z,25694247,Em Resolução/Conclusão,3103,Incêndio rural,0,1,0,5,2025-07-17T22:12:00Z,Póvoa De Varzim,Porto,Norte,-8.61993,41.40085,Resolução/Conclusão
25694264,Quelfes,Algarve,313,2025-07-17T22:17:00Z,25694264,Em Resolução/Conclusão,3103,Incêndio rural,0,3,0,7,2025-07-17T22:17:00Z,Olhão,Faro,Algarve,-7.83625,37.07376,Resolução/Conclusão
25688392,Cabril,Região de Coimbra,310,2025-07-16T18:47:00Z,25688392,Em Resolução/Conclusão,3101,Incêndio rural,0,1,0,5,2025-07-16T18:47:00Z,Pampilhosa Da Serra,Coimbra,Centro,-7.86944,40.06556,Resolução/Conclusão
25693533,Girabolhos,Beiras e Serra da Estrela,310,2025-07-17T19:03:00Z,25693533,Em Resolução/Conclusão,3103,Incêndio rural,0,11,0,35,2025-07-17T19:03:00Z,Seia,Guarda,Centro,-7.73881,40.498453,Resolução/Conclusão
25694260,Palmela,Península de Setúbal,311,2025-07-17T22:16:00Z,25694260,Em Resolução/Conclusão,3103,Incêndio rural,0,8,0,31,2025-07-17T22:16:00Z,Palmela,Setúbal,Área Metropolitana De Lisboa,-8.876007,38.562695,Resolução/Conclusão
25694424,Junqueira,Area M. Porto,309,2025-07-17T23:12:00Z,25694424,Em Despacho,3103,Incêndio rural,0,0,0,0,2025-07-17T23:12:00Z,Vila Do Conde,Porto,Norte,-8.688191,41.38902,Despacho
25682641,São Bento,Região de Leiria,310,2025-07-15T16:44:00Z,25682641,Em Resolução/Conclusão,3101,Incêndio rural,0,0,0,0,2025-07-15T16:44:00Z,Porto De Mós,Leiria,Centro,-8.746525,39.524688,Resolução/Conclusão
25686799,Souto Maior,Douro,309,2025-07-16T13:19:00Z,25686799,Em Resolução/Conclusão,3101,Incêndio rural,0,47,0,142,2025-07-16T13:19:00Z,Sabrosa,Vila Real,Norte,-7.57839,41.287518,Resolução/Conclusão
25692562,Atouguia,Médio Tejo,311,2025-07-17T15:31:00Z,25692562,Em Resolução/Conclusão,3101,Incêndio rural,0,3,0,12,2025-07-17T15:31:00Z,Ourém,Santarém,Centro,-8.62029,39.654072,Resolução/Conclusão
25692814,"Espírito Santo, Nossa Senhora da Graça e São Simão",Alto Alentejo,312,2025-07-17T16:23:00Z,25692814,Em Resolução/Conclusão,3103,Incêndio rural,0,18,0,64,2025-07-17T16:23:00Z,Nisa,Portalegre,Alentejo,-7.635642,39.486993,Resolução/Conclusão
25693046,Santo Aleixo,Alto Alentejo,312,2025-07-17T17:04:00Z,25693046,Em Resolução/Conclusão,3103,Incêndio rural,0,27,0,83,2025-07-17T17:04:00Z,Monforte,Portalegre,Alentejo,-7.397183,38.919233,Resolução/Conclusão
25694291,Beduído e Veiros,Região de Aveiro,310,2025-07-17T22:28:00Z,25694291,Em Resolução/Conclusão,3105,Incêndio rural,0,2,0,7,2025-07-17T22:28:00Z,Estarreja,Aveiro,Centro,-8.541098,40.754107,Resolução/Conclusão
25694418,"Viatodos, Grimancelos, Minhotães e Monte de Fralães",Cávado,309,2025-07-17T23:05:00Z,25694418,Em Curso,3105,Incêndio rural,0,1,0,5,2025-07-17T23:05:00Z,Barcelos,Braga,Norte,-8.570268,41.444472,Curso
