id,address,subregion,neighborhood,date,id.1,state,nature,nature_description,aerial_means,terrestrial_means,aquatic_means,operational,date.1,Concelho,Distrito,NUTII_DSG,longitude,latitude
25579871,Faro (Sé e São Pedro),Algarve,313,2025-06-25T19:50:00Z,25579871,Em conclusão,2101,Incêndio em edifícios habitacionais,0,0,0,0,2025-06-25T19:50:00Z,Faro,Faro,Algarve,-7.93398,37.0153
25580109,Carcavelos e Parede,Grande Lisboa,311,2025-06-25T20:49:00Z,25580109,Em conclusão,2117,Incêndio em edifícios comerciais e gares de transporte,0,1,0,4,2025-06-25T20:49:00Z,Cascais,Lisboa,Área Metropolitana De Lisboa,-9.355169,38.690219
25579754,Beja (Salvador e Santa Maria da Feira),Baixo Alentejo,312,2025-06-25T19:15:00Z,25579754,Em conclusão,3105,Incêndio rural,0,2,0,10,2025-06-25T19:15:00Z,Beja,Beja,Alentejo,-7.874973,38.050697
25579922,Rubiães,Alto Minho,309,2025-06-25T20:02:00Z,25579922,Em conclusão,3105,Incêndio rural,0,2,0,7,2025-06-25T20:02:00Z,Paredes De Coura,Viana Do Castelo,Norte,-8.648768,41.89419
25580029,Mora,Alentejo Central,312,2025-06-25T20:34:00Z,25580029,Em conclusão,2101,Incêndio em edifícios habitacionais,0,5,0,13,2025-06-25T20:34:00Z,Mora,Évora,Alentejo,-8.166517,38.944948
25580095,Gondar,Ave,309,2025-06-25T20:52:00Z,25580095,Em curso,2201,Incêndio em equipamentos ou produtos,0,2,0,7,2025-06-25T20:52:00Z,Guimarães,Braga,Norte,-8.36597,41.42193
25580288,Rio de Mouro,Grande Lisboa,311,2025-06-25T21:45:00Z,25580288,Em despacho,2101,Incêndio em edifícios habitacionais,0,1,0,5,2025-06-25T21:45:00Z,Sintra,Lisboa,Área Metropolitana De Lisboa,-9.3221,38.78717
