id,address,subregion,neighborhood,date,id.1,state,nature,nature_description,aerial_means,terrestrial_means,aquatic_means,operational,date.1,Concelho,Distrito,NUTII_DSG,longitude,latitude,state_2
26164572,Castro Verde e Casével,Baixo Alentejo,312,2025-10-20T12:54:00Z,26164572,Em Resolução/Conclusão,3105,Incêndio rural,0,8,0,22,2025-10-20T12:54:00Z,Castro Verde,Beja,Alentejo,-8.01625,37.63235,Resolução/Conclusão
26160929,Caranguejeira,Região de Leiria,310,2025-10-19T16:50:00Z,26160929,Em Resolução/Conclusão,3101,Incêndio rural,0,1,0,2,2025-10-19T16:50:00Z,Leiria,Leiria,Centro,-8.697637,39.726483,Resolução/Conclusão
26165132,Azeitão (São Lourenço e São Simão),Península de Setúbal,311,2025-10-20T14:43:00Z,26165132,Em Resolução/Conclusão,3103,Incêndio rural,0,3,0,11,2025-10-20T14:43:00Z,Setúbal,Setúbal,Área Metropolitana De Lisboa,-8.993175,38.539673,Resolução/Conclusão
26165207,Tortosendo,Beiras e Serra da Estrela,310,2025-10-20T14:56:00Z,26165207,Em Resolução/Conclusão,3103,Incêndio rural,0,5,0,14,2025-10-20T14:56:00Z,Covilhã,Castelo Branco,Centro,-7.511453,40.231705,Resolução/Conclusão
26165416,Sesimbra (Castelo),Península de Setúbal,311,2025-10-20T15:29:00Z,26165416,Em Despacho,3103,Incêndio rural,0,1,0,5,2025-10-20T15:29:00Z,Sesimbra,Setúbal,Área Metropolitana De Lisboa,-9.112506,38.449031,Despacho
26164727,Benavente,Lezíria do Tejo,311,2025-10-20T13:30:00Z,26164727,Em Resolução/Conclusão,3103,Incêndio rural,0,14,0,47,2025-10-20T13:30:00Z,Benavente,Santarém,Alentejo,-8.680143,38.920237,Resolução/Conclusão
26165313,São Gregório e Santa Justa,Alentejo Central,312,2025-10-20T15:11:00Z,26165313,Em Curso,3103,Incêndio rural,0,4,0,12,2025-10-20T15:11:00Z,Arraiolos,Évora,Alentejo,-7.89711,38.779164,Curso
