id,address,subregion,neighborhood,date,id.1,state,nature,nature_description,aerial_means,terrestrial_means,aquatic_means,operational,date.1,Concelho,Distrito,NUTII_DSG,longitude,latitude
25317877,Serzedo e Calvos,Ave,309,2025-05-02T11:26:00Z,25317877,Em despacho,3301,Queda de árvore,0,2,0,4,2025-05-02T11:26:00Z,Guimarães,Braga,Norte,-8.237038,41.402873
25318361,Nossa Senhora da Graça Dos Degolados,Alto Alentejo,312,2025-05-02T13:00:00Z,25318361,Em conclusão,3301,Queda de árvore,0,0,0,0,2025-05-02T13:00:00Z,Campo Maior,Portalegre,Alentejo,-7.118757,39.056913
25318654,Nossa Senhora da Expectação,Alto Alentejo,312,2025-05-02T13:57:00Z,25318654,Em conclusão,3309,Desabamento de estruturas edificadas,0,0,0,0,2025-05-02T13:57:00Z,Campo Maior,Portalegre,Alentejo,-7.063944,39.014855
25319004,Nossa Senhora da Graça Dos Degolados,Alto Alentejo,312,2025-05-02T14:42:00Z,25319004,Em despacho,3309,Desabamento de estruturas edificadas,0,1,0,3,2025-05-02T14:42:00Z,Campo Maior,Portalegre,Alentejo,-7.120252,39.061146
25319034,"Marvila, Ribeira Santarém, S.salvador, S.nicolau",Lezíria do Tejo,311,2025-05-02T15:15:00Z,25319034,Em despacho,3301,Queda de árvore,0,1,0,5,2025-05-02T15:15:00Z,Santarém,Santarém,Alentejo,-8.678591,39.231938
25071496,São Manços e São Vicente do Pigeiro,Alentejo Central,312,2025-03-11T13:18:00Z,25071496,Em conclusão,1101,Cheia,0,0,0,0,2025-03-11T13:18:00Z,Évora,Évora,Alentejo,-7.713313,38.513673
25318424,Nossa Senhora da Graça Dos Degolados,Alto Alentejo,312,2025-05-02T13:10:00Z,25318424,Em curso,1103,Vento forte,0,1,0,1,2025-05-02T13:10:00Z,Campo Maior,Portalegre,Alentejo,-7.12147,39.062622
25318992,Nossa Senhora da Graça Dos Degolados,Alto Alentejo,312,2025-05-02T14:50:00Z,25318992,Em curso,3301,Queda de árvore,0,2,0,6,2025-05-02T14:50:00Z,Campo Maior,Portalegre,Alentejo,-7.12101,39.06231
25319041,Vila Nova de Famalicão e Calendário,Ave,309,2025-05-02T15:10:00Z,25319041,Em despacho,3315,Inundação de estruturas por precipitação intensa,0,1,0,2,2025-05-02T15:10:00Z,Vila Nova De Famalicão,Braga,Norte,-8.530915,41.39878
25316776,Guarda,Beiras e Serra da Estrela,310,2025-05-02T07:17:00Z,25316776,Em conclusão,3311,Queda de elementos de estruturas edificados,0,7,0,16,2025-05-02T07:17:00Z,Guarda,Guarda,Centro,-7.269039,40.539292
25318344,Nossa Senhora da Graça Dos Degolados,Alto Alentejo,312,2025-05-02T12:45:00Z,25318344,Em despacho,3309,Desabamento de estruturas edificadas,0,0,0,0,2025-05-02T12:45:00Z,Campo Maior,Portalegre,Alentejo,-7.121009,39.061301
25318812,Anta e Guetim,Area M. Porto,309,2025-05-02T14:29:00Z,25318812,Em curso,3321,Dano na rede de fornecimento de eletricidade ,0,2,0,5,2025-05-02T14:29:00Z,Espinho,Aveiro,Norte,-8.614155,41.008103
