id,address,subregion,neighborhood,date,id.1,state,nature,nature_description,aerial_means,terrestrial_means,aquatic_means,operational,date.1,Concelho,Distrito,NUTII_DSG,longitude,latitude
25316709,Loulé (São Sebastião),Algarve,313,2025-05-02T06:32:00Z,25316709,Em resolução,3321,Dano na rede de fornecimento de eletricidade ,0,2,0,4,2025-05-02T06:32:00Z,Loulé,Faro,Algarve,-8.02349,37.14926
25316925,Sagres,Algarve,313,2025-05-02T08:04:00Z,25316925,Em curso,3301,Queda de árvore,0,3,0,9,2025-05-02T08:04:00Z,Vila Do Bispo,Faro,Algarve,-8.943145,37.00882
25071496,São Manços e São Vicente do Pigeiro,Alentejo Central,312,2025-03-11T13:18:00Z,25071496,Em conclusão,1101,Cheia,0,0,0,0,2025-03-11T13:18:00Z,Évora,Évora,Alentejo,-7.713313,38.513673
25316776,Guarda,Beiras e Serra da Estrela,310,2025-05-02T07:17:00Z,25316776,Em conclusão,3311,Queda de elementos de estruturas edificados,0,6,0,13,2025-05-02T07:17:00Z,Guarda,Guarda,Centro,-7.269039,40.539292
25317078,Nossa Senhora Das Neves,Baixo Alentejo,312,2025-05-02T08:37:00Z,25317078,Em resolução,3301,Queda de árvore,0,3,0,6,2025-05-02T08:37:00Z,Beja,Beja,Alentejo,-7.793118,38.020858
