id,address,subregion,neighborhood,date,id.1,state,nature,nature_description,aerial_means,terrestrial_means,aquatic_means,operational,date.1,Concelho,Distrito,NUTII_DSG,longitude,latitude
24864975,"Marvila, Ribeira Santarém, S.salvador, S.nicolau",Lezíria do Tejo,311,2025-01-24T17:14:00Z,24864975,Em despacho,3313,Deslizamento de terras,0,1,0,1,2025-01-24T17:14:00Z,Santarém,Santarém,Alentejo,-8.678591,39.231938
24865676,Santo António Dos Olivais,Região de Coimbra,310,2025-01-24T20:07:00Z,24865676,Em despacho,3315,Inundação de estruturas por precipitação intensa,0,1,0,3,2025-01-24T20:07:00Z,Coimbra,Coimbra,Centro,-8.426807,40.217261
24851780,"São Miguel, Santa Eufémia e Rabaçal",Região de Coimbra,310,2025-01-21T23:25:00Z,24851780,Em curso,3315,Inundação de estruturas por precipitação intensa,0,0,0,0,2025-01-21T23:25:00Z,Penela,Coimbra,Centro,-8.399036,40.025502
24865512,"S.maria, S.miguel, S.martinho, S.pedro Penaferrim",Grande Lisboa,311,2025-01-24T19:21:00Z,24865512,Em conclusão,3301,Queda de árvore,0,1,0,5,2025-01-24T19:21:00Z,Sintra,Lisboa,Área Metropolitana De Lisboa,-9.41878,38.794668
24865753,Moledo e Cristelo,Alto Minho,309,2025-01-24T20:31:00Z,24865753,Em despacho,3301,Queda de árvore,0,1,0,2,2025-01-24T20:31:00Z,Caminha,Viana Do Castelo,Norte,-8.855489,41.84725
24865798,Feitosa,Alto Minho,309,2025-01-24T20:35:00Z,24865798,Em curso,3329,Queda de estruturas temporárias ou móveis,0,1,0,3,2025-01-24T20:35:00Z,Ponte De Lima,Viana Do Castelo,Norte,-8.584328,41.750388
