id,address,subregion,neighborhood,date,id.1,state,nature,nature_description,aerial_means,terrestrial_means,aquatic_means,operational,date.1,Concelho,Distrito,NUTII_DSG,longitude,latitude,state_2
25738747,Lindoso,Alto Minho,309,2025-07-26T21:47:00Z,25738747,Em Curso,3103,Incêndio rural,8,133,0,424,2025-07-26T21:47:00Z,Ponte Da Barca,Viana Do Castelo,Norte,-8.220528,41.865272,Curso
25741880,Benavila e Valongo,Alto Alentejo,312,2025-07-27T14:31:00Z,25741880,Em Resolução/Conclusão,3101,Incêndio rural,0,1,0,4,2025-07-27T14:31:00Z,Avis,Portalegre,Alentejo,-7.866293,39.19533,Resolução/Conclusão
25747773,Aranhas,Beira Baixa,310,2025-07-28T16:36:00Z,25747773,Em Curso,3103,Incêndio rural,6,128,0,394,2025-07-28T16:36:00Z,Penamacor,Castelo Branco,Centro,-7.14438,40.117542,Curso
25749611,Sameice e Santa Eulália,Beiras e Serra da Estrela,310,2025-07-29T00:44:00Z,25749611,Em Resolução/Conclusão,3103,Incêndio rural,0,3,0,12,2025-07-29T00:44:00Z,Seia,Guarda,Centro,-7.77621,40.42021,Resolução/Conclusão
25749802,Gandra e Taião,Alto Minho,309,2025-07-29T02:30:00Z,25749802,Em Resolução/Conclusão,3103,Incêndio rural,0,7,0,16,2025-07-29T02:30:00Z,Valença,Viana Do Castelo,Norte,-8.59159,42.012522,Resolução/Conclusão
25750038,Paderne,Alto Minho,309,2025-07-29T05:49:00Z,25750038,Em Resolução/Conclusão,3101,Incêndio rural,0,3,0,11,2025-07-29T05:49:00Z,Melgaço,Viana Do Castelo,Norte,-8.28068,42.101137,Resolução/Conclusão
25750845,Fornos,Tâmega e Sousa,309,2025-07-29T09:46:00Z,25750845,Em Curso,3103,Incêndio rural,0,13,0,49,2025-07-29T09:46:00Z,Castelo De Paiva,Aveiro,Norte,-8.247077,41.050502,Curso
25751424,Portela,Alto Minho,309,2025-07-29T11:09:00Z,25751424,Em Resolução/Conclusão,3101,Incêndio rural,0,3,0,11,2025-07-29T11:09:00Z,Monção,Viana Do Castelo,Norte,-8.479047,41.976007,Resolução/Conclusão
25751774,Aguiar de Sousa,Area M. Porto,309,2025-07-29T12:05:00Z,25751774,Em Curso,3103,Incêndio rural,0,2,0,7,2025-07-29T12:05:00Z,Paredes,Porto,Norte,-8.438765,41.120548,Curso
25751865,Ílhavo (São Salvador),Região de Aveiro,310,2025-07-29T12:26:00Z,25751865,Em Resolução/Conclusão,3101,Incêndio rural,0,8,0,25,2025-07-29T12:26:00Z,Ílhavo,Aveiro,Centro,-8.65401,40.583881,Resolução/Conclusão
25751933,Cabril,Alto Tâmega e Barroso,309,2025-07-29T12:38:00Z,25751933,Em Resolução/Conclusão,3103,Incêndio rural,0,4,0,13,2025-07-29T12:38:00Z,Montalegre,Vila Real,Norte,-8.092695,41.69975,Resolução/Conclusão
25751999,Pombal,Região de Leiria,310,2025-07-29T12:53:00Z,25751999,Em Resolução/Conclusão,3101,Incêndio rural,1,15,0,51,2025-07-29T12:53:00Z,Pombal,Leiria,Centro,-8.6801,39.93227,Resolução/Conclusão
25749681,Fornos de Maceira Dão,Viseu Dão Lafões,310,2025-07-29T01:19:00Z,25749681,Em Resolução/Conclusão,3103,Incêndio rural,0,22,0,70,2025-07-29T01:19:00Z,Mangualde,Viseu,Centro,-7.806963,40.617022,Resolução/Conclusão
25749831,Valdreu,Cávado,309,2025-07-29T02:54:00Z,25749831,Em Resolução/Conclusão,3103,Incêndio rural,0,1,0,4,2025-07-29T02:54:00Z,Vila Verde,Braga,Norte,-8.326492,41.720598,Resolução/Conclusão
25749898,Borba de Montanha,Tâmega e Sousa,309,2025-07-29T03:41:00Z,25749898,Em Resolução/Conclusão,3103,Incêndio rural,0,3,0,12,2025-07-29T03:41:00Z,Celorico De Basto,Braga,Norte,-8.099557,41.380222,Resolução/Conclusão
25750701,Capela,Tâmega e Sousa,309,2025-07-29T09:26:00Z,25750701,Em Curso,3103,Incêndio rural,0,50,0,183,2025-07-29T09:26:00Z,Penafiel,Porto,Norte,-8.345202,41.09353,Curso
25752055,Lustosa e Barrosas (Santo Estêvão),Tâmega e Sousa,309,2025-07-29T13:10:00Z,25752055,Em Resolução/Conclusão,3103,Incêndio rural,0,1,0,5,2025-07-29T13:10:00Z,Lousada,Porto,Norte,-8.311118,41.329985,Resolução/Conclusão
25752156,Bairro,Ave,309,2025-07-29T13:27:00Z,25752156,Em Resolução/Conclusão,3103,Incêndio rural,0,2,0,7,2025-07-29T13:27:00Z,Vila Nova De Famalicão,Braga,Norte,-8.439277,41.365642,Resolução/Conclusão
25752690,Sesimbra (Castelo),Península de Setúbal,311,2025-07-29T14:56:00Z,25752690,Em Resolução/Conclusão,3105,Incêndio rural,0,3,0,11,2025-07-29T14:56:00Z,Sesimbra,Setúbal,Área Metropolitana De Lisboa,-9.06102,38.48874,Resolução/Conclusão
25752083,Alcanede,Lezíria do Tejo,311,2025-07-29T13:12:00Z,25752083,Em Curso,3103,Incêndio rural,1,72,0,227,2025-07-29T13:12:00Z,Santarém,Santarém,Alentejo,-8.802682,39.405543,Curso
25752299,Vale de Anta,Alto Tâmega e Barroso,309,2025-07-29T13:52:00Z,25752299,Em Resolução/Conclusão,3103,Incêndio rural,0,9,0,37,2025-07-29T13:52:00Z,Chaves,Vila Real,Norte,-7.496488,41.745175,Resolução/Conclusão
25752719,Poiares e Canelas,Douro,309,2025-07-29T15:02:00Z,25752719,Em Resolução/Conclusão,3103,Incêndio rural,0,2,0,7,2025-07-29T15:02:00Z,Peso Da Régua,Vila Real,Norte,-7.725132,41.1933,Resolução/Conclusão
25752826,Carnaxide e Queijas,Grande Lisboa,311,2025-07-29T15:22:00Z,25752826,Em Resolução/Conclusão,3103,Incêndio rural,0,1,0,6,2025-07-29T15:22:00Z,Oeiras,Lisboa,Área Metropolitana De Lisboa,-9.23185,38.732597,Resolução/Conclusão
25752828,Monsaraz,Alentejo Central,312,2025-07-29T15:22:00Z,25752828,Em Resolução/Conclusão,3103,Incêndio rural,1,14,0,57,2025-07-29T15:22:00Z,Reguengos De Monsaraz,Évora,Alentejo,-7.387908,38.43499,Resolução/Conclusão
25752853,Foz do Sousa e Covelo,Area M. Porto,309,2025-07-29T15:27:00Z,25752853,Em Resolução/Conclusão,3103,Incêndio rural,1,1,0,11,2025-07-29T15:27:00Z,Gondomar,Porto,Norte,-8.5069,41.084743,Resolução/Conclusão
25752862,Vila Chã do Marão,Tâmega e Sousa,309,2025-07-29T15:31:00Z,25752862,Em Resolução/Conclusão,3105,Incêndio rural,0,1,0,5,2025-07-29T15:31:00Z,Amarante,Porto,Norte,-8.036917,41.300225,Resolução/Conclusão
25752935,Vila Boa de Quires e Maureles,Tâmega e Sousa,309,2025-07-29T15:41:00Z,25752935,Em Resolução/Conclusão,3103,Incêndio rural,0,5,0,17,2025-07-29T15:41:00Z,Marco De Canaveses,Porto,Norte,-8.18695,41.21657,Resolução/Conclusão
25753069,a Dos Francos,Oeste,311,2025-07-29T16:13:00Z,25753069,Em Resolução/Conclusão,3103,Incêndio rural,0,5,0,21,2025-07-29T16:13:00Z,Caldas Da Rainha,Leiria,Centro,-9.068792,39.312317,Resolução/Conclusão
25753303,Santo Estêvão,Alto Tâmega e Barroso,309,2025-07-29T16:51:00Z,25753303,Em Despacho,3105,Incêndio rural,0,1,0,5,2025-07-29T16:51:00Z,Chaves,Vila Real,Norte,-7.417682,41.7597,Despacho
25753362,Paranhos,Area M. Porto,309,2025-07-29T17:11:00Z,25753362,Em Despacho,3103,Incêndio rural,0,2,0,10,2025-07-29T17:11:00Z,Porto,Porto,Norte,-8.60544,41.17201,Despacho
25753039,Meinedo,Tâmega e Sousa,309,2025-07-29T16:08:00Z,25753039,Em Resolução/Conclusão,3103,Incêndio rural,0,5,0,15,2025-07-29T16:08:00Z,Lousada,Porto,Norte,-8.258406,41.249537,Resolução/Conclusão
25753057,"Manique do Intendente, V. N. de São Pedro e Maçussa",Lezíria do Tejo,311,2025-07-29T16:16:00Z,25753057,Em Resolução/Conclusão,3103,Incêndio rural,0,4,0,15,2025-07-29T16:16:00Z,Azambuja,Lisboa,Alentejo,-8.89402,39.22086,Resolução/Conclusão
25753223,Barcouço,Região de Coimbra,310,2025-07-29T16:47:00Z,25753223,Em Resolução/Conclusão,3101,Incêndio rural,1,6,0,26,2025-07-29T16:47:00Z,Mealhada,Aveiro,Centro,-8.508657,40.30133,Resolução/Conclusão
25753240,Vilarinho,Area M. Porto,309,2025-07-29T16:40:00Z,25753240,Em Despacho,3103,Incêndio rural,0,1,0,5,2025-07-29T16:40:00Z,Santo Tirso,Porto,Norte,-8.332396,41.361273,Despacho
25753391,São Mamede,Região de Leiria,310,2025-07-29T17:16:00Z,25753391,Em Despacho,3101,Incêndio rural,0,2,0,7,2025-07-29T17:16:00Z,Batalha,Leiria,Centro,-8.729481,39.62952,Despacho
25749937,Tarouquela,Tâmega e Sousa,309,2025-07-29T04:11:00Z,25749937,Em Curso,3103,Incêndio rural,0,12,0,43,2025-07-29T04:11:00Z,Cinfães,Viseu,Norte,-8.173308,41.072792,Curso
25750444,Pedrógão Grande,Região de Leiria,310,2025-07-29T08:31:00Z,25750444,Em Resolução/Conclusão,3101,Incêndio rural,0,0,0,0,2025-07-29T08:31:00Z,Pedrógão Grande,Leiria,Centro,-8.177567,39.933038,Resolução/Conclusão
25751046,Castelejo,Beiras e Serra da Estrela,310,2025-07-29T10:13:00Z,25751046,Em Resolução/Conclusão,3103,Incêndio rural,0,14,0,46,2025-07-29T10:13:00Z,Fundão,Castelo Branco,Centro,-7.604291,40.108879,Resolução/Conclusão
25751241,Molelos,Viseu Dão Lafões,310,2025-07-29T10:43:00Z,25751241,Em Resolução/Conclusão,3103,Incêndio rural,0,48,0,163,2025-07-29T10:43:00Z,Tondela,Viseu,Centro,-8.09574,40.551495,Resolução/Conclusão
25751355,"Crato e Mártires, Flor da Rosa e Vale do Peso",Alto Alentejo,312,2025-07-29T10:59:00Z,25751355,Em Resolução/Conclusão,3103,Incêndio rural,0,5,0,15,2025-07-29T10:59:00Z,Crato,Portalegre,Alentejo,-7.641857,39.351982,Resolução/Conclusão
25751848,Esperança,Alto Alentejo,312,2025-07-29T12:17:00Z,25751848,Em Resolução/Conclusão,3105,Incêndio rural,0,0,0,0,2025-07-29T12:17:00Z,Arronches,Portalegre,Alentejo,-7.169372,39.158087,Resolução/Conclusão
25751893,"Espírito Santo, Nossa Senhora da Graça e São Simão",Alto Alentejo,312,2025-07-29T12:32:00Z,25751893,Em Curso,3101,Incêndio rural,5,103,0,330,2025-07-29T12:32:00Z,Nisa,Portalegre,Alentejo,-7.635002,39.571724,Curso
25752377,Santa Clara,Grande Lisboa,311,2025-07-29T14:05:00Z,25752377,Em Resolução/Conclusão,3103,Incêndio rural,0,3,0,15,2025-07-29T14:05:00Z,Lisboa,Lisboa,Área Metropolitana De Lisboa,-9.158493,38.784638,Resolução/Conclusão
25752470,"Pinheiro da Bemposta, Travanca e Palmaz",Area M. Porto,309,2025-07-29T14:14:00Z,25752470,Em Resolução/Conclusão,3103,Incêndio rural,0,4,0,14,2025-07-29T14:14:00Z,Oliveira De Azeméis,Aveiro,Norte,-8.478028,40.814169,Resolução/Conclusão
25752943,Romarigães,Alto Minho,309,2025-07-29T15:30:00Z,25752943,Em Resolução/Conclusão,3105,Incêndio rural,0,1,0,4,2025-07-29T15:30:00Z,Paredes De Coura,Viana Do Castelo,Norte,-8.627036,41.86072,Resolução/Conclusão
25752984,São Jorge e Ermelo,Alto Minho,309,2025-07-29T15:53:00Z,25752984,Em Resolução/Conclusão,3103,Incêndio rural,0,2,0,9,2025-07-29T15:53:00Z,Arcos De Valdevez,Viana Do Castelo,Norte,-8.371373,41.82823,Resolução/Conclusão
25753011,Alvendre,Beiras e Serra da Estrela,310,2025-07-29T16:01:00Z,25753011,Em Resolução/Conclusão,3103,Incêndio rural,0,2,0,7,2025-07-29T16:01:00Z,Guarda,Guarda,Centro,-7.244883,40.566283,Resolução/Conclusão
25753070,Souselo,Tâmega e Sousa,309,2025-07-29T16:30:00Z,25753070,Em Despacho,3103,Incêndio rural,1,1,0,11,2025-07-29T16:30:00Z,Cinfães,Viseu,Norte,-8.22809,41.07335,Despacho
25753170,"Leiria, Pousos, Barreira e Cortes",Região de Leiria,310,2025-07-29T16:36:00Z,25753170,Em Curso,3101,Incêndio rural,3,34,0,125,2025-07-29T16:36:00Z,Leiria,Leiria,Centro,-8.803702,39.718552,Curso
25753229,Rebordões,Area M. Porto,309,2025-07-29T16:40:00Z,25753229,Em Curso,3103,Incêndio rural,0,3,0,12,2025-07-29T16:40:00Z,Santo Tirso,Porto,Norte,-8.429499,41.35637,Curso
25753270,Fragoso,Cávado,309,2025-07-29T16:55:00Z,25753270,Em Despacho,3105,Incêndio rural,0,4,0,18,2025-07-29T16:55:00Z,Barcelos,Braga,Norte,-8.70318,41.61306,Despacho
25747334,Aboim da Nóbrega e Gondomar,Cávado,309,2025-07-28T15:08:00Z,25747334,Em Resolução/Conclusão,3103,Incêndio rural,0,4,0,13,2025-07-28T15:08:00Z,Vila Verde,Braga,Norte,-8.38607,41.734402,Resolução/Conclusão
25748118,Canelas e Espiunca,Area M. Porto,309,2025-07-28T17:16:00Z,25748118,Em Curso,3101,Incêndio rural,9,238,0,711,2025-07-28T17:16:00Z,Arouca,Aveiro,Norte,-8.212231,40.969918,Curso
25748672,Sopo,Alto Minho,309,2025-07-28T20:07:00Z,25748672,Em Resolução/Conclusão,3103,Incêndio rural,0,3,0,10,2025-07-28T20:07:00Z,Vila Nova De Cerveira,Viana Do Castelo,Norte,-8.76152,41.888527,Resolução/Conclusão
25749320,Rebordões (Santa Maria),Alto Minho,309,2025-07-28T22:47:00Z,25749320,Em Curso,3103,Incêndio rural,1,54,0,188,2025-07-28T22:47:00Z,Ponte De Lima,Viana Do Castelo,Norte,-8.588365,41.729993,Curso
25749641,Silva Escura e Dornelas,Região de Aveiro,310,2025-07-29T01:02:00Z,25749641,Em Curso,3101,Incêndio rural,1,30,0,90,2025-07-29T01:02:00Z,Sever Do Vouga,Aveiro,Centro,-8.399623,40.769354,Curso
25749824,Santa Marinha do Zêzere,Tâmega e Sousa,309,2025-07-29T02:46:00Z,25749824,Em Curso,3103,Incêndio rural,0,15,0,48,2025-07-29T02:46:00Z,Baião,Porto,Norte,-7.949183,41.161627,Curso
25750978,Mouriscas,Médio Tejo,311,2025-07-29T10:02:00Z,25750978,Em Resolução/Conclusão,3105,Incêndio rural,0,3,0,6,2025-07-29T10:02:00Z,Abrantes,Santarém,Centro,-8.10428,39.484922,Resolução/Conclusão
25751327,Estremoz (Santa Maria e Santo André),Alentejo Central,312,2025-07-29T10:52:00Z,25751327,Em Resolução/Conclusão,3105,Incêndio rural,0,2,0,4,2025-07-29T10:52:00Z,Estremoz,Évora,Alentejo,-7.611247,38.839733,Resolução/Conclusão
25752713,Nespereira,Tâmega e Sousa,309,2025-07-29T15:03:00Z,25752713,Em Resolução/Conclusão,3103,Incêndio rural,0,0,0,0,2025-07-29T15:03:00Z,Cinfães,Viseu,Norte,-8.150797,41.00824,Resolução/Conclusão
25752765,São Jorge e Ermelo,Alto Minho,309,2025-07-29T15:12:00Z,25752765,Em Resolução/Conclusão,3103,Incêndio rural,0,0,0,0,2025-07-29T15:12:00Z,Arcos De Valdevez,Viana Do Castelo,Norte,-8.364287,41.826252,Resolução/Conclusão
25752981,Associação de Freguesias do Vale do Neiva,Alto Minho,309,2025-07-29T15:52:00Z,25752981,Em Resolução/Conclusão,3103,Incêndio rural,0,6,0,17,2025-07-29T15:52:00Z,Ponte De Lima,Viana Do Castelo,Norte,-8.56303,41.629977,Resolução/Conclusão
25753014,Alvorninha,Oeste,311,2025-07-29T16:02:00Z,25753014,Em Resolução/Conclusão,3103,Incêndio rural,0,6,0,24,2025-07-29T16:02:00Z,Caldas Da Rainha,Leiria,Centro,-9.011214,39.40879,Resolução/Conclusão
25753084,Cinfães,Tâmega e Sousa,309,2025-07-29T16:23:00Z,25753084,Em Despacho,3103,Incêndio rural,0,0,0,0,2025-07-29T16:23:00Z,Cinfães,Viseu,Norte,-8.09114,41.07223,Despacho
25753134,Glória,Alentejo Central,312,2025-07-29T16:26:00Z,25753134,Em Curso,3105,Incêndio rural,1,15,0,46,2025-07-29T16:26:00Z,Estremoz,Évora,Alentejo,-7.587234,38.775437,Curso
25753349,Bustelo,Tâmega e Sousa,309,2025-07-29T16:52:00Z,25753349,Em Resolução/Conclusão,3103,Incêndio rural,0,3,0,10,2025-07-29T16:52:00Z,Penafiel,Porto,Norte,-8.277451,41.229705,Resolução/Conclusão
