id,address,subregion,neighborhood,date,id.1,state,nature,nature_description,aerial_means,terrestrial_means,aquatic_means,operational,date.1,Concelho,Distrito,NUTII_DSG,longitude,latitude
25068300,Almeirim,Lezíria do Tejo,311,2025-03-10T20:52:00Z,25068300,Em curso,1101,Cheia,0,0,0,0,2025-03-10T20:52:00Z,Almeirim,Santarém,Alentejo,-8.635002,39.187436
25121298,Gafanhoeira (São Pedro) e Sabugueiro,Alentejo Central,312,2025-03-20T14:26:00Z,25121298,Em resolução,3301,Queda de árvore,0,0,0,0,2025-03-20T14:26:00Z,Arraiolos,Évora,Alentejo,-8.088754,38.754507
25129636,"S.maria, S.miguel, S.martinho, S.pedro Penaferrim",Grande Lisboa,311,2025-03-21T19:25:00Z,25129636,Em despacho,3301,Queda de árvore,0,1,0,5,2025-03-21T19:25:00Z,Sintra,Lisboa,Área Metropolitana De Lisboa,-9.366763,38.781718
25130479,"S.maria, S.miguel, S.martinho, S.pedro Penaferrim",Grande Lisboa,311,2025-03-21T23:50:00Z,25130479,Em curso,3301,Queda de árvore,0,2,0,10,2025-03-21T23:50:00Z,Sintra,Lisboa,Área Metropolitana De Lisboa,-9.366763,38.781718
25131147,Covilhã e Canhoso,Beiras e Serra da Estrela,310,2025-03-22T07:51:00Z,25131147,Em despacho,3313,Deslizamento de terras,0,2,0,4,2025-03-22T07:51:00Z,Covilhã,Castelo Branco,Centro,-7.50305,40.28619
25131690,Fajão-Vidual,Região de Coimbra,310,2025-03-22T08:51:00Z,25131690,Em curso,3313,Deslizamento de terras,0,2,0,4,2025-03-22T08:51:00Z,Pampilhosa Da Serra,Coimbra,Centro,-7.962955,40.144566
25131769,"S.maria, S.miguel, S.martinho, S.pedro Penaferrim",Grande Lisboa,311,2025-03-22T09:40:00Z,25131769,Em despacho,3301,Queda de árvore,0,1,0,4,2025-03-22T09:40:00Z,Sintra,Lisboa,Área Metropolitana De Lisboa,-9.380105,38.790996
25132058,Orvalho,Beira Baixa,310,2025-03-22T10:44:00Z,25132058,Em despacho,3311,Queda de elementos de estruturas edificados,0,1,0,2,2025-03-22T10:44:00Z,Oleiros,Castelo Branco,Centro,-7.791058,40.022607
25087162,Pedrógão,Baixo Alentejo,312,2025-03-14T17:00:00Z,25087162,Em curso,1101,Cheia,0,0,0,0,2025-03-14T17:00:00Z,Vidigueira,Beja,Alentejo,-7.630327,38.110775
25128056,Santa Maria do Castelo e Santiago e Santa Susana,Alentejo Litoral,312,2025-03-21T14:41:00Z,25128056,Em curso,1101,Cheia,0,0,0,0,2025-03-21T14:41:00Z,Alcácer Do Sal,Setúbal,Alentejo,-8.434671,38.401157
25131298,Luso,Região de Coimbra,310,2025-03-22T08:24:00Z,25131298,Em despacho,3301,Queda de árvore,0,1,0,2,2025-03-22T08:24:00Z,Mealhada,Aveiro,Centro,-8.374509,40.375881
25131407,São Romão de Neiva,Alto Minho,309,2025-03-22T08:47:00Z,25131407,Em despacho,3315,Inundação de estruturas por precipitação intensa,0,0,0,0,2025-03-22T08:47:00Z,Viana Do Castelo,Viana Do Castelo,Norte,-8.76857,41.63968
25131534,Mesão Frio (Santo André),Douro,309,2025-03-22T09:13:00Z,25131534,Em curso,3301,Queda de árvore,0,4,0,11,2025-03-22T09:13:00Z,Mesão Frio,Vila Real,Norte,-7.895862,41.152343
25132043,Miranda do Corvo,Região de Coimbra,310,2025-03-22T10:30:00Z,25132043,Em curso,3315,Inundação de estruturas por precipitação intensa,0,0,0,0,2025-03-22T10:30:00Z,Miranda Do Corvo,Coimbra,Centro,-8.339499,40.09407
25132220,"Bigorne, Magueija e Pretarouca",Douro,309,2025-03-22T11:13:00Z,25132220,Em curso,3313,Deslizamento de terras,0,1,0,2,2025-03-22T11:13:00Z,Lamego,Viseu,Norte,-7.8684,41.03566
25132236,São Vicente do Paul e Vale de Figueira,Lezíria do Tejo,311,2025-03-22T11:15:00Z,25132236,Em resolução,3301,Queda de árvore,0,1,0,5,2025-03-22T11:15:00Z,Santarém,Santarém,Alentejo,-8.656035,39.350473
25132479,Arruda Dos Vinhos,Oeste,311,2025-03-22T11:40:00Z,25132479,Em curso,3315,Inundação de estruturas por precipitação intensa,0,2,0,3,2025-03-22T11:40:00Z,Arruda Dos Vinhos,Lisboa,Centro,-9.06983,38.993124
25132501,Beco,Médio Tejo,311,2025-03-22T12:05:00Z,25132501,Em conclusão,3301,Queda de árvore,0,1,0,3,2025-03-22T12:05:00Z,Ferreira Do Zêzere,Santarém,Centro,-8.300011,39.771711
25132560,Fernão Ferro,Península de Setúbal,311,2025-03-22T12:15:00Z,25132560,Em curso,3329,Queda de estruturas temporárias ou móveis,0,1,0,3,2025-03-22T12:15:00Z,Seixal,Setúbal,Área Metropolitana De Lisboa,-9.058486,38.55299
25132626,Salir,Algarve,313,2025-03-22T12:05:00Z,25132626,Em despacho,3313,Deslizamento de terras,0,1,0,3,2025-03-22T12:05:00Z,Loulé,Faro,Algarve,-8.040653,37.240426
25132651,Santana de Cambas,Baixo Alentejo,312,2025-03-22T12:20:00Z,25132651,Em despacho,3301,Queda de árvore,0,1,0,2,2025-03-22T12:20:00Z,Mértola,Beja,Alentejo,-7.532498,37.650699
25132676,Canha,Península de Setúbal,311,2025-03-22T12:20:00Z,25132676,Em curso,3315,Inundação de estruturas por precipitação intensa,0,1,0,3,2025-03-22T12:20:00Z,Montijo,Setúbal,Área Metropolitana De Lisboa,-8.660408,38.81317
25132685,"Requeixo, Nossa Senhora de Fátima e Nariz",Região de Aveiro,310,2025-03-22T12:19:00Z,25132685,Em despacho,3301,Queda de árvore,0,1,0,5,2025-03-22T12:19:00Z,Aveiro,Aveiro,Centro,-8.537161,40.597857
25132701,São João de Lourosa,Viseu Dão Lafões,310,2025-03-22T12:35:00Z,25132701,Em curso,3301,Queda de árvore,0,1,0,2,2025-03-22T12:35:00Z,Viseu,Viseu,Centro,-7.905849,40.611147
25132712,Reguengo do Fetal,Região de Leiria,310,2025-03-22T12:35:00Z,25132712,Em despacho,3313,Deslizamento de terras,0,1,0,2,2025-03-22T12:35:00Z,Batalha,Leiria,Centro,-8.762337,39.658441
25132721,Pataias e Martingança,Oeste,311,2025-03-22T12:36:00Z,25132721,Em curso,3301,Queda de árvore,0,0,0,0,2025-03-22T12:36:00Z,Alcobaça,Leiria,Centro,-8.979259,39.674173
25132509,Serpins,Região de Coimbra,310,2025-03-22T12:03:00Z,25132509,Em curso,3301,Queda de árvore,0,0,0,0,2025-03-22T12:03:00Z,Lousã,Coimbra,Centro,-8.194131,40.137468
25132561,Marmelete,Algarve,313,2025-03-22T11:09:00Z,25132561,Em despacho,3301,Queda de árvore,0,1,0,2,2025-03-22T11:09:00Z,Monchique,Faro,Algarve,-8.640679,37.309648
25132586,Alenquer (Santo Estêvão e Triana),Oeste,311,2025-03-22T11:50:00Z,25132586,Em curso,3311,Queda de elementos de estruturas edificados,0,4,0,6,2025-03-22T11:50:00Z,Alenquer,Lisboa,Centro,-9.007918,39.054242
25132609,Valongo,Area M. Porto,309,2025-03-22T12:15:00Z,25132609,Em conclusão,3301,Queda de árvore,0,1,0,2,2025-03-22T12:15:00Z,Valongo,Porto,Norte,-8.498295,41.191956
25132659,"Cedofeita, Ildefonso, Sé, Miragaia, Nicolau e Vitória",Area M. Porto,309,2025-03-22T12:32:00Z,25132659,Em despacho,3315,Inundação de estruturas por precipitação intensa,0,0,0,0,2025-03-22T12:32:00Z,Porto,Porto,Norte,-8.615939,41.15359
25132679,Canidelo,Area M. Porto,309,2025-03-22T12:08:00Z,25132679,Em despacho,3329,Queda de estruturas temporárias ou móveis,0,1,0,3,2025-03-22T12:08:00Z,Vila Nova De Gaia,Porto,Norte,-8.643973,41.123309
25132693,Travanca,Tâmega e Sousa,309,2025-03-22T12:29:00Z,25132693,Em despacho,3315,Inundação de estruturas por precipitação intensa,0,1,0,2,2025-03-22T12:29:00Z,Cinfães,Viseu,Norte,-8.225891,41.037966
25132704,Carvoeiro,Médio Tejo,311,2025-03-22T12:40:00Z,25132704,Em despacho,3311,Queda de elementos de estruturas edificados,0,1,0,2,2025-03-22T12:40:00Z,Mação,Santarém,Centro,-7.893227,39.61127
25063232,Santa Maria do Castelo e Santiago e Santa Susana,Alentejo Litoral,312,2025-03-09T19:02:00Z,25063232,Em conclusão,1101,Cheia,0,0,0,0,2025-03-09T19:02:00Z,Alcácer Do Sal,Setúbal,Alentejo,-8.48167,38.29806
25127944,Colares,Grande Lisboa,311,2025-03-21T14:29:00Z,25127944,Em curso,3301,Queda de árvore,0,1,0,5,2025-03-21T14:29:00Z,Sintra,Lisboa,Área Metropolitana De Lisboa,-9.432326,38.780106
25130567,Manteigas (Santa Maria),Beiras e Serra da Estrela,310,2025-03-22T00:50:00Z,25130567,Em curso,3313,Deslizamento de terras,0,1,0,2,2025-03-22T00:50:00Z,Manteigas,Guarda,Centro,-7.537826,40.403513
25131201,Cernache,Região de Coimbra,310,2025-03-22T08:07:00Z,25131201,Em despacho,3313,Deslizamento de terras,0,0,0,0,2025-03-22T08:07:00Z,Coimbra,Coimbra,Centro,-8.473586,40.13779
25131689,Cascais e Estoril,Grande Lisboa,311,2025-03-22T09:38:00Z,25131689,Em despacho,3301,Queda de árvore,0,2,0,6,2025-03-22T09:38:00Z,Cascais,Lisboa,Área Metropolitana De Lisboa,-9.408908,38.704814
25131805,Midões,Região de Coimbra,310,2025-03-22T10:01:00Z,25131805,Em curso,3301,Queda de árvore,0,2,0,3,2025-03-22T10:01:00Z,Tábua,Coimbra,Centro,-7.959948,40.405726
25132173,"Sandim, Olival, Lever e Crestuma",Area M. Porto,309,2025-03-22T11:03:00Z,25132173,Em despacho,3301,Queda de árvore,0,1,0,5,2025-03-22T11:03:00Z,Vila Nova De Gaia,Porto,Norte,-8.529135,41.047348
25132241,Ferreira do Zêzere,Médio Tejo,311,2025-03-22T11:14:00Z,25132241,Em conclusão,3301,Queda de árvore,0,2,0,4,2025-03-22T11:14:00Z,Ferreira Do Zêzere,Santarém,Centro,-8.27883,39.690681
25132388,Colares,Grande Lisboa,311,2025-03-22T11:41:00Z,25132388,Em despacho,3301,Queda de árvore,0,2,0,10,2025-03-22T11:41:00Z,Sintra,Lisboa,Área Metropolitana De Lisboa,-9.462038,38.768962
25132488,Santa Eulália,Area M. Porto,309,2025-03-22T11:39:00Z,25132488,Em despacho,3315,Inundação de estruturas por precipitação intensa,0,1,0,2,2025-03-22T11:39:00Z,Arouca,Aveiro,Norte,-8.273927,40.93694
25132744,Carcavelos e Parede,Grande Lisboa,311,2025-03-22T12:43:00Z,25132744,Em despacho,3311,Queda de elementos de estruturas edificados,0,1,0,1,2025-03-22T12:43:00Z,Cascais,Lisboa,Área Metropolitana De Lisboa,-9.355169,38.690219
25059714,Torrão,Alentejo Litoral,312,2025-03-08T22:10:00Z,25059714,Em curso,1101,Cheia,0,1,0,2,2025-03-08T22:10:00Z,Alcácer Do Sal,Setúbal,Alentejo,-8.359133,38.252053
25070044,Praia do Ribatejo,Médio Tejo,311,2025-03-10T19:30:00Z,25070044,Em curso,1101,Cheia,0,0,0,0,2025-03-10T19:30:00Z,Vila Nova Da Barquinha,Santarém,Centro,-8.357309,39.485638
25071496,São Manços e São Vicente do Pigeiro,Alentejo Central,312,2025-03-11T13:18:00Z,25071496,Em curso,1101,Cheia,0,2,0,4,2025-03-11T13:18:00Z,Évora,Évora,Alentejo,-7.713313,38.513673
25130358,Grândola e Santa Margarida da Serra,Alentejo Litoral,312,2025-03-21T22:53:00Z,25130358,Em curso,3313,Deslizamento de terras,0,0,0,0,2025-03-21T22:53:00Z,Grândola,Setúbal,Alentejo,-8.621172,38.121494
25131211,"Custóias, Leça do Balio e Guifões",Area M. Porto,309,2025-03-22T07:57:00Z,25131211,Em curso,3315,Inundação de estruturas por precipitação intensa,0,6,0,10,2025-03-22T07:57:00Z,Matosinhos,Porto,Norte,-8.632716,41.208899
25131444,Cumeeira,Região de Coimbra,310,2025-03-22T08:50:00Z,25131444,Em despacho,3301,Queda de árvore,0,1,0,4,2025-03-22T08:50:00Z,Penela,Coimbra,Centro,-8.36246,39.948128
25131513,Louriçal,Região de Leiria,310,2025-03-22T08:45:00Z,25131513,Em despacho,3315,Inundação de estruturas por precipitação intensa,0,1,0,2,2025-03-22T08:45:00Z,Pombal,Leiria,Centro,-8.745623,40.007074
25131696,Matas e Cercal,Médio Tejo,311,2025-03-22T09:44:00Z,25131696,Em resolução,3311,Queda de elementos de estruturas edificados,0,5,0,7,2025-03-22T09:44:00Z,Ourém,Santarém,Centro,-8.641594,39.718476
25132779,"Alto do Seixalinho, Santo André e Verderena",Península de Setúbal,311,2025-03-22T12:51:00Z,25132779,Em despacho,3301,Queda de árvore,0,1,0,3,2025-03-22T12:51:00Z,Barreiro,Setúbal,Área Metropolitana De Lisboa,-9.065968,38.6593
25132786,"Oeiras e S. Julião da Barra, Paço de Arcos e Caxias",Grande Lisboa,311,2025-03-22T12:54:00Z,25132786,Em despacho,3301,Queda de árvore,0,1,0,3,2025-03-22T12:54:00Z,Oeiras,Lisboa,Área Metropolitana De Lisboa,-9.310159,38.698531
25132793,Mafamude e Vilar do Paraíso,Area M. Porto,309,2025-03-22T12:23:00Z,25132793,Em despacho,3311,Queda de elementos de estruturas edificados,0,1,0,2,2025-03-22T12:23:00Z,Vila Nova De Gaia,Porto,Norte,-8.611105,41.107184
25132820,"Cedofeita, Ildefonso, Sé, Miragaia, Nicolau e Vitória",Area M. Porto,309,2025-03-22T12:57:00Z,25132820,Em despacho,3315,Inundação de estruturas por precipitação intensa,0,1,0,5,2025-03-22T12:57:00Z,Porto,Porto,Norte,-8.615939,41.15359
25132827,Carcavelos e Parede,Grande Lisboa,311,2025-03-22T12:21:00Z,25132827,Em despacho,3301,Queda de árvore,0,1,0,1,2025-03-22T12:21:00Z,Cascais,Lisboa,Área Metropolitana De Lisboa,-9.325114,38.69928
25132863,Benedita,Oeste,311,2025-03-22T13:07:00Z,25132863,Em despacho,3311,Queda de elementos de estruturas edificados,0,1,0,4,2025-03-22T13:07:00Z,Alcobaça,Leiria,Centro,-8.979714,39.424686
25132489,"Almargem do Bispo, Pêro Pinheiro e Montelavar",Grande Lisboa,311,2025-03-22T12:02:00Z,25132489,Em conclusão,3301,Queda de árvore,0,1,0,2,2025-03-22T12:02:00Z,Sintra,Lisboa,Área Metropolitana De Lisboa,-9.2766,38.83396
25132505,Quinta do Anjo,Península de Setúbal,311,2025-03-22T11:46:00Z,25132505,Em despacho,3301,Queda de árvore,0,1,0,4,2025-03-22T11:46:00Z,Palmela,Setúbal,Área Metropolitana De Lisboa,-8.966529,38.604202
25132606,Sesimbra (Castelo),Península de Setúbal,311,2025-03-22T12:22:00Z,25132606,Em despacho,3301,Queda de árvore,0,1,0,5,2025-03-22T12:22:00Z,Sesimbra,Setúbal,Área Metropolitana De Lisboa,-9.15932,38.48411
25132708,Braga (São Vítor),Cávado,309,2025-03-22T12:42:00Z,25132708,Em despacho,3329,Queda de estruturas temporárias ou móveis,0,1,0,2,2025-03-22T12:42:00Z,Braga,Braga,Norte,-8.41431,41.55243
25132709,Gavião,Ave,309,2025-03-22T12:34:00Z,25132709,Em despacho,3315,Inundação de estruturas por precipitação intensa,0,0,0,0,2025-03-22T12:34:00Z,Vila Nova De Famalicão,Braga,Norte,-8.50734,41.423944
25132722,Amora,Península de Setúbal,311,2025-03-22T12:45:00Z,25132722,Em despacho,3311,Queda de elementos de estruturas edificados,0,1,0,6,2025-03-22T12:45:00Z,Seixal,Setúbal,Área Metropolitana De Lisboa,-9.12814,38.63176
25132725,"Aldoar, Foz do Douro e Nevogilde",Area M. Porto,309,2025-03-22T12:43:00Z,25132725,Em despacho,3301,Queda de árvore,0,1,0,2,2025-03-22T12:43:00Z,Porto,Porto,Norte,-8.672426,41.161999
25132180,Chamusca e Pinheiro Grande,Lezíria do Tejo,311,2025-03-22T11:06:00Z,25132180,Em despacho,3301,Queda de árvore,0,1,0,2,2025-03-22T11:06:00Z,Chamusca,Santarém,Alentejo,-8.450018,39.395816
25132280,Darque,Alto Minho,309,2025-03-22T11:10:00Z,25132280,Em curso,3315,Inundação de estruturas por precipitação intensa,0,2,0,5,2025-03-22T11:10:00Z,Viana Do Castelo,Viana Do Castelo,Norte,-8.79826,41.683928
25132329,Costa da Caparica,Península de Setúbal,311,2025-03-22T10:50:00Z,25132329,Em despacho,3301,Queda de árvore,0,1,0,3,2025-03-22T10:50:00Z,Almada,Setúbal,Área Metropolitana De Lisboa,-9.227696,38.642583
25132347,Trouxemil e Torre de Vilela,Região de Coimbra,310,2025-03-22T11:34:00Z,25132347,Em curso,3315,Inundação de estruturas por precipitação intensa,0,2,0,3,2025-03-22T11:34:00Z,Coimbra,Coimbra,Centro,-8.452804,40.249612
25132433,Silveira,Oeste,311,2025-03-22T11:15:00Z,25132433,Em despacho,3329,Queda de estruturas temporárias ou móveis,0,1,0,1,2025-03-22T11:15:00Z,Torres Vedras,Lisboa,Centro,-9.378656,39.132876
25132447,Lamas e Cercal,Oeste,311,2025-03-22T11:50:00Z,25132447,Em despacho,3301,Queda de árvore,0,1,0,1,2025-03-22T11:50:00Z,Cadaval,Lisboa,Centro,-9.069874,39.219536
25132466,Teixoso e Sarzedo,Beiras e Serra da Estrela,310,2025-03-22T11:50:00Z,25132466,Em despacho,3315,Inundação de estruturas por precipitação intensa,0,1,0,2,2025-03-22T11:50:00Z,Covilhã,Castelo Branco,Centro,-7.455476,40.315622
25132563,Azeitão (São Lourenço e São Simão),Península de Setúbal,311,2025-03-22T12:01:00Z,25132563,Em despacho,3301,Queda de árvore,0,1,0,5,2025-03-22T12:01:00Z,Setúbal,Setúbal,Área Metropolitana De Lisboa,-9.023955,38.513697
25132714,Santo António Dos Olivais,Região de Coimbra,310,2025-03-22T12:40:00Z,25132714,Em despacho,3311,Queda de elementos de estruturas edificados,0,1,0,3,2025-03-22T12:40:00Z,Coimbra,Coimbra,Centro,-8.426807,40.217261
25132775,Sertã,Beira Baixa,310,2025-03-22T12:52:00Z,25132775,Em curso,3313,Deslizamento de terras,0,2,0,5,2025-03-22T12:52:00Z,Sertã,Castelo Branco,Centro,-8.090122,39.808208
25132876,Água Longa,Area M. Porto,309,2025-03-22T13:05:00Z,25132876,Em despacho,3315,Inundação de estruturas por precipitação intensa,0,1,0,2,2025-03-22T13:05:00Z,Santo Tirso,Porto,Norte,-8.501849,41.259817
25132732,Alhos Vedros,Península de Setúbal,311,2025-03-22T12:42:00Z,25132732,Em curso,3329,Queda de estruturas temporárias ou móveis,0,1,0,4,2025-03-22T12:42:00Z,Moita,Setúbal,Área Metropolitana De Lisboa,-9.026889,38.657804
25132749,Salvaterra de Magos e Foros de Salvaterra,Lezíria do Tejo,311,2025-03-22T12:48:00Z,25132749,Em despacho,3315,Inundação de estruturas por precipitação intensa,0,0,0,0,2025-03-22T12:48:00Z,Salvaterra De Magos,Santarém,Alentejo,-8.753557,39.064926
25132765,Salvaterra de Magos e Foros de Salvaterra,Lezíria do Tejo,311,2025-03-22T12:51:00Z,25132765,Em resolução,3321,Dano na rede de fornecimento de eletricidade ,0,1,0,5,2025-03-22T12:51:00Z,Salvaterra De Magos,Santarém,Alentejo,-8.794268,39.036927
25132766,Caxarias,Médio Tejo,311,2025-03-22T12:53:00Z,25132766,Em resolução,3301,Queda de árvore,0,1,0,2,2025-03-22T12:53:00Z,Ourém,Santarém,Centro,-8.526117,39.715323
25132814,"S.maria, S.miguel, S.martinho, S.pedro Penaferrim",Grande Lisboa,311,2025-03-22T12:55:00Z,25132814,Em despacho,3301,Queda de árvore,0,1,0,1,2025-03-22T12:55:00Z,Sintra,Lisboa,Área Metropolitana De Lisboa,-9.362223,38.785369
25132816,Parreira e Chouto,Lezíria do Tejo,311,2025-03-22T13:03:00Z,25132816,Em conclusão,3301,Queda de árvore,0,1,0,5,2025-03-22T13:03:00Z,Chamusca,Santarém,Alentejo,-8.327738,39.256475
25132834,Bonfim,Area M. Porto,309,2025-03-22T13:07:00Z,25132834,Em despacho,3329,Queda de estruturas temporárias ou móveis,0,0,0,0,2025-03-22T13:07:00Z,Porto,Porto,Norte,-8.591769,41.150542
25132847,Lousa,Grande Lisboa,311,2025-03-22T12:57:00Z,25132847,Em despacho,3301,Queda de árvore,0,1,0,5,2025-03-22T12:57:00Z,Loures,Lisboa,Área Metropolitana De Lisboa,-9.203808,38.888715
25132850,Fânzeres e São Pedro da Cova,Area M. Porto,309,2025-03-22T13:07:00Z,25132850,Em despacho,3315,Inundação de estruturas por precipitação intensa,0,1,0,2,2025-03-22T13:07:00Z,Gondomar,Porto,Norte,-8.502452,41.155366
25132866,Arcozelo,Area M. Porto,309,2025-03-22T13:03:00Z,25132866,Em despacho,3313,Deslizamento de terras,0,1,0,2,2025-03-22T13:03:00Z,Vila Nova De Gaia,Porto,Norte,-8.642211,41.049481
