id,address,subregion,neighborhood,date,id.1,state,nature,nature_description,aerial_means,terrestrial_means,aquatic_means,operational,date.1,Concelho,Distrito,NUTII_DSG,longitude,latitude,state_2
25607039,Lomba,Area M. Porto,309,2025-07-01T04:11:00Z,25607039,Em Resolução/Conclusão,3103,Incêndio rural,0,0,0,0,2025-07-01T04:11:00Z,Gondomar,Porto,Norte,-8.425045,41.031572,Resolução/Conclusão
25610365,Cabreiro,Alto Minho,309,2025-07-01T16:16:00Z,25610365,Em Resolução/Conclusão,3103,Incêndio rural,0,0,0,0,2025-07-01T16:16:00Z,Arcos De Valdevez,Viana Do Castelo,Norte,-8.385378,41.945965,Resolução/Conclusão
25610953,Barbacena e Vila Fernando,Alto Alentejo,312,2025-07-01T18:18:00Z,25610953,Em Resolução/Conclusão,3101,Incêndio rural,0,27,0,93,2025-07-01T18:18:00Z,Elvas,Portalegre,Alentejo,-7.318435,38.920227,Resolução/Conclusão
25611083,Almancil,Algarve,313,2025-07-01T18:43:00Z,25611083,Em Resolução/Conclusão,3103,Incêndio rural,0,0,0,0,2025-07-01T18:43:00Z,Loulé,Faro,Algarve,-8.027713,37.081247,Resolução/Conclusão
25611134,Moimenta e Montouto,Terras de Trás-os-Montes,309,2025-07-01T18:49:00Z,25611134,Em Curso,3103,Incêndio rural,1,3,0,16,2025-07-01T18:49:00Z,NA,NA,NA,-7.043042,41.965998,Curso
25611284,Viana do Alentejo,Alentejo Central,312,2025-07-01T19:22:00Z,25611284,Em Resolução/Conclusão,3105,Incêndio rural,0,0,0,0,2025-07-01T19:22:00Z,Viana Do Alentejo,Évora,Alentejo,-7.993643,38.352662,Resolução/Conclusão
25611301,"Algodres, Vale de Afonsinho e Vilar de Amargo",Beiras e Serra da Estrela,310,2025-07-01T19:25:00Z,25611301,Em Curso,3103,Incêndio rural,0,15,0,60,2025-07-01T19:25:00Z,Figueira De Castelo Rodrigo,Guarda,Centro,-7.002512,40.960853,Curso
25611370,Gimonde,Terras de Trás-os-Montes,309,2025-07-01T19:37:00Z,25611370,Em Resolução/Conclusão,3103,Incêndio rural,0,2,0,7,2025-07-01T19:37:00Z,Bragança,Bragança,Norte,-6.70012,41.809103,Resolução/Conclusão
25608554,Brinches,Baixo Alentejo,312,2025-07-01T11:00:00Z,25608554,Em Resolução/Conclusão,3105,Incêndio rural,0,0,0,0,2025-07-01T11:00:00Z,Serpa,Beja,Alentejo,-7.526577,38.015208,Resolução/Conclusão
25609774,Meinedo,Tâmega e Sousa,309,2025-07-01T14:32:00Z,25609774,Em Resolução/Conclusão,3103,Incêndio rural,0,4,0,15,2025-07-01T14:32:00Z,Lousada,Porto,Norte,-8.24293,41.25225,Resolução/Conclusão
25611092,Barbacena e Vila Fernando,Alto Alentejo,312,2025-07-01T18:35:00Z,25611092,Em Resolução/Conclusão,3105,Incêndio rural,0,8,0,24,2025-07-01T18:35:00Z,Elvas,Portalegre,Alentejo,-7.30867,38.937875,Resolução/Conclusão
25611277,Pinela,Terras de Trás-os-Montes,309,2025-07-01T19:27:00Z,25611277,Em Resolução/Conclusão,3103,Incêndio rural,1,9,0,41,2025-07-01T19:27:00Z,Bragança,Bragança,Norte,-6.781113,41.671907,Resolução/Conclusão
25611445,Almendra,Douro,309,2025-07-01T19:48:00Z,25611445,Em Curso,3103,Incêndio rural,0,4,0,16,2025-07-01T19:48:00Z,Vila Nova De Foz Côa,Guarda,Norte,-7.055158,40.97822,Curso
25599382,Almaceda,Beira Baixa,310,2025-06-29T17:03:00Z,25599382,Em Resolução/Conclusão,3101,Incêndio rural,0,28,0,81,2025-06-29T17:03:00Z,Castelo Branco,Castelo Branco,Centro,-7.65644,39.97,Resolução/Conclusão
25606759,São Miguel do Outeiro e Sabugosa,Viseu Dão Lafões,310,2025-07-01T00:26:00Z,25606759,Em Resolução/Conclusão,3101,Incêndio rural,0,1,0,1,2025-07-01T00:26:00Z,Tondela,Viseu,Centro,-8.056143,40.560622,Resolução/Conclusão
25608406,Pias,Baixo Alentejo,312,2025-07-01T10:36:00Z,25608406,Em Resolução/Conclusão,3105,Incêndio rural,0,5,0,14,2025-07-01T10:36:00Z,Serpa,Beja,Alentejo,-7.512387,38.016925,Resolução/Conclusão
25608967,Alvite,Douro,309,2025-07-01T12:19:00Z,25608967,Em Resolução/Conclusão,3103,Incêndio rural,0,11,0,43,2025-07-01T12:19:00Z,Moimenta Da Beira,Viseu,Norte,-7.741182,40.9536,Resolução/Conclusão
25609076,Santa Bárbara de Nexe,Algarve,313,2025-07-01T12:35:00Z,25609076,Em Resolução/Conclusão,3103,Incêndio rural,0,0,0,0,2025-07-01T12:35:00Z,Faro,Faro,Algarve,-7.974543,37.097958,Resolução/Conclusão
25611082,Ventosa e Cova,Ave,309,2025-07-01T18:40:00Z,25611082,Em Resolução/Conclusão,3105,Incêndio rural,0,1,0,5,2025-07-01T18:40:00Z,Vieira Do Minho,Braga,Norte,-8.169463,41.678263,Resolução/Conclusão
25603618,Messejana,Baixo Alentejo,312,2025-06-30T13:09:00Z,25603618,Em Resolução/Conclusão,3101,Incêndio rural,0,29,0,79,2025-06-30T13:09:00Z,Aljustrel,Beja,Alentejo,-8.169013,37.814978,Resolução/Conclusão
25604086,Alvarenga,Area M. Porto,309,2025-06-30T14:23:00Z,25604086,Em Resolução/Conclusão,3103,Incêndio rural,0,4,0,15,2025-06-30T14:23:00Z,Arouca,Aveiro,Norte,-8.16662,40.977807,Resolução/Conclusão
25604815,Ermidas-Sado,Alentejo Litoral,312,2025-06-30T16:36:00Z,25604815,Em Resolução/Conclusão,3103,Incêndio rural,0,1,0,5,2025-06-30T16:36:00Z,Santiago Do Cacém,Setúbal,Alentejo,-8.353481,38.015813,Resolução/Conclusão
25605147,Vale do Côa,Beiras e Serra da Estrela,310,2025-06-30T17:42:00Z,25605147,Em Resolução/Conclusão,3103,Incêndio rural,0,13,0,51,2025-06-30T17:42:00Z,Pinhel,Guarda,Centro,-7.114995,40.946045,Resolução/Conclusão
25606628,Lobão da Beira,Viseu Dão Lafões,310,2025-06-30T23:39:00Z,25606628,Em Resolução/Conclusão,3103,Incêndio rural,0,1,0,1,2025-06-30T23:39:00Z,Tondela,Viseu,Centro,-8.04042,40.571925,Resolução/Conclusão
25606803,Canas de Santa Maria,Viseu Dão Lafões,310,2025-07-01T00:36:00Z,25606803,Em Resolução/Conclusão,3101,Incêndio rural,0,2,0,3,2025-07-01T00:36:00Z,Tondela,Viseu,Centro,-8.056338,40.560735,Resolução/Conclusão
25610143,Nossa Senhora Das Misericórdias,Médio Tejo,311,2025-07-01T15:32:00Z,25610143,Em Resolução/Conclusão,3103,Incêndio rural,0,16,0,45,2025-07-01T15:32:00Z,Ourém,Santarém,Centro,-8.600277,39.655883,Resolução/Conclusão
25610897,Frechas,Terras de Trás-os-Montes,309,2025-07-01T17:59:00Z,25610897,Em Resolução/Conclusão,3103,Incêndio rural,0,1,0,2,2025-07-01T17:59:00Z,Mirandela,Bragança,Norte,-7.186713,41.412288,Resolução/Conclusão
25611583,Samora Correia,Lezíria do Tejo,311,2025-07-01T20:25:00Z,25611583,Em Resolução/Conclusão,3111,Queima,0,4,0,14,2025-07-01T20:25:00Z,Benavente,Santarém,Alentejo,-8.85105,38.907763,Resolução/Conclusão
25611622,Campo e Sobrado,Area M. Porto,309,2025-07-01T20:33:00Z,25611622,Em Despacho,3103,Incêndio rural,0,3,0,15,2025-07-01T20:33:00Z,Valongo,Porto,Norte,-8.467145,41.204483,Despacho
25611589,Salvaterra de Magos e Foros de Salvaterra,Lezíria do Tejo,311,2025-07-01T20:26:00Z,25611589,Em Resolução/Conclusão,3111,Queima,0,5,0,15,2025-07-01T20:26:00Z,Salvaterra De Magos,Santarém,Alentejo,-8.765528,39.00642,Resolução/Conclusão
25611598,Cachopo,Algarve,313,2025-07-01T20:28:00Z,25611598,Em Despacho,3103,Incêndio rural,0,8,0,33,2025-07-01T20:28:00Z,Tavira,Faro,Algarve,-7.861326,37.277996,Despacho
