id,address,subregion,neighborhood,date,id.1,state,nature,nature_description,aerial_means,terrestrial_means,aquatic_means,operational,date.1,Concelho,Distrito,NUTII_DSG,longitude,latitude,state_2
25951176,Sandomil,Beiras e Serra da Estrela,310,2025-09-06T10:29:00Z,25951176,Em Resolução/Conclusão,3103,Incêndio rural,1,17,0,65,2025-09-06T10:29:00Z,Seia,Guarda,Centro,-7.76001,40.351547,Resolução/Conclusão
25961053,Santo António de Monforte,Alto Tâmega e Barroso,309,2025-09-08T13:20:00Z,25961053,Em Curso,3103,Incêndio rural,12,31,0,137,2025-09-08T13:20:00Z,Chaves,Vila Real,Norte,-7.36777,41.803962,Curso
25961771,"Ovar, São João, Arada e São Vicente de Pereira Jusã",Região de Aveiro,310,2025-09-08T15:59:00Z,25961771,Em Resolução/Conclusão,3103,Incêndio rural,0,1,0,4,2025-09-08T15:59:00Z,Ovar,Aveiro,Centro,-8.632482,40.864029,Resolução/Conclusão
25832672,Piódão,Região de Coimbra,310,2025-08-13T05:08:00Z,25832672,Em Resolução/Conclusão,3103,Incêndio rural,0,14,0,41,2025-08-13T05:08:00Z,Arganil,Coimbra,Centro,-7.81972,40.23083,Resolução/Conclusão
25840417,Lousã e Vilarinho,Região de Coimbra,310,2025-08-14T13:46:00Z,25840417,Em Resolução/Conclusão,3101,Incêndio rural,0,0,0,0,2025-08-14T13:46:00Z,Lousã,Coimbra,Centro,-8.201561,40.080016,Resolução/Conclusão
25961515,Landeira,Alentejo Central,312,2025-09-08T14:46:00Z,25961515,Em Resolução/Conclusão,3103,Incêndio rural,0,11,0,32,2025-09-08T14:46:00Z,Vendas Novas,Évora,Alentejo,-8.62331,38.599137,Resolução/Conclusão
25952858,Figueira de Castelo Rodrigo,Beiras e Serra da Estrela,310,2025-09-06T16:22:00Z,25952858,Em Resolução/Conclusão,3103,Incêndio rural,0,10,0,36,2025-09-06T16:22:00Z,Figueira De Castelo Rodrigo,Guarda,Centro,-6.934648,40.906778,Resolução/Conclusão
25953169,"Algodres, Vale de Afonsinho e Vilar de Amargo",Beiras e Serra da Estrela,310,2025-09-06T17:30:00Z,25953169,Em Resolução/Conclusão,3103,Incêndio rural,0,0,0,0,2025-09-06T17:30:00Z,Figueira De Castelo Rodrigo,Guarda,Centro,-6.99142,40.943735,Resolução/Conclusão
25961734,Vila Verde da Raia,Alto Tâmega e Barroso,309,2025-09-08T15:41:00Z,25961734,Em Resolução/Conclusão,3103,Incêndio rural,0,0,0,0,2025-09-08T15:41:00Z,Chaves,Vila Real,Norte,-7.420408,41.791547,Resolução/Conclusão
25959238,Ervedosa,Terras de Trás-os-Montes,309,2025-09-08T05:47:00Z,25959238,Em Resolução/Conclusão,3103,Incêndio rural,0,2,0,7,2025-09-08T05:47:00Z,Vinhais,Bragança,Norte,-7.089912,41.72798,Resolução/Conclusão
25961645,Marmelete,Algarve,313,2025-09-08T15:20:00Z,25961645,Em Resolução/Conclusão,3103,Incêndio rural,2,23,0,70,2025-09-08T15:20:00Z,Monchique,Faro,Algarve,-8.72393,37.23772,Resolução/Conclusão
25961761,Alfena,Area M. Porto,309,2025-09-08T15:53:00Z,25961761,Em Resolução/Conclusão,3103,Incêndio rural,0,7,0,26,2025-09-08T15:53:00Z,Valongo,Porto,Norte,-8.52143,41.227123,Resolução/Conclusão
25961926,Vila Verde da Raia,Alto Tâmega e Barroso,309,2025-09-08T16:29:00Z,25961926,Em Despacho,3103,Incêndio rural,0,1,0,4,2025-09-08T16:29:00Z,Chaves,Vila Real,Norte,-7.430452,41.79329,Despacho
