id,address,subregion,neighborhood,date,id.1,state,nature,nature_description,aerial_means,terrestrial_means,aquatic_means,operational,date.1,Concelho,Distrito,NUTII_DSG,longitude,latitude,state_2
25633812,Penhalonga e Paços de Gaiolo,Tâmega e Sousa,309,2025-07-05T23:17:00Z,25633812,Em Resolução/Conclusão,3103,Incêndio rural,0,1,0,5,2025-07-05T23:17:00Z,Marco De Canaveses,Porto,Norte,-8.133498,41.090452,Resolução/Conclusão
25634030,Navió e Vitorino Dos Piães,Alto Minho,309,2025-07-06T00:33:00Z,25634030,Em Resolução/Conclusão,3103,Incêndio rural,0,1,0,5,2025-07-06T00:33:00Z,Ponte De Lima,Viana Do Castelo,Norte,-8.633173,41.676753,Resolução/Conclusão
25634324,"Nogueira, Fraião e Lamaçães",Cávado,309,2025-07-06T03:19:00Z,25634324,Em Despacho,3103,Incêndio rural,0,4,0,16,2025-07-06T03:19:00Z,Braga,Braga,Norte,-8.38626,41.52687,Despacho
25634260,Lomba,Area M. Porto,309,2025-07-06T02:37:00Z,25634260,Em Curso,3103,Incêndio rural,0,6,0,24,2025-07-06T02:37:00Z,Gondomar,Porto,Norte,-8.406793,41.033087,Curso
25634346,São Francisco da Serra,Alentejo Litoral,312,2025-07-06T03:28:00Z,25634346,Em Despacho,3103,Incêndio rural,0,2,0,8,2025-07-06T03:28:00Z,Santiago Do Cacém,Setúbal,Alentejo,-8.636914,38.088995,Despacho
25610143,Nossa Senhora Das Misericórdias,Médio Tejo,311,2025-07-01T15:32:00Z,25610143,Em Resolução/Conclusão,3103,Incêndio rural,0,0,0,0,2025-07-01T15:32:00Z,Ourém,Santarém,Centro,-8.600277,39.655883,Resolução/Conclusão
25634161,Golães,Ave,309,2025-07-06T01:27:00Z,25634161,Em Resolução/Conclusão,3103,Incêndio rural,0,2,0,7,2025-07-06T01:27:00Z,Fafe,Braga,Norte,-8.201758,41.458437000000004,Resolução/Conclusão
25634354,Agilde,Tâmega e Sousa,309,2025-07-06T03:35:00Z,25634354,Em Despacho,3103,Incêndio rural,0,0,0,0,2025-07-06T03:35:00Z,Celorico De Basto,Braga,Norte,-8.106389,41.36083,Despacho
