id,address,subregion,neighborhood,date,id.1,state,nature,nature_description,aerial_means,terrestrial_means,aquatic_means,operational,date.1,Concelho,Distrito,NUTII_DSG,longitude,latitude
25578983,Vila Chã de Ourique,Lezíria do Tejo,311,2025-06-25T16:24:00Z,25578983,Em conclusão,3105,Incêndio rural,0,0,0,0,2025-06-25T16:24:00Z,Cartaxo,Santarém,Alentejo,-8.768225,39.18196
25579521,Marinha Das Ondas,Região de Coimbra,310,2025-06-25T18:27:00Z,25579521,Em conclusão,2111,Incêndio em edifícios hospitalares e lares de idosos,0,7,0,19,2025-06-25T18:27:00Z,Figueira Da Foz,Coimbra,Centro,-8.82052,40.03445
25579390,Monte Gordo,Algarve,313,2025-06-25T17:45:00Z,25579390,Em conclusão,2201,Incêndio em equipamentos ou produtos,0,2,0,7,2025-06-25T17:45:00Z,Vila Real De Santo António,Faro,Algarve,-7.446136,37.181711
25579473,Souselas e Botão,Região de Coimbra,310,2025-06-25T18:14:00Z,25579473,Em conclusão,2101,Incêndio em edifícios habitacionais,0,7,0,24,2025-06-25T18:14:00Z,Coimbra,Coimbra,Centro,-8.39722,40.31806
25579742,"Nossa Senhora do Pópulo, Coto e São Gregório",Oeste,311,2025-06-25T19:15:00Z,25579742,Em resolução,2201,Incêndio em equipamentos ou produtos,0,2,0,7,2025-06-25T19:15:00Z,Caldas Da Rainha,Leiria,Centro,-9.13621,39.40688
25579823,Póvoa de Santa Iria e Forte da Casa,Grande Lisboa,311,2025-06-25T19:32:00Z,25579823,Em conclusão,2101,Incêndio em edifícios habitacionais,0,3,0,8,2025-06-25T19:32:00Z,Vila Franca De Xira,Lisboa,Área Metropolitana De Lisboa,-9.068964,38.864846
25579141,Santana da Serra,Baixo Alentejo,312,2025-06-25T16:58:00Z,25579141,Em conclusão,2101,Incêndio em edifícios habitacionais,0,0,0,0,2025-06-25T16:58:00Z,Ourique,Beja,Alentejo,-8.30128,37.49785
25579652,Campanhã,Area M. Porto,309,2025-06-25T18:59:00Z,25579652,Em despacho,3201,Detritos não confinados,0,2,0,10,2025-06-25T18:59:00Z,Porto,Porto,Norte,-8.57581,41.17433
25579754,Beja (Salvador e Santa Maria da Feira),Baixo Alentejo,312,2025-06-25T19:15:00Z,25579754,Em resolução,3105,Incêndio rural,0,4,0,17,2025-06-25T19:15:00Z,Beja,Beja,Alentejo,-7.87483,38.050697
