id,address,subregion,neighborhood,date,id.1,state,nature,nature_description,aerial_means,terrestrial_means,aquatic_means,operational,date.1,Concelho,Distrito,NUTII_DSG,longitude,latitude
25311041,Nossa Senhora de Fátima,Médio Tejo,311,2025-04-30T18:03:00Z,25311041,Em conclusão,3315,Inundação de estruturas por precipitação intensa,0,2,0,5,2025-04-30T18:03:00Z,Entroncamento,Santarém,Centro,-8.482152,39.471562
25071496,São Manços e São Vicente do Pigeiro,Alentejo Central,312,2025-03-11T13:18:00Z,25071496,Em conclusão,1101,Cheia,0,0,0,0,2025-03-11T13:18:00Z,Évora,Évora,Alentejo,-7.713313,38.513673
25310370,Toulões,Beira Baixa,310,2025-04-30T15:36:00Z,25310370,Em despacho,3315,Inundação de estruturas por precipitação intensa,0,2,0,3,2025-04-30T15:36:00Z,Idanha-a-Nova,Castelo Branco,Centro,-7.03683,39.92608
25310905,Oliveira do Douro,Area M. Porto,309,2025-04-30T16:39:00Z,25310905,Em despacho,3301,Queda de árvore,0,1,0,2,2025-04-30T16:39:00Z,Vila Nova De Gaia,Porto,Norte,-8.58327,41.127164
25311019,Âncora,Alto Minho,309,2025-04-30T17:50:00Z,25311019,Em curso,3301,Queda de árvore,0,2,0,6,2025-04-30T17:50:00Z,Caminha,Viana Do Castelo,Norte,-8.863853,41.797252
25311120,"S.julião, N.s. da Anunciada e S. Maria da Graça",Península de Setúbal,311,2025-04-30T18:18:00Z,25311120,Em despacho,3317,Inundação de estruturas por água canalizada,0,1,0,5,2025-04-30T18:18:00Z,Setúbal,Setúbal,Área Metropolitana De Lisboa,-8.889983,38.529955
