id,address,subregion,neighborhood,date,id.1,state,nature,nature_description,aerial_means,terrestrial_means,aquatic_means,operational,date.1,Concelho,Distrito,NUTII_DSG,longitude,latitude
25053566,Miragaia e Marteleira,Oeste,311,2025-03-07T14:51:00Z,25053566,Em conclusão,3313,Deslizamento de terras,0,1,0,2,2025-03-07T14:51:00Z,Lourinhã,Lisboa,Centro,-9.275912,39.197494
25054033,Gondufe,Alto Minho,309,2025-03-07T16:16:00Z,25054033,Em resolução,3301,Queda de árvore,0,1,0,2,2025-03-07T16:16:00Z,Ponte De Lima,Viana Do Castelo,Norte,-8.518033,41.75475
25054115,Barqueiros,Cávado,309,2025-03-07T16:28:00Z,25054115,Em curso,3301,Queda de árvore,0,1,0,2,2025-03-07T16:28:00Z,Barcelos,Braga,Norte,-8.728661,41.473341
25054349,Setúbal (São Sebastião),Península de Setúbal,311,2025-03-07T17:14:00Z,25054349,Em despacho,3301,Queda de árvore,0,1,0,5,2025-03-07T17:14:00Z,Setúbal,Setúbal,Área Metropolitana De Lisboa,-8.87514,38.536356
25054419,São João de Ver,Area M. Porto,309,2025-03-07T16:37:00Z,25054419,Em despacho,3315,Inundação de estruturas por precipitação intensa,0,1,0,2,2025-03-07T16:37:00Z,Santa Maria Da Feira,Aveiro,Norte,-8.550029,40.955305
25054434,Barreiro e Lavradio,Península de Setúbal,311,2025-03-07T17:36:00Z,25054434,Em despacho,3329,Queda de estruturas temporárias ou móveis,0,1,0,5,2025-03-07T17:36:00Z,Barreiro,Setúbal,Área Metropolitana De Lisboa,-9.075181,38.661028
25054451,Vila Nova,Região de Coimbra,310,2025-03-07T17:35:00Z,25054451,Em despacho,3329,Queda de estruturas temporárias ou móveis,0,1,0,3,2025-03-07T17:35:00Z,Miranda Do Corvo,Coimbra,Centro,-8.325318,40.055369
25054500,"São Miguel, Santa Eufémia e Rabaçal",Região de Coimbra,310,2025-03-07T17:45:00Z,25054500,Em despacho,3301,Queda de árvore,0,1,0,5,2025-03-07T17:45:00Z,Penela,Coimbra,Centro,-8.408451,40.036287
25054501,Nossa Senhora da Expectação,Alto Alentejo,312,2025-03-07T17:57:00Z,25054501,Em despacho,3301,Queda de árvore,0,1,0,2,2025-03-07T17:57:00Z,Campo Maior,Portalegre,Alentejo,-7.06822,38.98719
25053712,"Alto do Seixalinho, Santo André e Verderena",Península de Setúbal,311,2025-03-07T15:10:00Z,25053712,Em despacho,3315,Inundação de estruturas por precipitação intensa,0,1,0,4,2025-03-07T15:10:00Z,Barreiro,Setúbal,Área Metropolitana De Lisboa,-9.072252,38.651508
25054005,Almeirim,Lezíria do Tejo,311,2025-03-07T16:10:00Z,25054005,Em despacho,3315,Inundação de estruturas por precipitação intensa,0,1,0,2,2025-03-07T16:10:00Z,Almeirim,Santarém,Alentejo,-8.588832,39.142251
25054128,"Oeiras e S. Julião da Barra, Paço de Arcos e Caxias",Grande Lisboa,311,2025-03-07T16:27:00Z,25054128,Em despacho,3301,Queda de árvore,0,1,0,3,2025-03-07T16:27:00Z,Oeiras,Lisboa,Área Metropolitana De Lisboa,-9.310159,38.698531
25054178,São João Baptista e Santa Maria Dos Olivais,Médio Tejo,311,2025-03-07T16:44:00Z,25054178,Em conclusão,3315,Inundação de estruturas por precipitação intensa,0,1,0,2,2025-03-07T16:44:00Z,Tomar,Santarém,Centro,-8.414707,39.60535
25054314,Alferce,Algarve,313,2025-03-07T16:58:00Z,25054314,Em curso,3313,Deslizamento de terras,0,1,0,2,2025-03-07T16:58:00Z,Monchique,Faro,Algarve,-8.513502,37.366891
25053087,Rio de Mouro,Grande Lisboa,311,2025-03-07T13:39:00Z,25053087,Em despacho,3311,Queda de elementos de estruturas edificados,0,1,0,5,2025-03-07T13:39:00Z,Sintra,Lisboa,Área Metropolitana De Lisboa,-9.31194,38.78508
25053154,"S.maria, S.miguel, S.martinho, S.pedro Penaferrim",Grande Lisboa,311,2025-03-07T13:48:00Z,25053154,Em despacho,3315,Inundação de estruturas por precipitação intensa,0,1,0,5,2025-03-07T13:48:00Z,Sintra,Lisboa,Área Metropolitana De Lisboa,-9.40542,38.820035
25053241,Bombarral e Vale Covo,Oeste,311,2025-03-07T13:55:00Z,25053241,Em resolução,3311,Queda de elementos de estruturas edificados,0,2,0,6,2025-03-07T13:55:00Z,Bombarral,Leiria,Centro,-9.171316,39.267313
25053308,Ermidas-Sado,Alentejo Litoral,312,2025-03-07T14:02:00Z,25053308,Em despacho,3301,Queda de árvore,0,1,0,2,2025-03-07T14:02:00Z,Santiago Do Cacém,Setúbal,Alentejo,-8.366897,38.010808
25053372,"S.julião, N.s. da Anunciada e S. Maria da Graça",Península de Setúbal,311,2025-03-07T14:21:00Z,25053372,Em despacho,3301,Queda de árvore,0,2,0,7,2025-03-07T14:21:00Z,Setúbal,Setúbal,Área Metropolitana De Lisboa,-8.889983,38.529955
25053911,"Freixianda, Ribeira do Fárrio e Formigais",Médio Tejo,311,2025-03-07T15:54:00Z,25053911,Em resolução,3321,Dano na rede de fornecimento de eletricidade ,0,2,0,7,2025-03-07T15:54:00Z,Ourém,Santarém,Centro,-8.495268,39.757423
25054345,"Seixal, Arrentela e Aldeia de Paio Pires",Península de Setúbal,311,2025-03-07T17:20:00Z,25054345,Em despacho,3311,Queda de elementos de estruturas edificados,0,1,0,2,2025-03-07T17:20:00Z,Seixal,Setúbal,Área Metropolitana De Lisboa,-9.10304,38.6186
25054365,São Domingos de Rana,Grande Lisboa,311,2025-03-07T17:19:00Z,25054365,Em despacho,3311,Queda de elementos de estruturas edificados,0,2,0,4,2025-03-07T17:19:00Z,Cascais,Lisboa,Área Metropolitana De Lisboa,-9.352695,38.698995
25053425,Tornada e Salir do Porto,Oeste,311,2025-03-07T14:27:00Z,25053425,Em conclusão,3329,Queda de estruturas temporárias ou móveis,0,1,0,2,2025-03-07T14:27:00Z,Caldas Da Rainha,Leiria,Centro,-9.151736,39.435014
25053692,"Alto do Seixalinho, Santo André e Verderena",Península de Setúbal,311,2025-03-07T14:50:00Z,25053692,Em curso,3311,Queda de elementos de estruturas edificados,0,2,0,3,2025-03-07T14:50:00Z,Barreiro,Setúbal,Área Metropolitana De Lisboa,-9.072252,38.651508
25053740,Palhais e Coina,Península de Setúbal,311,2025-03-07T15:18:00Z,25053740,Em despacho,3329,Queda de estruturas temporárias ou móveis,0,1,0,4,2025-03-07T15:18:00Z,Barreiro,Setúbal,Área Metropolitana De Lisboa,-9.043332,38.595522
25053890,São Miguel do Rio Torto e Rossio Ao Sul do Tejo,Médio Tejo,311,2025-03-07T15:48:00Z,25053890,Em conclusão,3301,Queda de árvore,0,4,0,8,2025-03-07T15:48:00Z,Abrantes,Santarém,Centro,-8.178763,39.421217
25053974,Monchique,Algarve,313,2025-03-07T16:00:00Z,25053974,Em despacho,3313,Deslizamento de terras,0,1,0,3,2025-03-07T16:00:00Z,Monchique,Faro,Algarve,-8.589695,37.272914
25054009,Moita,Península de Setúbal,311,2025-03-07T16:05:00Z,25054009,Em despacho,3321,Dano na rede de fornecimento de eletricidade ,0,0,0,0,2025-03-07T16:05:00Z,Moita,Setúbal,Área Metropolitana De Lisboa,-8.985364,38.643702
25054041,Lousã e Vilarinho,Região de Coimbra,310,2025-03-07T16:15:00Z,25054041,Em despacho,3315,Inundação de estruturas por precipitação intensa,0,1,0,2,2025-03-07T16:15:00Z,Lousã,Coimbra,Centro,-8.180017,40.090644
25054043,Ramalde,Area M. Porto,309,2025-03-07T16:19:00Z,25054043,Em despacho,3321,Dano na rede de fornecimento de eletricidade ,0,1,0,3,2025-03-07T16:19:00Z,Porto,Porto,Norte,-8.6417,41.17531
25054388,"Sé Nova, Santa Cruz, Almedina e São Bartolomeu",Região de Coimbra,310,2025-03-07T17:29:00Z,25054388,Em despacho,3311,Queda de elementos de estruturas edificados,0,1,0,3,2025-03-07T17:29:00Z,Coimbra,Coimbra,Centro,-8.45395,40.243305
25054438,"S.pedro e Santiago, S.maria e S.miguel e Matacães",Oeste,311,2025-03-07T17:34:00Z,25054438,Em despacho,3301,Queda de árvore,0,1,0,4,2025-03-07T17:34:00Z,Torres Vedras,Lisboa,Centro,-9.289925,39.08155
25054479,São João Das Lampas e Terrugem,Grande Lisboa,311,2025-03-07T17:48:00Z,25054479,Em despacho,3315,Inundação de estruturas por precipitação intensa,0,1,0,4,2025-03-07T17:48:00Z,Sintra,Lisboa,Área Metropolitana De Lisboa,-9.372183,38.895154
25054515,"Canedo, Vale e Vila Maior",Area M. Porto,309,2025-03-07T17:51:00Z,25054515,Em despacho,3301,Queda de árvore,0,1,0,4,2025-03-07T17:51:00Z,Santa Maria Da Feira,Aveiro,Norte,-8.468336,41.006898
25054090,Ílhavo (São Salvador),Região de Aveiro,310,2025-03-07T16:28:00Z,25054090,Em conclusão,3301,Queda de árvore,0,1,0,5,2025-03-07T16:28:00Z,Ílhavo,Aveiro,Centro,-8.64684,40.58738
25054225,Galveias,Alto Alentejo,312,2025-03-07T16:42:00Z,25054225,Em conclusão,3301,Queda de árvore,0,1,0,3,2025-03-07T16:42:00Z,Ponte De Sor,Portalegre,Alentejo,-7.999563,39.181972
25054277,Baixa da Banheira e Vale da Amoreira,Península de Setúbal,311,2025-03-07T17:06:00Z,25054277,Em conclusão,3313,Deslizamento de terras,0,2,0,8,2025-03-07T17:06:00Z,Moita,Setúbal,Área Metropolitana De Lisboa,-9.04349,38.65132
25054326,"Algés, Linda-a-Velha e Cruz Quebrada-Dafundo",Grande Lisboa,311,2025-03-07T17:17:00Z,25054326,Em conclusão,3301,Queda de árvore,0,1,0,4,2025-03-07T17:17:00Z,Oeiras,Lisboa,Área Metropolitana De Lisboa,-9.25174,38.71126
25054377,Tavira (Santa Maria e Santiago),Algarve,313,2025-03-07T17:20:00Z,25054377,Em curso,3329,Queda de estruturas temporárias ou móveis,0,1,0,5,2025-03-07T17:20:00Z,Tavira,Faro,Algarve,-7.684024,37.134193
25054444,Alvendre,Beiras e Serra da Estrela,310,2025-03-07T17:38:00Z,25054444,Em despacho,3301,Queda de árvore,0,1,0,2,2025-03-07T17:38:00Z,Guarda,Guarda,Centro,-7.251983,40.584411
25054460,Gamil e Midões,Cávado,309,2025-03-07T17:24:00Z,25054460,Em curso,3301,Queda de árvore,0,1,0,2,2025-03-07T17:24:00Z,Barcelos,Braga,Norte,-8.590523,41.513597
25054474,Chamusca e Pinheiro Grande,Lezíria do Tejo,311,2025-03-07T17:48:00Z,25054474,Em despacho,3301,Queda de árvore,0,1,0,2,2025-03-07T17:48:00Z,Chamusca,Santarém,Alentejo,-8.490477,39.362372
25054475,Alvito (São Pedro e São Martinho) e Couto,Cávado,309,2025-03-07T17:45:00Z,25054475,Em despacho,3301,Queda de árvore,0,1,0,2,2025-03-07T17:45:00Z,Barcelos,Braga,Norte,-8.592569,41.605478
25054524,São João Baptista e Santa Maria Dos Olivais,Médio Tejo,311,2025-03-07T18:01:00Z,25054524,Em despacho,3301,Queda de árvore,0,1,0,5,2025-03-07T18:01:00Z,Tomar,Santarém,Centro,-8.40552,39.594081
