id,address,subregion,neighborhood,date,id.1,state,nature,nature_description,aerial_means,terrestrial_means,aquatic_means,operational,date.1,Concelho,Distrito,NUTII_DSG,longitude,latitude
25493974,Costa da Caparica,Península de Setúbal,311,2025-06-08T05:32:00Z,25493974,Em resolução,3107,Consolidação de rescaldo de incêndio rural,0,6,0,20,2025-06-08T05:32:00Z,Almada,Setúbal,Área Metropolitana De Lisboa,-9.20088,38.58186
25494145,Alhos Vedros,Península de Setúbal,311,2025-06-08T07:29:00Z,25494145,Em conclusão,3105,Incêndio rural,0,2,0,7,2025-06-08T07:29:00Z,Moita,Setúbal,Área Metropolitana De Lisboa,-9.007328,38.65525
25494184,Avintes,Area M. Porto,309,2025-06-08T07:40:00Z,25494184,Em conclusão,2119,Incêndio em edifícios e recintos desportivos e de lazer,0,4,0,11,2025-06-08T07:40:00Z,Vila Nova De Gaia,Porto,Norte,-8.547155,41.105347
25493327,Garvão e Santa Luzia,Baixo Alentejo,312,2025-06-07T23:02:00Z,25493327,Em conclusão,3105,Incêndio rural,0,1,0,5,2025-06-07T23:02:00Z,Ourique,Beja,Alentejo,-8.394977,37.741793
25494249,Alcabideche,Grande Lisboa,311,2025-06-08T08:04:00Z,25494249,Em curso,2301,Incêndio em transporte rodoviário,0,3,0,7,2025-06-08T08:04:00Z,Cascais,Lisboa,Área Metropolitana De Lisboa,-9.38788,38.75487
