id,address,subregion,neighborhood,date,id.1,state,nature,nature_description,aerial_means,terrestrial_means,aquatic_means,operational,date.1,Concelho,Distrito,NUTII_DSG,longitude,latitude
25059714,Torrão,Alentejo Litoral,312,2025-03-08T22:10:00Z,25059714,Em curso,1101,Cheia,0,2,0,3,2025-03-08T22:10:00Z,Alcácer Do Sal,Setúbal,Alentejo,-8.359133,38.252053
25070044,Praia do Ribatejo,Médio Tejo,311,2025-03-10T19:30:00Z,25070044,Em curso,1101,Cheia,0,0,0,0,2025-03-10T19:30:00Z,Vila Nova Da Barquinha,Santarém,Centro,-8.357309,39.485638
25071496,São Manços e São Vicente do Pigeiro,Alentejo Central,312,2025-03-11T13:18:00Z,25071496,Em curso,1101,Cheia,0,2,0,4,2025-03-11T13:18:00Z,Évora,Évora,Alentejo,-7.713313,38.513673
25107996,Arega,Região de Leiria,310,2025-03-19T09:30:00Z,25107996,Em despacho,3313,Deslizamento de terras,0,2,0,3,2025-03-19T09:30:00Z,Figueiró Dos Vinhos,Leiria,Centro,-8.329272,39.800486
25109000,"Algés, Linda-a-Velha e Cruz Quebrada-Dafundo",Grande Lisboa,311,2025-03-19T12:34:00Z,25109000,Em despacho,3311,Queda de elementos de estruturas edificados,0,1,0,6,2025-03-19T12:34:00Z,Oeiras,Lisboa,Área Metropolitana De Lisboa,-9.22967,38.696612
25109233,Palmela,Península de Setúbal,311,2025-03-19T13:25:00Z,25109233,Em despacho,3321,Dano na rede de fornecimento de eletricidade ,0,1,0,2,2025-03-19T13:25:00Z,Palmela,Setúbal,Área Metropolitana De Lisboa,-8.894979,38.568658
25109235,Corroios,Península de Setúbal,311,2025-03-19T13:29:00Z,25109235,Em despacho,3301,Queda de árvore,0,1,0,3,2025-03-19T13:29:00Z,Seixal,Setúbal,Área Metropolitana De Lisboa,-9.155796,38.618466
25109253,São Domingos de Rana,Grande Lisboa,311,2025-03-19T12:58:00Z,25109253,Em despacho,3329,Queda de estruturas temporárias ou móveis,0,1,0,1,2025-03-19T12:58:00Z,Cascais,Lisboa,Área Metropolitana De Lisboa,-9.340115,38.702729
25109286,Longueira/Almograve,Alentejo Litoral,312,2025-03-19T13:31:00Z,25109286,Em conclusão,3301,Queda de árvore,0,2,0,5,2025-03-19T13:31:00Z,Odemira,Beja,Alentejo,-8.71748,37.612027
25109333,Relíquias,Alentejo Litoral,312,2025-03-19T13:29:00Z,25109333,Em despacho,3301,Queda de árvore,0,1,0,2,2025-03-19T13:29:00Z,Odemira,Beja,Alentejo,-8.483451,37.699449
25109386,Laranjeiro e Feijó,Península de Setúbal,311,2025-03-19T13:54:00Z,25109386,Em despacho,3301,Queda de árvore,0,1,0,1,2025-03-19T13:54:00Z,Almada,Setúbal,Área Metropolitana De Lisboa,-9.161283,38.656699
25109417,Venda do Pinheiro e Santo Estêvão Das Galés,Grande Lisboa,311,2025-03-19T13:55:00Z,25109417,Em despacho,3301,Queda de árvore,0,1,0,5,2025-03-19T13:55:00Z,Mafra,Lisboa,Área Metropolitana De Lisboa,-9.262705,38.896266
25109451,Sesimbra (Castelo),Península de Setúbal,311,2025-03-19T13:57:00Z,25109451,Em despacho,3301,Queda de árvore,0,1,0,5,2025-03-19T13:57:00Z,Sesimbra,Setúbal,Área Metropolitana De Lisboa,-9.124957,38.490885
25109487,Ramada e Caneças,Grande Lisboa,311,2025-03-19T14:09:00Z,25109487,Em despacho,3301,Queda de árvore,0,1,0,5,2025-03-19T14:09:00Z,Odivelas,Lisboa,Área Metropolitana De Lisboa,-9.224517,38.811058
25063232,Santa Maria do Castelo e Santiago e Santa Susana,Alentejo Litoral,312,2025-03-09T19:02:00Z,25063232,Em curso,1101,Cheia,0,0,0,0,2025-03-09T19:02:00Z,Alcácer Do Sal,Setúbal,Alentejo,-8.48167,38.29806
25108372,São Salvador e Santa Maria,Alentejo Litoral,312,2025-03-19T10:40:00Z,25108372,Em conclusão,3301,Queda de árvore,0,1,0,5,2025-03-19T10:40:00Z,Odemira,Beja,Alentejo,-8.650536,37.594321
25109057,Colares,Grande Lisboa,311,2025-03-19T12:30:00Z,25109057,Em resolução,3301,Queda de árvore,0,1,0,2,2025-03-19T12:30:00Z,Sintra,Lisboa,Área Metropolitana De Lisboa,-9.432326,38.780106
25109208,Mafra,Grande Lisboa,311,2025-03-19T13:20:00Z,25109208,Em despacho,3311,Queda de elementos de estruturas edificados,0,2,0,7,2025-03-19T13:20:00Z,Mafra,Lisboa,Área Metropolitana De Lisboa,-9.337252,38.942359
25109225,Miranda do Corvo,Região de Coimbra,310,2025-03-19T13:15:00Z,25109225,Em despacho,3301,Queda de árvore,0,1,0,3,2025-03-19T13:15:00Z,Miranda Do Corvo,Coimbra,Centro,-8.339499,40.09407
25087162,Pedrógão,Baixo Alentejo,312,2025-03-14T17:00:00Z,25087162,Em curso,1101,Cheia,0,0,0,0,2025-03-14T17:00:00Z,Vidigueira,Beja,Alentejo,-7.630327,38.110775
25108988,"Alto do Seixalinho, Santo André e Verderena",Península de Setúbal,311,2025-03-19T12:45:00Z,25108988,Em despacho,3329,Queda de estruturas temporárias ou móveis,0,2,0,6,2025-03-19T12:45:00Z,Barreiro,Setúbal,Área Metropolitana De Lisboa,-9.056708,38.653969
25109031,São Martinho de Árvore e Lamarosa,Região de Coimbra,310,2025-03-19T12:54:00Z,25109031,Em despacho,3321,Dano na rede de fornecimento de eletricidade ,0,1,0,2,2025-03-19T12:54:00Z,Coimbra,Coimbra,Centro,-8.55267,40.21855
25109147,Alcabideche,Grande Lisboa,311,2025-03-19T13:05:00Z,25109147,Em curso,3301,Queda de árvore,0,1,0,6,2025-03-19T13:05:00Z,Cascais,Lisboa,Área Metropolitana De Lisboa,-9.438785,38.755713
25109204,Falagueira-Venda Nova,Grande Lisboa,311,2025-03-19T13:24:00Z,25109204,Em despacho,3301,Queda de árvore,0,2,0,8,2025-03-19T13:24:00Z,Amadora,Lisboa,Área Metropolitana De Lisboa,-9.20878,38.75649
25109254,"S.maria, S.miguel, S.martinho, S.pedro Penaferrim",Grande Lisboa,311,2025-03-19T13:30:00Z,25109254,Em despacho,3301,Queda de árvore,0,2,0,5,2025-03-19T13:30:00Z,Sintra,Lisboa,Área Metropolitana De Lisboa,-9.39664,38.76786
25068300,Almeirim,Lezíria do Tejo,311,2025-03-10T20:52:00Z,25068300,Em curso,1101,Cheia,0,0,0,0,2025-03-10T20:52:00Z,Almeirim,Santarém,Alentejo,-8.635002,39.187436
25108403,Miragaia e Marteleira,Oeste,311,2025-03-19T10:35:00Z,25108403,Em conclusão,3321,Dano na rede de fornecimento de eletricidade ,0,3,0,7,2025-03-19T10:35:00Z,Lourinhã,Lisboa,Centro,-9.273663,39.219518
25108789,"Aldoar, Foz do Douro e Nevogilde",Area M. Porto,309,2025-03-19T12:04:00Z,25108789,Em despacho,3311,Queda de elementos de estruturas edificados,0,1,0,5,2025-03-19T12:04:00Z,Porto,Porto,Norte,-8.676494,41.168181
25109123,Alpiarça,Lezíria do Tejo,311,2025-03-19T13:09:00Z,25109123,Em conclusão,3301,Queda de árvore,0,2,0,5,2025-03-19T13:09:00Z,Alpiarça,Santarém,Alentejo,-8.547123,39.211558
25109153,Abrantes (São Vicente e São João) e Alferrarede,Médio Tejo,311,2025-03-19T13:13:00Z,25109153,Em resolução,3301,Queda de árvore,0,1,0,2,2025-03-19T13:13:00Z,Abrantes,Santarém,Centro,-8.184237,39.472798
25109237,Santo António Dos Olivais,Região de Coimbra,310,2025-03-19T13:30:00Z,25109237,Em despacho,3329,Queda de estruturas temporárias ou móveis,0,3,0,6,2025-03-19T13:30:00Z,Coimbra,Coimbra,Centro,-8.426807,40.217261
25109407,Ericeira,Grande Lisboa,311,2025-03-19T13:46:00Z,25109407,Em despacho,3311,Queda de elementos de estruturas edificados,0,1,0,5,2025-03-19T13:46:00Z,Mafra,Lisboa,Área Metropolitana De Lisboa,-9.417289,38.967626
25109437,Charneca de Caparica e Sobreda,Península de Setúbal,311,2025-03-19T14:00:00Z,25109437,Em despacho,3301,Queda de árvore,0,1,0,3,2025-03-19T14:00:00Z,Almada,Setúbal,Área Metropolitana De Lisboa,-9.206824,38.629265
25109464,Alcabideche,Grande Lisboa,311,2025-03-19T14:00:00Z,25109464,Em despacho,3301,Queda de árvore,0,1,0,3,2025-03-19T14:00:00Z,Cascais,Lisboa,Área Metropolitana De Lisboa,-9.438785,38.755713
25109482,Algueirão-Mem Martins,Grande Lisboa,311,2025-03-19T13:55:00Z,25109482,Em despacho,3329,Queda de estruturas temporárias ou móveis,0,1,0,2,2025-03-19T13:55:00Z,Sintra,Lisboa,Área Metropolitana De Lisboa,-9.340934,38.801232
25109304,"Almada, Cova da Piedade, Pragal e Cacilhas",Península de Setúbal,311,2025-03-19T13:30:00Z,25109304,Em despacho,3311,Queda de elementos de estruturas edificados,0,1,0,4,2025-03-19T13:30:00Z,Almada,Setúbal,Área Metropolitana De Lisboa,-9.173069,38.677312
25109322,Venteira,Grande Lisboa,311,2025-03-19T13:41:00Z,25109322,Em despacho,3301,Queda de árvore,0,1,0,6,2025-03-19T13:41:00Z,Amadora,Lisboa,Área Metropolitana De Lisboa,-9.232811,38.75153
25109497,Costa da Caparica,Península de Setúbal,311,2025-03-19T13:39:00Z,25109497,Em despacho,3329,Queda de estruturas temporárias ou móveis,0,1,0,4,2025-03-19T13:39:00Z,Almada,Setúbal,Área Metropolitana De Lisboa,-9.227696,38.642583
25109499,Agualva e Mira-Sintra,Grande Lisboa,311,2025-03-19T14:05:00Z,25109499,Em despacho,3329,Queda de estruturas temporárias ou móveis,0,1,0,4,2025-03-19T14:05:00Z,Sintra,Lisboa,Área Metropolitana De Lisboa,-9.289457,38.768998
25109361,Guia,Algarve,313,2025-03-19T13:52:00Z,25109361,Em curso,3329,Queda de estruturas temporárias ou móveis,0,1,0,2,2025-03-19T13:52:00Z,Albufeira,Faro,Algarve,-8.298486,37.126812
25109377,"Oeiras e S. Julião da Barra, Paço de Arcos e Caxias",Grande Lisboa,311,2025-03-19T13:56:00Z,25109377,Em despacho,3301,Queda de árvore,0,1,0,4,2025-03-19T13:56:00Z,Oeiras,Lisboa,Área Metropolitana De Lisboa,-9.291846,38.70044
25109442,Ventosa,Oeste,311,2025-03-19T14:07:00Z,25109442,Em despacho,3301,Queda de árvore,0,0,0,0,2025-03-19T14:07:00Z,Torres Vedras,Lisboa,Centro,-9.346267,39.06566
25109498,Ponte,Cávado,309,2025-03-19T14:15:00Z,25109498,Em despacho,3301,Queda de árvore,0,2,0,5,2025-03-19T14:15:00Z,Vila Verde,Braga,Norte,-8.376118,41.694092
