id,address,subregion,neighborhood,date,id.1,state,nature,nature_description,aerial_means,terrestrial_means,aquatic_means,operational,date.1,Concelho,Distrito,NUTII_DSG,longitude,latitude,state_2
26149929,"Santa Iria de Azoia, São João da Talha e Bobadela",Grande Lisboa,311,2025-10-17T11:03:00Z,26149929,Em Resolução/Conclusão,3103,Incêndio rural,0,3,0,8,2025-10-17T11:03:00Z,Loures,Lisboa,Área Metropolitana De Lisboa,-9.106263,38.818217,Resolução/Conclusão
26150212,Paredes de Viadores e Manhuncelos,Tâmega e Sousa,309,2025-10-17T11:52:00Z,26150212,Em Despacho,3103,Incêndio rural,0,0,0,0,2025-10-17T11:52:00Z,Marco De Canaveses,Porto,Norte,-8.13869,41.13465,Despacho
26148602,Sobreira,Area M. Porto,309,2025-10-17T03:52:00Z,26148602,Em Resolução/Conclusão,3103,Incêndio rural,0,6,0,11,2025-10-17T03:52:00Z,Paredes,Porto,Norte,-8.389412,41.153068,Resolução/Conclusão
26149297,Turcifal,Oeste,311,2025-10-17T09:22:00Z,26149297,Em Despacho,3111,Queima,0,1,0,2,2025-10-17T09:22:00Z,Torres Vedras,Lisboa,Centro,-9.269227,39.05003,Despacho
26149831,Póvoa de Santa Iria e Forte da Casa,Grande Lisboa,311,2025-10-17T10:42:00Z,26149831,Em Resolução/Conclusão,3103,Incêndio rural,0,2,0,7,2025-10-17T10:42:00Z,Vila Franca De Xira,Lisboa,Área Metropolitana De Lisboa,-9.073648,38.862495,Resolução/Conclusão
26150108,São João de Fontoura,Tâmega e Sousa,309,2025-10-17T11:36:00Z,26150108,Em Despacho,3105,Incêndio rural,0,1,0,4,2025-10-17T11:36:00Z,Resende,Viseu,Norte,-7.915864,41.11734,Despacho
