id,address,subregion,neighborhood,date,id.1,state,nature,nature_description,aerial_means,terrestrial_means,aquatic_means,operational,date.1,Concelho,Distrito,NUTII_DSG,longitude,latitude
25570483,Portimão,Algarve,313,2025-06-23T22:27:00Z,25570483,Em conclusão,3203,Detritos confinados,0,4,0,9,2025-06-23T22:27:00Z,Portimão,Faro,Algarve,-8.539293,37.125328
25571016,Cidade da Maia,Area M. Porto,309,2025-06-24T01:53:00Z,25571016,Em conclusão,3103,Incêndio rural,0,3,0,11,2025-06-24T01:53:00Z,Maia,Porto,Norte,-8.599157,41.233903
25570420,Portimão,Algarve,313,2025-06-23T22:10:00Z,25570420,Em conclusão,3103,Incêndio rural,0,0,0,0,2025-06-23T22:10:00Z,Portimão,Faro,Algarve,-8.539293,37.125328
25571026,Frazão Arreigada,Tâmega e Sousa,309,2025-06-24T01:57:00Z,25571026,Em conclusão,3103,Incêndio rural,0,0,0,0,2025-06-24T01:57:00Z,Paços De Ferreira,Porto,Norte,-8.402613,41.244933
25571210,Águas Belas,Médio Tejo,311,2025-06-24T04:09:00Z,25571210,Em conclusão,3103,Incêndio rural,0,6,0,24,2025-06-24T04:09:00Z,Ferreira Do Zêzere,Santarém,Centro,-8.31739,39.72972
25571257,Macieira da Lixa e Caramos,Tâmega e Sousa,309,2025-06-24T04:30:00Z,25571257,Em curso,3103,Incêndio rural,0,1,0,5,2025-06-24T04:30:00Z,Felgueiras,Porto,Norte,-8.155165,41.346235
