id,address,subregion,neighborhood,date,id.1,state,nature,nature_description,aerial_means,terrestrial_means,aquatic_means,operational,date.1,Concelho,Distrito,NUTII_DSG,longitude,latitude
24949000,Ramada e Caneças,Grande Lisboa,311,2025-02-12T09:57:00Z,24949000,Em despacho,3301,Queda de árvore,0,1,0,2,2025-02-12T09:57:00Z,Odivelas,Lisboa,Área Metropolitana De Lisboa,-9.224517,38.811058
24949391,Condeixa-a-Velha e Condeixa-a-Nova,Região de Coimbra,310,2025-02-12T11:05:00Z,24949391,Em despacho,3317,Inundação de estruturas por água canalizada,0,1,0,2,2025-02-12T11:05:00Z,Condeixa-a-Nova,Coimbra,Centro,-8.482693,40.119842
24949618,Laranjeiro e Feijó,Península de Setúbal,311,2025-02-12T11:50:00Z,24949618,Em despacho,3301,Queda de árvore,0,1,0,3,2025-02-12T11:50:00Z,Almada,Setúbal,Área Metropolitana De Lisboa,-9.156624,38.652235
24877003,Malagueira e Horta Das Figueiras,Alentejo Central,312,2025-01-27T11:41:00Z,24877003,Em conclusão,3315,Inundação de estruturas por precipitação intensa,0,0,0,0,2025-01-27T11:41:00Z,Évora,Évora,Alentejo,-7.924277,38.57285
24948533,Aljezur,Algarve,313,2025-02-12T08:19:00Z,24948533,Em despacho,3309,Desabamento de estruturas edificadas,0,3,0,7,2025-02-12T08:19:00Z,Aljezur,Faro,Algarve,-8.803144,37.313343
