id,address,subregion,neighborhood,date,id.1,state,nature,nature_description,aerial_means,terrestrial_means,aquatic_means,operational,date.1,Concelho,Distrito,NUTII_DSG,longitude,latitude,state_2
26092907,Mondim de Basto,Ave,309,2025-10-05T18:39:00Z,26092907,Em Resolução/Conclusão,3105,Incêndio rural,0,1,0,5,2025-10-05T18:39:00Z,Mondim De Basto,Vila Real,Norte,-7.960092,41.400537,Resolução/Conclusão
26093004,Montijo e Afonsoeiro,Península de Setúbal,311,2025-10-05T18:51:00Z,26093004,Em Despacho,3103,Incêndio rural,0,5,0,21,2025-10-05T18:51:00Z,Montijo,Setúbal,Área Metropolitana De Lisboa,-8.975715,38.702323,Despacho
26093023,Mezio e Moura Morta,Viseu Dão Lafões,310,2025-10-05T19:06:00Z,26093023,Em Despacho,3103,Incêndio rural,0,4,0,17,2025-10-05T19:06:00Z,Castro Daire,Viseu,Centro,-7.909845,40.951347,Despacho
26092458,Mouriscas,Médio Tejo,311,2025-10-05T16:49:00Z,26092458,Em Resolução/Conclusão,3103,Incêndio rural,0,3,0,12,2025-10-05T16:49:00Z,Abrantes,Santarém,Centro,-8.093428,39.504367,Resolução/Conclusão
26092509,Meixedo e Padornelos,Alto Tâmega e Barroso,309,2025-10-05T17:02:00Z,26092509,Em Resolução/Conclusão,3103,Incêndio rural,0,2,0,10,2025-10-05T17:02:00Z,Montalegre,Vila Real,Norte,-7.746053,41.861425,Resolução/Conclusão
26092566,Folgosa,Area M. Porto,309,2025-10-05T17:14:00Z,26092566,Em Resolução/Conclusão,3103,Incêndio rural,0,7,0,27,2025-10-05T17:14:00Z,Maia,Porto,Norte,-8.529422,41.274522,Resolução/Conclusão
26092427,Alvites,Terras de Trás-os-Montes,309,2025-10-05T16:39:00Z,26092427,Em Resolução/Conclusão,3103,Incêndio rural,0,10,0,33,2025-10-05T16:39:00Z,Mirandela,Bragança,Norte,-7.044288,41.552485,Resolução/Conclusão
26092929,Alfaiates,Beiras e Serra da Estrela,310,2025-10-05T18:44:00Z,26092929,Em Resolução/Conclusão,3103,Incêndio rural,0,6,0,27,2025-10-05T18:44:00Z,Sabugal,Guarda,Centro,-6.932273,40.39108,Resolução/Conclusão
26093053,Sesimbra (Castelo),Península de Setúbal,311,2025-10-05T18:45:00Z,26093053,Em Despacho,3111,Queima,0,1,0,5,2025-10-05T18:45:00Z,Sesimbra,Setúbal,Área Metropolitana De Lisboa,-9.112506,38.449031,Despacho
