id,address,subregion,neighborhood,date,id.1,state,nature,nature_description,aerial_means,terrestrial_means,aquatic_means,operational,date.1,Concelho,Distrito,NUTII_DSG,longitude,latitude,state_2
25813482,Freches e Torres,Beiras e Serra da Estrela,310,2025-08-09T16:21:00Z,25813482,Em Resolução/Conclusão,3103,Incêndio rural,0,1,0,5,2025-08-09T16:21:00Z,Trancoso,Guarda,Centro,-7.363745,40.709022,Resolução/Conclusão
25832250,Ferreira de Aves,Viseu Dão Lafões,310,2025-08-13T00:03:00Z,25832250,Em Resolução/Conclusão,3103,Incêndio rural,0,1,0,2,2025-08-13T00:03:00Z,Sátão,Viseu,Centro,-7.647793,40.79568,Resolução/Conclusão
25836309,Cinfães,Tâmega e Sousa,309,2025-08-13T18:17:00Z,25836309,Em Resolução/Conclusão,3103,Incêndio rural,0,1,0,2,2025-08-13T18:17:00Z,Cinfães,Viseu,Norte,-8.071502,41.049757,Resolução/Conclusão
25910498,Cortiçadas de Lavre e Lavre,Alentejo Central,312,2025-08-28T12:32:00Z,25910498,Em Resolução/Conclusão,3103,Incêndio rural,0,25,0,79,2025-08-28T12:32:00Z,Montemor-o-Novo,Évora,Alentejo,-8.362108,38.73748,Resolução/Conclusão
25910697,Chancelaria,Médio Tejo,311,2025-08-28T13:19:00Z,25910697,Em Resolução/Conclusão,3103,Incêndio rural,0,2,0,7,2025-08-28T13:19:00Z,Torres Novas,Santarém,Centro,-8.568325,39.54473,Resolução/Conclusão
25910796,Gralhas,Alto Tâmega e Barroso,309,2025-08-28T13:42:00Z,25910796,Em Resolução/Conclusão,3103,Incêndio rural,0,4,0,15,2025-08-28T13:42:00Z,Montalegre,Vila Real,Norte,-7.719135,41.880207,Resolução/Conclusão
25911099,Chavães,Douro,309,2025-08-28T14:29:00Z,25911099,Em Resolução/Conclusão,3103,Incêndio rural,0,9,0,30,2025-08-28T14:29:00Z,Tabuaço,Viseu,Norte,-7.553807,41.09554,Resolução/Conclusão
25911281,Moimenta de Maceira Dão e Lobelhe do Mato,Viseu Dão Lafões,310,2025-08-28T15:09:00Z,25911281,Em Resolução/Conclusão,3103,Incêndio rural,0,27,0,87,2025-08-28T15:09:00Z,Mangualde,Viseu,Centro,-7.835496,40.578377,Resolução/Conclusão
25912003,Azias,Alto Minho,309,2025-08-28T18:01:00Z,25912003,Em Resolução/Conclusão,3103,Incêndio rural,0,3,0,11,2025-08-28T18:01:00Z,Ponte Da Barca,Viana Do Castelo,Norte,-8.364303,41.774615,Resolução/Conclusão
25912419,Amor,Região de Leiria,310,2025-08-28T20:05:00Z,25912419,Em Resolução/Conclusão,3103,Incêndio rural,0,2,0,7,2025-08-28T20:05:00Z,Leiria,Leiria,Centro,-8.870143,39.77602,Resolução/Conclusão
25846480,Sabugal e Aldeia de Santo António,Beiras e Serra da Estrela,310,2025-08-15T14:41:00Z,25846480,Em Resolução/Conclusão,3103,Incêndio rural,0,11,0,33,2025-08-15T14:41:00Z,Sabugal,Guarda,Centro,-7.125037,40.34023,Resolução/Conclusão
25851895,Sortelha,Beiras e Serra da Estrela,310,2025-08-16T14:53:00Z,25851895,Em Resolução/Conclusão,3103,Incêndio rural,0,3,0,15,2025-08-16T14:53:00Z,Sabugal,Guarda,Centro,-7.254367,40.318488,Resolução/Conclusão
25910055,Rebordelo,Terras de Trás-os-Montes,309,2025-08-28T11:08:00Z,25910055,Em Curso,3103,Incêndio rural,0,122,0,362,2025-08-28T11:08:00Z,Vinhais,Bragança,Norte,-7.134773,41.765422,Curso
25911105,"Requeixo, Nossa Senhora de Fátima e Nariz",Região de Aveiro,310,2025-08-28T14:36:00Z,25911105,Em Resolução/Conclusão,3101,Incêndio rural,0,28,0,97,2025-08-28T14:36:00Z,Aveiro,Aveiro,Centro,-8.555615,40.599955,Resolução/Conclusão
25911894,Santa Maria de Emeres,Alto Tâmega e Barroso,309,2025-08-28T17:34:00Z,25911894,Em Resolução/Conclusão,3103,Incêndio rural,0,4,0,12,2025-08-28T17:34:00Z,Valpaços,Vila Real,Norte,-7.389857,41.536922,Resolução/Conclusão
25912462,Campanhã,Area M. Porto,309,2025-08-28T20:14:00Z,25912462,Em Resolução/Conclusão,3103,Incêndio rural,0,1,0,2,2025-08-28T20:14:00Z,Porto,Porto,Norte,-8.572032,41.145401,Resolução/Conclusão
25912651,Faro (Sé e São Pedro),Algarve,313,2025-08-28T21:05:00Z,25912651,Em Curso,3103,Incêndio rural,0,5,0,18,2025-08-28T21:05:00Z,Faro,Faro,Algarve,-7.939748,37.033063,Curso
25832672,Piódão,Região de Coimbra,310,2025-08-13T05:08:00Z,25832672,Em Resolução/Conclusão,3103,Incêndio rural,0,41,0,135,2025-08-13T05:08:00Z,Arganil,Coimbra,Centro,-7.81972,40.23083,Resolução/Conclusão
25840417,Lousã e Vilarinho,Região de Coimbra,310,2025-08-14T13:46:00Z,25840417,Em Resolução/Conclusão,3101,Incêndio rural,0,1,0,1,2025-08-14T13:46:00Z,Lousã,Coimbra,Centro,-8.201561,40.080016,Resolução/Conclusão
25911638,Moledo,Viseu Dão Lafões,310,2025-08-28T16:35:00Z,25911638,Em Resolução/Conclusão,3103,Incêndio rural,0,1,0,5,2025-08-28T16:35:00Z,Castro Daire,Viseu,Centro,-7.875873,40.821295,Resolução/Conclusão
25912272,Armil,Ave,309,2025-08-28T19:21:00Z,25912272,Em Resolução/Conclusão,3103,Incêndio rural,0,0,0,0,2025-08-28T19:21:00Z,Fafe,Braga,Norte,-8.18856,41.416,Resolução/Conclusão
25912363,Vermoil,Região de Leiria,310,2025-08-28T19:49:00Z,25912363,Em Resolução/Conclusão,3103,Incêndio rural,0,1,0,2,2025-08-28T19:49:00Z,Pombal,Leiria,Centro,-8.703191,39.87191,Resolução/Conclusão
25912588,Arões (São Romão),Ave,309,2025-08-28T20:48:00Z,25912588,Em Despacho,3103,Incêndio rural,0,3,0,14,2025-08-28T20:48:00Z,Fafe,Braga,Norte,-8.220116,41.46665,Despacho
25912622,São Cipriano,Tâmega e Sousa,309,2025-08-28T20:54:00Z,25912622,Em Curso,3103,Incêndio rural,0,4,0,20,2025-08-28T20:54:00Z,Resende,Viseu,Norte,-7.997507,41.063139,Curso
25883011,Almofala,Viseu Dão Lafões,310,2025-08-22T17:00:00Z,25883011,Em Resolução/Conclusão,3103,Incêndio rural,0,1,0,2,2025-08-22T17:00:00Z,Castro Daire,Viseu,Centro,-7.767003,40.956183,Resolução/Conclusão
25887019,Pedrógão Grande,Região de Leiria,310,2025-08-23T14:27:00Z,25887019,Em Resolução/Conclusão,3101,Incêndio rural,0,4,0,14,2025-08-23T14:27:00Z,Pedrógão Grande,Leiria,Centro,-8.15364,39.9136,Resolução/Conclusão
25906523,Picão e Ermida,Viseu Dão Lafões,310,2025-08-27T15:26:00Z,25906523,Em Resolução/Conclusão,3103,Incêndio rural,0,1,0,2,2025-08-27T15:26:00Z,Castro Daire,Viseu,Centro,-7.9416079999999996,40.947432,Resolução/Conclusão
25911921,Aldeia do Mato e Souto,Médio Tejo,311,2025-08-28T17:44:00Z,25911921,Em Resolução/Conclusão,3103,Incêndio rural,0,5,0,16,2025-08-28T17:44:00Z,Abrantes,Santarém,Centro,-8.288055,39.541112,Resolução/Conclusão
25911996,Lamas e Cercal,Oeste,311,2025-08-28T18:00:00Z,25911996,Em Resolução/Conclusão,3105,Incêndio rural,0,0,0,0,2025-08-28T18:00:00Z,Cadaval,Lisboa,Centro,-9.057162,39.221439,Resolução/Conclusão
25912230,Famalicão,Oeste,311,2025-08-28T19:08:00Z,25912230,Em Resolução/Conclusão,3103,Incêndio rural,0,10,0,39,2025-08-28T19:08:00Z,Nazaré,Leiria,Centro,-9.088998,39.518408,Resolução/Conclusão
25912641,Roriz,Area M. Porto,309,2025-08-28T21:02:00Z,25912641,Em Despacho,3103,Incêndio rural,0,1,0,5,2025-08-28T21:02:00Z,Santo Tirso,Porto,Norte,-8.37591,41.34025,Despacho
25912648,Torrados e Sousa,Tâmega e Sousa,309,2025-08-28T21:03:00Z,25912648,Em Despacho,3105,Incêndio rural,0,1,0,5,2025-08-28T21:03:00Z,Felgueiras,Porto,Norte,-8.24052,41.36576,Despacho
