id,address,subregion,neighborhood,date,id.1,state,nature,nature_description,aerial_means,terrestrial_means,aquatic_means,operational,date.1,Concelho,Distrito,NUTII_DSG,longitude,latitude,state_2
25775263,Torgueda,Douro,309,2025-08-02T19:49:00Z,25775263,Em Resolução/Conclusão,3101,Incêndio rural,0,4,0,15,2025-08-02T19:49:00Z,Vila Real,Vila Real,Norte,-7.785983,41.274952,Resolução/Conclusão
25807426,Alvite,Douro,309,2025-08-08T14:31:00Z,25807426,Em Resolução/Conclusão,3103,Incêndio rural,0,4,0,21,2025-08-08T14:31:00Z,Moimenta Da Beira,Viseu,Norte,-7.688727,40.96613,Resolução/Conclusão
25845171,Pêra do Moço,Beiras e Serra da Estrela,310,2025-08-15T10:44:00Z,25845171,Em Resolução/Conclusão,3103,Incêndio rural,0,58,0,157,2025-08-15T10:44:00Z,Guarda,Guarda,Centro,-7.20956,40.61267,Resolução/Conclusão
25846016,Poiares,Douro,309,2025-08-15T13:17:00Z,25846016,Em Curso,3103,Incêndio rural,1,132,0,401,2025-08-15T13:17:00Z,Freixo De Espada à Cinta,Bragança,Norte,-6.843393,41.075787,Curso
25847211,Campelo,Região de Leiria,310,2025-08-15T17:01:00Z,25847211,Em Resolução/Conclusão,3101,Incêndio rural,0,4,0,16,2025-08-15T17:01:00Z,Figueiró Dos Vinhos,Leiria,Centro,-8.258518,39.952923,Resolução/Conclusão
25847552,"Espírito Santo, Nossa Senhora da Graça e São Simão",Alto Alentejo,312,2025-08-15T18:13:00Z,25847552,Em Resolução/Conclusão,3101,Incêndio rural,0,8,0,27,2025-08-15T18:13:00Z,Nisa,Portalegre,Alentejo,-7.676539,39.448501,Resolução/Conclusão
25857137,Carapinheira,Região de Coimbra,310,2025-08-17T15:15:00Z,25857137,Em Resolução/Conclusão,3101,Incêndio rural,0,11,0,32,2025-08-17T15:15:00Z,Montemor-o-Velho,Coimbra,Centro,-8.662688,40.198006,Resolução/Conclusão
25857739,Ermidas-Sado,Alentejo Litoral,312,2025-08-17T17:28:00Z,25857739,Em Resolução/Conclusão,3105,Incêndio rural,0,2,0,5,2025-08-17T17:28:00Z,Santiago Do Cacém,Setúbal,Alentejo,-8.432573,38.005577,Resolução/Conclusão
25858173,Sacavém e Prior Velho,Grande Lisboa,311,2025-08-17T19:05:00Z,25858173,Em Resolução/Conclusão,3103,Incêndio rural,0,3,0,12,2025-08-17T19:05:00Z,Loures,Lisboa,Área Metropolitana De Lisboa,-9.126385,38.791217,Resolução/Conclusão
25774883,Arnóia,Tâmega e Sousa,309,2025-08-02T18:20:00Z,25774883,Em Resolução/Conclusão,3103,Incêndio rural,0,2,0,5,2025-08-02T18:20:00Z,Celorico De Basto,Braga,Norte,-7.998983,41.348727,Resolução/Conclusão
25818455,Sobral de São Miguel,Beiras e Serra da Estrela,310,2025-08-10T15:02:00Z,25818455,Em Resolução/Conclusão,3103,Incêndio rural,0,3,0,7,2025-08-10T15:02:00Z,Covilhã,Castelo Branco,Centro,-7.77307,40.200173,Resolução/Conclusão
25846480,Sabugal e Aldeia de Santo António,Beiras e Serra da Estrela,310,2025-08-15T14:41:00Z,25846480,Em Curso,3103,Incêndio rural,0,77,0,263,2025-08-15T14:41:00Z,Sabugal,Guarda,Centro,-7.125037,40.34023,Curso
25851846,"Mamouros, Alva e Ribolhos",Viseu Dão Lafões,310,2025-08-16T14:44:00Z,25851846,Em Resolução/Conclusão,3103,Incêndio rural,0,2,0,6,2025-08-16T14:44:00Z,Castro Daire,Viseu,Centro,-7.965645,40.850267,Resolução/Conclusão
25852278,"Aldeia do Bispo, Águas e Aldeia de João Pires",Beira Baixa,310,2025-08-16T16:11:00Z,25852278,Em Resolução/Conclusão,3103,Incêndio rural,0,5,0,20,2025-08-16T16:11:00Z,Penamacor,Castelo Branco,Centro,-7.146285,40.11777,Resolução/Conclusão
25852580,São João de Tarouca,Douro,309,2025-08-16T17:00:00Z,25852580,Em Curso,3103,Incêndio rural,1,39,0,129,2025-08-16T17:00:00Z,Tarouca,Viseu,Norte,-7.760748,40.986773,Curso
25853865,"Tavares (Chãs, Várzea e Travanca)",Viseu Dão Lafões,310,2025-08-16T22:05:00Z,25853865,Em Resolução/Conclusão,3103,Incêndio rural,0,0,0,0,2025-08-16T22:05:00Z,Mangualde,Viseu,Centro,-7.639757,40.609112,Resolução/Conclusão
25856942,Silves,Algarve,313,2025-08-17T14:33:00Z,25856942,Em Resolução/Conclusão,3103,Incêndio rural,0,16,0,57,2025-08-17T14:33:00Z,Silves,Faro,Algarve,-8.519646,37.244332,Resolução/Conclusão
25857511,"Canedo, Vale e Vila Maior",Area M. Porto,309,2025-08-17T16:37:00Z,25857511,Em Resolução/Conclusão,3103,Incêndio rural,0,35,0,111,2025-08-17T16:37:00Z,Santa Maria Da Feira,Aveiro,Norte,-8.480622,41.044443,Resolução/Conclusão
25857594,Milharado,Grande Lisboa,311,2025-08-17T16:54:00Z,25857594,Em Resolução/Conclusão,3103,Incêndio rural,0,6,0,17,2025-08-17T16:54:00Z,Mafra,Lisboa,Área Metropolitana De Lisboa,-9.195138,38.93454,Resolução/Conclusão
25857727,"Requeixo, Nossa Senhora de Fátima e Nariz",Região de Aveiro,310,2025-08-17T17:27:00Z,25857727,Em Resolução/Conclusão,3101,Incêndio rural,0,2,0,7,2025-08-17T17:27:00Z,Aveiro,Aveiro,Centro,-8.581025,40.591848,Resolução/Conclusão
25858044,NA,NA,0,2025-08-17T18:30:00Z,25858044,Em Despacho,3103,Incêndio rural,0,7,0,29,2025-08-17T18:30:00Z,Chaves,Vila Real,Norte,-7.540875,41.707525,Despacho
25858110,"Algoso, Campo de Víboras e Uva",Terras de Trás-os-Montes,309,2025-08-17T18:50:00Z,25858110,Em Resolução/Conclusão,3105,Incêndio rural,0,1,0,5,2025-08-17T18:50:00Z,Vimioso,Bragança,Norte,-6.576583,41.469718,Resolução/Conclusão
25858197,Carreiras (São Miguel) e Carreiras (Santiago),Cávado,309,2025-08-17T19:12:00Z,25858197,Em Resolução/Conclusão,3103,Incêndio rural,0,6,0,25,2025-08-17T19:12:00Z,Vila Verde,Braga,Norte,-8.488858,41.665217,Resolução/Conclusão
25858261,Aião,Tâmega e Sousa,309,2025-08-17T19:30:00Z,25858261,Em Resolução/Conclusão,3103,Incêndio rural,0,1,0,5,2025-08-17T19:30:00Z,Felgueiras,Porto,Norte,-8.204103,41.30503,Resolução/Conclusão
25858280,Guilhabreu,Area M. Porto,309,2025-08-17T19:36:00Z,25858280,Em Resolução/Conclusão,3103,Incêndio rural,0,3,0,14,2025-08-17T19:36:00Z,Vila Do Conde,Porto,Norte,-8.642683,41.286042,Resolução/Conclusão
25776263,"Pena, Quintã e Vila Cova",Douro,309,2025-08-02T23:45:00Z,25776263,Em Resolução/Conclusão,3103,Incêndio rural,0,30,0,89,2025-08-02T23:45:00Z,Vila Real,Vila Real,Norte,-7.811902,41.317355,Resolução/Conclusão
25813482,Freches e Torres,Beiras e Serra da Estrela,310,2025-08-09T16:21:00Z,25813482,Em Curso,3103,Incêndio rural,0,128,0,395,2025-08-09T16:21:00Z,Trancoso,Guarda,Centro,-7.363745,40.709022,Curso
25830378,Ermidas-Sado,Alentejo Litoral,312,2025-08-12T16:42:00Z,25830378,Em Resolução/Conclusão,3101,Incêndio rural,0,1,0,1,2025-08-12T16:42:00Z,Santiago Do Cacém,Setúbal,Alentejo,-8.407646,38.059897,Resolução/Conclusão
25832250,Ferreira de Aves,Viseu Dão Lafões,310,2025-08-13T00:03:00Z,25832250,Em Curso,3103,Incêndio rural,2,210,0,640,2025-08-13T00:03:00Z,Sátão,Viseu,Centro,-7.647793,40.79568,Curso
25836309,Cinfães,Tâmega e Sousa,309,2025-08-13T18:17:00Z,25836309,Em Resolução/Conclusão,3103,Incêndio rural,0,11,0,41,2025-08-13T18:17:00Z,Cinfães,Viseu,Norte,-8.071502,41.049757,Resolução/Conclusão
25840505,Ribeira de Nisa e Carreiras,Alto Alentejo,312,2025-08-14T14:01:00Z,25840505,Em Resolução/Conclusão,3101,Incêndio rural,0,8,0,29,2025-08-14T14:01:00Z,Portalegre,Portalegre,Alentejo,-7.47009,39.374707,Resolução/Conclusão
25844050,"Pena, Quintã e Vila Cova",Douro,309,2025-08-15T04:16:00Z,25844050,Em Resolução/Conclusão,3103,Incêndio rural,0,2,0,7,2025-08-15T04:16:00Z,Vila Real,Vila Real,Norte,-7.861022,41.318705,Resolução/Conclusão
25851721,Arnóia,Tâmega e Sousa,309,2025-08-16T14:24:00Z,25851721,Em Curso,3103,Incêndio rural,0,29,0,85,2025-08-16T14:24:00Z,Celorico De Basto,Braga,Norte,-7.994469,41.369836,Curso
25852438,Campanhó e Paradança,Ave,309,2025-08-16T16:41:00Z,25852438,Em Curso,3103,Incêndio rural,4,56,0,207,2025-08-16T16:41:00Z,Mondim De Basto,Vila Real,Norte,-7.965877,41.391997,Curso
25856549,"Oliveira de Frades, Souto de Lafões e Sejães",Viseu Dão Lafões,310,2025-08-17T13:08:00Z,25856549,Em Resolução/Conclusão,3103,Incêndio rural,0,3,0,9,2025-08-17T13:08:00Z,Oliveira De Frades,Viseu,Centro,-8.203795,40.74088,Resolução/Conclusão
25856751,Silves,Algarve,313,2025-08-17T13:56:00Z,25856751,Em Resolução/Conclusão,3103,Incêndio rural,0,21,0,62,2025-08-17T13:56:00Z,Silves,Faro,Algarve,-8.49143,37.203538,Resolução/Conclusão
25792058,Cibões e Brufe,Cávado,309,2025-08-05T19:10:00Z,25792058,Em Resolução/Conclusão,3103,Incêndio rural,0,1,0,5,2025-08-05T19:10:00Z,Terras De Bouro,Braga,Norte,-8.293932,41.764918,Resolução/Conclusão
25820422,Távora e Pereiro,Douro,309,2025-08-10T22:27:00Z,25820422,Em Resolução/Conclusão,3103,Incêndio rural,0,24,0,79,2025-08-10T22:27:00Z,Tabuaço,Viseu,Norte,-7.55556,41.097602,Resolução/Conclusão
25832672,Piódão,Região de Coimbra,310,2025-08-13T05:08:00Z,25832672,Em Curso,3103,Incêndio rural,4,342,0,1014,2025-08-13T05:08:00Z,Arganil,Coimbra,Centro,-7.81972,40.23083,Curso
25835176,Faíl e Vila Chã de Sá,Viseu Dão Lafões,310,2025-08-13T14:35:00Z,25835176,Em Resolução/Conclusão,3103,Incêndio rural,0,1,0,4,2025-08-13T14:35:00Z,Viseu,Viseu,Centro,-7.951177,40.594167,Resolução/Conclusão
25840417,Lousã e Vilarinho,Região de Coimbra,310,2025-08-14T13:46:00Z,25840417,Em Curso,3101,Incêndio rural,2,160,0,502,2025-08-14T13:46:00Z,Lousã,Coimbra,Centro,-8.201561,40.080016,Curso
25857006,Alvite,Douro,309,2025-08-17T14:34:00Z,25857006,Em Resolução/Conclusão,3103,Incêndio rural,0,2,0,6,2025-08-17T14:34:00Z,Moimenta Da Beira,Viseu,Norte,-7.71847,40.976933,Resolução/Conclusão
25857070,Silves,Algarve,313,2025-08-17T15:00:00Z,25857070,Em Resolução/Conclusão,3103,Incêndio rural,0,1,0,1,2025-08-17T15:00:00Z,Silves,Faro,Algarve,-8.530505,37.234453,Resolução/Conclusão
25857322,"Barcel, Marmelos e Valverde da Gestosa",Terras de Trás-os-Montes,309,2025-08-17T15:53:00Z,25857322,Em Curso,3103,Incêndio rural,0,31,0,99,2025-08-17T15:53:00Z,Mirandela,Bragança,Norte,-7.190696,41.41053,Curso
25857897,Briteiros Santo Estêvão e Donim,Ave,309,2025-08-17T18:04:00Z,25857897,Em Resolução/Conclusão,3105,Incêndio rural,0,3,0,9,2025-08-17T18:04:00Z,Guimarães,Braga,Norte,-8.307555,41.506713,Resolução/Conclusão
25857084,NA,NA,0,2025-08-17T15:02:00Z,25857084,Em Resolução/Conclusão,3103,Incêndio rural,0,21,0,57,2025-08-17T15:02:00Z,Moura,Beja,Alentejo,-7.02855,38.088503,Resolução/Conclusão
25857586,Olhalvo,Oeste,311,2025-08-17T16:52:00Z,25857586,Em Resolução/Conclusão,3101,Incêndio rural,0,6,0,18,2025-08-17T16:52:00Z,Alenquer,Lisboa,Centro,-9.05314,39.111373,Resolução/Conclusão
25858003,"Fundão, Valverde, Donas, Aldeia de Joanes e Aldeia Nova do Cabo",Beiras e Serra da Estrela,310,2025-08-17T18:27:00Z,25858003,Em Resolução/Conclusão,3103,Incêndio rural,0,7,0,21,2025-08-17T18:27:00Z,Fundão,Castelo Branco,Centro,-7.520588,40.16177,Resolução/Conclusão
25858104,Moita,Península de Setúbal,311,2025-08-17T18:49:00Z,25858104,Em Resolução/Conclusão,3103,Incêndio rural,0,5,0,17,2025-08-17T18:49:00Z,Moita,Setúbal,Área Metropolitana De Lisboa,-8.99148,38.65956,Resolução/Conclusão
25858199,Alvadia,Alto Tâmega e Barroso,309,2025-08-17T19:13:00Z,25858199,Em Resolução/Conclusão,3103,Incêndio rural,0,2,0,10,2025-08-17T19:13:00Z,Ribeira De Pena,Vila Real,Norte,-7.77912,41.44523,Resolução/Conclusão
25858249,Darque,Alto Minho,309,2025-08-17T19:25:00Z,25858249,Em Resolução/Conclusão,3105,Incêndio rural,0,5,0,16,2025-08-17T19:25:00Z,Viana Do Castelo,Viana Do Castelo,Norte,-8.817896,41.69014,Resolução/Conclusão
25858306,Torre e Vila Mou,Alto Minho,309,2025-08-17T19:35:00Z,25858306,Em Curso,3101,Incêndio rural,0,6,0,18,2025-08-17T19:35:00Z,Viana Do Castelo,Viana Do Castelo,Norte,-8.712485,41.723582,Curso
