id,address,subregion,neighborhood,date,id.1,state,nature,nature_description,aerial_means,terrestrial_means,aquatic_means,operational,date.1,Concelho,Distrito,NUTII_DSG,longitude,latitude,state_2
26131945,Milheirós,Area M. Porto,309,2025-10-13T17:55:00Z,26131945,Em Resolução/Conclusão,3103,Incêndio rural,0,3,0,8,2025-10-13T17:55:00Z,Maia,Porto,Norte,-8.577187,41.220988,Resolução/Conclusão
26132381,Borbela e Lamas de Olo,Douro,309,2025-10-13T19:27:00Z,26132381,Em Resolução/Conclusão,3103,Incêndio rural,0,0,0,0,2025-10-13T19:27:00Z,Vila Real,Vila Real,Norte,-7.73123,41.32201,Resolução/Conclusão
26132632,Palme,Cávado,309,2025-10-13T20:33:00Z,26132632,Em Curso,3111,Queima,0,1,0,5,2025-10-13T20:33:00Z,Barcelos,Braga,Norte,-8.72798,41.58668,Curso
26130044,Santo Aleixo,Alto Alentejo,312,2025-10-13T11:46:00Z,26130044,Em Resolução/Conclusão,3105,Incêndio rural,0,2,0,3,2025-10-13T11:46:00Z,Monforte,Portalegre,Alentejo,-7.396498,38.966055,Resolução/Conclusão
26130196,Sardoal,Médio Tejo,311,2025-10-13T11:45:00Z,26130196,Em Resolução/Conclusão,3101,Incêndio rural,0,2,0,7,2025-10-13T11:45:00Z,Sardoal,Santarém,Centro,-8.119095,39.515667,Resolução/Conclusão
26132525,Bacelo e Senhora da Saúde,Alentejo Central,312,2025-10-13T20:08:00Z,26132525,Em Resolução/Conclusão,3111,Queima,0,2,0,6,2025-10-13T20:08:00Z,Évora,Évora,Alentejo,-7.901712,38.577358,Resolução/Conclusão
26132602,"Mamouros, Alva e Ribolhos",Viseu Dão Lafões,310,2025-10-13T20:25:00Z,26132602,Em Despacho,3103,Incêndio rural,0,3,0,13,2025-10-13T20:25:00Z,Castro Daire,Viseu,Centro,-7.957615,40.851477,Despacho
26131349,Gralhas,Alto Tâmega e Barroso,309,2025-10-13T15:42:00Z,26131349,Em Resolução/Conclusão,3103,Incêndio rural,0,2,0,9,2025-10-13T15:42:00Z,Montalegre,Vila Real,Norte,-7.720882,41.853077,Resolução/Conclusão
26132335,"Alpendorada, Várzea e Torrão",Tâmega e Sousa,309,2025-10-13T19:15:00Z,26132335,Em Resolução/Conclusão,3103,Incêndio rural,0,4,0,17,2025-10-13T19:15:00Z,Marco De Canaveses,Porto,Norte,-8.276295,41.085331,Resolução/Conclusão
26132608,Santa Marinha do Zêzere,Tâmega e Sousa,309,2025-10-13T20:19:00Z,26132608,Em Resolução/Conclusão,3103,Incêndio rural,0,1,0,5,2025-10-13T20:19:00Z,Baião,Porto,Norte,-7.961327,41.14079,Resolução/Conclusão
26132685,Alturas do Barroso e Cerdedo,Alto Tâmega e Barroso,309,2025-10-13T20:49:00Z,26132685,Em Despacho,3103,Incêndio rural,0,0,0,0,2025-10-13T20:49:00Z,Boticas,Vila Real,Norte,-7.887018,41.65992,Despacho
26131537,"Tamengos, Aguim e Óis do Bairro",Região de Aveiro,310,2025-10-13T16:24:00Z,26131537,Em Resolução/Conclusão,3105,Incêndio rural,0,6,0,14,2025-10-13T16:24:00Z,Anadia,Aveiro,Centro,-8.466082,40.41392,Resolução/Conclusão
26131971,Bemposta,Médio Tejo,311,2025-10-13T18:03:00Z,26131971,Em Resolução/Conclusão,3105,Incêndio rural,0,2,0,7,2025-10-13T18:03:00Z,Abrantes,Santarém,Centro,-8.214668,39.262862,Resolução/Conclusão
26132189,Alvora e Loureda,Alto Minho,309,2025-10-13T18:45:00Z,26132189,Em Curso,3103,Incêndio rural,0,2,0,8,2025-10-13T18:45:00Z,Arcos De Valdevez,Viana Do Castelo,Norte,-8.44509,41.945205,Curso
26132236,Alpiarça,Lezíria do Tejo,311,2025-10-13T18:54:00Z,26132236,Em Resolução/Conclusão,3105,Incêndio rural,0,5,0,16,2025-10-13T18:54:00Z,Alpiarça,Santarém,Alentejo,-8.606263,39.263307,Resolução/Conclusão
26132372,Bucos,Ave,309,2025-10-13T19:24:00Z,26132372,Em Resolução/Conclusão,3103,Incêndio rural,0,3,0,11,2025-10-13T19:24:00Z,Cabeceiras De Basto,Braga,Norte,-8.051415,41.560957,Resolução/Conclusão
