id,address,subregion,neighborhood,date,id.1,state,nature,nature_description,aerial_means,terrestrial_means,aquatic_means,operational,date.1,Concelho,Distrito,NUTII_DSG,longitude,latitude
25537199,Carregosa,Area M. Porto,309,2025-06-17T08:25:00Z,25537199,Em despacho,3107,Consolidação de rescaldo de incêndio rural,0,1,0,5,2025-06-17T08:25:00Z,Oliveira De Azeméis,Aveiro,Norte,-8.412088,40.890188
25538785,Aveleda,Tâmega e Sousa,309,2025-06-17T13:05:00Z,25538785,Em conclusão,3105,Incêndio rural,0,1,0,5,2025-06-17T13:05:00Z,Lousada,Porto,Norte,-8.23663,41.28448
25539253,Póvoa de Santa Iria e Forte da Casa,Grande Lisboa,311,2025-06-17T14:20:00Z,25539253,Em resolução,2201,Incêndio em equipamentos ou produtos,0,2,0,7,2025-06-17T14:20:00Z,Vila Franca De Xira,Lisboa,Área Metropolitana De Lisboa,-9.080109,38.86006
25539287,Altura,Algarve,313,2025-06-17T14:39:00Z,25539287,Em conclusão,3103,Incêndio rural,1,3,0,18,2025-06-17T14:39:00Z,Castro Marim,Faro,Algarve,-7.513662,37.186588
25539403,Vila Nova de Cacela,Algarve,313,2025-06-17T14:58:00Z,25539403,Em resolução,3203,Detritos confinados,0,2,0,6,2025-06-17T14:58:00Z,Vila Real De Santo António,Faro,Algarve,-7.55653,37.176892
25533960,Nossa Senhora da Tourega e Nossa Senhora de Guadalupe,Alentejo Central,312,2025-06-16T14:13:00Z,25533960,Em conclusão,3101,Incêndio rural,0,2,0,7,2025-06-16T14:13:00Z,Évora,Évora,Alentejo,-8.04123,38.527212
25539267,Lomba,Area M. Porto,309,2025-06-17T14:37:00Z,25539267,Em despacho,3101,Incêndio rural,1,4,0,19,2025-06-17T14:37:00Z,Gondomar,Porto,Norte,-8.429132,41.03151
25533546,Capelins (Santo António),Alentejo Central,312,2025-06-16T12:49:00Z,25533546,Em conclusão,3103,Incêndio rural,0,13,0,30,2025-06-16T12:49:00Z,Alandroal,Évora,Alentejo,-7.336945,38.553132
25537409,Azambuja,Lezíria do Tejo,311,2025-06-17T09:02:00Z,25537409,Em despacho,3109,Gestão de combustível,0,1,0,4,2025-06-17T09:02:00Z,Azambuja,Lisboa,Alentejo,-8.864506,39.067885
25538176,Ermelo e Pardelhas,Ave,309,2025-06-17T11:12:00Z,25538176,Em resolução,3103,Incêndio rural,0,7,0,24,2025-06-17T11:12:00Z,Mondim De Basto,Vila Real,Norte,-7.836727,41.358133
25539144,"Gondomar (São Cosme), Valbom e Jovim",Area M. Porto,309,2025-06-17T14:16:00Z,25539144,Em curso,3103,Incêndio rural,0,1,0,4,2025-06-17T14:16:00Z,Gondomar,Porto,Norte,-8.514233,41.12505
25539230,"St.tirso, Couto (S.cristina e S.miguel) e Burgães",Area M. Porto,309,2025-06-17T14:29:00Z,25539230,Em curso,2115,Incêndio em edifícios hoteleiros e de restauração,0,6,0,14,2025-06-17T14:29:00Z,Santo Tirso,Porto,Norte,-8.47328,41.34414
25539231,Ceivães e Badim,Alto Minho,309,2025-06-17T14:28:00Z,25539231,Em despacho,3107,Consolidação de rescaldo de incêndio rural,0,1,0,5,2025-06-17T14:28:00Z,Monção,Viana Do Castelo,Norte,-8.367111,42.06089
25539261,"Requeixo, Nossa Senhora de Fátima e Nariz",Região de Aveiro,310,2025-06-17T14:36:00Z,25539261,Em resolução,3201,Detritos não confinados,0,3,0,15,2025-06-17T14:36:00Z,Aveiro,Aveiro,Centro,-8.57377,40.565123
25534277,Caldas de São Jorge e Pigeiros,Area M. Porto,309,2025-06-16T15:11:00Z,25534277,Em conclusão,3101,Incêndio rural,0,2,0,6,2025-06-16T15:11:00Z,Santa Maria Da Feira,Aveiro,Norte,-8.486413,40.939453
25534804,Alvares,Região de Coimbra,310,2025-06-16T17:00:00Z,25534804,Em conclusão,3101,Incêndio rural,0,1,0,3,2025-06-16T17:00:00Z,Góis,Coimbra,Centro,-8.08667,40.05333
25535747,Alvares,Região de Coimbra,310,2025-06-16T20:38:00Z,25535747,Em conclusão,3103,Incêndio rural,0,2,0,5,2025-06-16T20:38:00Z,Góis,Coimbra,Centro,-8.07249,40.03204
25538891,Covilhã e Canhoso,Beiras e Serra da Estrela,310,2025-06-17T13:28:00Z,25538891,Em conclusão,3103,Incêndio rural,0,0,0,0,2025-06-17T13:28:00Z,Covilhã,Castelo Branco,Centro,-7.504552,40.285715
25539009,Fornelos,Tâmega e Sousa,309,2025-06-17T13:49:00Z,25539009,Em conclusão,3107,Consolidação de rescaldo de incêndio rural,0,1,0,5,2025-06-17T13:49:00Z,Cinfães,Viseu,Norte,-8.212805,41.034374
25539025,Urrô,Area M. Porto,309,2025-06-17T13:50:00Z,25539025,Em conclusão,3101,Incêndio rural,0,4,0,17,2025-06-17T13:50:00Z,Arouca,Aveiro,Norte,-8.287597,40.915067
25539050,"Santa Iria de Azoia, São João da Talha e Bobadela",Grande Lisboa,311,2025-06-17T13:59:00Z,25539050,Em conclusão,2101,Incêndio em edifícios habitacionais,0,5,0,13,2025-06-17T13:59:00Z,Loures,Lisboa,Área Metropolitana De Lisboa,-9.096745,38.819673
25539082,"O. Azeméis, Riba-Ul, Ul, Macinhata Seixa, Madail",Area M. Porto,309,2025-06-17T14:00:00Z,25539082,Em conclusão,3101,Incêndio rural,1,3,0,21,2025-06-17T14:00:00Z,Oliveira De Azeméis,Aveiro,Norte,-8.487606,40.83215
25539166,"Canedo, Vale e Vila Maior",Area M. Porto,309,2025-06-17T14:15:00Z,25539166,Em curso,3101,Incêndio rural,4,14,0,57,2025-06-17T14:15:00Z,Santa Maria Da Feira,Aveiro,Norte,-8.468336,41.006898
25539315,Fanhões,Grande Lisboa,311,2025-06-17T14:45:00Z,25539315,Em curso,2201,Incêndio em equipamentos ou produtos,0,1,0,5,2025-06-17T14:45:00Z,Loures,Lisboa,Área Metropolitana De Lisboa,-9.150645,38.878382
