id,address,subregion,neighborhood,date,id.1,state,nature,nature_description,aerial_means,terrestrial_means,aquatic_means,operational,date.1,Concelho,Distrito,NUTII_DSG,longitude,latitude,state_2
25820422,Távora e Pereiro,Douro,309,2025-08-10T22:27:00Z,25820422,Em Resolução/Conclusão,3103,Incêndio rural,0,23,0,74,2025-08-10T22:27:00Z,Tabuaço,Viseu,Norte,-7.55556,41.097602,Resolução/Conclusão
25832672,Piódão,Região de Coimbra,310,2025-08-13T05:08:00Z,25832672,Em Curso,3103,Incêndio rural,0,377,0,1095,2025-08-13T05:08:00Z,Arganil,Coimbra,Centro,-7.81972,40.23083,Curso
25835176,Faíl e Vila Chã de Sá,Viseu Dão Lafões,310,2025-08-13T14:35:00Z,25835176,Em Resolução/Conclusão,3103,Incêndio rural,0,1,0,4,2025-08-13T14:35:00Z,Viseu,Viseu,Centro,-7.951177,40.594167,Resolução/Conclusão
25840417,Lousã e Vilarinho,Região de Coimbra,310,2025-08-14T13:46:00Z,25840417,Em Resolução/Conclusão,3101,Incêndio rural,0,118,0,356,2025-08-14T13:46:00Z,Lousã,Coimbra,Centro,-8.201561,40.080016,Resolução/Conclusão
25857006,Alvite,Douro,309,2025-08-17T14:34:00Z,25857006,Em Resolução/Conclusão,3103,Incêndio rural,0,2,0,6,2025-08-17T14:34:00Z,Moimenta Da Beira,Viseu,Norte,-7.71847,40.976933,Resolução/Conclusão
25857322,"Barcel, Marmelos e Valverde da Gestosa",Terras de Trás-os-Montes,309,2025-08-17T15:53:00Z,25857322,Em Curso,3103,Incêndio rural,0,40,0,117,2025-08-17T15:53:00Z,Mirandela,Bragança,Norte,-7.209414,41.409479,Curso
25858306,Torre e Vila Mou,Alto Minho,309,2025-08-17T19:35:00Z,25858306,Em Resolução/Conclusão,3101,Incêndio rural,0,8,0,25,2025-08-17T19:35:00Z,Viana Do Castelo,Viana Do Castelo,Norte,-8.712485,41.723582,Resolução/Conclusão
25859212,Chorense e Monte,Cávado,309,2025-08-17T23:49:00Z,25859212,Em Curso,3103,Incêndio rural,0,11,0,46,2025-08-17T23:49:00Z,Terras De Bouro,Braga,Norte,-8.306696,41.7116,Curso
25859271,Cervos,Alto Tâmega e Barroso,309,2025-08-18T00:08:00Z,25859271,Em Resolução/Conclusão,3103,Incêndio rural,0,4,0,14,2025-08-18T00:08:00Z,Boticas,Vila Real,Norte,-7.676722,41.721568,Resolução/Conclusão
25859378,Beja (Salvador e Santa Maria da Feira),Baixo Alentejo,312,2025-08-18T01:07:00Z,25859378,Em Resolução/Conclusão,3105,Incêndio rural,0,0,0,0,2025-08-18T01:07:00Z,Beja,Beja,Alentejo,-7.852847,38.026335,Resolução/Conclusão
25774883,Arnóia,Tâmega e Sousa,309,2025-08-02T18:20:00Z,25774883,Em Resolução/Conclusão,3103,Incêndio rural,0,2,0,5,2025-08-02T18:20:00Z,Celorico De Basto,Braga,Norte,-7.998983,41.348727,Resolução/Conclusão
25818455,Sobral de São Miguel,Beiras e Serra da Estrela,310,2025-08-10T15:02:00Z,25818455,Em Resolução/Conclusão,3103,Incêndio rural,0,1,0,1,2025-08-10T15:02:00Z,Covilhã,Castelo Branco,Centro,-7.77307,40.200173,Resolução/Conclusão
25846480,Sabugal e Aldeia de Santo António,Beiras e Serra da Estrela,310,2025-08-15T14:41:00Z,25846480,Em Curso,3103,Incêndio rural,0,76,0,259,2025-08-15T14:41:00Z,Sabugal,Guarda,Centro,-7.125037,40.34023,Curso
25851846,"Mamouros, Alva e Ribolhos",Viseu Dão Lafões,310,2025-08-16T14:44:00Z,25851846,Em Resolução/Conclusão,3103,Incêndio rural,0,2,0,6,2025-08-16T14:44:00Z,Castro Daire,Viseu,Centro,-7.965645,40.850267,Resolução/Conclusão
25852580,São João de Tarouca,Douro,309,2025-08-16T17:00:00Z,25852580,Em Curso,3103,Incêndio rural,0,67,0,203,2025-08-16T17:00:00Z,Tarouca,Viseu,Norte,-7.760748,40.986773,Curso
25853865,"Tavares (Chãs, Várzea e Travanca)",Viseu Dão Lafões,310,2025-08-16T22:05:00Z,25853865,Em Resolução/Conclusão,3103,Incêndio rural,0,0,0,0,2025-08-16T22:05:00Z,Mangualde,Viseu,Centro,-7.639757,40.609112,Resolução/Conclusão
25857511,"Canedo, Vale e Vila Maior",Area M. Porto,309,2025-08-17T16:37:00Z,25857511,Em Resolução/Conclusão,3103,Incêndio rural,0,6,0,24,2025-08-17T16:37:00Z,Santa Maria Da Feira,Aveiro,Norte,-8.480622,41.044443,Resolução/Conclusão
25858044,NA,NA,0,2025-08-17T18:30:00Z,25858044,Em Curso,3103,Incêndio rural,0,9,0,36,2025-08-17T18:30:00Z,Chaves,Vila Real,Norte,-7.540875,41.707525,Curso
25859299,Castelo Rodrigo,Beiras e Serra da Estrela,310,2025-08-18T00:24:00Z,25859299,Em Resolução/Conclusão,3103,Incêndio rural,0,0,0,0,2025-08-18T00:24:00Z,Figueira De Castelo Rodrigo,Guarda,Centro,-6.92324,40.876825,Resolução/Conclusão
25859484,Calheiros,Alto Minho,309,2025-08-18T02:15:00Z,25859484,Em Despacho,3103,Incêndio rural,0,1,0,5,2025-08-18T02:15:00Z,Ponte De Lima,Viana Do Castelo,Norte,-8.55749,41.82153,Despacho
25775263,Torgueda,Douro,309,2025-08-02T19:49:00Z,25775263,Em Resolução/Conclusão,3101,Incêndio rural,0,3,0,10,2025-08-02T19:49:00Z,Vila Real,Vila Real,Norte,-7.785983,41.274952,Resolução/Conclusão
25807426,Alvite,Douro,309,2025-08-08T14:31:00Z,25807426,Em Resolução/Conclusão,3103,Incêndio rural,0,4,0,21,2025-08-08T14:31:00Z,Moimenta Da Beira,Viseu,Norte,-7.688727,40.96613,Resolução/Conclusão
25845171,Pêra do Moço,Beiras e Serra da Estrela,310,2025-08-15T10:44:00Z,25845171,Em Resolução/Conclusão,3103,Incêndio rural,0,25,0,72,2025-08-15T10:44:00Z,Guarda,Guarda,Centro,-7.20956,40.61267,Resolução/Conclusão
25846016,Poiares,Douro,309,2025-08-15T13:17:00Z,25846016,Em Curso,3103,Incêndio rural,0,112,0,329,2025-08-15T13:17:00Z,Freixo De Espada à Cinta,Bragança,Norte,-6.843393,41.075787,Curso
25847211,Campelo,Região de Leiria,310,2025-08-15T17:01:00Z,25847211,Em Resolução/Conclusão,3101,Incêndio rural,0,3,0,13,2025-08-15T17:01:00Z,Figueiró Dos Vinhos,Leiria,Centro,-8.258518,39.952923,Resolução/Conclusão
25847552,"Espírito Santo, Nossa Senhora da Graça e São Simão",Alto Alentejo,312,2025-08-15T18:13:00Z,25847552,Em Resolução/Conclusão,3101,Incêndio rural,0,6,0,20,2025-08-15T18:13:00Z,Nisa,Portalegre,Alentejo,-7.676539,39.448501,Resolução/Conclusão
25859295,Porto Salvo,Grande Lisboa,311,2025-08-18T00:23:00Z,25859295,Em Resolução/Conclusão,3103,Incêndio rural,0,5,0,20,2025-08-18T00:23:00Z,Oeiras,Lisboa,Área Metropolitana De Lisboa,-9.31119,38.7233,Resolução/Conclusão
25859434,"Valbom (São Pedro), Passô e Valbom (São Martinho)",Cávado,309,2025-08-18T01:46:00Z,25859434,Em Curso,3103,Incêndio rural,0,7,0,25,2025-08-18T01:46:00Z,Vila Verde,Braga,Norte,-8.356937,41.715582,Curso
25776263,"Pena, Quintã e Vila Cova",Douro,309,2025-08-02T23:45:00Z,25776263,Em Resolução/Conclusão,3103,Incêndio rural,0,3,0,10,2025-08-02T23:45:00Z,Vila Real,Vila Real,Norte,-7.811902,41.317355,Resolução/Conclusão
25813482,Freches e Torres,Beiras e Serra da Estrela,310,2025-08-09T16:21:00Z,25813482,Em Resolução/Conclusão,3103,Incêndio rural,0,105,0,318,2025-08-09T16:21:00Z,Trancoso,Guarda,Centro,-7.363745,40.709022,Resolução/Conclusão
25830378,Ermidas-Sado,Alentejo Litoral,312,2025-08-12T16:42:00Z,25830378,Em Resolução/Conclusão,3101,Incêndio rural,0,1,0,1,2025-08-12T16:42:00Z,Santiago Do Cacém,Setúbal,Alentejo,-8.407646,38.059897,Resolução/Conclusão
25832250,Ferreira de Aves,Viseu Dão Lafões,310,2025-08-13T00:03:00Z,25832250,Em Resolução/Conclusão,3103,Incêndio rural,0,163,0,477,2025-08-13T00:03:00Z,Sátão,Viseu,Centro,-7.647793,40.79568,Resolução/Conclusão
25836309,Cinfães,Tâmega e Sousa,309,2025-08-13T18:17:00Z,25836309,Em Resolução/Conclusão,3103,Incêndio rural,0,4,0,14,2025-08-13T18:17:00Z,Cinfães,Viseu,Norte,-8.071502,41.049757,Resolução/Conclusão
25840505,Ribeira de Nisa e Carreiras,Alto Alentejo,312,2025-08-14T14:01:00Z,25840505,Em Resolução/Conclusão,3101,Incêndio rural,0,4,0,12,2025-08-14T14:01:00Z,Portalegre,Portalegre,Alentejo,-7.47009,39.374707,Resolução/Conclusão
25844050,"Pena, Quintã e Vila Cova",Douro,309,2025-08-15T04:16:00Z,25844050,Em Resolução/Conclusão,3103,Incêndio rural,0,0,0,0,2025-08-15T04:16:00Z,Vila Real,Vila Real,Norte,-7.861022,41.318705,Resolução/Conclusão
25851721,Arnóia,Tâmega e Sousa,309,2025-08-16T14:24:00Z,25851721,Em Resolução/Conclusão,3103,Incêndio rural,0,23,0,65,2025-08-16T14:24:00Z,Celorico De Basto,Braga,Norte,-7.994469,41.369836,Resolução/Conclusão
25852438,Campanhó e Paradança,Ave,309,2025-08-16T16:41:00Z,25852438,Em Resolução/Conclusão,3103,Incêndio rural,0,41,0,128,2025-08-16T16:41:00Z,Mondim De Basto,Vila Real,Norte,-7.965877,41.391997,Resolução/Conclusão
25856549,"Oliveira de Frades, Souto de Lafões e Sejães",Viseu Dão Lafões,310,2025-08-17T13:08:00Z,25856549,Em Resolução/Conclusão,3103,Incêndio rural,0,1,0,2,2025-08-17T13:08:00Z,Oliveira De Frades,Viseu,Centro,-8.203795,40.74088,Resolução/Conclusão
25856751,Silves,Algarve,313,2025-08-17T13:56:00Z,25856751,Em Resolução/Conclusão,3103,Incêndio rural,0,3,0,12,2025-08-17T13:56:00Z,Silves,Faro,Algarve,-8.49143,37.203538,Resolução/Conclusão
25857084,NA,NA,0,2025-08-17T15:02:00Z,25857084,Em Resolução/Conclusão,3103,Incêndio rural,0,0,0,0,2025-08-17T15:02:00Z,Moura,Beja,Alentejo,-7.02855,38.088503,Resolução/Conclusão
