id,address,subregion,neighborhood,date,id.1,state,nature,nature_description,aerial_means,terrestrial_means,aquatic_means,operational,date.1,Concelho,Distrito,NUTII_DSG,longitude,latitude,state_2
26128117,Grijó e Sermonde,Area M. Porto,309,2025-10-13T00:48:00Z,26128117,Em Curso,3103,Incêndio rural,0,1,0,5,2025-10-13T00:48:00Z,Vila Nova De Gaia,Porto,Norte,-8.579955,41.030201,Curso
26128394,Branca,Lezíria do Tejo,311,2025-10-13T05:27:00Z,26128394,Em Despacho,3103,Incêndio rural,0,3,0,9,2025-10-13T05:27:00Z,Coruche,Santarém,Alentejo,-8.59515,38.84517,Despacho
26127404,São Pedro de Veiga de Lila,Alto Tâmega e Barroso,309,2025-10-12T20:22:00Z,26127404,Em Resolução/Conclusão,3103,Incêndio rural,0,1,0,2,2025-10-12T20:22:00Z,Valpaços,Vila Real,Norte,-7.377525,41.481558,Resolução/Conclusão
26127611,Torgueda,Douro,309,2025-10-12T21:20:00Z,26127611,Em Resolução/Conclusão,3103,Incêndio rural,0,0,0,0,2025-10-12T21:20:00Z,Vila Real,Vila Real,Norte,-7.77555,41.265198,Resolução/Conclusão
26126383,Mouriscas,Médio Tejo,311,2025-10-12T15:59:00Z,26126383,Em Resolução/Conclusão,3103,Incêndio rural,0,5,0,17,2025-10-12T15:59:00Z,Abrantes,Santarém,Centro,-8.11638,39.518325,Resolução/Conclusão
