id,address,subregion,neighborhood,date,id.1,state,nature,nature_description,aerial_means,terrestrial_means,aquatic_means,operational,date.1,Concelho,Distrito,NUTII_DSG,longitude,latitude,state_2
26022995,Bordeira,Algarve,313,2025-09-21T12:21:00Z,26022995,Em Resolução/Conclusão,3103,Incêndio rural,0,4,0,13,2025-09-21T12:21:00Z,Aljezur,Faro,Algarve,-8.825374,37.23495,Resolução/Conclusão
26088425,Arneiro Das Milhariças,Lezíria do Tejo,311,2025-10-04T18:29:00Z,26088425,Em Resolução/Conclusão,3105,Incêndio rural,0,2,0,4,2025-10-04T18:29:00Z,Santarém,Santarém,Alentejo,-8.71314,39.41185,Resolução/Conclusão
26088712,Beja (Santiago Maior e São João Baptista),Baixo Alentejo,312,2025-10-04T19:44:00Z,26088712,Em Resolução/Conclusão,3103,Incêndio rural,0,3,0,12,2025-10-04T19:44:00Z,Beja,Beja,Alentejo,-7.89418,38.00089,Resolução/Conclusão
26088039,Rio de Moinhos,Tâmega e Sousa,309,2025-10-04T16:44:00Z,26088039,Em Resolução/Conclusão,3103,Incêndio rural,0,2,0,10,2025-10-04T16:44:00Z,Penafiel,Porto,Norte,-8.267072,41.119143,Resolução/Conclusão
26087899,"Mangualde, Mesquitela e Cunha Alta",Viseu Dão Lafões,310,2025-10-04T16:10:00Z,26087899,Em Resolução/Conclusão,3103,Incêndio rural,0,5,0,14,2025-10-04T16:10:00Z,Mangualde,Viseu,Centro,-7.731137,40.595962,Resolução/Conclusão
26088687,Lagares e Figueira,Tâmega e Sousa,309,2025-10-04T19:38:00Z,26088687,Em Despacho,3105,Incêndio rural,0,2,0,7,2025-10-04T19:38:00Z,Penafiel,Porto,Norte,-8.36916,41.1351,Despacho
26088615,Amoreira,Oeste,311,2025-10-04T19:14:00Z,26088615,Em Resolução/Conclusão,3111,Queima,0,1,0,5,2025-10-04T19:14:00Z,Óbidos,Leiria,Centro,-9.20245,39.33939,Resolução/Conclusão
26088804,Milharado,Grande Lisboa,311,2025-10-04T20:01:00Z,26088804,Em Despacho,3103,Incêndio rural,0,7,0,29,2025-10-04T20:01:00Z,Mafra,Lisboa,Área Metropolitana De Lisboa,-9.209207,38.940909,Despacho
