id,address,subregion,neighborhood,date,id.1,state,nature,nature_description,aerial_means,terrestrial_means,aquatic_means,operational,date.1,Concelho,Distrito,NUTII_DSG,longitude,latitude
24624200,Lousã e Vilarinho,Região de Coimbra,310,2024-12-02T07:56:00Z,24624200,Em despacho,3301,Queda de árvore,0,1,0,2,2024-12-02T07:56:00Z,Lousã,Coimbra,Centro,-8.210545,40.12575
24625052,Aldeia do Mato e Souto,Médio Tejo,311,2024-12-02T10:23:00Z,24625052,Em despacho,3309,Desabamento de estruturas edificadas,0,1,0,2,2024-12-02T10:23:00Z,Abrantes,Santarém,Centro,-8.225058,39.581756
24624725,Pontinha e Famões,Grande Lisboa,311,2024-12-02T09:46:00Z,24624725,Em despacho,3317,Inundação de estruturas por água canalizada,0,1,0,4,2024-12-02T09:46:00Z,Odivelas,Lisboa,Área Metropolitana De Lisboa,-9.20104,38.7631
24624841,Ericeira,Grande Lisboa,311,2024-12-02T09:57:00Z,24624841,Em conclusão,3315,Inundação de estruturas por precipitação intensa,0,1,0,5,2024-12-02T09:57:00Z,Mafra,Lisboa,Área Metropolitana De Lisboa,-9.417289,38.967626
24625064,São João Dos Caldeireiros,Baixo Alentejo,312,2024-12-02T10:35:00Z,24625064,Em despacho,3301,Queda de árvore,0,2,0,6,2024-12-02T10:35:00Z,Mértola,Beja,Alentejo,-7.796522,37.650844
24625082,Alcabideche,Grande Lisboa,311,2024-12-02T10:45:00Z,24625082,Em despacho,3321,Dano na rede de fornecimento de eletricidade ,0,0,0,0,2024-12-02T10:45:00Z,Cascais,Lisboa,Área Metropolitana De Lisboa,-9.4155,38.73589
