id,address,subregion,neighborhood,date,id.1,state,nature,nature_description,aerial_means,terrestrial_means,aquatic_means,operational,date.1,Concelho,Distrito,NUTII_DSG,longitude,latitude,state_2
25682108,Lanhelas,Alto Minho,309,2025-07-15T15:02:00Z,25682108,Em Resolução/Conclusão,3103,Incêndio rural,1,16,0,57,2025-07-15T15:02:00Z,Caminha,Viana Do Castelo,Norte,-8.783442,41.9107,Resolução/Conclusão
25682969,São Bartolomeu de Messines,Algarve,313,2025-07-15T17:55:00Z,25682969,Em Resolução/Conclusão,3103,Incêndio rural,1,4,0,18,2025-07-15T17:55:00Z,Silves,Faro,Algarve,-8.260409,37.2019,Resolução/Conclusão
25682987,São João Baptista,Alto Alentejo,312,2025-07-15T17:57:00Z,25682987,Em Resolução/Conclusão,3105,Incêndio rural,0,4,0,10,2025-07-15T17:57:00Z,Campo Maior,Portalegre,Alentejo,-7.075682,39.012942,Resolução/Conclusão
25683021,Vilar de Pinheiro,Area M. Porto,309,2025-07-15T18:04:00Z,25683021,Em Curso,3103,Incêndio rural,1,3,0,21,2025-07-15T18:04:00Z,Vila Do Conde,Porto,Norte,-8.675347,41.270887,Curso
25665133,Lindoso,Alto Minho,309,2025-07-12T02:50:00Z,25665133,Em Resolução/Conclusão,3103,Incêndio rural,0,4,0,17,2025-07-12T02:50:00Z,Ponte Da Barca,Viana Do Castelo,Norte,-8.224007,41.852543,Resolução/Conclusão
25677014,Alcórrego e Maranhão,Alto Alentejo,312,2025-07-14T15:07:00Z,25677014,Em Resolução/Conclusão,3101,Incêndio rural,0,9,0,29,2025-07-14T15:07:00Z,Avis,Portalegre,Alentejo,-7.895798,38.982193,Resolução/Conclusão
25682131,Borba de Montanha,Tâmega e Sousa,309,2025-07-15T15:07:00Z,25682131,Em Resolução/Conclusão,3103,Incêndio rural,0,4,0,14,2025-07-15T15:07:00Z,Celorico De Basto,Braga,Norte,-8.099957,41.379852,Resolução/Conclusão
25683180,Alenquer (Santo Estêvão e Triana),Oeste,311,2025-07-15T18:35:00Z,25683180,Em Despacho,3103,Incêndio rural,0,3,0,12,2025-07-15T18:35:00Z,Alenquer,Lisboa,Centro,-9.031421,39.060485,Despacho
25681114,"S. Mig. Pinheiro, S. Pedro Solis e S. Sebastião Carros",Baixo Alentejo,312,2025-07-15T11:44:00Z,25681114,Em Resolução/Conclusão,3105,Incêndio rural,0,1,0,5,2025-07-15T11:44:00Z,Mértola,Beja,Alentejo,-7.901305,37.480835,Resolução/Conclusão
25682332,Poiares,Alto Minho,309,2025-07-15T15:45:00Z,25682332,Em Resolução/Conclusão,3103,Incêndio rural,0,1,0,5,2025-07-15T15:45:00Z,Ponte De Lima,Viana Do Castelo,Norte,-8.633653,41.659273,Resolução/Conclusão
25682486,Balazar,Area M. Porto,309,2025-07-15T16:11:00Z,25682486,Em Resolução/Conclusão,3101,Incêndio rural,0,2,0,7,2025-07-15T16:11:00Z,Póvoa De Varzim,Porto,Norte,-8.624487,41.402142,Resolução/Conclusão
25682652,"Labrujó, Rendufe e Vilar do Monte",Alto Minho,309,2025-07-15T16:48:00Z,25682652,Em Resolução/Conclusão,3105,Incêndio rural,0,2,0,10,2025-07-15T16:48:00Z,Ponte De Lima,Viana Do Castelo,Norte,-8.556888,41.856642,Resolução/Conclusão
25682868,Sertã,Beira Baixa,310,2025-07-15T17:30:00Z,25682868,Em Resolução/Conclusão,3101,Incêndio rural,4,37,0,145,2025-07-15T17:30:00Z,Sertã,Castelo Branco,Centro,-8.092748,39.819602,Resolução/Conclusão
25683009,Paredes de Viadores e Manhuncelos,Tâmega e Sousa,309,2025-07-15T18:05:00Z,25683009,Em Resolução/Conclusão,3103,Incêndio rural,0,4,0,23,2025-07-15T18:05:00Z,Marco De Canaveses,Porto,Norte,-8.1407,41.14688,Resolução/Conclusão
25683027,Valdosende,Cávado,309,2025-07-15T18:05:00Z,25683027,Em Resolução/Conclusão,3103,Incêndio rural,0,1,0,5,2025-07-15T18:05:00Z,Terras De Bouro,Braga,Norte,-8.22761,41.666101,Resolução/Conclusão
25681100,Sendim e Atenor,Terras de Trás-os-Montes,309,2025-07-15T11:45:00Z,25681100,Em Resolução/Conclusão,3103,Incêndio rural,0,2,0,7,2025-07-15T11:45:00Z,Miranda Do Douro,Bragança,Norte,-6.433873,41.404508,Resolução/Conclusão
25682037,"Aver-o-Mar, Amorim e Terroso",Area M. Porto,309,2025-07-15T14:47:00Z,25682037,Em Resolução/Conclusão,3103,Incêndio rural,0,3,0,8,2025-07-15T14:47:00Z,Póvoa De Varzim,Porto,Norte,-8.734177,41.422432,Resolução/Conclusão
25682254,Panque,Cávado,309,2025-07-15T15:31:00Z,25682254,Em Curso,3101,Incêndio rural,5,22,0,80,2025-07-15T15:31:00Z,Barcelos,Braga,Norte,-8.607035,41.626113,Curso
25682641,São Bento,Região de Leiria,310,2025-07-15T16:44:00Z,25682641,Em Resolução/Conclusão,3101,Incêndio rural,1,25,0,89,2025-07-15T16:44:00Z,Porto De Mós,Leiria,Centro,-8.746241,39.52425,Resolução/Conclusão
25682856,Nespereira,Tâmega e Sousa,309,2025-07-15T17:24:00Z,25682856,Em Resolução/Conclusão,3103,Incêndio rural,0,9,0,33,2025-07-15T17:24:00Z,Cinfães,Viseu,Norte,-8.180775,41.013885,Resolução/Conclusão
25683104,Melres e Medas,Area M. Porto,309,2025-07-15T18:16:00Z,25683104,Em Resolução/Conclusão,3101,Incêndio rural,0,2,0,6,2025-07-15T18:16:00Z,Gondomar,Porto,Norte,-8.424472,41.080347,Resolução/Conclusão
25683023,Pegões,Península de Setúbal,311,2025-07-15T18:00:00Z,25683023,Em Resolução/Conclusão,3103,Incêndio rural,0,3,0,15,2025-07-15T18:00:00Z,Montijo,Setúbal,Área Metropolitana De Lisboa,-8.757197,38.690184,Resolução/Conclusão
25683057,Messejana,Baixo Alentejo,312,2025-07-15T18:10:00Z,25683057,Em Curso,3105,Incêndio rural,3,28,0,107,2025-07-15T18:10:00Z,Aljustrel,Beja,Alentejo,-8.271683,37.844044,Curso
