id,address,subregion,neighborhood,date,id.1,state,nature,nature_description,aerial_means,terrestrial_means,aquatic_means,operational,date.1,Concelho,Distrito,NUTII_DSG,longitude,latitude
25560820,Padroso,Alto Minho,309,2025-06-21T23:14:00Z,25560820,Em conclusão,3103,Incêndio rural,0,0,0,0,2025-06-21T23:14:00Z,Arcos De Valdevez,Viana Do Castelo,Norte,-8.473467,41.943507
25560920,Campo e Sobrado,Area M. Porto,309,2025-06-21T23:35:00Z,25560920,Em conclusão,3101,Incêndio rural,0,2,0,7,2025-06-21T23:35:00Z,Valongo,Porto,Norte,-8.473333,41.21806
25561243,Portela e Extremo,Alto Minho,309,2025-06-22T02:22:00Z,25561243,Em conclusão,3103,Incêndio rural,0,2,0,7,2025-06-22T02:22:00Z,Arcos De Valdevez,Viana Do Castelo,Norte,-8.454312,41.965367
25561081,Agualva e Mira-Sintra,Grande Lisboa,311,2025-06-22T01:02:00Z,25561081,Em conclusão,2101,Incêndio em edifícios habitacionais,0,3,0,5,2025-06-22T01:02:00Z,Sintra,Lisboa,Área Metropolitana De Lisboa,-9.302911,38.77294
25553154,Pedrógão,Baixo Alentejo,312,2025-06-20T12:23:00Z,25553154,Em conclusão,3103,Incêndio rural,0,0,0,0,2025-06-20T12:23:00Z,Vidigueira,Beja,Alentejo,-7.549947,38.179912
