id,address,subregion,neighborhood,date,id.1,state,nature,nature_description,aerial_means,terrestrial_means,aquatic_means,operational,date.1,Concelho,Distrito,NUTII_DSG,longitude,latitude,state_2
25646735,Campelo e Ovil,Tâmega e Sousa,309,2025-07-08T13:19:00Z,25646735,Em Resolução/Conclusão,3105,Incêndio rural,0,1,0,5,2025-07-08T13:19:00Z,Baião,Porto,Norte,-8.00404,41.193612,Resolução/Conclusão
25655711,Vila Chã de Braciosa,Terras de Trás-os-Montes,309,2025-07-10T08:55:00Z,25655711,Em Resolução/Conclusão,3105,Incêndio rural,0,3,0,12,2025-07-10T08:55:00Z,Miranda Do Douro,Bragança,Norte,-6.352833,41.420883,Resolução/Conclusão
25655854,Soajo,Alto Minho,309,2025-07-10T09:20:00Z,25655854,Em Curso,3103,Incêndio rural,1,2,0,13,2025-07-10T09:20:00Z,Arcos De Valdevez,Viana Do Castelo,Norte,-8.230447,41.877005,Curso
25646909,Nespereira,Tâmega e Sousa,309,2025-07-08T13:53:00Z,25646909,Em Resolução/Conclusão,3103,Incêndio rural,0,1,0,5,2025-07-08T13:53:00Z,Cinfães,Viseu,Norte,-8.122663,40.996095,Resolução/Conclusão
25649968,Pussos São Pedro,Região de Leiria,310,2025-07-09T04:38:00Z,25649968,Em Resolução/Conclusão,3103,Incêndio rural,0,2,0,4,2025-07-09T04:38:00Z,Alvaiázere,Leiria,Centro,-8.334062,39.841006,Resolução/Conclusão
25653444,Lagares,Região de Coimbra,310,2025-07-09T17:45:00Z,25653444,Em Resolução/Conclusão,3103,Incêndio rural,0,1,0,5,2025-07-09T17:45:00Z,Oliveira Do Hospital,Coimbra,Centro,-7.84119,40.40041,Resolução/Conclusão
25647385,Castelo Novo,Beiras e Serra da Estrela,310,2025-07-08T15:11:00Z,25647385,Em Resolução/Conclusão,3103,Incêndio rural,0,1,0,5,2025-07-08T15:11:00Z,Fundão,Castelo Branco,Centro,-7.447838,40.023465,Resolução/Conclusão
25647106,Tortosendo,Beiras e Serra da Estrela,310,2025-07-08T14:25:00Z,25647106,Em Resolução/Conclusão,3103,Incêndio rural,0,2,0,7,2025-07-08T14:25:00Z,Covilhã,Castelo Branco,Centro,-7.508533,40.223705,Resolução/Conclusão
25652972,Casal Vasco,Beiras e Serra da Estrela,310,2025-07-09T16:12:00Z,25652972,Em Resolução/Conclusão,3103,Incêndio rural,0,1,0,5,2025-07-09T16:12:00Z,Fornos De Algodres,Guarda,Centro,-7.545148,40.650238,Resolução/Conclusão
25655985,Ribas,Tâmega e Sousa,309,2025-07-10T09:42:00Z,25655985,Em Resolução/Conclusão,3103,Incêndio rural,1,3,0,18,2025-07-10T09:42:00Z,Celorico De Basto,Braga,Norte,-8.029637,41.439895,Resolução/Conclusão
