id,address,subregion,neighborhood,date,id.1,state,nature,nature_description,aerial_means,terrestrial_means,aquatic_means,operational,date.1,Concelho,Distrito,NUTII_DSG,longitude,latitude
25087162,Pedrógão,Baixo Alentejo,312,2025-03-14T17:00:00Z,25087162,Em curso,1101,Cheia,0,0,0,0,2025-03-14T17:00:00Z,Vidigueira,Beja,Alentejo,-7.630327,38.110775
25111421,Febres,Região de Coimbra,310,2025-03-19T20:53:00Z,25111421,Em despacho,3311,Queda de elementos de estruturas edificados,0,1,0,2,2025-03-19T20:53:00Z,Cantanhede,Coimbra,Centro,-8.637168,40.385839
25111596,Paião,Região de Coimbra,310,2025-03-19T21:30:00Z,25111596,Em despacho,3301,Queda de árvore,0,1,0,2,2025-03-19T21:30:00Z,Figueira Da Foz,Coimbra,Centro,-8.756598,40.054747
25111610,Marrazes e Barosa,Região de Leiria,310,2025-03-19T21:35:00Z,25111610,Em despacho,3301,Queda de árvore,0,0,0,0,2025-03-19T21:35:00Z,Leiria,Leiria,Centro,-8.81813,39.75452
25111669,Marinha Grande,Região de Leiria,310,2025-03-19T21:26:00Z,25111669,Em despacho,3311,Queda de elementos de estruturas edificados,0,1,0,2,2025-03-19T21:26:00Z,Marinha Grande,Leiria,Centro,-8.937219,39.767238
25111794,Santiago e S. Simão de Litém e Albergaria Dos Doze,Região de Leiria,310,2025-03-19T22:00:00Z,25111794,Em despacho,3311,Queda de elementos de estruturas edificados,0,2,0,7,2025-03-19T22:00:00Z,Pombal,Leiria,Centro,-8.58281,39.824995
25111812,Parceiros e Azoia,Região de Leiria,310,2025-03-19T22:08:00Z,25111812,Em despacho,3301,Queda de árvore,0,1,0,3,2025-03-19T22:08:00Z,Leiria,Leiria,Centro,-8.83613,39.70146
25111844,Cadafaz e Colmeal,Região de Coimbra,310,2025-03-19T22:11:00Z,25111844,Em despacho,3309,Desabamento de estruturas edificadas,0,2,0,3,2025-03-19T22:11:00Z,Góis,Coimbra,Centro,-8.013447,40.126617
25111894,São Martinho,Alentejo Litoral,312,2025-03-19T22:23:00Z,25111894,Em resolução,3301,Queda de árvore,0,5,0,9,2025-03-19T22:23:00Z,Alcácer Do Sal,Setúbal,Alentejo,-8.5474,38.44614
25111896,Rio Tinto,Area M. Porto,309,2025-03-19T22:23:00Z,25111896,Em resolução,3301,Queda de árvore,0,3,0,8,2025-03-19T22:23:00Z,Gondomar,Porto,Norte,-8.56816,41.18064
25111939,Pombal,Região de Leiria,310,2025-03-19T22:30:00Z,25111939,Em despacho,3301,Queda de árvore,0,1,0,2,2025-03-19T22:30:00Z,Pombal,Leiria,Centro,-8.603159,39.896965
25111987,Paião,Região de Coimbra,310,2025-03-19T22:38:00Z,25111987,Em despacho,3301,Queda de árvore,0,0,0,0,2025-03-19T22:38:00Z,Figueira Da Foz,Coimbra,Centro,-8.81391,40.06369
25111998,Maceira,Região de Leiria,310,2025-03-19T22:18:00Z,25111998,Em despacho,3309,Desabamento de estruturas edificadas,0,2,0,4,2025-03-19T22:18:00Z,Leiria,Leiria,Centro,-8.877948,39.682073
25112030,Santa Bárbara de Nexe,Algarve,313,2025-03-19T22:47:00Z,25112030,Em despacho,3321,Dano na rede de fornecimento de eletricidade ,0,2,0,5,2025-03-19T22:47:00Z,Faro,Faro,Algarve,-7.93309,37.12767
25112039,Beduído e Veiros,Região de Aveiro,310,2025-03-19T22:49:00Z,25112039,Em resolução,3311,Queda de elementos de estruturas edificados,0,3,0,7,2025-03-19T22:49:00Z,Estarreja,Aveiro,Centro,-8.574685,40.76101
25112073,Corroios,Península de Setúbal,311,2025-03-19T22:56:00Z,25112073,Em curso,3301,Queda de árvore,0,1,0,3,2025-03-19T22:56:00Z,Seixal,Setúbal,Área Metropolitana De Lisboa,-9.15214,38.58275
25112098,Oliveira do Hospital e São Paio de Gramaços,Região de Coimbra,310,2025-03-19T22:45:00Z,25112098,Em despacho,3301,Queda de árvore,0,1,0,2,2025-03-19T22:45:00Z,Oliveira Do Hospital,Coimbra,Centro,-7.869418,40.359628
25112105,Vidais,Oeste,311,2025-03-19T22:37:00Z,25112105,Em despacho,3301,Queda de árvore,0,1,0,5,2025-03-19T22:37:00Z,Caldas Da Rainha,Leiria,Centro,-9.048666,39.369221
25112155,Portimão,Algarve,313,2025-03-19T23:04:00Z,25112155,Em curso,3315,Inundação de estruturas por precipitação intensa,0,0,0,0,2025-03-19T23:04:00Z,Portimão,Faro,Algarve,-8.532608,37.137966
25112180,Pombal,Região de Leiria,310,2025-03-19T22:40:00Z,25112180,Em despacho,3301,Queda de árvore,0,1,0,4,2025-03-19T22:40:00Z,Pombal,Leiria,Centro,-8.65944,39.917437
25112187,"Mangualde, Mesquitela e Cunha Alta",Viseu Dão Lafões,310,2025-03-19T23:14:00Z,25112187,Em conclusão,3301,Queda de árvore,0,0,0,0,2025-03-19T23:14:00Z,Mangualde,Viseu,Centro,-7.740703,40.606613
25112214,Soure,Região de Coimbra,310,2025-03-19T23:21:00Z,25112214,Em despacho,3329,Queda de estruturas temporárias ou móveis,0,1,0,2,2025-03-19T23:21:00Z,Soure,Coimbra,Centro,-8.544145,40.05722
25112273,Sesimbra (Castelo),Península de Setúbal,311,2025-03-19T23:12:00Z,25112273,Em despacho,3301,Queda de árvore,0,1,0,6,2025-03-19T23:12:00Z,Sesimbra,Setúbal,Área Metropolitana De Lisboa,-9.112506,38.449031
25112280,Santo António da Charneca,Península de Setúbal,311,2025-03-19T22:54:00Z,25112280,Em curso,3301,Queda de árvore,0,1,0,5,2025-03-19T22:54:00Z,Barreiro,Setúbal,Área Metropolitana De Lisboa,-9.016979,38.599327
25112282,Lagoa e Carvoeiro,Algarve,313,2025-03-19T23:25:00Z,25112282,Em despacho,3329,Queda de estruturas temporárias ou móveis,0,1,0,3,2025-03-19T23:25:00Z,Lagoa,Faro,Algarve,-8.449309,37.134614
25112289,Alcabideche,Grande Lisboa,311,2025-03-19T23:23:00Z,25112289,Em despacho,3301,Queda de árvore,0,1,0,5,2025-03-19T23:23:00Z,Cascais,Lisboa,Área Metropolitana De Lisboa,-9.377282,38.724858
25112296,Bombarral e Vale Covo,Oeste,311,2025-03-19T23:23:00Z,25112296,Em despacho,3329,Queda de estruturas temporárias ou móveis,0,2,0,4,2025-03-19T23:23:00Z,Bombarral,Leiria,Centro,-9.171316,39.267313
25112307,Almeirim,Lezíria do Tejo,311,2025-03-19T23:35:00Z,25112307,Em resolução,3329,Queda de estruturas temporárias ou móveis,0,0,0,0,2025-03-19T23:35:00Z,Almeirim,Santarém,Alentejo,-8.588832,39.142251
25112314,Santa Clara e Castelo Viegas,Região de Coimbra,310,2025-03-19T23:36:00Z,25112314,Em despacho,3309,Desabamento de estruturas edificadas,0,1,0,3,2025-03-19T23:36:00Z,Coimbra,Coimbra,Centro,-8.405437,40.161477
25112323,Lagoa e Carvoeiro,Algarve,313,2025-03-19T23:38:00Z,25112323,Em despacho,3301,Queda de árvore,0,1,0,2,2025-03-19T23:38:00Z,Lagoa,Faro,Algarve,-8.45553,37.0934
25112332,Rio de Mouro,Grande Lisboa,311,2025-03-19T23:37:00Z,25112332,Em despacho,3311,Queda de elementos de estruturas edificados,0,1,0,3,2025-03-19T23:37:00Z,Sintra,Lisboa,Área Metropolitana De Lisboa,-9.344491,38.75763
25112337,Pombal,Região de Leiria,310,2025-03-19T23:40:00Z,25112337,Em despacho,3301,Queda de árvore,0,1,0,3,2025-03-19T23:40:00Z,Pombal,Leiria,Centro,-8.64137,39.9113
25112355,Cascais e Estoril,Grande Lisboa,311,2025-03-19T23:42:00Z,25112355,Em despacho,3301,Queda de árvore,0,0,0,0,2025-03-19T23:42:00Z,Cascais,Lisboa,Área Metropolitana De Lisboa,-9.44891,38.69577
25112364,Canha,Península de Setúbal,311,2025-03-19T23:25:00Z,25112364,Em curso,3301,Queda de árvore,0,3,0,12,2025-03-19T23:25:00Z,Montijo,Setúbal,Área Metropolitana De Lisboa,-8.631311,38.768258
25112371,Oliveira do Hospital e São Paio de Gramaços,Região de Coimbra,310,2025-03-19T23:44:00Z,25112371,Em curso,3309,Desabamento de estruturas edificadas,0,1,0,3,2025-03-19T23:44:00Z,Oliveira Do Hospital,Coimbra,Centro,-7.86434,40.35772
25112387,Barreiro e Lavradio,Península de Setúbal,311,2025-03-19T23:08:00Z,25112387,Em curso,3311,Queda de elementos de estruturas edificados,0,1,0,2,2025-03-19T23:08:00Z,Barreiro,Setúbal,Área Metropolitana De Lisboa,-9.060271,38.662949
25112389,Peniche,Oeste,311,2025-03-19T23:28:00Z,25112389,Em despacho,3329,Queda de estruturas temporárias ou móveis,0,4,0,9,2025-03-19T23:28:00Z,Peniche,Leiria,Centro,-9.376833,39.357166
25068300,Almeirim,Lezíria do Tejo,311,2025-03-10T20:52:00Z,25068300,Em curso,1101,Cheia,0,0,0,0,2025-03-10T20:52:00Z,Almeirim,Santarém,Alentejo,-8.635002,39.187436
25111284,"Manique do Intendente, V. N. de São Pedro e Maçussa",Lezíria do Tejo,311,2025-03-19T20:22:00Z,25111284,Em conclusão,3329,Queda de estruturas temporárias ou móveis,0,1,0,2,2025-03-19T20:22:00Z,Azambuja,Lisboa,Alentejo,-8.889528,39.229128
25111888,Louriçal,Região de Leiria,310,2025-03-19T22:22:00Z,25111888,Em despacho,3321,Dano na rede de fornecimento de eletricidade ,0,1,0,1,2025-03-19T22:22:00Z,Pombal,Leiria,Centro,-8.773705,40.03828
25111913,Águas Santas,Area M. Porto,309,2025-03-19T22:26:00Z,25111913,Em conclusão,3329,Queda de estruturas temporárias ou móveis,0,1,0,5,2025-03-19T22:26:00Z,Maia,Porto,Norte,-8.561395,41.20415
25111936,Alfeizerão,Oeste,311,2025-03-19T22:29:00Z,25111936,Em despacho,3301,Queda de árvore,0,1,0,1,2025-03-19T22:29:00Z,Alcobaça,Leiria,Centro,-9.10212,39.50255
25112036,"São Miguel, Santa Eufémia e Rabaçal",Região de Coimbra,310,2025-03-19T22:40:00Z,25112036,Em despacho,3301,Queda de árvore,0,3,0,7,2025-03-19T22:40:00Z,Penela,Coimbra,Centro,-8.397812,40.011996
25059714,Torrão,Alentejo Litoral,312,2025-03-08T22:10:00Z,25059714,Em curso,1101,Cheia,0,2,0,3,2025-03-08T22:10:00Z,Alcácer Do Sal,Setúbal,Alentejo,-8.359133,38.252053
25070044,Praia do Ribatejo,Médio Tejo,311,2025-03-10T19:30:00Z,25070044,Em curso,1101,Cheia,0,0,0,0,2025-03-10T19:30:00Z,Vila Nova Da Barquinha,Santarém,Centro,-8.357309,39.485638
25071496,São Manços e São Vicente do Pigeiro,Alentejo Central,312,2025-03-11T13:18:00Z,25071496,Em curso,1101,Cheia,0,2,0,4,2025-03-11T13:18:00Z,Évora,Évora,Alentejo,-7.713313,38.513673
25111474,Bombarral e Vale Covo,Oeste,311,2025-03-19T21:07:00Z,25111474,Em resolução,3301,Queda de árvore,0,2,0,3,2025-03-19T21:07:00Z,Bombarral,Leiria,Centro,-9.16726,39.2754
25111623,Alqueidão,Região de Coimbra,310,2025-03-19T21:36:00Z,25111623,Em despacho,3301,Queda de árvore,0,0,0,0,2025-03-19T21:36:00Z,Figueira Da Foz,Coimbra,Centro,-8.76809,40.07898
25111860,Longueira/Almograve,Alentejo Litoral,312,2025-03-19T22:09:00Z,25111860,Em conclusão,3301,Queda de árvore,0,1,0,2,2025-03-19T22:09:00Z,Odemira,Beja,Alentejo,-8.71748,37.612027
25063232,Santa Maria do Castelo e Santiago e Santa Susana,Alentejo Litoral,312,2025-03-09T19:02:00Z,25063232,Em curso,1101,Cheia,0,0,0,0,2025-03-09T19:02:00Z,Alcácer Do Sal,Setúbal,Alentejo,-8.48167,38.29806
25111848,Alenquer (Santo Estêvão e Triana),Oeste,311,2025-03-19T22:14:00Z,25111848,Em despacho,3301,Queda de árvore,0,1,0,2,2025-03-19T22:14:00Z,Alenquer,Lisboa,Centro,-9.02472,39.02977
25111898,Santo Isidoro,Grande Lisboa,311,2025-03-19T22:16:00Z,25111898,Em despacho,3301,Queda de árvore,0,1,0,5,2025-03-19T22:16:00Z,Mafra,Lisboa,Área Metropolitana De Lisboa,-9.368141,38.994278
25111915,Góis,Região de Coimbra,310,2025-03-19T22:23:00Z,25111915,Em despacho,3301,Queda de árvore,0,1,0,4,2025-03-19T22:23:00Z,Góis,Coimbra,Centro,-8.120659,40.134935
25111934,Monchique,Algarve,313,2025-03-19T22:18:00Z,25111934,Em curso,3301,Queda de árvore,0,2,0,5,2025-03-19T22:18:00Z,Monchique,Faro,Algarve,-8.614574,37.284529
25112000,Fernão Ferro,Península de Setúbal,311,2025-03-19T22:42:00Z,25112000,Em despacho,3301,Queda de árvore,0,1,0,2,2025-03-19T22:42:00Z,Seixal,Setúbal,Área Metropolitana De Lisboa,-9.09385,38.57806
25112066,Gafanha da Nazaré,Região de Aveiro,310,2025-03-19T22:51:00Z,25112066,Em resolução,3311,Queda de elementos de estruturas edificados,0,1,0,3,2025-03-19T22:51:00Z,Ílhavo,Aveiro,Centro,-8.714699,40.63582
25112068,Lagoa e Carvoeiro,Algarve,313,2025-03-19T22:54:00Z,25112068,Em curso,3301,Queda de árvore,0,2,0,5,2025-03-19T22:54:00Z,Lagoa,Faro,Algarve,-8.45971,37.09728
25112396,Portimão,Algarve,313,2025-03-19T23:47:00Z,25112396,Em despacho,3329,Queda de estruturas temporárias ou móveis,0,1,0,2,2025-03-19T23:47:00Z,Portimão,Faro,Algarve,-8.53929,37.12015
25112423,"Leiria, Pousos, Barreira e Cortes",Região de Leiria,310,2025-03-19T23:51:00Z,25112423,Em despacho,3301,Queda de árvore,0,1,0,2,2025-03-19T23:51:00Z,Leiria,Leiria,Centro,-8.803702,39.718552
25112430,"Camarate, Unhos e Apelação",Grande Lisboa,311,2025-03-19T23:51:00Z,25112430,Em despacho,3301,Queda de árvore,0,1,0,5,2025-03-19T23:51:00Z,Loures,Lisboa,Área Metropolitana De Lisboa,-9.13436,38.81926
25112441,"Amoreira da Gândara, Paredes do Bairro e Ancas",Região de Aveiro,310,2025-03-19T23:52:00Z,25112441,Em resolução,3301,Queda de árvore,0,2,0,7,2025-03-19T23:52:00Z,Anadia,Aveiro,Centro,-8.500988,40.464701
25112457,Roliça,Oeste,311,2025-03-19T23:54:00Z,25112457,Em despacho,3311,Queda de elementos de estruturas edificados,0,0,0,0,2025-03-19T23:54:00Z,Bombarral,Leiria,Centro,-9.169921,39.29201
25112462,Costa da Caparica,Península de Setúbal,311,2025-03-19T23:45:00Z,25112462,Em curso,3301,Queda de árvore,0,0,0,0,2025-03-19T23:45:00Z,Almada,Setúbal,Área Metropolitana De Lisboa,-9.227696,38.642583
25112466,Colares,Grande Lisboa,311,2025-03-19T23:50:00Z,25112466,Em curso,3321,Dano na rede de fornecimento de eletricidade ,0,2,0,7,2025-03-19T23:50:00Z,Sintra,Lisboa,Área Metropolitana De Lisboa,-9.470171,38.782676
25112480,Lagoa e Carvoeiro,Algarve,313,2025-03-19T23:58:00Z,25112480,Em despacho,3301,Queda de árvore,0,0,0,0,2025-03-19T23:58:00Z,Lagoa,Faro,Algarve,-8.43561,37.08839
25112496,Portimão,Algarve,313,2025-03-20T00:00:00Z,25112496,Em despacho,3301,Queda de árvore,0,0,0,0,2025-03-20T00:00:00Z,Portimão,Faro,Algarve,-8.54251,37.14361
25112498,Quinta do Anjo,Península de Setúbal,311,2025-03-19T23:54:00Z,25112498,Em curso,3311,Queda de elementos de estruturas edificados,0,1,0,3,2025-03-19T23:54:00Z,Palmela,Setúbal,Área Metropolitana De Lisboa,-8.968323,38.56095
25112088,Azeitão (São Lourenço e São Simão),Península de Setúbal,311,2025-03-19T22:51:00Z,25112088,Em despacho,3301,Queda de árvore,0,1,0,5,2025-03-19T22:51:00Z,Setúbal,Setúbal,Área Metropolitana De Lisboa,-9.00001,38.524687
25112097,Cidade da Maia,Area M. Porto,309,2025-03-19T22:59:00Z,25112097,Em curso,3301,Queda de árvore,0,1,0,5,2025-03-19T22:59:00Z,Maia,Porto,Norte,-8.601682,41.23353
25112145,Marinha Das Ondas,Região de Coimbra,310,2025-03-19T23:10:00Z,25112145,Em despacho,3301,Queda de árvore,0,0,0,0,2025-03-19T23:10:00Z,Figueira Da Foz,Coimbra,Centro,-8.80992,40.01798
25112172,"Seixal, Arrentela e Aldeia de Paio Pires",Península de Setúbal,311,2025-03-19T23:13:00Z,25112172,Em curso,3329,Queda de estruturas temporárias ou móveis,0,1,0,4,2025-03-19T23:13:00Z,Seixal,Setúbal,Área Metropolitana De Lisboa,-9.090212,38.62184
25112190,"Guia, Ilha e Mata Mourisca",Região de Leiria,310,2025-03-19T22:40:00Z,25112190,Em despacho,3301,Queda de árvore,0,1,0,3,2025-03-19T22:40:00Z,Pombal,Leiria,Centro,-8.781363,39.947439
25112197,"Cedofeita, Ildefonso, Sé, Miragaia, Nicolau e Vitória",Area M. Porto,309,2025-03-19T23:19:00Z,25112197,Em despacho,3301,Queda de árvore,0,1,0,5,2025-03-19T23:19:00Z,Porto,Porto,Norte,-8.61143,41.14721
25112229,"Seia, São Romão e Lapa Dos Dinheiros",Beiras e Serra da Estrela,310,2025-03-19T23:06:00Z,25112229,Em curso,3311,Queda de elementos de estruturas edificados,0,1,0,2,2025-03-19T23:06:00Z,Seia,Guarda,Centro,-7.706696,40.417704
25112238,Soure,Região de Coimbra,310,2025-03-19T23:10:00Z,25112238,Em despacho,3301,Queda de árvore,0,1,0,2,2025-03-19T23:10:00Z,Soure,Coimbra,Centro,-8.654421,40.026433
25111891,"Seia, São Romão e Lapa Dos Dinheiros",Beiras e Serra da Estrela,310,2025-03-19T22:20:00Z,25111891,Em curso,3301,Queda de árvore,0,4,0,7,2025-03-19T22:20:00Z,Seia,Guarda,Centro,-7.74354,40.393485
25111892,Marinha Das Ondas,Região de Coimbra,310,2025-03-19T22:22:00Z,25111892,Em despacho,3309,Desabamento de estruturas edificadas,0,0,0,0,2025-03-19T22:22:00Z,Figueira Da Foz,Coimbra,Centro,-8.832842,40.02937
25111976,Cascais e Estoril,Grande Lisboa,311,2025-03-19T22:25:00Z,25111976,Em conclusão,3301,Queda de árvore,0,2,0,7,2025-03-19T22:25:00Z,Cascais,Lisboa,Área Metropolitana De Lisboa,-9.419397,38.700982
25112008,Manteigas (Santa Maria),Beiras e Serra da Estrela,310,2025-03-19T22:44:00Z,25112008,Em curso,3301,Queda de árvore,0,1,0,1,2025-03-19T22:44:00Z,Manteigas,Guarda,Centro,-7.534834,40.40585
25112092,Roliça,Oeste,311,2025-03-19T22:49:00Z,25112092,Em curso,3301,Queda de árvore,0,2,0,6,2025-03-19T22:49:00Z,Bombarral,Leiria,Centro,-9.176338,39.293388
25112093,Palmela,Península de Setúbal,311,2025-03-19T22:58:00Z,25112093,Em despacho,3301,Queda de árvore,0,2,0,4,2025-03-19T22:58:00Z,Palmela,Setúbal,Área Metropolitana De Lisboa,-8.872455,38.582082
25112141,Alfarelos,Região de Coimbra,310,2025-03-19T22:57:00Z,25112141,Em despacho,3301,Queda de árvore,0,1,0,3,2025-03-19T22:57:00Z,Soure,Coimbra,Centro,-8.635329,40.138191
25112143,Canelas e Fermelã,Região de Aveiro,310,2025-03-19T22:55:00Z,25112143,Em conclusão,3301,Queda de árvore,0,2,0,5,2025-03-19T22:55:00Z,Estarreja,Aveiro,Centro,-8.554472,40.720264
25112144,"S.julião, N.s. da Anunciada e S. Maria da Graça",Península de Setúbal,311,2025-03-19T23:01:00Z,25112144,Em curso,3311,Queda de elementos de estruturas edificados,0,1,0,5,2025-03-19T23:01:00Z,Setúbal,Setúbal,Área Metropolitana De Lisboa,-8.889983,38.529955
25112083,Bordeira,Algarve,313,2025-03-19T22:57:00Z,25112083,Em despacho,3301,Queda de árvore,0,1,0,3,2025-03-19T22:57:00Z,Aljezur,Faro,Algarve,-8.795544,37.21969
25112100,Sines,Alentejo Litoral,312,2025-03-19T22:56:00Z,25112100,Em conclusão,3301,Queda de árvore,0,1,0,2,2025-03-19T22:56:00Z,Sines,Setúbal,Alentejo,-8.817062,37.971866
25112119,Góis,Região de Coimbra,310,2025-03-19T23:00:00Z,25112119,Em despacho,3301,Queda de árvore,0,1,0,3,2025-03-19T23:00:00Z,Góis,Coimbra,Centro,-8.101407,40.194217
25112132,Alfeizerão,Oeste,311,2025-03-19T23:05:00Z,25112132,Em curso,3301,Queda de árvore,0,2,0,6,2025-03-19T23:05:00Z,Alcobaça,Leiria,Centro,-9.074601,39.50577
25112150,"Oeiras e S. Julião da Barra, Paço de Arcos e Caxias",Grande Lisboa,311,2025-03-19T23:06:00Z,25112150,Em despacho,3329,Queda de estruturas temporárias ou móveis,0,1,0,4,2025-03-19T23:06:00Z,Oeiras,Lisboa,Área Metropolitana De Lisboa,-9.310159,38.698531
25112199,Cascais e Estoril,Grande Lisboa,311,2025-03-19T23:12:00Z,25112199,Em despacho,3301,Queda de árvore,0,2,0,10,2025-03-19T23:12:00Z,Cascais,Lisboa,Área Metropolitana De Lisboa,-9.398759,38.70391
25112202,Sameiro,Beiras e Serra da Estrela,310,2025-03-19T23:10:00Z,25112202,Em despacho,3301,Queda de árvore,0,1,0,3,2025-03-19T23:10:00Z,Manteigas,Guarda,Centro,-7.495761,40.410408
25112249,Alte,Algarve,313,2025-03-19T23:24:00Z,25112249,Em despacho,3301,Queda de árvore,0,0,0,0,2025-03-19T23:24:00Z,Loulé,Faro,Algarve,-8.178145,37.237749
25112250,"Oeiras e S. Julião da Barra, Paço de Arcos e Caxias",Grande Lisboa,311,2025-03-19T23:27:00Z,25112250,Em despacho,3311,Queda de elementos de estruturas edificados,0,1,0,5,2025-03-19T23:27:00Z,Oeiras,Lisboa,Área Metropolitana De Lisboa,-9.30512,38.69244
25112251,Ermesinde,Area M. Porto,309,2025-03-19T23:27:00Z,25112251,Em conclusão,3311,Queda de elementos de estruturas edificados,0,1,0,4,2025-03-19T23:27:00Z,Valongo,Porto,Norte,-8.55628,41.21346
25112505,"S.julião, N.s. da Anunciada e S. Maria da Graça",Península de Setúbal,311,2025-03-19T23:48:00Z,25112505,Em curso,3301,Queda de árvore,0,2,0,9,2025-03-19T23:48:00Z,Setúbal,Setúbal,Área Metropolitana De Lisboa,-8.889983,38.529955
25112507,São Francisco da Serra,Alentejo Litoral,312,2025-03-20T00:02:00Z,25112507,Em despacho,3301,Queda de árvore,0,0,0,0,2025-03-20T00:02:00Z,Santiago Do Cacém,Setúbal,Alentejo,-8.635579,38.09613
25112514,Carcavelos e Parede,Grande Lisboa,311,2025-03-20T00:04:00Z,25112514,Em despacho,3301,Queda de árvore,0,2,0,5,2025-03-20T00:04:00Z,Cascais,Lisboa,Área Metropolitana De Lisboa,-9.33892,38.69928
25112521,Caldas da Rainha - Santo Onofre e Serra do Bouro,Oeste,311,2025-03-20T00:05:00Z,25112521,Em despacho,3301,Queda de árvore,0,1,0,5,2025-03-20T00:05:00Z,Caldas Da Rainha,Leiria,Centro,-9.182618,39.43611
25112539,"Almargem do Bispo, Pêro Pinheiro e Montelavar",Grande Lisboa,311,2025-03-20T00:02:00Z,25112539,Em despacho,3321,Dano na rede de fornecimento de eletricidade ,0,1,0,5,2025-03-20T00:02:00Z,Sintra,Lisboa,Área Metropolitana De Lisboa,-9.297507,38.825783
25112541,Fernão Ferro,Península de Setúbal,311,2025-03-19T23:20:00Z,25112541,Em despacho,3321,Dano na rede de fornecimento de eletricidade ,0,1,0,4,2025-03-19T23:20:00Z,Seixal,Setúbal,Área Metropolitana De Lisboa,-9.115329,38.572419
25112573,São João Das Lampas e Terrugem,Grande Lisboa,311,2025-03-20T00:14:00Z,25112573,Em despacho,3321,Dano na rede de fornecimento de eletricidade ,0,0,0,0,2025-03-20T00:14:00Z,Sintra,Lisboa,Área Metropolitana De Lisboa,-9.37013,38.83172
25112580,Monchique,Algarve,313,2025-03-19T23:46:00Z,25112580,Em despacho,3301,Queda de árvore,0,1,0,2,2025-03-19T23:46:00Z,Monchique,Faro,Algarve,-8.570796,37.318938
25112589,Fernão Ferro,Península de Setúbal,311,2025-03-20T00:16:00Z,25112589,Em curso,3301,Queda de árvore,0,0,0,0,2025-03-20T00:16:00Z,Seixal,Setúbal,Área Metropolitana De Lisboa,-9.07498,38.57159
25112598,"Algés, Linda-a-Velha e Cruz Quebrada-Dafundo",Grande Lisboa,311,2025-03-20T00:10:00Z,25112598,Em despacho,3329,Queda de estruturas temporárias ou móveis,0,1,0,5,2025-03-20T00:10:00Z,Oeiras,Lisboa,Área Metropolitana De Lisboa,-9.22967,38.696612
25112614,Carnaxide e Queijas,Grande Lisboa,311,2025-03-20T00:20:00Z,25112614,Em despacho,3311,Queda de elementos de estruturas edificados,0,0,0,0,2025-03-20T00:20:00Z,Oeiras,Lisboa,Área Metropolitana De Lisboa,-9.25602,38.7169
25112616,Vieira de Leiria,Região de Leiria,310,2025-03-19T23:52:00Z,25112616,Em despacho,3301,Queda de árvore,0,3,0,12,2025-03-19T23:52:00Z,Marinha Grande,Leiria,Centro,-8.929016,39.865463
25112630,Santo António Dos Olivais,Região de Coimbra,310,2025-03-20T00:15:00Z,25112630,Em despacho,3301,Queda de árvore,0,1,0,3,2025-03-20T00:15:00Z,Coimbra,Coimbra,Centro,-8.426807,40.217261
25112632,Caparica e Trafaria,Península de Setúbal,311,2025-03-20T00:18:00Z,25112632,Em despacho,3301,Queda de árvore,0,1,0,3,2025-03-20T00:18:00Z,Almada,Setúbal,Área Metropolitana De Lisboa,-9.231582,38.671372
25112639,"S.julião, N.s. da Anunciada e S. Maria da Graça",Península de Setúbal,311,2025-03-20T00:23:00Z,25112639,Em curso,3311,Queda de elementos de estruturas edificados,0,0,0,0,2025-03-20T00:23:00Z,Setúbal,Setúbal,Área Metropolitana De Lisboa,-8.90127,38.52768
25112646,Cantanhede e Pocariça,Região de Coimbra,310,2025-03-19T23:58:00Z,25112646,Em curso,3301,Queda de árvore,0,1,0,5,2025-03-19T23:58:00Z,Cantanhede,Coimbra,Centro,-8.590971,40.346407
25112160,"Guia, Ilha e Mata Mourisca",Região de Leiria,310,2025-03-19T22:25:00Z,25112160,Em despacho,3301,Queda de árvore,0,1,0,3,2025-03-19T22:25:00Z,Pombal,Leiria,Centro,-8.753282,39.947593
25112208,Malveira e São Miguel de Alcainça,Grande Lisboa,311,2025-03-19T23:11:00Z,25112208,Em despacho,3321,Dano na rede de fornecimento de eletricidade ,0,1,0,5,2025-03-19T23:11:00Z,Mafra,Lisboa,Área Metropolitana De Lisboa,-9.288438,38.919433
25112210,Rio de Mouro,Grande Lisboa,311,2025-03-19T23:21:00Z,25112210,Em despacho,3301,Queda de árvore,0,1,0,3,2025-03-19T23:21:00Z,Sintra,Lisboa,Área Metropolitana De Lisboa,-9.318117,38.78921
25112224,Fânzeres e São Pedro da Cova,Area M. Porto,309,2025-03-19T23:23:00Z,25112224,Em despacho,3311,Queda de elementos de estruturas edificados,0,1,0,5,2025-03-19T23:23:00Z,Gondomar,Porto,Norte,-8.539395,41.160183
25112258,Ramalde,Area M. Porto,309,2025-03-19T23:28:00Z,25112258,Em despacho,3311,Queda de elementos de estruturas edificados,0,1,0,5,2025-03-19T23:28:00Z,Porto,Porto,Norte,-8.65923,41.16712
25112261,São João Das Lampas e Terrugem,Grande Lisboa,311,2025-03-19T23:27:00Z,25112261,Em despacho,3301,Queda de árvore,0,1,0,5,2025-03-19T23:27:00Z,Sintra,Lisboa,Área Metropolitana De Lisboa,-9.404642,38.905614
25112310,Macinhata do Vouga,Região de Aveiro,310,2025-03-19T23:36:00Z,25112310,Em despacho,3311,Queda de elementos de estruturas edificados,0,2,0,3,2025-03-19T23:36:00Z,Águeda,Aveiro,Centro,-8.431026,40.667375
25112325,Manteigas (São Pedro),Beiras e Serra da Estrela,310,2025-03-19T23:30:00Z,25112325,Em despacho,3301,Queda de árvore,0,2,0,8,2025-03-19T23:30:00Z,Manteigas,Guarda,Centro,-7.537096,40.398921
25112326,Carvalhal,Oeste,311,2025-03-19T23:29:00Z,25112326,Em curso,3301,Queda de árvore,0,0,0,0,2025-03-19T23:29:00Z,Bombarral,Leiria,Centro,-9.137216,39.313548
25112648,"S.julião, N.s. da Anunciada e S. Maria da Graça",Península de Setúbal,311,2025-03-20T00:25:00Z,25112648,Em curso,3321,Dano na rede de fornecimento de eletricidade ,0,0,0,0,2025-03-20T00:25:00Z,Setúbal,Setúbal,Área Metropolitana De Lisboa,-8.88305,38.53925
25112657,Porto Salvo,Grande Lisboa,311,2025-03-20T00:14:00Z,25112657,Em despacho,3329,Queda de estruturas temporárias ou móveis,0,1,0,5,2025-03-20T00:14:00Z,Oeiras,Lisboa,Área Metropolitana De Lisboa,-9.305901,38.719291
25112671,Ansião,Região de Leiria,310,2025-03-20T00:24:00Z,25112671,Em despacho,3301,Queda de árvore,0,1,0,2,2025-03-20T00:24:00Z,Ansião,Leiria,Centro,-8.43366,39.907437
25112673,Ramada e Caneças,Grande Lisboa,311,2025-03-20T00:27:00Z,25112673,Em despacho,3301,Queda de árvore,0,1,0,5,2025-03-20T00:27:00Z,Odivelas,Lisboa,Área Metropolitana De Lisboa,-9.224517,38.811058
25112675,Alhos Vedros,Península de Setúbal,311,2025-03-20T00:28:00Z,25112675,Em curso,3301,Queda de árvore,0,0,0,0,2025-03-20T00:28:00Z,Moita,Setúbal,Área Metropolitana De Lisboa,-9.010387,38.63902
25112680,Samora Correia,Lezíria do Tejo,311,2025-03-20T00:28:00Z,25112680,Em despacho,3301,Queda de árvore,0,2,0,4,2025-03-20T00:28:00Z,Benavente,Santarém,Alentejo,-8.890675,38.921796
25112682,Gâmbia-Pontes-Alto da Guerra,Península de Setúbal,311,2025-03-20T00:29:00Z,25112682,Em curso,3301,Queda de árvore,0,0,0,0,2025-03-20T00:29:00Z,Setúbal,Setúbal,Área Metropolitana De Lisboa,-8.85317,38.54087
25112689,Ferreiras,Algarve,313,2025-03-20T00:29:00Z,25112689,Em despacho,3301,Queda de árvore,0,0,0,0,2025-03-20T00:29:00Z,Albufeira,Faro,Algarve,-8.21873,37.11494
25112700,Palmela,Península de Setúbal,311,2025-03-20T00:31:00Z,25112700,Em curso,3329,Queda de estruturas temporárias ou móveis,0,0,0,0,2025-03-20T00:31:00Z,Palmela,Setúbal,Área Metropolitana De Lisboa,-8.887038,38.55602
25112716,São Vicente do Paul e Vale de Figueira,Lezíria do Tejo,311,2025-03-20T00:31:00Z,25112716,Em despacho,3311,Queda de elementos de estruturas edificados,0,2,0,7,2025-03-20T00:31:00Z,Santarém,Santarém,Alentejo,-8.636057,39.276265
25112245,Montijo e Afonsoeiro,Península de Setúbal,311,2025-03-19T23:26:00Z,25112245,Em curso,3301,Queda de árvore,0,1,0,5,2025-03-19T23:26:00Z,Montijo,Setúbal,Área Metropolitana De Lisboa,-8.95166,38.70552
25112247,"Marvila, Ribeira Santarém, S.salvador, S.nicolau",Lezíria do Tejo,311,2025-03-19T23:26:00Z,25112247,Em conclusão,3301,Queda de árvore,0,2,0,6,2025-03-19T23:26:00Z,Santarém,Santarém,Alentejo,-8.678591,39.231938
25112263,Assentiz,Médio Tejo,311,2025-03-19T23:27:00Z,25112263,Em conclusão,3301,Queda de árvore,0,2,0,6,2025-03-19T23:27:00Z,Torres Novas,Santarém,Centro,-8.52173,39.563095
25112270,Marrazes e Barosa,Região de Leiria,310,2025-03-19T23:00:00Z,25112270,Em despacho,3301,Queda de árvore,0,1,0,2,2025-03-19T23:00:00Z,Leiria,Leiria,Centro,-8.794769,39.760033
25112304,Carragozela e Várzea de Meruge,Beiras e Serra da Estrela,310,2025-03-19T23:28:00Z,25112304,Em despacho,3301,Queda de árvore,0,1,0,2,2025-03-19T23:28:00Z,Seia,Guarda,Centro,-7.760772,40.410557
25112313,Massamá e Monte Abraão,Grande Lisboa,311,2025-03-19T23:32:00Z,25112313,Em despacho,3301,Queda de árvore,0,1,0,5,2025-03-19T23:32:00Z,Sintra,Lisboa,Área Metropolitana De Lisboa,-9.28303,38.7547
25112315,Aljubarrota,Oeste,311,2025-03-19T23:16:00Z,25112315,Em despacho,3321,Dano na rede de fornecimento de eletricidade ,0,1,0,4,2025-03-19T23:16:00Z,Alcobaça,Leiria,Centro,-8.941861,39.565461
25112324,Juncal,Região de Leiria,310,2025-03-19T23:30:00Z,25112324,Em despacho,3301,Queda de árvore,0,4,0,9,2025-03-19T23:30:00Z,Porto De Mós,Leiria,Centro,-8.908329,39.584603
25112329,Agualva e Mira-Sintra,Grande Lisboa,311,2025-03-19T23:39:00Z,25112329,Em curso,3301,Queda de árvore,0,0,0,0,2025-03-19T23:39:00Z,Sintra,Lisboa,Área Metropolitana De Lisboa,-9.307006,38.78408
25112331,Ventosa,Oeste,311,2025-03-19T23:38:00Z,25112331,Em despacho,3329,Queda de estruturas temporárias ou móveis,0,1,0,5,2025-03-19T23:38:00Z,Torres Vedras,Lisboa,Centro,-9.319671,39.061725
25112721,Quinta do Anjo,Península de Setúbal,311,2025-03-20T00:34:00Z,25112721,Em curso,3301,Queda de árvore,0,0,0,0,2025-03-20T00:34:00Z,Palmela,Setúbal,Área Metropolitana De Lisboa,-8.950333,38.56405
25112723,Serra D'El-Rei,Oeste,311,2025-03-20T00:30:00Z,25112723,Em despacho,3301,Queda de árvore,0,1,0,5,2025-03-20T00:30:00Z,Peniche,Leiria,Centro,-9.27897,39.332052
25112725,São João Das Lampas e Terrugem,Grande Lisboa,311,2025-03-20T00:23:00Z,25112725,Em despacho,3311,Queda de elementos de estruturas edificados,0,1,0,3,2025-03-20T00:23:00Z,Sintra,Lisboa,Área Metropolitana De Lisboa,-9.376923,38.836556
25112730,Boliqueime,Algarve,313,2025-03-20T00:35:00Z,25112730,Em despacho,3301,Queda de árvore,0,0,0,0,2025-03-20T00:35:00Z,Loulé,Faro,Algarve,-8.19188,37.12471
25112732,Moita,Península de Setúbal,311,2025-03-20T00:20:00Z,25112732,Em curso,3301,Queda de árvore,0,1,0,5,2025-03-20T00:20:00Z,Moita,Setúbal,Área Metropolitana De Lisboa,-8.985364,38.643702
25112739,Sesimbra (Castelo),Península de Setúbal,311,2025-03-20T00:30:00Z,25112739,Em despacho,3301,Queda de árvore,0,1,0,3,2025-03-20T00:30:00Z,Sesimbra,Setúbal,Área Metropolitana De Lisboa,-9.112506,38.449031
25112741,Matas e Cercal,Médio Tejo,311,2025-03-20T00:35:00Z,25112741,Em despacho,3301,Queda de árvore,0,2,0,6,2025-03-20T00:35:00Z,Ourém,Santarém,Centro,-8.670728,39.715643
25112748,Maceira,Região de Leiria,310,2025-03-20T00:19:00Z,25112748,Em despacho,3301,Queda de árvore,0,1,0,2,2025-03-20T00:19:00Z,Leiria,Leiria,Centro,-8.889652,39.686501
25112755,Amora,Península de Setúbal,311,2025-03-20T00:23:00Z,25112755,Em despacho,3315,Inundação de estruturas por precipitação intensa,0,1,0,3,2025-03-20T00:23:00Z,Seixal,Setúbal,Área Metropolitana De Lisboa,-9.128863,38.61388
25112284,São Teotónio,Alentejo Litoral,312,2025-03-19T23:25:00Z,25112284,Em curso,3301,Queda de árvore,0,3,0,6,2025-03-19T23:25:00Z,Odemira,Beja,Alentejo,-8.70051,37.523962
25112286,Sebal e Belide,Região de Coimbra,310,2025-03-19T23:28:00Z,25112286,Em despacho,3301,Queda de árvore,0,1,0,3,2025-03-19T23:28:00Z,Condeixa-a-Nova,Coimbra,Centro,-8.536649,40.118765
25112301,Pinhal Novo,Península de Setúbal,311,2025-03-19T23:28:00Z,25112301,Em curso,3301,Queda de árvore,0,3,0,6,2025-03-19T23:28:00Z,Palmela,Setúbal,Área Metropolitana De Lisboa,-8.91294,38.637902
25112334,São João de Areias,Viseu Dão Lafões,310,2025-03-19T23:36:00Z,25112334,Em curso,3301,Queda de árvore,0,3,0,7,2025-03-19T23:36:00Z,Santa Comba Dão,Viseu,Centro,-8.083098,40.404408
25112335,Falagueira-Venda Nova,Grande Lisboa,311,2025-03-19T23:38:00Z,25112335,Em despacho,3321,Dano na rede de fornecimento de eletricidade ,0,0,0,0,2025-03-19T23:38:00Z,Amadora,Lisboa,Área Metropolitana De Lisboa,-9.223747,38.760622
25112350,Setúbal (São Sebastião),Península de Setúbal,311,2025-03-19T23:42:00Z,25112350,Em curso,3329,Queda de estruturas temporárias ou móveis,0,0,0,0,2025-03-19T23:42:00Z,Setúbal,Setúbal,Área Metropolitana De Lisboa,-8.87752,38.52253
25112368,Alcobaça e Vestiaria,Oeste,311,2025-03-19T23:35:00Z,25112368,Em despacho,3301,Queda de árvore,0,2,0,4,2025-03-19T23:35:00Z,Alcobaça,Leiria,Centro,-8.997577,39.554251
25112386,Nogueira e Silva Escura,Area M. Porto,309,2025-03-19T23:46:00Z,25112386,Em despacho,3329,Queda de estruturas temporárias ou móveis,0,1,0,2,2025-03-19T23:46:00Z,Maia,Porto,Norte,-8.574696,41.23258
25112401,Mafra,Grande Lisboa,311,2025-03-19T23:47:00Z,25112401,Em despacho,3301,Queda de árvore,0,1,0,3,2025-03-19T23:47:00Z,Mafra,Lisboa,Área Metropolitana De Lisboa,-9.308823,38.9651
25112402,Golegã,Lezíria do Tejo,311,2025-03-19T23:46:00Z,25112402,Em conclusão,3301,Queda de árvore,0,1,0,2,2025-03-19T23:46:00Z,Golegã,Santarém,Alentejo,-8.483135,39.415012
25112341,Sabugueiro,Beiras e Serra da Estrela,310,2025-03-19T23:40:00Z,25112341,Em despacho,3311,Queda de elementos de estruturas edificados,0,2,0,3,2025-03-19T23:40:00Z,Seia,Guarda,Centro,-7.63621,40.40352
25112342,Alvor,Algarve,313,2025-03-19T23:41:00Z,25112342,Em despacho,3301,Queda de árvore,0,0,0,0,2025-03-19T23:41:00Z,Portimão,Faro,Algarve,-8.580215,37.16216
25112361,"Almada, Cova da Piedade, Pragal e Cacilhas",Península de Setúbal,311,2025-03-19T23:43:00Z,25112361,Em curso,3301,Queda de árvore,0,1,0,4,2025-03-19T23:43:00Z,Almada,Setúbal,Área Metropolitana De Lisboa,-9.169937,38.67238
25112377,Pombal,Região de Leiria,310,2025-03-19T23:44:00Z,25112377,Em despacho,3321,Dano na rede de fornecimento de eletricidade ,0,1,0,1,2025-03-19T23:44:00Z,Pombal,Leiria,Centro,-8.67152,39.8958
25112392,Lousã e Vilarinho,Região de Coimbra,310,2025-03-19T23:40:00Z,25112392,Em despacho,3301,Queda de árvore,0,1,0,2,2025-03-19T23:40:00Z,Lousã,Coimbra,Centro,-8.225749,40.091516
25112395,"Sandim, Olival, Lever e Crestuma",Area M. Porto,309,2025-03-19T23:45:00Z,25112395,Em curso,3301,Queda de árvore,0,1,0,4,2025-03-19T23:45:00Z,Vila Nova De Gaia,Porto,Norte,-8.504153,41.048753
25112408,Santa Eufémia e Boa Vista,Região de Leiria,310,2025-03-19T23:48:00Z,25112408,Em despacho,3301,Queda de árvore,0,1,0,1,2025-03-19T23:48:00Z,Leiria,Leiria,Centro,-8.733611,39.79055
25112442,Alverca do Ribatejo e Sobralinho,Grande Lisboa,311,2025-03-19T23:45:00Z,25112442,Em despacho,3301,Queda de árvore,0,1,0,4,2025-03-19T23:45:00Z,Vila Franca De Xira,Lisboa,Área Metropolitana De Lisboa,-9.034761,38.918068
25112444,"S.maria, S.miguel, S.martinho, S.pedro Penaferrim",Grande Lisboa,311,2025-03-19T23:45:00Z,25112444,Em despacho,3301,Queda de árvore,0,2,0,9,2025-03-19T23:45:00Z,Sintra,Lisboa,Área Metropolitana De Lisboa,-9.414924,38.772191
25112458,"Santa Iria de Azoia, São João da Talha e Bobadela",Grande Lisboa,311,2025-03-19T23:54:00Z,25112458,Em despacho,3301,Queda de árvore,0,1,0,5,2025-03-19T23:54:00Z,Loures,Lisboa,Área Metropolitana De Lisboa,-9.09987,38.81129
25112475,Alcabideche,Grande Lisboa,311,2025-03-19T23:48:00Z,25112475,Em despacho,3301,Queda de árvore,0,1,0,5,2025-03-19T23:48:00Z,Cascais,Lisboa,Área Metropolitana De Lisboa,-9.41439,38.712196
25112492,Barreiro e Lavradio,Península de Setúbal,311,2025-03-19T23:41:00Z,25112492,Em curso,3301,Queda de árvore,0,1,0,5,2025-03-19T23:41:00Z,Barreiro,Setúbal,Área Metropolitana De Lisboa,-9.060271,38.662949
25112508,Santo Estêvão,Lezíria do Tejo,311,2025-03-20T00:02:00Z,25112508,Em despacho,3329,Queda de estruturas temporárias ou móveis,0,1,0,3,2025-03-20T00:02:00Z,Benavente,Santarém,Alentejo,-8.716509,38.87628
25112511,Massamá e Monte Abraão,Grande Lisboa,311,2025-03-20T00:03:00Z,25112511,Em conclusão,3301,Queda de árvore,0,1,0,6,2025-03-20T00:03:00Z,Sintra,Lisboa,Área Metropolitana De Lisboa,-9.2802,38.75473
25112512,Alvorninha,Oeste,311,2025-03-19T23:46:00Z,25112512,Em curso,3321,Dano na rede de fornecimento de eletricidade ,0,2,0,7,2025-03-19T23:46:00Z,Caldas Da Rainha,Leiria,Centro,-9.047004,39.419673
25112525,Caparica e Trafaria,Península de Setúbal,311,2025-03-20T00:04:00Z,25112525,Em despacho,3301,Queda de árvore,0,1,0,4,2025-03-20T00:04:00Z,Almada,Setúbal,Área Metropolitana De Lisboa,-9.231582,38.671372
25112354,Vila Verde Dos Francos,Oeste,311,2025-03-19T23:42:00Z,25112354,Em despacho,3301,Queda de árvore,0,3,0,9,2025-03-19T23:42:00Z,Alenquer,Lisboa,Centro,-9.13935,39.16664
25112356,Samora Correia,Lezíria do Tejo,311,2025-03-19T23:41:00Z,25112356,Em resolução,3301,Queda de árvore,0,1,0,4,2025-03-19T23:41:00Z,Benavente,Santarém,Alentejo,-8.86968,38.910825
25112381,Encosta do Sol,Grande Lisboa,311,2025-03-19T23:45:00Z,25112381,Em conclusão,3321,Dano na rede de fornecimento de eletricidade ,0,1,0,6,2025-03-19T23:45:00Z,Amadora,Lisboa,Área Metropolitana De Lisboa,-9.208077,38.76744
25112390,Midões,Região de Coimbra,310,2025-03-19T23:40:00Z,25112390,Em despacho,3301,Queda de árvore,0,1,0,2,2025-03-19T23:40:00Z,Tábua,Coimbra,Centro,-7.929414,40.374158
25112397,Lagos (São Sebastião e Santa Maria),Algarve,313,2025-03-19T23:30:00Z,25112397,Em curso,3301,Queda de árvore,0,2,0,4,2025-03-19T23:30:00Z,Lagos,Faro,Algarve,-8.667608,37.130224
25112399,Barcarena,Grande Lisboa,311,2025-03-19T23:42:00Z,25112399,Em curso,3301,Queda de árvore,0,2,0,7,2025-03-19T23:42:00Z,Oeiras,Lisboa,Área Metropolitana De Lisboa,-9.277392,38.733987
25112422,Pala,Região de Coimbra,310,2025-03-19T23:48:00Z,25112422,Em despacho,3301,Queda de árvore,0,1,0,4,2025-03-19T23:48:00Z,Mortágua,Viseu,Centro,-8.262736,40.422891
25112429,Vila do Bispo e Raposeira,Algarve,313,2025-03-19T23:47:00Z,25112429,Em despacho,3329,Queda de estruturas temporárias ou móveis,0,1,0,2,2025-03-19T23:47:00Z,Vila Do Bispo,Faro,Algarve,-8.90908,37.083835
25112438,Almeirim,Lezíria do Tejo,311,2025-03-19T23:52:00Z,25112438,Em resolução,3301,Queda de árvore,0,1,0,4,2025-03-19T23:52:00Z,Almeirim,Santarém,Alentejo,-8.66092,39.17867
25112447,Laranjeiro e Feijó,Península de Setúbal,311,2025-03-19T23:43:00Z,25112447,Em curso,3311,Queda de elementos de estruturas edificados,0,1,0,4,2025-03-19T23:43:00Z,Almada,Setúbal,Área Metropolitana De Lisboa,-9.156624,38.652235
25112417,Portimão,Algarve,313,2025-03-19T23:45:00Z,25112417,Em curso,3301,Queda de árvore,0,1,0,5,2025-03-19T23:45:00Z,Portimão,Faro,Algarve,-8.532608,37.137966
25112436,Lagos (São Sebastião e Santa Maria),Algarve,313,2025-03-19T23:39:00Z,25112436,Em curso,3301,Queda de árvore,0,2,0,5,2025-03-19T23:39:00Z,Lagos,Faro,Algarve,-8.668524,37.100485
25112470,Quiaios,Região de Coimbra,310,2025-03-19T23:47:00Z,25112470,Em despacho,3311,Queda de elementos de estruturas edificados,0,1,0,3,2025-03-19T23:47:00Z,Figueira Da Foz,Coimbra,Centro,-8.86,40.190131
25112483,Vila do Bispo e Raposeira,Algarve,313,2025-03-19T23:52:00Z,25112483,Em curso,3301,Queda de árvore,0,1,0,5,2025-03-19T23:52:00Z,Vila Do Bispo,Faro,Algarve,-8.865778,37.141777
25112485,Quintela de Azurara,Viseu Dão Lafões,310,2025-03-19T23:53:00Z,25112485,Em despacho,3301,Queda de árvore,0,1,0,3,2025-03-19T23:53:00Z,Mangualde,Viseu,Centro,-7.715899,40.628437
25112486,Casal de Cambra,Grande Lisboa,311,2025-03-19T23:55:00Z,25112486,Em despacho,3329,Queda de estruturas temporárias ou móveis,0,1,0,4,2025-03-19T23:55:00Z,Sintra,Lisboa,Área Metropolitana De Lisboa,-9.231299,38.802887
25112517,Freiria,Oeste,311,2025-03-20T00:01:00Z,25112517,Em despacho,3301,Queda de árvore,0,1,0,3,2025-03-20T00:01:00Z,Torres Vedras,Lisboa,Centro,-9.326155,39.037049
25112520,Portimão,Algarve,313,2025-03-20T00:05:00Z,25112520,Em despacho,3301,Queda de árvore,0,0,0,0,2025-03-20T00:05:00Z,Portimão,Faro,Algarve,-8.551797,37.13665
25112535,Alvalade,Alentejo Litoral,312,2025-03-19T23:55:00Z,25112535,Em curso,3301,Queda de árvore,0,2,0,5,2025-03-19T23:55:00Z,Santiago Do Cacém,Setúbal,Alentejo,-8.379258,37.922986
25112537,Monchique,Algarve,313,2025-03-20T00:08:00Z,25112537,Em despacho,3301,Queda de árvore,0,1,0,3,2025-03-20T00:08:00Z,Monchique,Faro,Algarve,-8.55301,37.32016
25112550,Algueirão-Mem Martins,Grande Lisboa,311,2025-03-19T23:46:00Z,25112550,Em despacho,3301,Queda de árvore,0,1,0,2,2025-03-19T23:46:00Z,Sintra,Lisboa,Área Metropolitana De Lisboa,-9.340934,38.801232
25112551,Carcavelos e Parede,Grande Lisboa,311,2025-03-20T00:10:00Z,25112551,Em despacho,3301,Queda de árvore,0,1,0,4,2025-03-20T00:10:00Z,Cascais,Lisboa,Área Metropolitana De Lisboa,-9.330858,38.68312
25112568,Sabugueiro,Beiras e Serra da Estrela,310,2025-03-19T23:30:00Z,25112568,Em despacho,3301,Queda de árvore,0,1,0,2,2025-03-19T23:30:00Z,Seia,Guarda,Centro,-7.6419,40.403015
25112570,Aljezur,Algarve,313,2025-03-20T00:05:00Z,25112570,Em despacho,3301,Queda de árvore,0,1,0,2,2025-03-20T00:05:00Z,Aljezur,Faro,Algarve,-8.8494,37.313973
25112584,Barrô e Aguada de Baixo,Região de Aveiro,310,2025-03-20T00:15:00Z,25112584,Em despacho,3301,Queda de árvore,0,1,0,5,2025-03-20T00:15:00Z,Águeda,Aveiro,Centro,-8.458783,40.514357
25112585,Rio de Mouro,Grande Lisboa,311,2025-03-20T00:15:00Z,25112585,Em despacho,3315,Inundação de estruturas por precipitação intensa,0,1,0,3,2025-03-20T00:15:00Z,Sintra,Lisboa,Área Metropolitana De Lisboa,-9.32588,38.77819
25112586,São João da Boa Vista,Região de Coimbra,310,2025-03-20T00:10:00Z,25112586,Em despacho,3301,Queda de árvore,0,1,0,2,2025-03-20T00:10:00Z,Tábua,Coimbra,Centro,-7.999559,40.336121
25112587,Olhão,Algarve,313,2025-03-20T00:09:00Z,25112587,Em despacho,3301,Queda de árvore,0,1,0,2,2025-03-20T00:09:00Z,Olhão,Faro,Algarve,-7.843133,37.022054
25112600,Carvoeira,Grande Lisboa,311,2025-03-19T23:18:00Z,25112600,Em despacho,3301,Queda de árvore,0,1,0,4,2025-03-19T23:18:00Z,Mafra,Lisboa,Área Metropolitana De Lisboa,-9.39494,38.94355
25112617,São João Das Lampas e Terrugem,Grande Lisboa,311,2025-03-20T00:09:00Z,25112617,Em despacho,3321,Dano na rede de fornecimento de eletricidade ,0,1,0,4,2025-03-20T00:09:00Z,Sintra,Lisboa,Área Metropolitana De Lisboa,-9.349473,38.847654
25112618,Azinhaga,Lezíria do Tejo,311,2025-03-20T00:20:00Z,25112618,Em conclusão,3301,Queda de árvore,0,1,0,2,2025-03-20T00:20:00Z,Golegã,Santarém,Alentejo,-8.532263,39.364938
25112619,"Ovar, São João, Arada e São Vicente de Pereira Jusã",Região de Aveiro,310,2025-03-20T00:10:00Z,25112619,Em resolução,3311,Queda de elementos de estruturas edificados,0,2,0,7,2025-03-20T00:10:00Z,Ovar,Aveiro,Centro,-8.632482,40.864029
25112620,São João de Areias,Viseu Dão Lafões,310,2025-03-20T00:21:00Z,25112620,Em despacho,3301,Queda de árvore,0,0,0,0,2025-03-20T00:21:00Z,Santa Comba Dão,Viseu,Centro,-8.0885,40.39923
25112634,Algueirão-Mem Martins,Grande Lisboa,311,2025-03-20T00:23:00Z,25112634,Em despacho,3301,Queda de árvore,0,0,0,0,2025-03-20T00:23:00Z,Sintra,Lisboa,Área Metropolitana De Lisboa,-9.345731,38.79992
25112637,Alcochete,Península de Setúbal,311,2025-03-20T00:07:00Z,25112637,Em despacho,3329,Queda de estruturas temporárias ou móveis,0,1,0,2,2025-03-20T00:07:00Z,Alcochete,Setúbal,Área Metropolitana De Lisboa,-8.962464,38.749259
25112651,Setúbal (São Sebastião),Península de Setúbal,311,2025-03-20T00:25:00Z,25112651,Em curso,3301,Queda de árvore,0,0,0,0,2025-03-20T00:25:00Z,Setúbal,Setúbal,Área Metropolitana De Lisboa,-8.872648,38.53292
25112654,Castelo de Penalva,Viseu Dão Lafões,310,2025-03-20T00:23:00Z,25112654,Em despacho,3301,Queda de árvore,0,1,0,3,2025-03-20T00:23:00Z,Penalva Do Castelo,Viseu,Centro,-7.653098,40.650706
25112668,Guia,Algarve,313,2025-03-20T00:05:00Z,25112668,Em despacho,3301,Queda de árvore,0,1,0,3,2025-03-20T00:05:00Z,Albufeira,Faro,Algarve,-8.298486,37.126812
25112669,Parque Das Nações,Grande Lisboa,311,2025-03-20T00:28:00Z,25112669,Em despacho,3301,Queda de árvore,0,1,0,5,2025-03-20T00:28:00Z,Lisboa,Lisboa,Área Metropolitana De Lisboa,-9.09548,38.774802
25112685,"Coruche, Fajarda e Erra",Lezíria do Tejo,311,2025-03-20T00:29:00Z,25112685,Em despacho,3301,Queda de árvore,0,2,0,7,2025-03-20T00:29:00Z,Coruche,Santarém,Alentejo,-8.476933,38.966088
25112686,Alverca do Ribatejo e Sobralinho,Grande Lisboa,311,2025-03-20T00:28:00Z,25112686,Em despacho,3301,Queda de árvore,0,0,0,0,2025-03-20T00:28:00Z,Vila Franca De Xira,Lisboa,Área Metropolitana De Lisboa,-9.034761,38.918068
25112543,Alcabideche,Grande Lisboa,311,2025-03-20T00:09:00Z,25112543,Em despacho,3301,Queda de árvore,0,2,0,9,2025-03-20T00:09:00Z,Cascais,Lisboa,Área Metropolitana De Lisboa,-9.38993,38.74284
25112544,"Nossa Senhora do Pópulo, Coto e São Gregório",Oeste,311,2025-03-19T23:53:00Z,25112544,Em despacho,3301,Queda de árvore,0,1,0,5,2025-03-19T23:53:00Z,Caldas Da Rainha,Leiria,Centro,-9.070578,39.359139
25112560,Monchique,Algarve,313,2025-03-19T23:52:00Z,25112560,Em despacho,3301,Queda de árvore,0,1,0,3,2025-03-19T23:52:00Z,Monchique,Faro,Algarve,-8.567422,37.320753
25112561,Fernão Ferro,Península de Setúbal,311,2025-03-19T23:07:00Z,25112561,Em despacho,3321,Dano na rede de fornecimento de eletricidade ,0,1,0,2,2025-03-19T23:07:00Z,Seixal,Setúbal,Área Metropolitana De Lisboa,-9.063432,38.552125
25112562,"S.julião, N.s. da Anunciada e S. Maria da Graça",Península de Setúbal,311,2025-03-20T00:12:00Z,25112562,Em curso,3329,Queda de estruturas temporárias ou móveis,0,0,0,0,2025-03-20T00:12:00Z,Setúbal,Setúbal,Área Metropolitana De Lisboa,-8.90758,38.52468
25112576,Samora Correia,Lezíria do Tejo,311,2025-03-20T00:14:00Z,25112576,Em curso,3301,Queda de árvore,0,2,0,5,2025-03-20T00:14:00Z,Benavente,Santarém,Alentejo,-8.868908,38.935447
25112578,Carnaxide e Queijas,Grande Lisboa,311,2025-03-20T00:10:00Z,25112578,Em despacho,3301,Queda de árvore,0,0,0,0,2025-03-20T00:10:00Z,Oeiras,Lisboa,Área Metropolitana De Lisboa,-9.249356,38.722132
25112592,Misericórdia,Grande Lisboa,311,2025-03-20T00:12:00Z,25112592,Em despacho,3301,Queda de árvore,0,2,0,8,2025-03-20T00:12:00Z,Lisboa,Lisboa,Área Metropolitana De Lisboa,-9.146675,38.705441
25112594,Almeirim,Lezíria do Tejo,311,2025-03-20T00:16:00Z,25112594,Em conclusão,3301,Queda de árvore,0,0,0,0,2025-03-20T00:16:00Z,Almeirim,Santarém,Alentejo,-8.588832,39.142251
25112595,Maiorca,Região de Coimbra,310,2025-03-20T00:16:00Z,25112595,Em despacho,3301,Queda de árvore,0,0,0,0,2025-03-20T00:16:00Z,Figueira Da Foz,Coimbra,Centro,-8.749227,40.16851
25112610,"Coruche, Fajarda e Erra",Lezíria do Tejo,311,2025-03-20T00:18:00Z,25112610,Em curso,3301,Queda de árvore,0,1,0,5,2025-03-20T00:18:00Z,Coruche,Santarém,Alentejo,-8.531156,38.965014
25112611,Salvaterra de Magos e Foros de Salvaterra,Lezíria do Tejo,311,2025-03-20T00:18:00Z,25112611,Em curso,3301,Queda de árvore,0,1,0,5,2025-03-20T00:18:00Z,Salvaterra De Magos,Santarém,Alentejo,-8.791365,39.03049
25112627,"Leiria, Pousos, Barreira e Cortes",Região de Leiria,310,2025-03-19T21:20:00Z,25112627,Em despacho,3301,Queda de árvore,0,1,0,5,2025-03-19T21:20:00Z,Leiria,Leiria,Centro,-8.777233,39.756529
25112628,"Sé Nova, Santa Cruz, Almedina e São Bartolomeu",Região de Coimbra,310,2025-03-20T00:10:00Z,25112628,Em despacho,3311,Queda de elementos de estruturas edificados,0,0,0,0,2025-03-20T00:10:00Z,Coimbra,Coimbra,Centro,-8.425582,40.205556
25112642,Agualva e Mira-Sintra,Grande Lisboa,311,2025-03-20T00:24:00Z,25112642,Em despacho,3301,Queda de árvore,0,0,0,0,2025-03-20T00:24:00Z,Sintra,Lisboa,Área Metropolitana De Lisboa,-9.29455,38.77558
25112643,Massamá e Monte Abraão,Grande Lisboa,311,2025-03-20T00:11:00Z,25112643,Em despacho,3301,Queda de árvore,0,1,0,5,2025-03-20T00:11:00Z,Sintra,Lisboa,Área Metropolitana De Lisboa,-9.27045,38.75541
25112644,Poceirão e Marateca,Península de Setúbal,311,2025-03-20T00:20:00Z,25112644,Em despacho,3301,Queda de árvore,0,1,0,4,2025-03-20T00:20:00Z,Palmela,Setúbal,Área Metropolitana De Lisboa,-8.796299,38.568359
25112660,Valada,Lezíria do Tejo,311,2025-03-20T00:25:00Z,25112660,Em despacho,3329,Queda de estruturas temporárias ou móveis,0,2,0,6,2025-03-20T00:25:00Z,Cartaxo,Santarém,Alentejo,-8.764108,39.081983
25112449,Amoreira,Oeste,311,2025-03-19T23:53:00Z,25112449,Em despacho,3301,Queda de árvore,0,1,0,5,2025-03-19T23:53:00Z,Óbidos,Leiria,Centro,-9.22215,39.34561
25112472,Caparica e Trafaria,Península de Setúbal,311,2025-03-19T23:57:00Z,25112472,Em curso,3301,Queda de árvore,0,0,0,0,2025-03-19T23:57:00Z,Almada,Setúbal,Área Metropolitana De Lisboa,-9.242559,38.66221
25112481,"Mangualde, Mesquitela e Cunha Alta",Viseu Dão Lafões,310,2025-03-19T23:58:00Z,25112481,Em conclusão,3301,Queda de árvore,0,1,0,3,2025-03-19T23:58:00Z,Mangualde,Viseu,Centro,-7.737095,40.60743
25112488,Buarcos,Região de Coimbra,310,2025-03-19T23:59:00Z,25112488,Em despacho,3301,Queda de árvore,0,1,0,5,2025-03-19T23:59:00Z,Figueira Da Foz,Coimbra,Centro,-8.880897,40.168384
25112506,Azueira e Sobral da Abelheira,Grande Lisboa,311,2025-03-19T23:58:00Z,25112506,Em despacho,3315,Inundação de estruturas por precipitação intensa,0,1,0,1,2025-03-19T23:58:00Z,Mafra,Lisboa,Área Metropolitana De Lisboa,-9.271609,39.020481
25112513,Caparica e Trafaria,Península de Setúbal,311,2025-03-19T23:58:00Z,25112513,Em despacho,3301,Queda de árvore,0,1,0,3,2025-03-19T23:58:00Z,Almada,Setúbal,Área Metropolitana De Lisboa,-9.205011,38.66171
25112515,Miranda do Corvo,Região de Coimbra,310,2025-03-19T23:10:00Z,25112515,Em curso,3301,Queda de árvore,0,0,0,0,2025-03-19T23:10:00Z,Miranda Do Corvo,Coimbra,Centro,-8.339499,40.09407
25112524,Pereira,Região de Coimbra,310,2025-03-19T23:55:00Z,25112524,Em despacho,3301,Queda de árvore,0,0,0,0,2025-03-19T23:55:00Z,Montemor-o-Velho,Coimbra,Centro,-8.585186,40.185229
25112529,Vila Nova,Região de Coimbra,310,2025-03-19T23:55:00Z,25112529,Em despacho,3301,Queda de árvore,0,1,0,2,2025-03-19T23:55:00Z,Miranda Do Corvo,Coimbra,Centro,-8.31477,40.055386
25112531,Côja e Barril de Alva,Região de Coimbra,310,2025-03-20T00:02:00Z,25112531,Em despacho,3301,Queda de árvore,0,1,0,2,2025-03-20T00:02:00Z,Arganil,Coimbra,Centro,-8.013226,40.253599
25112661,"Algés, Linda-a-Velha e Cruz Quebrada-Dafundo",Grande Lisboa,311,2025-03-20T00:27:00Z,25112661,Em despacho,3329,Queda de estruturas temporárias ou móveis,0,0,0,0,2025-03-20T00:27:00Z,Oeiras,Lisboa,Área Metropolitana De Lisboa,-9.24794,38.70009
25112676,"Oeiras e S. Julião da Barra, Paço de Arcos e Caxias",Grande Lisboa,311,2025-03-20T00:05:00Z,25112676,Em despacho,3301,Queda de árvore,0,1,0,6,2025-03-20T00:05:00Z,Oeiras,Lisboa,Área Metropolitana De Lisboa,-9.310159,38.698531
25112678,Costa da Caparica,Península de Setúbal,311,2025-03-20T00:15:00Z,25112678,Em curso,3311,Queda de elementos de estruturas edificados,0,1,0,4,2025-03-20T00:15:00Z,Almada,Setúbal,Área Metropolitana De Lisboa,-9.227696,38.642583
25112693,Lagos (São Sebastião e Santa Maria),Algarve,313,2025-03-20T00:11:00Z,25112693,Em despacho,3309,Desabamento de estruturas edificadas,0,1,0,5,2025-03-20T00:11:00Z,Lagos,Faro,Algarve,-8.668524,37.100485
25112694,Amora,Península de Setúbal,311,2025-03-20T00:30:00Z,25112694,Em curso,3301,Queda de árvore,0,1,0,5,2025-03-20T00:30:00Z,Seixal,Setúbal,Área Metropolitana De Lisboa,-9.125095,38.62821
25112710,Silves,Algarve,313,2025-03-20T00:21:00Z,25112710,Em despacho,3321,Dano na rede de fornecimento de eletricidade ,0,1,0,5,2025-03-20T00:21:00Z,Silves,Faro,Algarve,-8.443919,37.192295
25112711,Esmolfe,Viseu Dão Lafões,310,2025-03-20T00:29:00Z,25112711,Em despacho,3301,Queda de árvore,0,1,0,3,2025-03-20T00:29:00Z,Penalva Do Castelo,Viseu,Centro,-7.680102,40.67873
25112712,Malveira e São Miguel de Alcainça,Grande Lisboa,311,2025-03-20T00:33:00Z,25112712,Em despacho,3329,Queda de estruturas temporárias ou móveis,0,0,0,0,2025-03-20T00:33:00Z,Mafra,Lisboa,Área Metropolitana De Lisboa,-9.25702,38.92984
25112726,Soure,Região de Coimbra,310,2025-03-20T00:21:00Z,25112726,Em despacho,3301,Queda de árvore,0,1,0,2,2025-03-20T00:21:00Z,Soure,Coimbra,Centro,-8.60395,40.01224
25112703,Santa Catarina,Oeste,311,2025-03-20T00:18:00Z,25112703,Em despacho,3301,Queda de árvore,0,1,0,5,2025-03-20T00:18:00Z,Caldas Da Rainha,Leiria,Centro,-9.013661,39.44605
25112720,Luz,Algarve,313,2025-03-20T00:10:00Z,25112720,Em despacho,3301,Queda de árvore,0,1,0,5,2025-03-20T00:10:00Z,Lagos,Faro,Algarve,-8.736029,37.101963
25112734,Golegã,Lezíria do Tejo,311,2025-03-20T00:35:00Z,25112734,Em despacho,3301,Queda de árvore,0,1,0,4,2025-03-20T00:35:00Z,Golegã,Santarém,Alentejo,-8.472127,39.406562
25112735,Santo António Dos Olivais,Região de Coimbra,310,2025-03-20T00:09:00Z,25112735,Em despacho,3301,Queda de árvore,0,1,0,3,2025-03-20T00:09:00Z,Coimbra,Coimbra,Centro,-8.426807,40.217261
25112736,Seixo de Gatões,Região de Coimbra,310,2025-03-20T00:26:00Z,25112736,Em despacho,3309,Desabamento de estruturas edificadas,0,1,0,3,2025-03-20T00:26:00Z,Montemor-o-Velho,Coimbra,Centro,-8.690129,40.238805
25112753,Aldeia Galega da Merceana e Aldeia Gavinha,Oeste,311,2025-03-20T00:35:00Z,25112753,Em despacho,3301,Queda de árvore,0,1,0,3,2025-03-20T00:35:00Z,Alenquer,Lisboa,Centro,-9.070346,39.085936
25112754,Praia de Mira,Região de Coimbra,310,2025-03-20T00:34:00Z,25112754,Em despacho,3329,Queda de estruturas temporárias ou móveis,0,1,0,2,2025-03-20T00:34:00Z,Mira,Coimbra,Centro,-8.8004270000000009,40.460655
25112538,Lousã e Vilarinho,Região de Coimbra,310,2025-03-19T23:55:00Z,25112538,Em despacho,3301,Queda de árvore,0,1,0,2,2025-03-19T23:55:00Z,Lousã,Coimbra,Centro,-8.180017,40.090644
25112540,São João Das Lampas e Terrugem,Grande Lisboa,311,2025-03-20T00:03:00Z,25112540,Em curso,3301,Queda de árvore,0,2,0,6,2025-03-20T00:03:00Z,Sintra,Lisboa,Área Metropolitana De Lisboa,-9.442718,38.844843
25112549,Valezim,Beiras e Serra da Estrela,310,2025-03-20T00:08:00Z,25112549,Em despacho,3301,Queda de árvore,0,1,0,3,2025-03-20T00:08:00Z,Seia,Guarda,Centro,-7.715215,40.357374
25112554,Charneca de Caparica e Sobreda,Península de Setúbal,311,2025-03-20T00:10:00Z,25112554,Em curso,3301,Queda de árvore,0,1,0,4,2025-03-20T00:10:00Z,Almada,Setúbal,Área Metropolitana De Lisboa,-9.181708,38.64791
25112556,Loriga,Beiras e Serra da Estrela,310,2025-03-19T23:30:00Z,25112556,Em despacho,3301,Queda de árvore,0,1,0,4,2025-03-19T23:30:00Z,Seia,Guarda,Centro,-7.717106,40.339454
25112565,Aldeias e Mangualde da Serra,Beiras e Serra da Estrela,310,2025-03-20T00:13:00Z,25112565,Em despacho,3301,Queda de árvore,0,1,0,3,2025-03-20T00:13:00Z,Gouveia,Guarda,Centro,-7.59625,40.42121
25112572,Algueirão-Mem Martins,Grande Lisboa,311,2025-03-20T00:14:00Z,25112572,Em despacho,3301,Queda de árvore,0,1,0,3,2025-03-20T00:14:00Z,Sintra,Lisboa,Área Metropolitana De Lisboa,-9.34312,38.79552
25112574,Rebordosa,Area M. Porto,309,2025-03-20T00:05:00Z,25112574,Em conclusão,3311,Queda de elementos de estruturas edificados,0,1,0,2,2025-03-20T00:05:00Z,Paredes,Porto,Norte,-8.413867,41.217556
25112579,Montemor-o-Velho e Gatões,Região de Coimbra,310,2025-03-20T00:04:00Z,25112579,Em despacho,3311,Queda de elementos de estruturas edificados,0,1,0,2,2025-03-20T00:04:00Z,Montemor-o-Velho,Coimbra,Centro,-8.684865,40.169486
25112581,Messejana,Baixo Alentejo,312,2025-03-20T00:01:00Z,25112581,Em conclusão,3301,Queda de árvore,0,2,0,5,2025-03-20T00:01:00Z,Aljustrel,Beja,Alentejo,-8.25838,37.81834
25112727,Barcarena,Grande Lisboa,311,2025-03-20T00:32:00Z,25112727,Em despacho,3321,Dano na rede de fornecimento de eletricidade ,0,2,0,7,2025-03-20T00:32:00Z,Oeiras,Lisboa,Área Metropolitana De Lisboa,-9.282164,38.744749
25112744,Ramada e Caneças,Grande Lisboa,311,2025-03-20T00:29:00Z,25112744,Em despacho,3301,Queda de árvore,0,1,0,5,2025-03-20T00:29:00Z,Odivelas,Lisboa,Área Metropolitana De Lisboa,-9.194441,38.801427
25112745,Colares,Grande Lisboa,311,2025-03-20T00:35:00Z,25112745,Em despacho,3301,Queda de árvore,0,1,0,3,2025-03-20T00:35:00Z,Sintra,Lisboa,Área Metropolitana De Lisboa,-9.486381,38.778591
25112746,Amora,Península de Setúbal,311,2025-03-20T00:21:00Z,25112746,Em despacho,3315,Inundação de estruturas por precipitação intensa,0,1,0,4,2025-03-20T00:21:00Z,Seixal,Setúbal,Área Metropolitana De Lisboa,-9.128863,38.61388
25112597,Sobral de Monte Agraço,Oeste,311,2025-03-19T23:45:00Z,25112597,Em despacho,3309,Desabamento de estruturas edificadas,0,2,0,2,2025-03-19T23:45:00Z,Sobral De Monte Agraço,Lisboa,Centro,-9.169791,39.006119
25112608,Vila do Bispo e Raposeira,Algarve,313,2025-03-20T00:16:00Z,25112608,Em despacho,3329,Queda de estruturas temporárias ou móveis,0,1,0,5,2025-03-20T00:16:00Z,Vila Do Bispo,Faro,Algarve,-8.900536,37.096414
25112613,Sobral de Monte Agraço,Oeste,311,2025-03-20T00:05:00Z,25112613,Em despacho,3311,Queda de elementos de estruturas edificados,0,1,0,1,2025-03-20T00:05:00Z,Sobral De Monte Agraço,Lisboa,Centro,-9.151478,39.017089
25112622,"S.julião, N.s. da Anunciada e S. Maria da Graça",Península de Setúbal,311,2025-03-20T00:21:00Z,25112622,Em curso,3311,Queda de elementos de estruturas edificados,0,0,0,0,2025-03-20T00:21:00Z,Setúbal,Setúbal,Área Metropolitana De Lisboa,-8.90427,38.528
25112631,Agualva e Mira-Sintra,Grande Lisboa,311,2025-03-20T00:23:00Z,25112631,Em despacho,3301,Queda de árvore,0,0,0,0,2025-03-20T00:23:00Z,Sintra,Lisboa,Área Metropolitana De Lisboa,-9.28347,38.76878
25112638,Portimão,Algarve,313,2025-03-20T00:00:00Z,25112638,Em curso,3329,Queda de estruturas temporárias ou móveis,0,1,0,3,2025-03-20T00:00:00Z,Portimão,Faro,Algarve,-8.532608,37.137966
25112658,Quinta do Anjo,Península de Setúbal,311,2025-03-20T00:26:00Z,25112658,Em curso,3301,Queda de árvore,0,0,0,0,2025-03-20T00:26:00Z,Palmela,Setúbal,Área Metropolitana De Lisboa,-9.02329,38.58032
25112665,Carnaxide e Queijas,Grande Lisboa,311,2025-03-20T00:15:00Z,25112665,Em despacho,3311,Queda de elementos de estruturas edificados,0,1,0,4,2025-03-20T00:15:00Z,Oeiras,Lisboa,Área Metropolitana De Lisboa,-9.259903,38.718843
25112672,Alhos Vedros,Península de Setúbal,311,2025-03-20T00:28:00Z,25112672,Em curso,3311,Queda de elementos de estruturas edificados,0,0,0,0,2025-03-20T00:28:00Z,Moita,Setúbal,Área Metropolitana De Lisboa,-9.02548,38.65708
25112674,Venda do Pinheiro e Santo Estêvão Das Galés,Grande Lisboa,311,2025-03-20T00:28:00Z,25112674,Em despacho,3301,Queda de árvore,0,0,0,0,2025-03-20T00:28:00Z,Mafra,Lisboa,Área Metropolitana De Lisboa,-9.26038,38.90364
25112688,Albufeira e Olhos de Água,Algarve,313,2025-03-20T00:12:00Z,25112688,Em despacho,3301,Queda de árvore,0,1,0,3,2025-03-20T00:12:00Z,Albufeira,Faro,Algarve,-8.252292,37.091727
25112699,Batalha,Região de Leiria,310,2025-03-20T00:20:00Z,25112699,Em despacho,3301,Queda de árvore,0,1,0,3,2025-03-20T00:20:00Z,Batalha,Leiria,Centro,-8.847328,39.651644
25112708,Castro Verde e Casével,Baixo Alentejo,312,2025-03-20T00:20:00Z,25112708,Em despacho,3301,Queda de árvore,0,2,0,6,2025-03-20T00:20:00Z,Castro Verde,Beja,Alentejo,-8.179615,37.779248
25112722,Azeitão (São Lourenço e São Simão),Península de Setúbal,311,2025-03-20T00:34:00Z,25112722,Em curso,3321,Dano na rede de fornecimento de eletricidade ,0,0,0,0,2025-03-20T00:34:00Z,Setúbal,Setúbal,Área Metropolitana De Lisboa,-9.01777,38.55323
25112724,"Oeiras e S. Julião da Barra, Paço de Arcos e Caxias",Grande Lisboa,311,2025-03-20T00:18:00Z,25112724,Em despacho,3301,Queda de árvore,0,1,0,3,2025-03-20T00:18:00Z,Oeiras,Lisboa,Área Metropolitana De Lisboa,-9.290593,38.696925
25112738,"Oeiras e S. Julião da Barra, Paço de Arcos e Caxias",Grande Lisboa,311,2025-03-20T00:20:00Z,25112738,Em despacho,3301,Queda de árvore,0,1,0,3,2025-03-20T00:20:00Z,Oeiras,Lisboa,Área Metropolitana De Lisboa,-9.275682,38.698873
25112747,Faro (Sé e São Pedro),Algarve,313,2025-03-20T00:37:00Z,25112747,Em despacho,3321,Dano na rede de fornecimento de eletricidade ,0,0,0,0,2025-03-20T00:37:00Z,Faro,Faro,Algarve,-7.925592,37.0113
25112756,Quarteira,Algarve,313,2025-03-20T00:25:00Z,25112756,Em despacho,3301,Queda de árvore,0,1,0,5,2025-03-20T00:25:00Z,Loulé,Faro,Algarve,-8.1072,37.074665
