id,address,subregion,neighborhood,date,id.1,state,nature,nature_description,aerial_means,terrestrial_means,aquatic_means,operational,date.1,Concelho,Distrito,NUTII_DSG,longitude,latitude,state_2
25832672,Piódão,Região de Coimbra,310,2025-08-13T05:08:00Z,25832672,Em Resolução/Conclusão,3103,Incêndio rural,0,18,0,55,2025-08-13T05:08:00Z,Arganil,Coimbra,Centro,-7.81972,40.23083,Resolução/Conclusão
25840417,Lousã e Vilarinho,Região de Coimbra,310,2025-08-14T13:46:00Z,25840417,Em Resolução/Conclusão,3101,Incêndio rural,0,1,0,1,2025-08-14T13:46:00Z,Lousã,Coimbra,Centro,-8.201561,40.080016,Resolução/Conclusão
25918572,Moimenta e Montouto,Terras de Trás-os-Montes,309,2025-08-30T06:34:00Z,25918572,Em Resolução/Conclusão,3103,Incêndio rural,0,7,0,27,2025-08-30T06:34:00Z,Vinhais,Bragança,Norte,-6.95516,41.941412,Resolução/Conclusão
25921189,Vila Caiz,Tâmega e Sousa,309,2025-08-30T18:00:00Z,25921189,Em Resolução/Conclusão,3105,Incêndio rural,0,1,0,5,2025-08-30T18:00:00Z,Amarante,Porto,Norte,-8.129827,41.22862,Resolução/Conclusão
25921287,Apúlia e Fão,Cávado,309,2025-08-30T18:20:00Z,25921287,Em Despacho,3111,Queima,0,1,0,2,2025-08-30T18:20:00Z,Esposende,Braga,Norte,-8.75786,41.47035,Despacho
25921305,"Santiago do Cacém, S.cruz e São Bartolomeu da Serra",Alentejo Litoral,312,2025-08-30T18:25:00Z,25921305,Em Curso,3103,Incêndio rural,0,1,0,2,2025-08-30T18:25:00Z,Santiago Do Cacém,Setúbal,Alentejo,-8.652988,37.986148,Curso
25921496,Tendais,Tâmega e Sousa,309,2025-08-30T19:17:00Z,25921496,Em Despacho,3103,Incêndio rural,1,2,0,11,2025-08-30T19:17:00Z,Cinfães,Viseu,Norte,-8.05544,41.02901,Despacho
25846480,Sabugal e Aldeia de Santo António,Beiras e Serra da Estrela,310,2025-08-15T14:41:00Z,25846480,Em Resolução/Conclusão,3103,Incêndio rural,0,4,0,15,2025-08-15T14:41:00Z,Sabugal,Guarda,Centro,-7.125037,40.34023,Resolução/Conclusão
25851895,Sortelha,Beiras e Serra da Estrela,310,2025-08-16T14:53:00Z,25851895,Em Resolução/Conclusão,3103,Incêndio rural,0,2,0,10,2025-08-16T14:53:00Z,Sabugal,Guarda,Centro,-7.254367,40.318488,Resolução/Conclusão
25910055,Rebordelo,Terras de Trás-os-Montes,309,2025-08-28T11:08:00Z,25910055,Em Resolução/Conclusão,3103,Incêndio rural,3,131,0,381,2025-08-28T11:08:00Z,Vinhais,Bragança,Norte,-7.134773,41.765422,Resolução/Conclusão
25920698,Mouriscas,Médio Tejo,311,2025-08-30T15:54:00Z,25920698,Em Resolução/Conclusão,3101,Incêndio rural,0,20,0,68,2025-08-30T15:54:00Z,Abrantes,Santarém,Centro,-8.114273,39.5069,Resolução/Conclusão
25921435,Nossa Senhora da Conceição e São Bartolomeu,Alentejo Central,312,2025-08-30T18:50:00Z,25921435,Em Resolução/Conclusão,3103,Incêndio rural,0,3,0,9,2025-08-30T18:50:00Z,Vila Viçosa,Évora,Alentejo,-7.405052,38.772219,Resolução/Conclusão
25836309,Cinfães,Tâmega e Sousa,309,2025-08-13T18:17:00Z,25836309,Em Resolução/Conclusão,3103,Incêndio rural,0,1,0,2,2025-08-13T18:17:00Z,Cinfães,Viseu,Norte,-8.071502,41.049757,Resolução/Conclusão
25917734,São João da Pesqueira e Várzea de Trevões,Douro,309,2025-08-29T22:20:00Z,25917734,Em Resolução/Conclusão,3103,Incêndio rural,2,15,0,51,2025-08-29T22:20:00Z,São João Da Pesqueira,Viseu,Norte,-7.500588,41.084698,Resolução/Conclusão
25919988,Cambra e Carvalhal de Vermilhas,Viseu Dão Lafões,310,2025-08-30T12:56:00Z,25919988,Em Resolução/Conclusão,3103,Incêndio rural,0,6,0,20,2025-08-30T12:56:00Z,Vouzela,Viseu,Centro,-8.159228,40.65748,Resolução/Conclusão
25920808,Vale de Prazeres e Mata da Rainha,Beiras e Serra da Estrela,310,2025-08-30T16:23:00Z,25920808,Em Resolução/Conclusão,3103,Incêndio rural,0,5,0,15,2025-08-30T16:23:00Z,Fundão,Castelo Branco,Centro,-7.43885,40.11691,Resolução/Conclusão
25921392,Arez e Amieira do Tejo,Alto Alentejo,312,2025-08-30T18:49:00Z,25921392,Em Resolução/Conclusão,3103,Incêndio rural,0,9,0,32,2025-08-30T18:49:00Z,Nisa,Portalegre,Alentejo,-7.758333,39.474348,Resolução/Conclusão
25887019,Pedrógão Grande,Região de Leiria,310,2025-08-23T14:27:00Z,25887019,Em Resolução/Conclusão,3101,Incêndio rural,0,4,0,14,2025-08-23T14:27:00Z,Pedrógão Grande,Leiria,Centro,-8.15364,39.9136,Resolução/Conclusão
25920729,Lousa,Grande Lisboa,311,2025-08-30T16:01:00Z,25920729,Em Resolução/Conclusão,3101,Incêndio rural,0,5,0,16,2025-08-30T16:01:00Z,Loures,Lisboa,Área Metropolitana De Lisboa,-9.201425,38.904332,Resolução/Conclusão
25921172,São Pedro de Castelões,Area M. Porto,309,2025-08-30T17:45:00Z,25921172,Em Resolução/Conclusão,3101,Incêndio rural,0,1,0,5,2025-08-30T17:45:00Z,Vale De Cambra,Aveiro,Norte,-8.397494,40.829691,Resolução/Conclusão
25921256,"Lobão, Gião, Louredo e Guisande",Area M. Porto,309,2025-08-30T18:11:00Z,25921256,Em Resolução/Conclusão,3101,Incêndio rural,0,1,0,5,2025-08-30T18:11:00Z,Santa Maria Da Feira,Aveiro,Norte,-8.479322,40.984255,Resolução/Conclusão
25921461,"Mangualde, Mesquitela e Cunha Alta",Viseu Dão Lafões,310,2025-08-30T19:06:00Z,25921461,Em Curso,3103,Incêndio rural,1,5,0,31,2025-08-30T19:06:00Z,Mangualde,Viseu,Centro,-7.798812,40.592685,Curso
