id,address,subregion,neighborhood,date,id.1,state,nature,nature_description,aerial_means,terrestrial_means,aquatic_means,operational,date.1,Concelho,Distrito,NUTII_DSG,longitude,latitude
24874564,"Sé, Santa Maria e Meixedo",Terras de Trás-os-Montes,309,2025-01-26T21:55:00Z,24874564,Em curso,3315,Inundação de estruturas por precipitação intensa,0,1,0,2,2025-01-26T21:55:00Z,Bragança,Bragança,Norte,-6.761223,41.813164
24883295,Vale do Paraíso,Lezíria do Tejo,311,2025-01-28T15:35:00Z,24883295,Em curso,3301,Queda de árvore,0,2,0,3,2025-01-28T15:35:00Z,Azambuja,Lisboa,Alentejo,-8.880193,39.12094
24883704,"Marvila, Ribeira Santarém, S.salvador, S.nicolau",Lezíria do Tejo,311,2025-01-28T17:05:00Z,24883704,Em despacho,3311,Queda de elementos de estruturas edificados,0,1,0,1,2025-01-28T17:05:00Z,Santarém,Santarém,Alentejo,-8.678591,39.231938
24882871,São Cosmado,Douro,309,2025-01-28T14:07:00Z,24882871,Em conclusão,3301,Queda de árvore,0,3,0,7,2025-01-28T14:07:00Z,Armamar,Viseu,Norte,-7.649422,41.060723
24882957,Torre de Moncorvo,Douro,309,2025-01-28T14:23:00Z,24882957,Em despacho,3301,Queda de árvore,0,1,0,2,2025-01-28T14:23:00Z,Torre De Moncorvo,Bragança,Norte,-7.078549,41.170955
24883458,Montijo e Afonsoeiro,Península de Setúbal,311,2025-01-28T15:56:00Z,24883458,Em despacho,3311,Queda de elementos de estruturas edificados,0,1,0,2,2025-01-28T15:56:00Z,Montijo,Setúbal,Área Metropolitana De Lisboa,-8.975715,38.702323
24851780,"São Miguel, Santa Eufémia e Rabaçal",Região de Coimbra,310,2025-01-21T23:25:00Z,24851780,Em curso,3315,Inundação de estruturas por precipitação intensa,0,0,0,0,2025-01-21T23:25:00Z,Penela,Coimbra,Centro,-8.399036,40.025502
24881459,Viseu,Viseu Dão Lafões,310,2025-01-28T09:34:00Z,24881459,Em curso,3315,Inundação de estruturas por precipitação intensa,0,0,0,0,2025-01-28T09:34:00Z,Viseu,Viseu,Centro,-7.898947,40.672175
24882565,"Alhões, Bustelo, Gralheira e Ramires",Tâmega e Sousa,309,2025-01-28T13:00:00Z,24882565,Em despacho,1107,Nevão,0,1,0,2,2025-01-28T13:00:00Z,Cinfães,Viseu,Norte,-7.967908,41.005471
24882916,"Freixianda, Ribeira do Fárrio e Formigais",Médio Tejo,311,2025-01-28T14:19:00Z,24882916,Em despacho,3301,Queda de árvore,0,1,0,1,2025-01-28T14:19:00Z,Ourém,Santarém,Centro,-8.527727,39.792774
24883183,Salto,Alto Tâmega e Barroso,309,2025-01-28T15:08:00Z,24883183,Em despacho,3301,Queda de árvore,0,1,0,4,2025-01-28T15:08:00Z,Montalegre,Vila Real,Norte,-7.953108,41.639334
24883632,Sertã,Beira Baixa,310,2025-01-28T16:44:00Z,24883632,Em curso,3309,Desabamento de estruturas edificadas,0,1,0,5,2025-01-28T16:44:00Z,Sertã,Castelo Branco,Centro,-8.103914,39.808756
24883668,"Coruche, Fajarda e Erra",Lezíria do Tejo,311,2025-01-28T16:54:00Z,24883668,Em despacho,3301,Queda de árvore,0,2,0,5,2025-01-28T16:54:00Z,Coruche,Santarém,Alentejo,-8.401129,39.058165
24877003,Malagueira e Horta Das Figueiras,Alentejo Central,312,2025-01-27T11:41:00Z,24877003,Em conclusão,3315,Inundação de estruturas por precipitação intensa,0,0,0,0,2025-01-27T11:41:00Z,Évora,Évora,Alentejo,-7.924277,38.57285
24880911,Salto,Alto Tâmega e Barroso,309,2025-01-28T07:30:00Z,24880911,Em despacho,1107,Nevão,0,1,0,2,2025-01-28T07:30:00Z,Montalegre,Vila Real,Norte,-7.952023,41.597916
24882876,Penamaior,Tâmega e Sousa,309,2025-01-28T14:11:00Z,24882876,Em conclusão,3301,Queda de árvore,0,1,0,2,2025-01-28T14:11:00Z,Paços De Ferreira,Porto,Norte,-8.417673,41.276723
24883396,Arcas,Terras de Trás-os-Montes,309,2025-01-28T15:55:00Z,24883396,Em curso,3301,Queda de árvore,0,1,0,1,2025-01-28T15:55:00Z,Macedo De Cavaleiros,Bragança,Norte,-7.037209,41.647765
