id,address,subregion,neighborhood,date,id.1,state,nature,nature_description,aerial_means,terrestrial_means,aquatic_means,operational,date.1,Concelho,Distrito,NUTII_DSG,longitude,latitude
25068300,Almeirim,Lezíria do Tejo,311,2025-03-10T20:52:00Z,25068300,Em curso,1101,Cheia,0,0,0,0,2025-03-10T20:52:00Z,Almeirim,Santarém,Alentejo,-8.635002,39.187436
25231032,Eiras e São Paulo de Frades,Região de Coimbra,310,2025-04-12T12:59:00Z,25231032,Em despacho,3315,Inundação de estruturas por precipitação intensa,0,1,0,3,2025-04-12T12:59:00Z,Coimbra,Coimbra,Centro,-8.423418,40.248789
25231405,Mões,Viseu Dão Lafões,310,2025-04-12T14:22:00Z,25231405,Em despacho,3301,Queda de árvore,0,1,0,2,2025-04-12T14:22:00Z,Castro Daire,Viseu,Centro,-7.866252,40.863909
25231439,Reguengo do Fetal,Região de Leiria,310,2025-04-12T14:34:00Z,25231439,Em despacho,3313,Deslizamento de terras,0,1,0,1,2025-04-12T14:34:00Z,Batalha,Leiria,Centro,-8.781389,39.64833
25070044,Praia do Ribatejo,Médio Tejo,311,2025-03-10T19:30:00Z,25070044,Em curso,1101,Cheia,0,0,0,0,2025-03-10T19:30:00Z,Vila Nova Da Barquinha,Santarém,Centro,-8.357309,39.485638
25071496,São Manços e São Vicente do Pigeiro,Alentejo Central,312,2025-03-11T13:18:00Z,25071496,Em conclusão,1101,Cheia,0,0,0,0,2025-03-11T13:18:00Z,Évora,Évora,Alentejo,-7.713313,38.513673
25202441,Serpa (Salvador e Santa Maria),Baixo Alentejo,312,2025-04-06T10:25:00Z,25202441,Em conclusão,1101,Cheia,0,0,0,0,2025-04-06T10:25:00Z,Serpa,Beja,Alentejo,-7.555783,37.88592
25231102,São João de Loure e Frossos,Região de Aveiro,310,2025-04-12T13:10:00Z,25231102,Em despacho,3313,Deslizamento de terras,0,1,0,2,2025-04-12T13:10:00Z,Albergaria-a-Velha,Aveiro,Centro,-8.542278,40.661776
25231451,Pinhal Novo,Península de Setúbal,311,2025-04-12T14:15:00Z,25231451,Em despacho,3315,Inundação de estruturas por precipitação intensa,0,1,0,3,2025-04-12T14:15:00Z,Palmela,Setúbal,Área Metropolitana De Lisboa,-8.898349,38.639295
25231787,"Pedreira, Rande e Sernande",Tâmega e Sousa,309,2025-04-12T15:53:00Z,25231787,Em despacho,3315,Inundação de estruturas por precipitação intensa,0,1,0,2,2025-04-12T15:53:00Z,Felgueiras,Porto,Norte,-8.2314,41.32795
25231312,Pinhal Novo,Península de Setúbal,311,2025-04-12T14:05:00Z,25231312,Em despacho,3317,Inundação de estruturas por água canalizada,0,1,0,4,2025-04-12T14:05:00Z,Palmela,Setúbal,Área Metropolitana De Lisboa,-8.92025,38.63133
25231379,Odivelas,Grande Lisboa,311,2025-04-12T14:21:00Z,25231379,Em despacho,3315,Inundação de estruturas por precipitação intensa,0,0,0,0,2025-04-12T14:21:00Z,Odivelas,Lisboa,Área Metropolitana De Lisboa,-9.18984,38.79405
25231844,Sousel,Alto Alentejo,312,2025-04-12T16:06:00Z,25231844,Em conclusão,3313,Deslizamento de terras,0,2,0,7,2025-04-12T16:06:00Z,Sousel,Portalegre,Alentejo,-7.671075,38.956834
25231912,Fafe,Ave,309,2025-04-12T16:24:00Z,25231912,Em despacho,3315,Inundação de estruturas por precipitação intensa,0,1,0,2,2025-04-12T16:24:00Z,Fafe,Braga,Norte,-8.175239,41.449617
25231090,Angeja,Região de Aveiro,310,2025-04-12T13:00:00Z,25231090,Em despacho,3313,Deslizamento de terras,0,1,0,2,2025-04-12T13:00:00Z,Albergaria-a-Velha,Aveiro,Centro,-8.56369,40.681509
25231238,Albergaria-a-Velha e Valmaior,Região de Aveiro,310,2025-04-12T13:48:00Z,25231238,Em curso,3315,Inundação de estruturas por precipitação intensa,0,1,0,1,2025-04-12T13:48:00Z,Albergaria-a-Velha,Aveiro,Centro,-8.438386,40.699019
25231831,Ramada e Caneças,Grande Lisboa,311,2025-04-12T15:58:00Z,25231831,Em despacho,3315,Inundação de estruturas por precipitação intensa,0,0,0,0,2025-04-12T15:58:00Z,Odivelas,Lisboa,Área Metropolitana De Lisboa,-9.194441,38.801427
25231915,Vau,Oeste,311,2025-04-12T16:20:00Z,25231915,Em despacho,3315,Inundação de estruturas por precipitação intensa,0,1,0,4,2025-04-12T16:20:00Z,Óbidos,Leiria,Centro,-9.254195,39.378229
