id,address,subregion,neighborhood,date,id.1,state,nature,nature_description,aerial_means,terrestrial_means,aquatic_means,operational,date.1,Concelho,Distrito,NUTII_DSG,longitude,latitude
24877003,Malagueira e Horta Das Figueiras,Alentejo Central,312,2025-01-27T11:41:00Z,24877003,Em conclusão,3315,Inundação de estruturas por precipitação intensa,0,0,0,0,2025-01-27T11:41:00Z,Évora,Évora,Alentejo,-7.924277,38.57285
24979844,Vimeiro,Oeste,311,2025-02-19T08:00:00Z,24979844,Em despacho,3301,Queda de árvore,0,1,0,2,2025-02-19T08:00:00Z,Alcobaça,Leiria,Centro,-9.020121,39.497339
24979969,Buarcos,Região de Coimbra,310,2025-02-19T08:30:00Z,24979969,Em despacho,3301,Queda de árvore,0,2,0,4,2025-02-19T08:30:00Z,Figueira Da Foz,Coimbra,Centro,-8.870977,40.171768
24980307,Canha,Península de Setúbal,311,2025-02-19T09:45:00Z,24980307,Em despacho,3301,Queda de árvore,0,1,0,5,2025-02-19T09:45:00Z,Montijo,Setúbal,Área Metropolitana De Lisboa,-8.632345,38.75606
24888293,Pernes,Lezíria do Tejo,311,2025-01-29T16:41:00Z,24888293,Em curso,3301,Queda de árvore,0,0,0,0,2025-01-29T16:41:00Z,Santarém,Santarém,Alentejo,-8.658865,39.381547
