id,address,subregion,neighborhood,date,id.1,state,nature,nature_description,aerial_means,terrestrial_means,aquatic_means,operational,date.1,Concelho,Distrito,NUTII_DSG,longitude,latitude
25055373,Santa Maria Maior,Alto Tâmega e Barroso,309,2025-03-07T21:35:00Z,25055373,Em curso,3313,Deslizamento de terras,0,2,0,7,2025-03-07T21:35:00Z,Chaves,Vila Real,Norte,-7.464751,41.742877
25055131,Baixa da Banheira e Vale da Amoreira,Península de Setúbal,311,2025-03-07T20:12:00Z,25055131,Em despacho,3315,Inundação de estruturas por precipitação intensa,0,1,0,4,2025-03-07T20:12:00Z,Moita,Setúbal,Área Metropolitana De Lisboa,-9.034794,38.646934
25055276,Areosa,Alto Minho,309,2025-03-07T20:59:00Z,25055276,Em despacho,3301,Queda de árvore,0,1,0,2,2025-03-07T20:59:00Z,Viana Do Castelo,Viana Do Castelo,Norte,-8.841057,41.722906
25055505,"Seixal, Arrentela e Aldeia de Paio Pires",Península de Setúbal,311,2025-03-07T22:22:00Z,25055505,Em despacho,3311,Queda de elementos de estruturas edificados,0,1,0,3,2025-03-07T22:22:00Z,Seixal,Setúbal,Área Metropolitana De Lisboa,-9.103194,38.608552
25053308,Ermidas-Sado,Alentejo Litoral,312,2025-03-07T14:02:00Z,25053308,Em despacho,3301,Queda de árvore,0,1,0,2,2025-03-07T14:02:00Z,Santiago Do Cacém,Setúbal,Alentejo,-8.366897,38.010808
25053740,Palhais e Coina,Península de Setúbal,311,2025-03-07T15:18:00Z,25053740,Em despacho,3329,Queda de estruturas temporárias ou móveis,0,1,0,4,2025-03-07T15:18:00Z,Barreiro,Setúbal,Área Metropolitana De Lisboa,-9.043332,38.595522
25054009,Moita,Península de Setúbal,311,2025-03-07T16:05:00Z,25054009,Em despacho,3321,Dano na rede de fornecimento de eletricidade ,0,0,0,0,2025-03-07T16:05:00Z,Moita,Setúbal,Área Metropolitana De Lisboa,-8.985364,38.643702
25054474,Chamusca e Pinheiro Grande,Lezíria do Tejo,311,2025-03-07T17:48:00Z,25054474,Em despacho,3301,Queda de árvore,0,1,0,2,2025-03-07T17:48:00Z,Chamusca,Santarém,Alentejo,-8.490477,39.362372
25055428,Foz de Arouce e Casal de Ermio,Região de Coimbra,310,2025-03-07T21:50:00Z,25055428,Em despacho,3301,Queda de árvore,0,1,0,2,2025-03-07T21:50:00Z,Lousã,Coimbra,Centro,-8.269237,40.141906
