id,address,subregion,neighborhood,date,id.1,state,nature,nature_description,aerial_means,terrestrial_means,aquatic_means,operational,date.1,Concelho,Distrito,NUTII_DSG,longitude,latitude,state_2
25686799,Souto Maior,Douro,309,2025-07-16T13:19:00Z,25686799,Em Resolução/Conclusão,3101,Incêndio rural,0,36,0,126,2025-07-16T13:19:00Z,Sabrosa,Vila Real,Norte,-7.57839,41.287518,Resolução/Conclusão
25697095,Alfarelos,Região de Coimbra,310,2025-07-18T14:01:00Z,25697095,Em Resolução/Conclusão,3101,Incêndio rural,0,9,0,20,2025-07-18T14:01:00Z,Soure,Coimbra,Centro,-8.640182,40.154127,Resolução/Conclusão
25697580,Póvoa de Lanhoso (Nossa Senhora do Amparo),Ave,309,2025-07-18T15:24:00Z,25697580,Em Resolução/Conclusão,3103,Incêndio rural,0,0,0,0,2025-07-18T15:24:00Z,Póvoa De Lanhoso,Braga,Norte,-8.260832,41.585208,Resolução/Conclusão
25697898,Penha de França,Grande Lisboa,311,2025-07-18T16:51:00Z,25697898,Em Resolução/Conclusão,3103,Incêndio rural,0,9,0,22,2025-07-18T16:51:00Z,Lisboa,Lisboa,Área Metropolitana De Lisboa,-9.122586,38.72577,Resolução/Conclusão
25698400,Alcaria Ruiva,Baixo Alentejo,312,2025-07-18T18:37:00Z,25698400,Em Resolução/Conclusão,3105,Incêndio rural,0,16,0,37,2025-07-18T18:37:00Z,Mértola,Beja,Alentejo,-7.784537,37.770317,Resolução/Conclusão
25698451,Arnóia,Tâmega e Sousa,309,2025-07-18T18:50:00Z,25698451,Em Resolução/Conclusão,3101,Incêndio rural,0,5,0,22,2025-07-18T18:50:00Z,Celorico De Basto,Braga,Norte,-8.015378,41.373849,Resolução/Conclusão
25692562,Atouguia,Médio Tejo,311,2025-07-17T15:31:00Z,25692562,Em Resolução/Conclusão,3101,Incêndio rural,0,3,0,12,2025-07-17T15:31:00Z,Ourém,Santarém,Centro,-8.62029,39.654072,Resolução/Conclusão
25692814,Tolosa,Alto Alentejo,312,2025-07-17T16:23:00Z,25692814,Em Resolução/Conclusão,3103,Incêndio rural,0,2,0,7,2025-07-17T16:23:00Z,Nisa,Portalegre,Alentejo,-7.635642,39.486993,Resolução/Conclusão
25697833,Vilar de Pinheiro,Area M. Porto,309,2025-07-18T16:35:00Z,25697833,Em Resolução/Conclusão,3103,Incêndio rural,0,1,0,5,2025-07-18T16:35:00Z,Vila Do Conde,Porto,Norte,-8.67597,41.27039,Resolução/Conclusão
25697992,Moreira do Rei e Várzea Cova,Ave,309,2025-07-18T17:09:00Z,25697992,Em Resolução/Conclusão,3103,Incêndio rural,0,4,0,17,2025-07-18T17:09:00Z,Fafe,Braga,Norte,-8.075852,41.533328,Resolução/Conclusão
25698385,Marinha Das Ondas,Região de Coimbra,310,2025-07-18T18:37:00Z,25698385,Em Resolução/Conclusão,3101,Incêndio rural,0,1,0,5,2025-07-18T18:37:00Z,Figueira Da Foz,Coimbra,Centro,-8.85194,40.03861,Resolução/Conclusão
25696955,"Vilela, Seramil e Paredes Secas",Cávado,309,2025-07-18T13:36:00Z,25696955,Em Resolução/Conclusão,3101,Incêndio rural,0,18,0,63,2025-07-18T13:36:00Z,Amares,Braga,Norte,-8.309448,41.67517,Resolução/Conclusão
25697386,Requião,Ave,309,2025-07-18T14:57:00Z,25697386,Em Resolução/Conclusão,3103,Incêndio rural,0,1,0,2,2025-07-18T14:57:00Z,Vila Nova De Famalicão,Braga,Norte,-8.486485,41.419627,Resolução/Conclusão
25698189,Fregim,Tâmega e Sousa,309,2025-07-18T17:53:00Z,25698189,Em Resolução/Conclusão,3103,Incêndio rural,0,3,0,15,2025-07-18T17:53:00Z,Amarante,Porto,Norte,-8.106882,41.26401,Resolução/Conclusão
25695378,Refóios do Lima,Alto Minho,309,2025-07-18T08:35:00Z,25695378,Em Resolução/Conclusão,3103,Incêndio rural,0,3,0,8,2025-07-18T08:35:00Z,Ponte De Lima,Viana Do Castelo,Norte,-8.52127,41.804412,Resolução/Conclusão
25697900,Pias,Baixo Alentejo,312,2025-07-18T16:52:00Z,25697900,Em Resolução/Conclusão,3105,Incêndio rural,0,6,0,20,2025-07-18T16:52:00Z,Serpa,Beja,Alentejo,-7.484853,38.020383,Resolução/Conclusão
25698177,Mafra,Grande Lisboa,311,2025-07-18T17:46:00Z,25698177,Em Resolução/Conclusão,3101,Incêndio rural,0,7,0,21,2025-07-18T17:46:00Z,Mafra,Lisboa,Área Metropolitana De Lisboa,-9.379183,38.944485,Resolução/Conclusão
25698472,Pinhal Novo,Península de Setúbal,311,2025-07-18T18:55:00Z,25698472,Em Resolução/Conclusão,3105,Incêndio rural,0,6,0,20,2025-07-18T18:55:00Z,Palmela,Setúbal,Área Metropolitana De Lisboa,-8.937928,38.63138,Resolução/Conclusão
25698460,Samora Correia,Lezíria do Tejo,311,2025-07-18T18:52:00Z,25698460,Em Resolução/Conclusão,3103,Incêndio rural,0,4,0,14,2025-07-18T18:52:00Z,Benavente,Santarém,Alentejo,-8.868908,38.935447,Resolução/Conclusão
25698687,Repeses e São Salvador,Viseu Dão Lafões,310,2025-07-18T19:44:00Z,25698687,Em Despacho,3103,Incêndio rural,0,3,0,12,2025-07-18T19:44:00Z,Viseu,Viseu,Centro,-7.923059,40.64373,Despacho
25698724,Leomil,Douro,309,2025-07-18T19:50:00Z,25698724,Em Despacho,3105,Incêndio rural,1,0,0,6,2025-07-18T19:50:00Z,Moimenta Da Beira,Viseu,Norte,-7.636471,40.979311,Despacho
