id,address,subregion,neighborhood,date,id.1,state,nature,nature_description,aerial_means,terrestrial_means,aquatic_means,operational,date.1,Concelho,Distrito,NUTII_DSG,longitude,latitude
24877003,Malagueira e Horta Das Figueiras,Alentejo Central,312,2025-01-27T11:41:00Z,24877003,Em conclusão,3315,Inundação de estruturas por precipitação intensa,0,0,0,0,2025-01-27T11:41:00Z,Évora,Évora,Alentejo,-7.924277,38.57285
24990493,Zibreira,Médio Tejo,311,2025-02-21T12:06:00Z,24990493,Em despacho,3329,Queda de estruturas temporárias ou móveis,0,2,0,4,2025-02-21T12:06:00Z,Torres Novas,Santarém,Centro,-8.625817,39.479641
24888293,Pernes,Lezíria do Tejo,311,2025-01-29T16:41:00Z,24888293,Em curso,3301,Queda de árvore,0,0,0,0,2025-01-29T16:41:00Z,Santarém,Santarém,Alentejo,-8.658865,39.381547
24990748,"Póvoa de Varzim, Beiriz e Argivai",Area M. Porto,309,2025-02-21T12:49:00Z,24990748,Em despacho,3309,Desabamento de estruturas edificadas,0,2,0,4,2025-02-21T12:49:00Z,Póvoa De Varzim,Porto,Norte,-8.741711,41.385553
24990814,Santo Isidoro,Grande Lisboa,311,2025-02-21T13:15:00Z,24990814,Em despacho,3301,Queda de árvore,0,1,0,4,2025-02-21T13:15:00Z,Mafra,Lisboa,Área Metropolitana De Lisboa,-9.395884,38.996683
