id,address,subregion,neighborhood,date,id.1,state,nature,nature_description,aerial_means,terrestrial_means,aquatic_means,operational,date.1,Concelho,Distrito,NUTII_DSG,longitude,latitude
24846892,Tavira (Santa Maria e Santiago),Algarve,313,2025-01-20T23:37:00Z,24846892,Em curso,3315,Inundação de estruturas por precipitação intensa,0,0,0,0,2025-01-20T23:37:00Z,Tavira,Faro,Algarve,-7.650217,37.141268
24847274,Póvoa de Santo Adrião e Olival Basto,Grande Lisboa,311,2025-01-21T05:26:00Z,24847274,Em resolução,3301,Queda de árvore,0,3,0,9,2025-01-21T05:26:00Z,Odivelas,Lisboa,Área Metropolitana De Lisboa,-9.155034,38.79451
24847284,"Custóias, Leça do Balio e Guifões",Area M. Porto,309,2025-01-21T05:34:00Z,24847284,Em curso,3315,Inundação de estruturas por precipitação intensa,0,1,0,2,2025-01-21T05:34:00Z,Matosinhos,Porto,Norte,-8.643123,41.208539
24847222,Castelo Branco,Beira Baixa,310,2025-01-21T04:20:00Z,24847222,Em conclusão,3309,Desabamento de estruturas edificadas,0,2,0,3,2025-01-21T04:20:00Z,Castelo Branco,Castelo Branco,Centro,-7.493762,39.824047
24847322,Semide e Rio Vide,Região de Coimbra,310,2025-01-21T06:13:00Z,24847322,Em despacho,3301,Queda de árvore,0,0,0,0,2025-01-21T06:13:00Z,Miranda Do Corvo,Coimbra,Centro,-8.31782,40.1764
