id,address,subregion,neighborhood,date,id.1,state,nature,nature_description,aerial_means,terrestrial_means,aquatic_means,operational,date.1,Concelho,Distrito,NUTII_DSG,longitude,latitude,state_2
26150212,Paredes de Viadores e Manhuncelos,Tâmega e Sousa,309,2025-10-17T11:52:00Z,26150212,Em Resolução/Conclusão,3103,Incêndio rural,0,1,0,4,2025-10-17T11:52:00Z,Marco De Canaveses,Porto,Norte,-8.138033,41.135837,Resolução/Conclusão
26150730,Perre,Alto Minho,309,2025-10-17T13:21:00Z,26150730,Em Curso,3103,Incêndio rural,1,2,0,15,2025-10-17T13:21:00Z,Viana Do Castelo,Viana Do Castelo,Norte,-8.781262,41.72708,Curso
26150846,"Ovar, São João, Arada e São Vicente de Pereira Jusã",Região de Aveiro,310,2025-10-17T13:55:00Z,26150846,Em Despacho,3105,Incêndio rural,0,1,0,5,2025-10-17T13:55:00Z,Ovar,Aveiro,Centro,-8.603194,40.915479,Despacho
26150847,Formariz e Ferreira,Alto Minho,309,2025-10-17T13:54:00Z,26150847,Em Despacho,3103,Incêndio rural,0,0,0,0,2025-10-17T13:54:00Z,Paredes De Coura,Viana Do Castelo,Norte,-8.569696,41.944751,Despacho
26148602,Sobreira,Area M. Porto,309,2025-10-17T03:52:00Z,26148602,Em Curso,3103,Incêndio rural,0,9,0,24,2025-10-17T03:52:00Z,Paredes,Porto,Norte,-8.389412,41.153068,Curso
26150542,"S.maria, S.miguel, S.martinho, S.pedro Penaferrim",Grande Lisboa,311,2025-10-17T12:57:00Z,26150542,Em Resolução/Conclusão,3103,Incêndio rural,0,7,0,25,2025-10-17T12:57:00Z,Sintra,Lisboa,Área Metropolitana De Lisboa,-9.377563,38.810937,Resolução/Conclusão
26150639,Figueiró (Santiago e Santa Cristina),Tâmega e Sousa,309,2025-10-17T13:15:00Z,26150639,Em Resolução/Conclusão,3103,Incêndio rural,0,1,0,2,2025-10-17T13:15:00Z,Amarante,Porto,Norte,-8.181863,41.292922,Resolução/Conclusão
26150248,São João de Fontoura,Tâmega e Sousa,309,2025-10-17T12:00:00Z,26150248,Em Resolução/Conclusão,3103,Incêndio rural,0,5,0,17,2025-10-17T12:00:00Z,Resende,Viseu,Norte,-7.917985,41.115767,Resolução/Conclusão
26150334,Rio de Moinhos,Médio Tejo,311,2025-10-17T12:17:00Z,26150334,Em Resolução/Conclusão,3103,Incêndio rural,0,1,0,1,2025-10-17T12:17:00Z,Abrantes,Santarém,Centro,-8.235192,39.481943,Resolução/Conclusão
26150593,Paredes de Viadores e Manhuncelos,Tâmega e Sousa,309,2025-10-17T13:06:00Z,26150593,Em Despacho,3103,Incêndio rural,1,1,0,11,2025-10-17T13:06:00Z,Marco De Canaveses,Porto,Norte,-8.115678,41.121165,Despacho
26150618,Ramada e Caneças,Grande Lisboa,311,2025-10-17T13:11:00Z,26150618,Em Resolução/Conclusão,3103,Incêndio rural,0,5,0,23,2025-10-17T13:11:00Z,Odivelas,Lisboa,Área Metropolitana De Lisboa,-9.225622,38.822013,Resolução/Conclusão
26150791,"S.maria, S.miguel, S.martinho, S.pedro Penaferrim",Grande Lisboa,311,2025-10-17T13:44:00Z,26150791,Em Despacho,3103,Incêndio rural,0,4,0,16,2025-10-17T13:44:00Z,Sintra,Lisboa,Área Metropolitana De Lisboa,-9.39984,38.80724,Despacho
26150827,"Almargem do Bispo, Pêro Pinheiro e Montelavar",Grande Lisboa,311,2025-10-17T13:46:00Z,26150827,Em Despacho,3103,Incêndio rural,0,1,0,5,2025-10-17T13:46:00Z,Sintra,Lisboa,Área Metropolitana De Lisboa,-9.275466,38.829486,Despacho
