id,address,subregion,neighborhood,date,id.1,state,nature,nature_description,aerial_means,terrestrial_means,aquatic_means,operational,date.1,Concelho,Distrito,NUTII_DSG,longitude,latitude
24775669,Sacavém e Prior Velho,Grande Lisboa,311,2025-01-05T08:20:00Z,24775669,Em conclusão,3311,Queda de elementos de estruturas edificados,0,1,0,3,2025-01-05T08:20:00Z,Loures,Lisboa,Área Metropolitana De Lisboa,-9.126385,38.791217
24776037,Massamá e Monte Abraão,Grande Lisboa,311,2025-01-05T09:52:00Z,24776037,Em despacho,3317,Inundação de estruturas por água canalizada,0,1,0,2,2025-01-05T09:52:00Z,Sintra,Lisboa,Área Metropolitana De Lisboa,-9.280008,38.753778
24775750,Tocha,Região de Coimbra,310,2025-01-05T08:35:00Z,24775750,Em curso,3315,Inundação de estruturas por precipitação intensa,0,2,0,3,2025-01-05T08:35:00Z,Cantanhede,Coimbra,Centro,-8.840309,40.328939
24775868,Arcozelo,Alto Minho,309,2025-01-05T08:15:00Z,24775868,Em conclusão,3301,Queda de árvore,0,1,0,3,2025-01-05T08:15:00Z,Ponte De Lima,Viana Do Castelo,Norte,-8.600628,41.788428
24775875,Alcanena e Vila Moreira,Médio Tejo,311,2025-01-05T09:16:00Z,24775875,Em conclusão,3315,Inundação de estruturas por precipitação intensa,0,3,0,8,2025-01-05T09:16:00Z,Alcanena,Santarém,Centro,-8.666413,39.458072
24775993,Marinha Grande,Região de Leiria,310,2025-01-05T09:39:00Z,24775993,Em despacho,3315,Inundação de estruturas por precipitação intensa,0,1,0,2,2025-01-05T09:39:00Z,Marinha Grande,Leiria,Centro,-8.919612,39.758352
24775692,Souto da Casa,Beiras e Serra da Estrela,310,2025-01-05T08:19:00Z,24775692,Em despacho,3301,Queda de árvore,0,3,0,6,2025-01-05T08:19:00Z,Fundão,Castelo Branco,Centro,-7.550085,40.120713
24775883,Charneca de Caparica e Sobreda,Península de Setúbal,311,2025-01-05T09:20:00Z,24775883,Em curso,3301,Queda de árvore,0,0,0,0,2025-01-05T09:20:00Z,Almada,Setúbal,Área Metropolitana De Lisboa,-9.190193,38.591584
24775915,Poceirão e Marateca,Península de Setúbal,311,2025-01-05T09:31:00Z,24775915,Em despacho,3321,Dano na rede de fornecimento de eletricidade ,0,1,0,4,2025-01-05T09:31:00Z,Palmela,Setúbal,Área Metropolitana De Lisboa,-8.774491,38.6678
24776009,Silvalde,Area M. Porto,309,2025-01-05T09:48:00Z,24776009,Em curso,3311,Queda de elementos de estruturas edificados,0,1,0,4,2025-01-05T09:48:00Z,Espinho,Aveiro,Norte,-8.630075,40.992078
24775828,São João da Madeira,Area M. Porto,309,2025-01-05T08:50:00Z,24775828,Em despacho,3315,Inundação de estruturas por precipitação intensa,0,1,0,2,2025-01-05T08:50:00Z,São João Da Madeira,Aveiro,Norte,-8.490365,40.895632
24775928,"Nogueira, Fraião e Lamaçães",Cávado,309,2025-01-05T09:26:00Z,24775928,Em despacho,3301,Queda de árvore,0,1,0,2,2025-01-05T09:26:00Z,Braga,Braga,Norte,-8.399912,41.531469
24776030,Costa da Caparica,Península de Setúbal,311,2025-01-05T09:53:00Z,24776030,Em despacho,3329,Queda de estruturas temporárias ou móveis,0,1,0,5,2025-01-05T09:53:00Z,Almada,Setúbal,Área Metropolitana De Lisboa,-9.227696,38.642583
24776031,"Custóias, Leça do Balio e Guifões",Area M. Porto,309,2025-01-05T09:48:00Z,24776031,Em despacho,3311,Queda de elementos de estruturas edificados,0,1,0,2,2025-01-05T09:48:00Z,Matosinhos,Porto,Norte,-8.643123,41.208539
24776061,Resende,Tâmega e Sousa,309,2025-01-05T10:00:00Z,24776061,Em despacho,3315,Inundação de estruturas por precipitação intensa,0,1,0,2,2025-01-05T10:00:00Z,Resende,Viseu,Norte,-7.955755,41.105403
