id,address,subregion,neighborhood,date,id.1,state,nature,nature_description,aerial_means,terrestrial_means,aquatic_means,operational,date.1,Concelho,Distrito,NUTII_DSG,longitude,latitude
25071496,São Manços e São Vicente do Pigeiro,Alentejo Central,312,2025-03-11T13:18:00Z,25071496,Em conclusão,1101,Cheia,0,0,0,0,2025-03-11T13:18:00Z,Évora,Évora,Alentejo,-7.713313,38.513673
25277225,Avintes,Area M. Porto,309,2025-04-23T15:23:00Z,25277225,Em despacho,3301,Queda de árvore,0,1,0,2,2025-04-23T15:23:00Z,Vila Nova De Gaia,Porto,Norte,-8.547155,41.105347
25277359,Pataias e Martingança,Oeste,311,2025-04-23T15:52:00Z,25277359,Em despacho,3315,Inundação de estruturas por precipitação intensa,0,1,0,2,2025-04-23T15:52:00Z,Alcobaça,Leiria,Centro,-8.958497,39.692336
25277366,Golães,Ave,309,2025-04-23T15:57:00Z,25277366,Em despacho,3301,Queda de árvore,0,2,0,3,2025-04-23T15:57:00Z,Fafe,Braga,Norte,-8.196656,41.465541
25277375,Corroios,Península de Setúbal,311,2025-04-23T16:00:00Z,25277375,Em despacho,3301,Queda de árvore,0,1,0,3,2025-04-23T16:00:00Z,Seixal,Setúbal,Área Metropolitana De Lisboa,-9.155796,38.618466
25276885,Lordelo do Ouro e Massarelos,Area M. Porto,309,2025-04-23T14:23:00Z,25276885,Em despacho,3313,Deslizamento de terras,0,1,0,5,2025-04-23T14:23:00Z,Porto,Porto,Norte,-8.644953,41.152973
25277185,"Alto do Seixalinho, Santo André e Verderena",Península de Setúbal,311,2025-04-23T15:06:00Z,25277185,Em despacho,3317,Inundação de estruturas por água canalizada,0,1,0,5,2025-04-23T15:06:00Z,Barreiro,Setúbal,Área Metropolitana De Lisboa,-9.065968,38.6593
25277186,Macinhata do Vouga,Região de Aveiro,310,2025-04-23T15:21:00Z,25277186,Em despacho,3301,Queda de árvore,0,1,0,5,2025-04-23T15:21:00Z,Águeda,Aveiro,Centro,-8.466874,40.643627
25277303,Arcos de Valdevez (São Paio) e Giela,Alto Minho,309,2025-04-23T15:44:00Z,25277303,Em despacho,3301,Queda de árvore,0,1,0,2,2025-04-23T15:44:00Z,Arcos De Valdevez,Viana Do Castelo,Norte,-8.407297,41.847054
