id,address,subregion,neighborhood,date,id.1,state,nature,nature_description,aerial_means,terrestrial_means,aquatic_means,operational,date.1,Concelho,Distrito,NUTII_DSG,longitude,latitude
25053566,Miragaia e Marteleira,Oeste,311,2025-03-07T14:51:00Z,25053566,Em conclusão,3313,Deslizamento de terras,0,1,0,2,2025-03-07T14:51:00Z,Lourinhã,Lisboa,Centro,-9.275912,39.197494
25054419,São João de Ver,Area M. Porto,309,2025-03-07T16:37:00Z,25054419,Em curso,3315,Inundação de estruturas por precipitação intensa,0,0,0,0,2025-03-07T16:37:00Z,Santa Maria Da Feira,Aveiro,Norte,-8.550029,40.955305
25054500,"São Miguel, Santa Eufémia e Rabaçal",Região de Coimbra,310,2025-03-07T17:45:00Z,25054500,Em despacho,3301,Queda de árvore,0,1,0,5,2025-03-07T17:45:00Z,Penela,Coimbra,Centro,-8.408451,40.036287
25054567,Portimão,Algarve,313,2025-03-07T18:11:00Z,25054567,Em conclusão,3317,Inundação de estruturas por água canalizada,0,1,0,5,2025-03-07T18:11:00Z,Portimão,Faro,Algarve,-8.53759,37.14431
25054667,Curalha,Alto Tâmega e Barroso,309,2025-03-07T18:25:00Z,25054667,Em resolução,3301,Queda de árvore,0,2,0,6,2025-03-07T18:25:00Z,Chaves,Vila Real,Norte,-7.485505,41.719297
25054684,Sangalhos,Região de Aveiro,310,2025-03-07T18:30:00Z,25054684,Em resolução,3321,Dano na rede de fornecimento de eletricidade ,0,1,0,3,2025-03-07T18:30:00Z,Anadia,Aveiro,Centro,-8.478739,40.494487
25054768,Pinheiro,Viseu Dão Lafões,310,2025-03-07T18:59:00Z,25054768,Em despacho,3321,Dano na rede de fornecimento de eletricidade ,0,0,0,0,2025-03-07T18:59:00Z,Castro Daire,Viseu,Centro,-7.97709,40.92461
25053712,"Alto do Seixalinho, Santo André e Verderena",Península de Setúbal,311,2025-03-07T15:10:00Z,25053712,Em despacho,3315,Inundação de estruturas por precipitação intensa,0,1,0,4,2025-03-07T15:10:00Z,Barreiro,Setúbal,Área Metropolitana De Lisboa,-9.072252,38.651508
25054005,Almeirim,Lezíria do Tejo,311,2025-03-07T16:10:00Z,25054005,Em despacho,3315,Inundação de estruturas por precipitação intensa,0,1,0,2,2025-03-07T16:10:00Z,Almeirim,Santarém,Alentejo,-8.588832,39.142251
25054314,Alferce,Algarve,313,2025-03-07T16:58:00Z,25054314,Em curso,3313,Deslizamento de terras,0,1,0,2,2025-03-07T16:58:00Z,Monchique,Faro,Algarve,-8.513502,37.366891
25054505,Colmeias e Memória,Região de Leiria,310,2025-03-07T17:55:00Z,25054505,Em despacho,3301,Queda de árvore,0,1,0,4,2025-03-07T17:55:00Z,Leiria,Leiria,Centro,-8.70875,39.800121
25054589,Guarda,Beiras e Serra da Estrela,310,2025-03-07T18:13:00Z,25054589,Em despacho,3315,Inundação de estruturas por precipitação intensa,0,2,0,4,2025-03-07T18:13:00Z,Guarda,Guarda,Centro,-7.260869,40.536751
25054687,Miranda do Corvo,Região de Coimbra,310,2025-03-07T18:25:00Z,25054687,Em despacho,3301,Queda de árvore,0,1,0,2,2025-03-07T18:25:00Z,Miranda Do Corvo,Coimbra,Centro,-8.318404,40.098609
25054689,Beduído e Veiros,Região de Aveiro,310,2025-03-07T18:37:00Z,25054689,Em despacho,3301,Queda de árvore,0,1,0,2,2025-03-07T18:37:00Z,Estarreja,Aveiro,Centro,-8.520735,40.77042
25053087,Rio de Mouro,Grande Lisboa,311,2025-03-07T13:39:00Z,25053087,Em despacho,3311,Queda de elementos de estruturas edificados,0,1,0,5,2025-03-07T13:39:00Z,Sintra,Lisboa,Área Metropolitana De Lisboa,-9.31194,38.78508
25053154,"S.maria, S.miguel, S.martinho, S.pedro Penaferrim",Grande Lisboa,311,2025-03-07T13:48:00Z,25053154,Em despacho,3315,Inundação de estruturas por precipitação intensa,0,1,0,5,2025-03-07T13:48:00Z,Sintra,Lisboa,Área Metropolitana De Lisboa,-9.40542,38.820035
25053241,Bombarral e Vale Covo,Oeste,311,2025-03-07T13:55:00Z,25053241,Em resolução,3311,Queda de elementos de estruturas edificados,0,2,0,6,2025-03-07T13:55:00Z,Bombarral,Leiria,Centro,-9.171316,39.267313
25053308,Ermidas-Sado,Alentejo Litoral,312,2025-03-07T14:02:00Z,25053308,Em despacho,3301,Queda de árvore,0,1,0,2,2025-03-07T14:02:00Z,Santiago Do Cacém,Setúbal,Alentejo,-8.366897,38.010808
25053372,"S.julião, N.s. da Anunciada e S. Maria da Graça",Península de Setúbal,311,2025-03-07T14:21:00Z,25053372,Em despacho,3301,Queda de árvore,0,2,0,7,2025-03-07T14:21:00Z,Setúbal,Setúbal,Área Metropolitana De Lisboa,-8.889983,38.529955
25053425,Tornada e Salir do Porto,Oeste,311,2025-03-07T14:27:00Z,25053425,Em conclusão,3329,Queda de estruturas temporárias ou móveis,0,1,0,2,2025-03-07T14:27:00Z,Caldas Da Rainha,Leiria,Centro,-9.151736,39.435014
25053740,Palhais e Coina,Península de Setúbal,311,2025-03-07T15:18:00Z,25053740,Em despacho,3329,Queda de estruturas temporárias ou móveis,0,1,0,4,2025-03-07T15:18:00Z,Barreiro,Setúbal,Área Metropolitana De Lisboa,-9.043332,38.595522
25054345,"Seixal, Arrentela e Aldeia de Paio Pires",Península de Setúbal,311,2025-03-07T17:20:00Z,25054345,Em despacho,3311,Queda de elementos de estruturas edificados,0,1,0,2,2025-03-07T17:20:00Z,Seixal,Setúbal,Área Metropolitana De Lisboa,-9.10304,38.6186
25054365,São Domingos de Rana,Grande Lisboa,311,2025-03-07T17:19:00Z,25054365,Em conclusão,3311,Queda de elementos de estruturas edificados,0,1,0,2,2025-03-07T17:19:00Z,Cascais,Lisboa,Área Metropolitana De Lisboa,-9.352695,38.698995
25054388,"Sé Nova, Santa Cruz, Almedina e São Bartolomeu",Região de Coimbra,310,2025-03-07T17:29:00Z,25054388,Em despacho,3311,Queda de elementos de estruturas edificados,0,1,0,3,2025-03-07T17:29:00Z,Coimbra,Coimbra,Centro,-8.45395,40.243305
25054615,São João Baptista,Alto Alentejo,312,2025-03-07T18:05:00Z,25054615,Em conclusão,3301,Queda de árvore,0,2,0,7,2025-03-07T18:05:00Z,Campo Maior,Portalegre,Alentejo,-7.04569,38.961912
25054640,Azinhal,Algarve,313,2025-03-07T18:21:00Z,25054640,Em conclusão,3301,Queda de árvore,0,1,0,4,2025-03-07T18:21:00Z,Castro Marim,Faro,Algarve,-7.579513,37.268006
25054747,"S.maria, S.miguel, S.martinho, S.pedro Penaferrim",Grande Lisboa,311,2025-03-07T18:48:00Z,25054747,Em conclusão,3301,Queda de árvore,0,1,0,2,2025-03-07T18:48:00Z,Sintra,Lisboa,Área Metropolitana De Lisboa,-9.366763,38.781718
25053974,Monchique,Algarve,313,2025-03-07T16:00:00Z,25053974,Em despacho,3313,Deslizamento de terras,0,1,0,3,2025-03-07T16:00:00Z,Monchique,Faro,Algarve,-8.589695,37.272914
25054009,Moita,Península de Setúbal,311,2025-03-07T16:05:00Z,25054009,Em despacho,3321,Dano na rede de fornecimento de eletricidade ,0,0,0,0,2025-03-07T16:05:00Z,Moita,Setúbal,Área Metropolitana De Lisboa,-8.985364,38.643702
25054326,"Algés, Linda-a-Velha e Cruz Quebrada-Dafundo",Grande Lisboa,311,2025-03-07T17:17:00Z,25054326,Em conclusão,3301,Queda de árvore,0,1,0,4,2025-03-07T17:17:00Z,Oeiras,Lisboa,Área Metropolitana De Lisboa,-9.25174,38.71126
25054444,Alvendre,Beiras e Serra da Estrela,310,2025-03-07T17:38:00Z,25054444,Em despacho,3301,Queda de árvore,0,3,0,5,2025-03-07T17:38:00Z,Guarda,Guarda,Centro,-7.251983,40.584411
25054460,Gamil e Midões,Cávado,309,2025-03-07T17:24:00Z,25054460,Em curso,3301,Queda de árvore,0,1,0,2,2025-03-07T17:24:00Z,Barcelos,Braga,Norte,-8.590523,41.513597
25054474,Chamusca e Pinheiro Grande,Lezíria do Tejo,311,2025-03-07T17:48:00Z,25054474,Em despacho,3301,Queda de árvore,0,1,0,2,2025-03-07T17:48:00Z,Chamusca,Santarém,Alentejo,-8.490477,39.362372
25054475,Alvito (São Pedro e São Martinho) e Couto,Cávado,309,2025-03-07T17:45:00Z,25054475,Em curso,3301,Queda de árvore,0,1,0,2,2025-03-07T17:45:00Z,Barcelos,Braga,Norte,-8.592569,41.605478
25054707,Sameiro,Beiras e Serra da Estrela,310,2025-03-07T18:42:00Z,25054707,Em despacho,3301,Queda de árvore,0,1,0,2,2025-03-07T18:42:00Z,Manteigas,Guarda,Centro,-7.47862,40.40939
25054723,"Enxara do Bispo, Gradil e Vila Franca do Rosário",Grande Lisboa,311,2025-03-07T18:30:00Z,25054723,Em curso,3313,Deslizamento de terras,0,1,0,5,2025-03-07T18:30:00Z,Mafra,Lisboa,Área Metropolitana De Lisboa,-9.256159,38.992708
25054805,Quinta do Anjo,Península de Setúbal,311,2025-03-07T18:39:00Z,25054805,Em despacho,3301,Queda de árvore,0,1,0,2,2025-03-07T18:39:00Z,Palmela,Setúbal,Área Metropolitana De Lisboa,-8.968323,38.56095
25054772,Guarda,Beiras e Serra da Estrela,310,2025-03-07T18:57:00Z,25054772,Em despacho,3301,Queda de árvore,0,1,0,2,2025-03-07T18:57:00Z,Guarda,Guarda,Centro,-7.260869,40.536751
25054625,"Fundão, Valverde, Donas, Aldeia de Joanes e Aldeia Nova do Cabo",Beiras e Serra da Estrela,310,2025-03-07T18:15:00Z,25054625,Em resolução,3301,Queda de árvore,0,2,0,5,2025-03-07T18:15:00Z,Fundão,Castelo Branco,Centro,-7.464432,40.125525
25054627,"São Miguel, Santa Eufémia e Rabaçal",Região de Coimbra,310,2025-03-07T18:15:00Z,25054627,Em despacho,3301,Queda de árvore,0,1,0,2,2025-03-07T18:15:00Z,Penela,Coimbra,Centro,-8.387644,40.016599
25054727,São Martinho de Sardoura,Tâmega e Sousa,309,2025-03-07T18:43:00Z,25054727,Em curso,3301,Queda de árvore,0,1,0,2,2025-03-07T18:43:00Z,Castelo De Paiva,Aveiro,Norte,-8.284622,41.054037
25054809,Lagos (São Sebastião e Santa Maria),Algarve,313,2025-03-07T18:58:00Z,25054809,Em despacho,3301,Queda de árvore,0,1,0,5,2025-03-07T18:58:00Z,Lagos,Faro,Algarve,-8.668524,37.100485
