id,address,subregion,neighborhood,date,id.1,state,nature,nature_description,aerial_means,terrestrial_means,aquatic_means,operational,date.1,Concelho,Distrito,NUTII_DSG,longitude,latitude
25522967,Pinhal Novo,Península de Setúbal,311,2025-06-14T05:57:00Z,25522967,Em resolução,2201,Incêndio em equipamentos ou produtos,0,1,0,2,2025-06-14T05:57:00Z,Palmela,Setúbal,Área Metropolitana De Lisboa,-8.91294,38.637902
25523157,São Miguel do Souto e Mosteirô,Area M. Porto,309,2025-06-14T08:01:00Z,25523157,Em conclusão,2127,"Incêndio em edifícios e recintos industriais, oficinas e armazéns",0,3,0,9,2025-06-14T08:01:00Z,Santa Maria Da Feira,Aveiro,Norte,-8.550099,40.8903
25523523,Arcozelo,Area M. Porto,309,2025-06-14T09:16:00Z,25523523,Em conclusão,2101,Incêndio em edifícios habitacionais,0,6,0,18,2025-06-14T09:16:00Z,Vila Nova De Gaia,Porto,Norte,-8.64378,41.04888
25523076,Mafamude e Vilar do Paraíso,Area M. Porto,309,2025-06-14T07:25:00Z,25523076,Em conclusão,2127,"Incêndio em edifícios e recintos industriais, oficinas e armazéns",0,5,0,13,2025-06-14T07:25:00Z,Vila Nova De Gaia,Porto,Norte,-8.602714,41.10711
25523159,Macieira de Cambra,Area M. Porto,309,2025-06-14T07:54:00Z,25523159,Em curso,3107,Consolidação de rescaldo de incêndio rural,0,2,0,6,2025-06-14T07:54:00Z,Vale De Cambra,Aveiro,Norte,-8.367205,40.870286
25523663,Cedrim e Paradela,Região de Aveiro,310,2025-06-14T09:41:00Z,25523663,Em conclusão,2101,Incêndio em edifícios habitacionais,0,1,0,5,2025-06-14T09:41:00Z,Sever Do Vouga,Aveiro,Centro,-8.35439,40.701913
