id,address,subregion,neighborhood,date,id.1,state,nature,nature_description,aerial_means,terrestrial_means,aquatic_means,operational,date.1,Concelho,Distrito,NUTII_DSG,longitude,latitude,state_2
25861685,Santa Catarina da Serra e Chainça,Região de Leiria,310,2025-08-18T13:03:00Z,25861685,Em Resolução/Conclusão,3103,Incêndio rural,0,1,0,2,2025-08-18T13:03:00Z,Leiria,Leiria,Centro,-8.698656,39.708305,Resolução/Conclusão
25872413,Cinco Vilas e Reigada,Beiras e Serra da Estrela,310,2025-08-20T14:58:00Z,25872413,Em Resolução/Conclusão,3103,Incêndio rural,0,11,0,43,2025-08-20T14:58:00Z,Figueira De Castelo Rodrigo,Guarda,Centro,-6.95815,40.775573,Resolução/Conclusão
25883011,Almofala,Viseu Dão Lafões,310,2025-08-22T17:00:00Z,25883011,Em Resolução/Conclusão,3103,Incêndio rural,0,15,0,40,2025-08-22T17:00:00Z,Castro Daire,Viseu,Centro,-7.767003,40.956183,Resolução/Conclusão
25887019,Pedrógão Grande,Região de Leiria,310,2025-08-23T14:27:00Z,25887019,Em Resolução/Conclusão,3101,Incêndio rural,6,149,0,501,2025-08-23T14:27:00Z,Pedrógão Grande,Leiria,Centro,-8.15364,39.9136,Resolução/Conclusão
25891247,Monchique,Algarve,313,2025-08-24T13:01:00Z,25891247,Em Resolução/Conclusão,3103,Incêndio rural,0,3,0,7,2025-08-24T13:01:00Z,Monchique,Faro,Algarve,-8.545893,37.267577,Resolução/Conclusão
25813482,Freches e Torres,Beiras e Serra da Estrela,310,2025-08-09T16:21:00Z,25813482,Em Resolução/Conclusão,3103,Incêndio rural,0,2,0,10,2025-08-09T16:21:00Z,Trancoso,Guarda,Centro,-7.363745,40.709022,Resolução/Conclusão
25832250,Ferreira de Aves,Viseu Dão Lafões,310,2025-08-13T00:03:00Z,25832250,Em Resolução/Conclusão,3103,Incêndio rural,0,2,0,7,2025-08-13T00:03:00Z,Sátão,Viseu,Centro,-7.647793,40.79568,Resolução/Conclusão
25836309,Cinfães,Tâmega e Sousa,309,2025-08-13T18:17:00Z,25836309,Em Resolução/Conclusão,3103,Incêndio rural,0,1,0,2,2025-08-13T18:17:00Z,Cinfães,Viseu,Norte,-8.071502,41.049757,Resolução/Conclusão
25840505,Ribeira de Nisa e Carreiras,Alto Alentejo,312,2025-08-14T14:01:00Z,25840505,Em Resolução/Conclusão,3101,Incêndio rural,0,2,0,7,2025-08-14T14:01:00Z,Portalegre,Portalegre,Alentejo,-7.47009,39.374707,Resolução/Conclusão
25851721,Arnóia,Tâmega e Sousa,309,2025-08-16T14:24:00Z,25851721,Em Resolução/Conclusão,3103,Incêndio rural,0,7,0,29,2025-08-16T14:24:00Z,Celorico De Basto,Braga,Norte,-7.994469,41.369836,Resolução/Conclusão
25877725,São Cipriano e Vil de Souto,Viseu Dão Lafões,310,2025-08-21T16:05:00Z,25877725,Em Resolução/Conclusão,3103,Incêndio rural,0,0,0,0,2025-08-21T16:05:00Z,Viseu,Viseu,Centro,-7.959537,40.61783,Resolução/Conclusão
25882003,"Mamouros, Alva e Ribolhos",Viseu Dão Lafões,310,2025-08-22T13:50:00Z,25882003,Em Resolução/Conclusão,3103,Incêndio rural,0,0,0,0,2025-08-22T13:50:00Z,Castro Daire,Viseu,Centro,-7.972402,40.848113,Resolução/Conclusão
25882071,Vila Marim,Douro,309,2025-08-22T14:02:00Z,25882071,Em Resolução/Conclusão,3103,Incêndio rural,0,4,0,9,2025-08-22T14:02:00Z,Vila Real,Vila Real,Norte,-7.814082,41.353615,Resolução/Conclusão
25891313,Cervães,Cávado,309,2025-08-24T13:23:00Z,25891313,Em Curso,3103,Incêndio rural,2,24,0,90,2025-08-24T13:23:00Z,Vila Verde,Braga,Norte,-8.52709,41.611918,Curso
25891462,Faíl e Vila Chã de Sá,Viseu Dão Lafões,310,2025-08-24T12:41:00Z,25891462,Em Resolução/Conclusão,3103,Incêndio rural,0,1,0,1,2025-08-24T12:41:00Z,Viseu,Viseu,Centro,-7.956645,40.601897,Resolução/Conclusão
25892294,Cótimos,Beiras e Serra da Estrela,310,2025-08-24T17:26:00Z,25892294,Em Resolução/Conclusão,3103,Incêndio rural,1,11,0,44,2025-08-24T17:26:00Z,Trancoso,Guarda,Centro,-7.272495,40.826932,Resolução/Conclusão
25892401,Marrancos e Arcozelo,Cávado,309,2025-08-24T17:56:00Z,25892401,Em Resolução/Conclusão,3103,Incêndio rural,0,4,0,11,2025-08-24T17:56:00Z,Vila Verde,Braga,Norte,-8.52766,41.65945,Resolução/Conclusão
25892460,Tavarede,Região de Coimbra,310,2025-08-24T18:14:00Z,25892460,Em Despacho,3101,Incêndio rural,1,0,0,1,2025-08-24T18:14:00Z,Figueira Da Foz,Coimbra,Centro,-8.858414,40.17086,Despacho
25892113,Paredes,Area M. Porto,309,2025-08-24T16:32:00Z,25892113,Em Resolução/Conclusão,3103,Incêndio rural,0,1,0,5,2025-08-24T16:32:00Z,Paredes,Porto,Norte,-8.336242,41.22647,Resolução/Conclusão
25892231,Alhos Vedros,Península de Setúbal,311,2025-08-24T17:05:00Z,25892231,Em Resolução/Conclusão,3103,Incêndio rural,0,1,0,5,2025-08-24T17:05:00Z,Moita,Setúbal,Área Metropolitana De Lisboa,-9.03149,38.65709,Resolução/Conclusão
25818455,Sobral de São Miguel,Beiras e Serra da Estrela,310,2025-08-10T15:02:00Z,25818455,Em Resolução/Conclusão,3103,Incêndio rural,0,1,0,1,2025-08-10T15:02:00Z,Covilhã,Castelo Branco,Centro,-7.77307,40.200173,Resolução/Conclusão
25846480,Sabugal e Aldeia de Santo António,Beiras e Serra da Estrela,310,2025-08-15T14:41:00Z,25846480,Em Resolução/Conclusão,3103,Incêndio rural,0,21,0,69,2025-08-15T14:41:00Z,Sabugal,Guarda,Centro,-7.125037,40.34023,Resolução/Conclusão
25852580,São João de Tarouca,Douro,309,2025-08-16T17:00:00Z,25852580,Em Resolução/Conclusão,3103,Incêndio rural,0,3,0,12,2025-08-16T17:00:00Z,Tarouca,Viseu,Norte,-7.760748,40.986773,Resolução/Conclusão
25891186,Moldes,Area M. Porto,309,2025-08-24T12:45:00Z,25891186,Em Resolução/Conclusão,3103,Incêndio rural,0,2,0,7,2025-08-24T12:45:00Z,Arouca,Aveiro,Norte,-8.219833,40.899398,Resolução/Conclusão
25891421,"Refojos de Basto, Outeiro e Painzela",Ave,309,2025-08-24T13:50:00Z,25891421,Em Curso,3103,Incêndio rural,1,18,0,56,2025-08-24T13:50:00Z,Cabeceiras De Basto,Braga,Norte,-8.038457,41.502718,Curso
25891637,Rio Frio,Alto Minho,309,2025-08-24T14:35:00Z,25891637,Em Resolução/Conclusão,3103,Incêndio rural,0,3,0,8,2025-08-24T14:35:00Z,Arcos De Valdevez,Viana Do Castelo,Norte,-8.497577,41.851635,Resolução/Conclusão
25891770,São Martinho de Antas e Paradela de Guiães,Douro,309,2025-08-24T15:06:00Z,25891770,Em Curso,3103,Incêndio rural,6,61,0,224,2025-08-24T15:06:00Z,Sabrosa,Vila Real,Norte,-7.640418,41.23664,Curso
25892380,Fonte Arcada e Escurquela,Douro,309,2025-08-24T17:49:00Z,25892380,Em Resolução/Conclusão,3103,Incêndio rural,1,4,0,23,2025-08-24T17:49:00Z,Sernancelhe,Viseu,Norte,-7.511317,40.966458,Resolução/Conclusão
25892039,Vieira do Minho,Ave,309,2025-08-24T16:18:00Z,25892039,Em Resolução/Conclusão,3103,Incêndio rural,0,13,0,46,2025-08-24T16:18:00Z,Vieira Do Minho,Braga,Norte,-8.129102,41.627872000000004,Resolução/Conclusão
25892105,"Canedo, Vale e Vila Maior",Area M. Porto,309,2025-08-24T16:25:00Z,25892105,Em Resolução/Conclusão,3103,Incêndio rural,0,2,0,8,2025-08-24T16:25:00Z,Santa Maria Da Feira,Aveiro,Norte,-8.482595,41.005955,Resolução/Conclusão
25892257,"Mamouros, Alva e Ribolhos",Viseu Dão Lafões,310,2025-08-24T16:10:00Z,25892257,Em Resolução/Conclusão,3103,Incêndio rural,0,1,0,5,2025-08-24T16:10:00Z,Castro Daire,Viseu,Centro,-7.963403,40.849315,Resolução/Conclusão
25892372,Ventosa,Oeste,311,2025-08-24T17:46:00Z,25892372,Em Curso,3103,Incêndio rural,1,5,0,25,2025-08-24T17:46:00Z,Torres Vedras,Lisboa,Centro,-9.297362,39.041844,Curso
25832672,Piódão,Região de Coimbra,310,2025-08-13T05:08:00Z,25832672,Em Resolução/Conclusão,3103,Incêndio rural,1,405,0,1216,2025-08-13T05:08:00Z,Arganil,Coimbra,Centro,-7.81972,40.23083,Resolução/Conclusão
25840417,Lousã e Vilarinho,Região de Coimbra,310,2025-08-14T13:46:00Z,25840417,Em Resolução/Conclusão,3101,Incêndio rural,0,14,0,43,2025-08-14T13:46:00Z,Lousã,Coimbra,Centro,-8.201561,40.080016,Resolução/Conclusão
25857322,"Barcel, Marmelos e Valverde da Gestosa",Terras de Trás-os-Montes,309,2025-08-17T15:53:00Z,25857322,Em Resolução/Conclusão,3103,Incêndio rural,0,2,0,7,2025-08-17T15:53:00Z,Mirandela,Bragança,Norte,-7.209414,41.409479,Resolução/Conclusão
25891641,Cantar-Galo e Vila do Carvalho,Beiras e Serra da Estrela,310,2025-08-24T14:35:00Z,25891641,Em Resolução/Conclusão,3103,Incêndio rural,0,0,0,0,2025-08-24T14:35:00Z,Covilhã,Castelo Branco,Centro,-7.476095,40.31541,Resolução/Conclusão
