id,address,subregion,neighborhood,date,id.1,state,nature,nature_description,aerial_means,terrestrial_means,aquatic_means,operational,date.1,Concelho,Distrito,NUTII_DSG,longitude,latitude,state_2
26123436,"Alhões, Bustelo, Gralheira e Ramires",Tâmega e Sousa,309,2025-10-11T22:45:00Z,26123436,Em Curso,3103,Incêndio rural,0,6,0,24,2025-10-11T22:45:00Z,Cinfães,Viseu,Norte,-8.008836,41.061059,Curso
26115854,Gralhas,Alto Tâmega e Barroso,309,2025-10-10T12:13:00Z,26115854,Em Resolução/Conclusão,3103,Incêndio rural,0,3,0,12,2025-10-10T12:13:00Z,Montalegre,Vila Real,Norte,-7.72346,41.854762,Resolução/Conclusão
26122931,"Algodres, Vale de Afonsinho e Vilar de Amargo",Beiras e Serra da Estrela,310,2025-10-11T20:10:00Z,26122931,Em Resolução/Conclusão,3103,Incêndio rural,0,13,0,51,2025-10-11T20:10:00Z,Figueira De Castelo Rodrigo,Guarda,Centro,-7.01107,40.93251,Resolução/Conclusão
26123262,Quinchães,Ave,309,2025-10-11T21:48:00Z,26123262,Em Resolução/Conclusão,3103,Incêndio rural,0,2,0,7,2025-10-11T21:48:00Z,Fafe,Braga,Norte,-8.107948,41.437197,Resolução/Conclusão
26123497,Urrô,Area M. Porto,309,2025-10-11T23:22:00Z,26123497,Em Resolução/Conclusão,3103,Incêndio rural,0,25,0,91,2025-10-11T23:22:00Z,Arouca,Aveiro,Norte,-8.284965,40.879503,Resolução/Conclusão
26123649,Castêlo da Maia,Area M. Porto,309,2025-10-12T00:12:00Z,26123649,Em Despacho,3111,Queima,0,1,0,5,2025-10-12T00:12:00Z,Maia,Porto,Norte,-8.616749,41.267591,Despacho
26123766,Seda,Alto Alentejo,312,2025-10-12T01:32:00Z,26123766,Em Resolução/Conclusão,3103,Incêndio rural,0,7,0,27,2025-10-12T01:32:00Z,Alter Do Chão,Portalegre,Alentejo,-7.736256,39.159589,Resolução/Conclusão
