id,address,subregion,neighborhood,date,id.1,state,nature,nature_description,aerial_means,terrestrial_means,aquatic_means,operational,date.1,Concelho,Distrito,NUTII_DSG,longitude,latitude
24871374,Caldas da Rainha - Santo Onofre e Serra do Bouro,Oeste,311,2025-01-26T09:18:00Z,24871374,Em despacho,3311,Queda de elementos de estruturas edificados,0,1,0,2,2025-01-26T09:18:00Z,Caldas Da Rainha,Leiria,Centro,-9.148929,39.401713
24871459,Chave,Area M. Porto,309,2025-01-26T09:39:00Z,24871459,Em despacho,3301,Queda de árvore,0,1,0,2,2025-01-26T09:39:00Z,Arouca,Aveiro,Norte,-8.350782,40.904985
24871413,Lanhelas,Alto Minho,309,2025-01-26T09:20:00Z,24871413,Em conclusão,3301,Queda de árvore,0,1,0,2,2025-01-26T09:20:00Z,Caminha,Viana Do Castelo,Norte,-8.798115,41.90533
24851780,"São Miguel, Santa Eufémia e Rabaçal",Região de Coimbra,310,2025-01-21T23:25:00Z,24851780,Em curso,3315,Inundação de estruturas por precipitação intensa,0,0,0,0,2025-01-21T23:25:00Z,Penela,Coimbra,Centro,-8.399036,40.025502
24871451,Santa Maria Maior e Monserrate e Meadela,Alto Minho,309,2025-01-26T09:37:00Z,24871451,Em despacho,3311,Queda de elementos de estruturas edificados,0,0,0,0,2025-01-26T09:37:00Z,Viana Do Castelo,Viana Do Castelo,Norte,-8.81652,41.703882
