id,address,subregion,neighborhood,date,id.1,state,nature,nature_description,aerial_means,terrestrial_means,aquatic_means,operational,date.1,Concelho,Distrito,NUTII_DSG,longitude,latitude
25516786,Charneca de Caparica e Sobreda,Península de Setúbal,311,2025-06-12T19:40:00Z,25516786,Em despacho,2111,Incêndio em edifícios hospitalares e lares de idosos,0,1,0,3,2025-06-12T19:40:00Z,Almada,Setúbal,Área Metropolitana De Lisboa,-9.206824,38.629265
25516934,Nossa Senhora da Conceição e São Bartolomeu,Alentejo Central,312,2025-06-12T20:17:00Z,25516934,Em conclusão,3105,Incêndio rural,0,3,0,9,2025-06-12T20:17:00Z,Vila Viçosa,Évora,Alentejo,-7.405052,38.772219
25516987,Ermelo e Pardelhas,Ave,309,2025-06-12T20:40:00Z,25516987,Em despacho,3107,Consolidação de rescaldo de incêndio rural,0,1,0,5,2025-06-12T20:40:00Z,Mondim De Basto,Vila Real,Norte,-7.842792,41.3582
25517019,Lagoa e Carvoeiro,Algarve,313,2025-06-12T20:49:00Z,25517019,Em conclusão,3103,Incêndio rural,0,3,0,12,2025-06-12T20:49:00Z,Lagoa,Faro,Algarve,-8.422313,37.138287
25517034,Rio de Mouro,Grande Lisboa,311,2025-06-12T20:49:00Z,25517034,Em despacho,3103,Incêndio rural,0,1,0,5,2025-06-12T20:49:00Z,Sintra,Lisboa,Área Metropolitana De Lisboa,-9.341345,38.775678
25516864,Carregado e Cadafais,Oeste,311,2025-06-12T20:05:00Z,25516864,Em resolução,2101,Incêndio em edifícios habitacionais,0,4,0,11,2025-06-12T20:05:00Z,Alenquer,Lisboa,Centro,-8.97474,39.02305
25516930,Charneca de Caparica e Sobreda,Península de Setúbal,311,2025-06-12T20:22:00Z,25516930,Em resolução,3103,Incêndio rural,0,3,0,15,2025-06-12T20:22:00Z,Almada,Setúbal,Área Metropolitana De Lisboa,-9.193085,38.632093
25515902,Alcaria Ruiva,Baixo Alentejo,312,2025-06-12T16:13:00Z,25515902,Em conclusão,3105,Incêndio rural,0,1,0,5,2025-06-12T16:13:00Z,Mértola,Beja,Alentejo,-7.844582,37.786912
25516547,Tornada e Salir do Porto,Oeste,311,2025-06-12T18:51:00Z,25516547,Em conclusão,2301,Incêndio em transporte rodoviário,0,3,0,9,2025-06-12T18:51:00Z,Caldas Da Rainha,Leiria,Centro,-9.1381,39.46814
25516763,Azueira e Sobral da Abelheira,Grande Lisboa,311,2025-06-12T19:38:00Z,25516763,Em conclusão,3103,Incêndio rural,0,2,0,7,2025-06-12T19:38:00Z,Mafra,Lisboa,Área Metropolitana De Lisboa,-9.25991,39.002748
25516865,São João da Madeira,Area M. Porto,309,2025-06-12T19:58:00Z,25516865,Em conclusão,2115,Incêndio em edifícios hoteleiros e de restauração,0,3,0,10,2025-06-12T19:58:00Z,São João Da Madeira,Aveiro,Norte,-8.490365,40.895632
25517038,São Martinho do Porto,Oeste,311,2025-06-12T20:55:00Z,25517038,Em despacho,2201,Incêndio em equipamentos ou produtos,0,0,0,0,2025-06-12T20:55:00Z,Alcobaça,Leiria,Centro,-9.13503,39.51086
