id,address,subregion,neighborhood,date,id.1,state,nature,nature_description,aerial_means,terrestrial_means,aquatic_means,operational,date.1,Concelho,Distrito,NUTII_DSG,longitude,latitude,state_2
25738747,Lindoso,Alto Minho,309,2025-07-26T21:47:00Z,25738747,Em Resolução/Conclusão,3103,Incêndio rural,0,23,0,63,2025-07-26T21:47:00Z,Ponte Da Barca,Viana Do Castelo,Norte,-8.220528,41.865272,Resolução/Conclusão
25747773,Aranhas,Beira Baixa,310,2025-07-28T16:36:00Z,25747773,Em Resolução/Conclusão,3103,Incêndio rural,0,2,0,6,2025-07-28T16:36:00Z,Penamacor,Castelo Branco,Centro,-7.14438,40.117542,Resolução/Conclusão
25775263,Torgueda,Douro,309,2025-08-02T19:49:00Z,25775263,Em Resolução/Conclusão,3101,Incêndio rural,0,14,0,44,2025-08-02T19:49:00Z,Vila Real,Vila Real,Norte,-7.785983,41.274952,Resolução/Conclusão
25778337,Senhorim,Viseu Dão Lafões,310,2025-08-03T11:59:00Z,25778337,Em Resolução/Conclusão,3103,Incêndio rural,0,0,0,0,2025-08-03T11:59:00Z,Nelas,Viseu,Centro,-7.825723,40.54384,Resolução/Conclusão
25785466,Caçarilhe e Infesta,Tâmega e Sousa,309,2025-08-04T16:48:00Z,25785466,Em Resolução/Conclusão,3103,Incêndio rural,0,1,0,19,2025-08-04T16:48:00Z,Celorico De Basto,Braga,Norte,-8.035342,41.42903,Resolução/Conclusão
25790096,"Leomil, Mido, Senouras e Aldeia Nova",Beiras e Serra da Estrela,310,2025-08-05T13:37:00Z,25790096,Em Resolução/Conclusão,3103,Incêndio rural,0,6,0,21,2025-08-05T13:37:00Z,Almeida,Guarda,Centro,-6.951735,40.680123,Resolução/Conclusão
25790682,Mancelos,Tâmega e Sousa,309,2025-08-05T15:06:00Z,25790682,Em Resolução/Conclusão,3103,Incêndio rural,0,2,0,8,2025-08-05T15:06:00Z,Amarante,Porto,Norte,-8.160586,41.275715,Resolução/Conclusão
25791761,Santa Cruz do Douro e São Tomé de Covelas,Tâmega e Sousa,309,2025-08-05T18:32:00Z,25791761,Em Resolução/Conclusão,3103,Incêndio rural,1,0,0,1,2025-08-05T18:32:00Z,Baião,Porto,Norte,-7.998456,41.123167,Resolução/Conclusão
25793429,Quirás e Pinheiro Novo,Terras de Trás-os-Montes,309,2025-08-06T02:38:00Z,25793429,Em Resolução/Conclusão,3103,Incêndio rural,0,2,0,7,2025-08-06T02:38:00Z,Vinhais,Bragança,Norte,-7.1618830000000004,41.932082,Resolução/Conclusão
25793572,Real,Tâmega e Sousa,309,2025-08-06T04:31:00Z,25793572,Em Resolução/Conclusão,3103,Incêndio rural,0,9,0,31,2025-08-06T04:31:00Z,Castelo De Paiva,Aveiro,Norte,-8.293568,40.988583,Resolução/Conclusão
25793774,Nogueira da Regedoura,Area M. Porto,309,2025-08-06T07:26:00Z,25793774,Em Resolução/Conclusão,3103,Incêndio rural,0,1,0,5,2025-08-06T07:26:00Z,Santa Maria Da Feira,Aveiro,Norte,-8.576291,41.00386,Resolução/Conclusão
25773830,Andrães,Douro,309,2025-08-02T14:23:00Z,25773830,Em Resolução/Conclusão,3103,Incêndio rural,0,17,0,65,2025-08-02T14:23:00Z,Vila Real,Vila Real,Norte,-7.671293,41.267593,Resolução/Conclusão
25774883,Arnóia,Tâmega e Sousa,309,2025-08-02T18:20:00Z,25774883,Em Resolução/Conclusão,3103,Incêndio rural,0,18,0,55,2025-08-02T18:20:00Z,Celorico De Basto,Braga,Norte,-7.998983,41.348727,Resolução/Conclusão
25775734,Sequeiros e Gradiz,Viseu Dão Lafões,310,2025-08-02T21:35:00Z,25775734,Em Resolução/Conclusão,3103,Incêndio rural,0,0,0,0,2025-08-02T21:35:00Z,Aguiar Da Beira,Guarda,Centro,-7.564515,40.858278,Resolução/Conclusão
25787199,Castro Daire,Viseu Dão Lafões,310,2025-08-04T22:56:00Z,25787199,Em Resolução/Conclusão,3103,Incêndio rural,0,1,0,2,2025-08-04T22:56:00Z,Castro Daire,Viseu,Centro,-7.943425,40.911315,Resolução/Conclusão
25793436,Vila Velha de Ródão,Beira Baixa,310,2025-08-06T02:41:00Z,25793436,Em Resolução/Conclusão,3103,Incêndio rural,0,8,0,28,2025-08-06T02:41:00Z,Vila Velha De Ródão,Castelo Branco,Centro,-7.68306,39.64583,Resolução/Conclusão
25793519,Vila Boa de Quires e Maureles,Tâmega e Sousa,309,2025-08-06T03:44:00Z,25793519,Em Resolução/Conclusão,3103,Incêndio rural,0,2,0,10,2025-08-06T03:44:00Z,Marco De Canaveses,Porto,Norte,-8.224919,41.191942,Resolução/Conclusão
25793903,Arouca e Burgo,Area M. Porto,309,2025-08-06T07:55:00Z,25793903,Em Resolução/Conclusão,3103,Incêndio rural,0,2,0,7,2025-08-06T07:55:00Z,Arouca,Aveiro,Norte,-8.253044,40.928985,Resolução/Conclusão
25763650,Milagres,Região de Leiria,310,2025-07-31T15:58:00Z,25763650,Em Resolução/Conclusão,3101,Incêndio rural,0,1,0,2,2025-07-31T15:58:00Z,Leiria,Leiria,Centro,-8.792217,39.793427,Resolução/Conclusão
25785983,Caçarilhe e Infesta,Tâmega e Sousa,309,2025-08-04T18:22:00Z,25785983,Em Curso,3103,Incêndio rural,0,95,0,301,2025-08-04T18:22:00Z,Celorico De Basto,Braga,Norte,-8.04611,41.419858,Curso
25786312,Mões,Viseu Dão Lafões,310,2025-08-04T19:31:00Z,25786312,Em Resolução/Conclusão,3105,Incêndio rural,0,0,0,0,2025-08-04T19:31:00Z,Castro Daire,Viseu,Centro,-7.888317,40.866883,Resolução/Conclusão
25790229,Galegos,Tâmega e Sousa,309,2025-08-05T13:59:00Z,25790229,Em Resolução/Conclusão,3103,Incêndio rural,0,19,0,60,2025-08-05T13:59:00Z,Penafiel,Porto,Norte,-8.31029,41.153427,Resolução/Conclusão
25793348,Guarda,Beiras e Serra da Estrela,310,2025-08-06T01:35:00Z,25793348,Em Resolução/Conclusão,3103,Incêndio rural,0,3,0,12,2025-08-06T01:35:00Z,Guarda,Guarda,Centro,-7.225495,40.561345,Resolução/Conclusão
25793739,Tendais,Tâmega e Sousa,309,2025-08-06T07:09:00Z,25793739,Em Resolução/Conclusão,3103,Incêndio rural,0,4,0,14,2025-08-06T07:09:00Z,Cinfães,Viseu,Norte,-8.079192,41.072578,Resolução/Conclusão
25748118,Canelas e Espiunca,Area M. Porto,309,2025-07-28T17:16:00Z,25748118,Em Resolução/Conclusão,3101,Incêndio rural,0,3,0,12,2025-07-28T17:16:00Z,Arouca,Aveiro,Norte,-8.212231,40.969918,Resolução/Conclusão
25749320,Rebordões (Santa Maria),Alto Minho,309,2025-07-28T22:47:00Z,25749320,Em Resolução/Conclusão,3103,Incêndio rural,0,1,0,4,2025-07-28T22:47:00Z,Ponte De Lima,Viana Do Castelo,Norte,-8.588365,41.729993,Resolução/Conclusão
25776263,"Pena, Quintã e Vila Cova",Douro,309,2025-08-02T23:45:00Z,25776263,Em Resolução/Conclusão,3103,Incêndio rural,0,178,0,513,2025-08-02T23:45:00Z,Vila Real,Vila Real,Norte,-7.811902,41.317355,Resolução/Conclusão
25779639,Senhorim,Viseu Dão Lafões,310,2025-08-03T16:28:00Z,25779639,Em Resolução/Conclusão,3103,Incêndio rural,0,2,0,6,2025-08-03T16:28:00Z,Nelas,Viseu,Centro,-7.81226,40.511713,Resolução/Conclusão
25783717,Cunha Baixa,Viseu Dão Lafões,310,2025-08-04T11:48:00Z,25783717,Em Resolução/Conclusão,3101,Incêndio rural,0,1,0,2,2025-08-04T11:48:00Z,Mangualde,Viseu,Centro,-7.764411,40.559738,Resolução/Conclusão
25784751,"São Pedro do Sul, Várzea e Baiões",Viseu Dão Lafões,310,2025-08-04T14:36:00Z,25784751,Em Resolução/Conclusão,3103,Incêndio rural,0,2,0,5,2025-08-04T14:36:00Z,São Pedro Do Sul,Viseu,Centro,-8.098667,40.75791,Resolução/Conclusão
25784920,Castro Daire,Viseu Dão Lafões,310,2025-08-04T15:03:00Z,25784920,Em Resolução/Conclusão,3103,Incêndio rural,0,0,0,0,2025-08-04T15:03:00Z,Castro Daire,Viseu,Centro,-7.945405,40.912732,Resolução/Conclusão
25785204,Ribas,Tâmega e Sousa,309,2025-08-04T16:03:00Z,25785204,Em Resolução/Conclusão,3103,Incêndio rural,0,4,0,9,2025-08-04T16:03:00Z,Celorico De Basto,Braga,Norte,-8.022547,41.449583,Resolução/Conclusão
25787860,Faíl e Vila Chã de Sá,Viseu Dão Lafões,310,2025-08-05T05:55:00Z,25787860,Em Resolução/Conclusão,3103,Incêndio rural,0,0,0,0,2025-08-05T05:55:00Z,Viseu,Viseu,Centro,-7.987877,40.601342,Resolução/Conclusão
25793141,Beiral do Lima,Alto Minho,309,2025-08-05T23:55:00Z,25793141,Em Resolução/Conclusão,3103,Incêndio rural,0,2,0,6,2025-08-05T23:55:00Z,Ponte De Lima,Viana Do Castelo,Norte,-8.482547,41.757582,Resolução/Conclusão
25793428,"Pinheiro da Bemposta, Travanca e Palmaz",Area M. Porto,309,2025-08-06T02:32:00Z,25793428,Em Resolução/Conclusão,3101,Incêndio rural,0,0,0,0,2025-08-06T02:32:00Z,Oliveira De Azeméis,Aveiro,Norte,-8.472083,40.805747,Resolução/Conclusão
25793511,Pedrógão Pequeno,Beira Baixa,310,2025-08-06T03:42:00Z,25793511,Em Resolução/Conclusão,3101,Incêndio rural,0,9,0,33,2025-08-06T03:42:00Z,Sertã,Castelo Branco,Centro,-8.110183,39.900423,Resolução/Conclusão
25793678,Borba de Montanha,Tâmega e Sousa,309,2025-08-06T06:27:00Z,25793678,Em Curso,3103,Incêndio rural,0,2,0,8,2025-08-06T06:27:00Z,Celorico De Basto,Braga,Norte,-8.099725,41.380693,Curso
