id,address,subregion,neighborhood,date,id.1,state,nature,nature_description,aerial_means,terrestrial_means,aquatic_means,operational,date.1,Concelho,Distrito,NUTII_DSG,longitude,latitude,state_2
25711397,Vale da Pedra,Lezíria do Tejo,311,2025-07-21T14:16:00Z,25711397,Em Resolução/Conclusão,3103,Incêndio rural,0,15,0,57,2025-07-21T14:16:00Z,Cartaxo,Santarém,Alentejo,-8.783137,39.110872,Resolução/Conclusão
25713421,Pechão,Algarve,313,2025-07-21T22:02:00Z,25713421,Em Resolução/Conclusão,3103,Incêndio rural,0,7,0,21,2025-07-21T22:02:00Z,Olhão,Faro,Algarve,-7.85203,37.042365,Resolução/Conclusão
25713352,Ferreira do Alentejo e Canhestros,Baixo Alentejo,312,2025-07-21T21:41:00Z,25713352,Em Resolução/Conclusão,3105,Incêndio rural,0,4,0,14,2025-07-21T21:41:00Z,Ferreira Do Alentejo,Beja,Alentejo,-8.339778,38.035552,Resolução/Conclusão
25708284,Bogas de Cima,Beiras e Serra da Estrela,310,2025-07-20T21:26:00Z,25708284,Em Resolução/Conclusão,3103,Incêndio rural,0,1,0,5,2025-07-20T21:26:00Z,Fundão,Castelo Branco,Centro,-7.707703,40.064562,Resolução/Conclusão
25713466,a Dos Francos,Oeste,311,2025-07-21T22:16:00Z,25713466,Em Resolução/Conclusão,3103,Incêndio rural,0,7,0,26,2025-07-21T22:16:00Z,Caldas Da Rainha,Leiria,Centro,-9.029838,39.316677,Resolução/Conclusão
25712338,Cercal,Alentejo Litoral,312,2025-07-21T17:38:00Z,25712338,Em Resolução/Conclusão,3103,Incêndio rural,0,25,0,65,2025-07-21T17:38:00Z,Santiago Do Cacém,Setúbal,Alentejo,-8.682272,37.791582,Resolução/Conclusão
25712519,Beduído e Veiros,Região de Aveiro,310,2025-07-21T18:23:00Z,25712519,Em Resolução/Conclusão,3101,Incêndio rural,0,1,0,5,2025-07-21T18:23:00Z,Estarreja,Aveiro,Centro,-8.542565,40.781313,Resolução/Conclusão
25712704,Beja (Salvador e Santa Maria da Feira),Baixo Alentejo,312,2025-07-21T19:02:00Z,25712704,Em Resolução/Conclusão,3105,Incêndio rural,0,0,0,0,2025-07-21T19:02:00Z,Beja,Beja,Alentejo,-7.863775,38.028298,Resolução/Conclusão
25713472,Laranjeiro e Feijó,Península de Setúbal,311,2025-07-21T22:19:00Z,25713472,Em Resolução/Conclusão,3105,Incêndio rural,0,3,0,13,2025-07-21T22:19:00Z,Almada,Setúbal,Área Metropolitana De Lisboa,-9.168837,38.659915,Resolução/Conclusão
