id,address,subregion,neighborhood,date,id.1,state,nature,nature_description,aerial_means,terrestrial_means,aquatic_means,operational,date.1,Concelho,Distrito,NUTII_DSG,longitude,latitude
25528788,Cujó,Viseu Dão Lafões,310,2025-06-15T12:16:00Z,25528788,Em conclusão,3103,Incêndio rural,0,4,0,15,2025-06-15T12:16:00Z,Castro Daire,Viseu,Centro,-7.848462,40.936202
25527511,Ermelo e Pardelhas,Ave,309,2025-06-15T07:09:00Z,25527511,Em conclusão,3107,Consolidação de rescaldo de incêndio rural,0,4,0,14,2025-06-15T07:09:00Z,Mondim De Basto,Vila Real,Norte,-7.835478,41.355555
25528547,Buarcos,Região de Coimbra,310,2025-06-15T11:20:00Z,25528547,Em resolução,3203,Detritos confinados,0,2,0,5,2025-06-15T11:20:00Z,Figueira Da Foz,Coimbra,Centro,-8.880897,40.168384
25528222,Conceição e Estoi,Algarve,313,2025-06-15T10:01:00Z,25528222,Em curso,3107,Consolidação de rescaldo de incêndio rural,0,4,0,12,2025-06-15T10:01:00Z,Faro,Faro,Algarve,-7.898036,37.074437
25528854,Baixa da Banheira e Vale da Amoreira,Península de Setúbal,311,2025-06-15T12:36:00Z,25528854,Em despacho,2129,Incêndio em edifícios degradados ou devolutos,0,2,0,6,2025-06-15T12:36:00Z,Moita,Setúbal,Área Metropolitana De Lisboa,-9.04637,38.66665
25528872,Reguengos de Monsaraz,Alentejo Central,312,2025-06-15T12:36:00Z,25528872,Em despacho,3105,Incêndio rural,1,7,0,30,2025-06-15T12:36:00Z,Reguengos De Monsaraz,Évora,Alentejo,-7.57053,38.461699
25528490,Gouveia (São Simão),Tâmega e Sousa,309,2025-06-15T11:13:00Z,25528490,Em conclusão,3103,Incêndio rural,0,2,0,7,2025-06-15T11:13:00Z,Amarante,Porto,Norte,-8.063538,41.23013
25528841,Nine,Ave,309,2025-06-15T12:24:00Z,25528841,Em resolução,2127,"Incêndio em edifícios e recintos industriais, oficinas e armazéns",0,2,0,6,2025-06-15T12:24:00Z,Vila Nova De Famalicão,Braga,Norte,-8.54183,41.46396
25525290,Selmes,Baixo Alentejo,312,2025-06-14T16:14:00Z,25525290,Em conclusão,3105,Incêndio rural,0,1,0,2,2025-06-14T16:14:00Z,Vidigueira,Beja,Alentejo,-7.724372,38.135682
25528281,"Messegães, Valadares e Sá",Alto Minho,309,2025-06-15T10:14:00Z,25528281,Em conclusão,3107,Consolidação de rescaldo de incêndio rural,0,2,0,7,2025-06-15T10:14:00Z,Monção,Viana Do Castelo,Norte,-8.373373,42.073925
25528849,"Seia, São Romão e Lapa Dos Dinheiros",Beiras e Serra da Estrela,310,2025-06-15T12:35:00Z,25528849,Em despacho,2301,Incêndio em transporte rodoviário,0,3,0,9,2025-06-15T12:35:00Z,Seia,Guarda,Centro,-7.66417,40.35841
25528685,Pedroso e Seixezelo,Area M. Porto,309,2025-06-15T11:54:00Z,25528685,Em conclusão,3103,Incêndio rural,0,4,0,15,2025-06-15T11:54:00Z,Vila Nova De Gaia,Porto,Norte,-8.55386,41.07944
25528796,Freixiosa,Viseu Dão Lafões,310,2025-06-15T12:18:00Z,25528796,Em conclusão,3103,Incêndio rural,0,4,0,14,2025-06-15T12:18:00Z,Mangualde,Viseu,Centro,-7.681097,40.607163
25528778,Lagoa e Carvoeiro,Algarve,313,2025-06-15T12:14:00Z,25528778,Em resolução,2101,Incêndio em edifícios habitacionais,0,5,0,15,2025-06-15T12:14:00Z,Lagoa,Faro,Algarve,-8.46092,37.10921
25528746,"Ponte da Barca, V. N. Muía e Paço Vedro Magalhães",Alto Minho,309,2025-06-15T12:08:00Z,25528746,Em curso,3107,Consolidação de rescaldo de incêndio rural,0,1,0,5,2025-06-15T12:08:00Z,Ponte Da Barca,Viana Do Castelo,Norte,-8.39639,41.801147
25528839,Barreiro e Lavradio,Península de Setúbal,311,2025-06-15T12:32:00Z,25528839,Em curso,3103,Incêndio rural,0,4,0,16,2025-06-15T12:32:00Z,Barreiro,Setúbal,Área Metropolitana De Lisboa,-9.046689,38.66975
