id,address,subregion,neighborhood,date,id.1,state,nature,nature_description,aerial_means,terrestrial_means,aquatic_means,operational,date.1,Concelho,Distrito,NUTII_DSG,longitude,latitude
25579473,Souselas e Botão,Região de Coimbra,310,2025-06-25T18:14:00Z,25579473,Em conclusão,2101,Incêndio em edifícios habitacionais,0,2,0,7,2025-06-25T18:14:00Z,Coimbra,Coimbra,Centro,-8.39722,40.31806
25579890,Faro (Sé e São Pedro),Algarve,313,2025-06-25T19:56:00Z,25579890,Em conclusão,2101,Incêndio em edifícios habitacionais,0,1,0,1,2025-06-25T19:56:00Z,Faro,Faro,Algarve,-7.924624,37.0164
25579871,Faro (Sé e São Pedro),Algarve,313,2025-06-25T19:50:00Z,25579871,Em conclusão,2101,Incêndio em edifícios habitacionais,0,0,0,0,2025-06-25T19:50:00Z,Faro,Faro,Algarve,-7.93398,37.0153
25580049,Cete,Area M. Porto,309,2025-06-25T20:40:00Z,25580049,Em curso,2127,"Incêndio em edifícios e recintos industriais, oficinas e armazéns",0,6,0,25,2025-06-25T20:40:00Z,Paredes,Porto,Norte,-8.36064,41.17426
25580085,"Sé, Santa Maria e Meixedo",Terras de Trás-os-Montes,309,2025-06-25T20:48:00Z,25580085,Em despacho,3203,Detritos confinados,0,2,0,7,2025-06-25T20:48:00Z,Bragança,Bragança,Norte,-6.762887,41.81534
25579754,Beja (Salvador e Santa Maria da Feira),Baixo Alentejo,312,2025-06-25T19:15:00Z,25579754,Em conclusão,3105,Incêndio rural,0,4,0,17,2025-06-25T19:15:00Z,Beja,Beja,Alentejo,-7.874973,38.050697
25579922,Rubiães,Alto Minho,309,2025-06-25T20:02:00Z,25579922,Em conclusão,3105,Incêndio rural,0,2,0,7,2025-06-25T20:02:00Z,Paredes De Coura,Viana Do Castelo,Norte,-8.648768,41.89419
25580029,Mora,Alentejo Central,312,2025-06-25T20:34:00Z,25580029,Em conclusão,2101,Incêndio em edifícios habitacionais,0,3,0,9,2025-06-25T20:34:00Z,Mora,Évora,Alentejo,-8.182087,38.953268
