id,address,subregion,neighborhood,date,id.1,state,nature,nature_description,aerial_means,terrestrial_means,aquatic_means,operational,date.1,Concelho,Distrito,NUTII_DSG,longitude,latitude,state_2
25611301,"Algodres, Vale de Afonsinho e Vilar de Amargo",Beiras e Serra da Estrela,310,2025-07-01T19:25:00Z,25611301,Em Resolução/Conclusão,3103,Incêndio rural,0,1,0,5,2025-07-01T19:25:00Z,Figueira De Castelo Rodrigo,Guarda,Centro,-7.002512,40.960853,Resolução/Conclusão
25621615,Negrelos (São Tomé),Area M. Porto,309,2025-07-03T17:16:00Z,25621615,Em Resolução/Conclusão,3103,Incêndio rural,0,1,0,5,2025-07-03T17:16:00Z,Santo Tirso,Porto,Norte,-8.407845,41.335172,Resolução/Conclusão
25599382,Almaceda,Beira Baixa,310,2025-06-29T17:03:00Z,25599382,Em Resolução/Conclusão,3101,Incêndio rural,0,7,0,25,2025-06-29T17:03:00Z,Castelo Branco,Castelo Branco,Centro,-7.645695,39.962858,Resolução/Conclusão
25621233,São Miguel do Rio Torto e Rossio Ao Sul do Tejo,Médio Tejo,311,2025-07-03T16:07:00Z,25621233,Em Resolução/Conclusão,3105,Incêndio rural,0,0,0,0,2025-07-03T16:07:00Z,Abrantes,Santarém,Centro,-8.19668,39.430777,Resolução/Conclusão
25621310,Travanca,Tâmega e Sousa,309,2025-07-03T16:19:00Z,25621310,Em Resolução/Conclusão,3103,Incêndio rural,0,5,0,19,2025-07-03T16:19:00Z,Amarante,Porto,Norte,-8.192355,41.242782,Resolução/Conclusão
25621694,"Bustos, Troviscal e Mamarrosa",Região de Aveiro,310,2025-07-03T17:39:00Z,25621694,Em Curso,3101,Incêndio rural,1,5,0,26,2025-07-03T17:39:00Z,Oliveira Do Bairro,Aveiro,Centro,-8.556472,40.474195,Curso
25621801,Lomba,Area M. Porto,309,2025-07-03T18:03:00Z,25621801,Em Resolução/Conclusão,3103,Incêndio rural,0,4,0,15,2025-07-03T18:03:00Z,Gondomar,Porto,Norte,-8.408252,41.034001,Resolução/Conclusão
25620835,Recarei,Area M. Porto,309,2025-07-03T14:40:00Z,25620835,Em Resolução/Conclusão,3103,Incêndio rural,0,21,0,69,2025-07-03T14:40:00Z,Paredes,Porto,Norte,-8.427998,41.160472,Resolução/Conclusão
25621338,Alvarelhos e Guidões,Area M. Porto,309,2025-07-03T16:24:00Z,25621338,Em Resolução/Conclusão,3103,Incêndio rural,0,3,0,9,2025-07-03T16:24:00Z,Trofa,Porto,Norte,-8.607477,41.316107,Resolução/Conclusão
25610143,Nossa Senhora Das Misericórdias,Médio Tejo,311,2025-07-01T15:32:00Z,25610143,Em Resolução/Conclusão,3103,Incêndio rural,0,1,0,5,2025-07-01T15:32:00Z,Ourém,Santarém,Centro,-8.600277,39.655883,Resolução/Conclusão
25620464,Cativelos,Beiras e Serra da Estrela,310,2025-07-03T13:45:00Z,25620464,Em Resolução/Conclusão,3103,Incêndio rural,0,5,0,15,2025-07-03T13:45:00Z,Gouveia,Guarda,Centro,-7.704635,40.546025,Resolução/Conclusão
25620664,Côja e Barril de Alva,Região de Coimbra,310,2025-07-03T14:22:00Z,25620664,Em Resolução/Conclusão,3101,Incêndio rural,0,55,0,187,2025-07-03T14:22:00Z,Arganil,Coimbra,Centro,-7.95667,40.2725,Resolução/Conclusão
25621432,Amendoeira,Terras de Trás-os-Montes,309,2025-07-03T16:42:00Z,25621432,Em Resolução/Conclusão,3103,Incêndio rural,0,3,0,12,2025-07-03T16:42:00Z,Macedo De Cavaleiros,Bragança,Norte,-6.990148,41.55541,Resolução/Conclusão
25621641,São Miguel do Rio Torto e Rossio Ao Sul do Tejo,Médio Tejo,311,2025-07-03T17:22:00Z,25621641,Em Resolução/Conclusão,3105,Incêndio rural,0,3,0,9,2025-07-03T17:22:00Z,Abrantes,Santarém,Centro,-8.196103,39.43087,Resolução/Conclusão
