id,address,subregion,neighborhood,date,id.1,state,nature,nature_description,aerial_means,terrestrial_means,aquatic_means,operational,date.1,Concelho,Distrito,NUTII_DSG,longitude,latitude
24649601,Carnaxide e Queijas,Grande Lisboa,311,2024-12-07T23:43:00Z,24649601,Em curso,3301,Queda de árvore,0,2,0,7,2024-12-07T23:43:00Z,Oeiras,Lisboa,Área Metropolitana De Lisboa,-9.21526,38.72617
24649629,"Oeiras e S. Julião da Barra, Paço de Arcos e Caxias",Grande Lisboa,311,2024-12-07T23:57:00Z,24649629,Em despacho,3301,Queda de árvore,0,0,0,0,2024-12-07T23:57:00Z,Oeiras,Lisboa,Área Metropolitana De Lisboa,-9.31561,38.69381
24649276,Alfragide,Grande Lisboa,311,2024-12-07T21:15:00Z,24649276,Em conclusão,3301,Queda de árvore,0,2,0,8,2024-12-07T21:15:00Z,Amadora,Lisboa,Área Metropolitana De Lisboa,-9.225704,38.738085
24649562,Amora,Península de Setúbal,311,2024-12-07T23:26:00Z,24649562,Em despacho,3301,Queda de árvore,0,1,0,3,2024-12-07T23:26:00Z,Seixal,Setúbal,Área Metropolitana De Lisboa,-9.14758,38.581152
24649580,Sé e São Lourenço,Alto Alentejo,312,2024-12-07T23:25:00Z,24649580,Em despacho,3301,Queda de árvore,0,1,0,2,2024-12-07T23:25:00Z,Portalegre,Portalegre,Alentejo,-7.423634,39.31267
