id,address,subregion,neighborhood,date,id.1,state,nature,nature_description,aerial_means,terrestrial_means,aquatic_means,operational,date.1,Concelho,Distrito,NUTII_DSG,longitude,latitude,state_2
25935097,Fonte Arcada e Escurquela,Douro,309,2025-09-02T20:33:00Z,25935097,Em Resolução/Conclusão,3103,Incêndio rural,0,2,0,10,2025-09-02T20:33:00Z,Sernancelhe,Viseu,Norte,-7.531557,40.9709,Resolução/Conclusão
25935272,Arcos e Mogofores,Região de Aveiro,310,2025-09-02T21:26:00Z,25935272,Em Resolução/Conclusão,3103,Incêndio rural,0,2,0,7,2025-09-02T21:26:00Z,Anadia,Aveiro,Centro,-8.456536,40.45211,Resolução/Conclusão
25935557,Caldas da Rainha - Santo Onofre e Serra do Bouro,Oeste,311,2025-09-02T23:12:00Z,25935557,Em Despacho,3103,Incêndio rural,0,0,0,0,2025-09-02T23:12:00Z,Caldas Da Rainha,Leiria,Centro,-9.14107,39.39746,Despacho
25832672,Piódão,Região de Coimbra,310,2025-08-13T05:08:00Z,25832672,Em Resolução/Conclusão,3103,Incêndio rural,0,16,0,42,2025-08-13T05:08:00Z,Arganil,Coimbra,Centro,-7.81972,40.23083,Resolução/Conclusão
25840417,Lousã e Vilarinho,Região de Coimbra,310,2025-08-14T13:46:00Z,25840417,Em Resolução/Conclusão,3101,Incêndio rural,0,1,0,1,2025-08-14T13:46:00Z,Lousã,Coimbra,Centro,-8.201561,40.080016,Resolução/Conclusão
25934786,"Sande, Vilarinho, Barros e Gomide",Cávado,309,2025-09-02T18:35:00Z,25934786,Em Despacho,3111,Queima,0,1,0,2,2025-09-02T18:35:00Z,Vila Verde,Braga,Norte,-8.394844,41.714542,Despacho
25935529,Vermoil,Região de Leiria,310,2025-09-02T22:56:00Z,25935529,Em Despacho,3103,Incêndio rural,0,5,0,20,2025-09-02T22:56:00Z,Pombal,Leiria,Centro,-8.677468,39.830893,Despacho
25935543,Pontinha e Famões,Grande Lisboa,311,2025-09-02T22:58:00Z,25935543,Em Resolução/Conclusão,3103,Incêndio rural,0,1,0,5,2025-09-02T22:58:00Z,Odivelas,Lisboa,Área Metropolitana De Lisboa,-9.194365,38.77698,Resolução/Conclusão
