id,address,subregion,neighborhood,date,id.1,state,nature,nature_description,aerial_means,terrestrial_means,aquatic_means,operational,date.1,Concelho,Distrito,NUTII_DSG,longitude,latitude,state_2
25775263,Torgueda,Douro,309,2025-08-02T19:49:00Z,25775263,Em Resolução/Conclusão,3101,Incêndio rural,0,6,0,19,2025-08-02T19:49:00Z,Vila Real,Vila Real,Norte,-7.785983,41.274952,Resolução/Conclusão
25807426,Alvite,Douro,309,2025-08-08T14:31:00Z,25807426,Em Resolução/Conclusão,3103,Incêndio rural,0,19,0,77,2025-08-08T14:31:00Z,Moimenta Da Beira,Viseu,Norte,-7.688727,40.96613,Resolução/Conclusão
25826678,Landal,Oeste,311,2025-08-12T00:07:00Z,25826678,Em Resolução/Conclusão,3101,Incêndio rural,0,1,0,2,2025-08-12T00:07:00Z,Caldas Da Rainha,Leiria,Centro,-9.020722,39.295158,Resolução/Conclusão
25830104,Campo,Viseu Dão Lafões,310,2025-08-12T15:50:00Z,25830104,Em Resolução/Conclusão,3103,Incêndio rural,0,1,0,55,2025-08-12T15:50:00Z,Viseu,Viseu,Centro,-7.924696,40.705094,Resolução/Conclusão
25832589,Estreito-Vilar Barroco,Beira Baixa,310,2025-08-13T03:47:00Z,25832589,Em Resolução/Conclusão,3101,Incêndio rural,0,1,0,5,2025-08-13T03:47:00Z,Oleiros,Castelo Branco,Centro,-7.784128,39.916948,Resolução/Conclusão
25833839,"Aldeia do Bispo, Águas e Aldeia de João Pires",Beira Baixa,310,2025-08-13T10:37:00Z,25833839,Em Resolução/Conclusão,3103,Incêndio rural,0,13,0,41,2025-08-13T10:37:00Z,Penamacor,Castelo Branco,Centro,-7.165218,40.112668,Resolução/Conclusão
25835113,Boivães,Alto Minho,309,2025-08-13T14:26:00Z,25835113,Em Resolução/Conclusão,3103,Incêndio rural,0,1,0,3,2025-08-13T14:26:00Z,Ponte Da Barca,Viana Do Castelo,Norte,-8.445205,41.756977,Resolução/Conclusão
25785983,Caçarilhe e Infesta,Tâmega e Sousa,309,2025-08-04T18:22:00Z,25785983,Em Resolução/Conclusão,3103,Incêndio rural,0,5,0,19,2025-08-04T18:22:00Z,Celorico De Basto,Braga,Norte,-8.04611,41.419858,Resolução/Conclusão
25792058,Cibões e Brufe,Cávado,309,2025-08-05T19:10:00Z,25792058,Em Resolução/Conclusão,3103,Incêndio rural,0,1,0,5,2025-08-05T19:10:00Z,Terras De Bouro,Braga,Norte,-8.293932,41.764918,Resolução/Conclusão
25820422,Távora e Pereiro,Douro,309,2025-08-10T22:27:00Z,25820422,Em Curso,3103,Incêndio rural,4,81,0,260,2025-08-10T22:27:00Z,Tabuaço,Viseu,Norte,-7.55556,41.097602,Curso
25822776,Santos Evos,Viseu Dão Lafões,310,2025-08-11T11:05:00Z,25822776,Em Resolução/Conclusão,3103,Incêndio rural,0,0,0,0,2025-08-11T11:05:00Z,Viseu,Viseu,Centro,-7.810218,40.667813,Resolução/Conclusão
25830257,Vila Alva,Baixo Alentejo,312,2025-08-12T16:21:00Z,25830257,Em Resolução/Conclusão,3103,Incêndio rural,0,29,0,71,2025-08-12T16:21:00Z,Cuba,Beja,Alentejo,-7.870563,38.233373,Resolução/Conclusão
25832404,Ala e Vilarinho do Monte,Terras de Trás-os-Montes,309,2025-08-13T01:25:00Z,25832404,Em Resolução/Conclusão,3103,Incêndio rural,0,19,0,50,2025-08-13T01:25:00Z,Macedo De Cavaleiros,Bragança,Norte,-7.101645,41.632283,Resolução/Conclusão
25832672,Piódão,Região de Coimbra,310,2025-08-13T05:08:00Z,25832672,Em Curso,3103,Incêndio rural,9,196,0,636,2025-08-13T05:08:00Z,Arganil,Coimbra,Centro,-7.81972,40.23083,Curso
25832772,Vale de Espinho,Beiras e Serra da Estrela,310,2025-08-13T06:31:00Z,25832772,Em Resolução/Conclusão,3103,Incêndio rural,0,1,0,2,2025-08-13T06:31:00Z,Sabugal,Guarda,Centro,-6.9571,40.286268,Resolução/Conclusão
25833258,Vale de Espinho,Beiras e Serra da Estrela,310,2025-08-13T09:00:00Z,25833258,Em Resolução/Conclusão,3103,Incêndio rural,0,5,0,22,2025-08-13T09:00:00Z,Sabugal,Guarda,Centro,-6.92203,40.272065,Resolução/Conclusão
25773830,Andrães,Douro,309,2025-08-02T14:23:00Z,25773830,Em Resolução/Conclusão,3103,Incêndio rural,0,0,0,0,2025-08-02T14:23:00Z,Vila Real,Vila Real,Norte,-7.671293,41.267593,Resolução/Conclusão
25774883,Arnóia,Tâmega e Sousa,309,2025-08-02T18:20:00Z,25774883,Em Resolução/Conclusão,3103,Incêndio rural,0,2,0,6,2025-08-02T18:20:00Z,Celorico De Basto,Braga,Norte,-7.998983,41.348727,Resolução/Conclusão
25804968,Alvadia,Alto Tâmega e Barroso,309,2025-08-08T07:21:00Z,25804968,Em Resolução/Conclusão,3103,Incêndio rural,1,4,0,22,2025-08-08T07:21:00Z,Ribeira De Pena,Vila Real,Norte,-7.782872,41.457452,Resolução/Conclusão
25818455,Sobral de São Miguel,Beiras e Serra da Estrela,310,2025-08-10T15:02:00Z,25818455,Em Resolução/Conclusão,3103,Incêndio rural,1,50,0,142,2025-08-10T15:02:00Z,Covilhã,Castelo Branco,Centro,-7.77307,40.200173,Resolução/Conclusão
25830417,Sezures,Viseu Dão Lafões,310,2025-08-12T16:50:00Z,25830417,Em Resolução/Conclusão,3101,Incêndio rural,0,0,0,0,2025-08-12T16:50:00Z,Penalva Do Castelo,Viseu,Centro,-7.601704,40.72072,Resolução/Conclusão
25834631,Paços,Douro,309,2025-08-13T12:57:00Z,25834631,Em Resolução/Conclusão,3103,Incêndio rural,0,19,0,66,2025-08-13T12:57:00Z,Sabrosa,Vila Real,Norte,-7.620647,41.233283,Resolução/Conclusão
25834662,NA,NA,0,2025-08-13T12:57:00Z,25834662,Em Despacho,3103,Incêndio rural,0,14,0,37,2025-08-13T12:57:00Z,Moura,Beja,Alentejo,-7.014917,38.036033,Despacho
25835103,Árvore,Area M. Porto,309,2025-08-13T14:21:00Z,25835103,Em Resolução/Conclusão,3103,Incêndio rural,0,6,0,21,2025-08-13T14:21:00Z,Vila Do Conde,Porto,Norte,-8.723351,41.34159,Resolução/Conclusão
25835176,Faíl e Vila Chã de Sá,Viseu Dão Lafões,310,2025-08-13T14:35:00Z,25835176,Em Curso,3103,Incêndio rural,4,29,0,111,2025-08-13T14:35:00Z,Viseu,Viseu,Centro,-7.951177,40.594167,Curso
25835478,Moura Morta e Vinhós,Douro,309,2025-08-13T15:26:00Z,25835478,Em Resolução/Conclusão,3103,Incêndio rural,0,2,0,7,2025-08-13T15:26:00Z,Peso Da Régua,Vila Real,Norte,-7.832706,41.200595,Resolução/Conclusão
25835530,Vila Boa de Quires e Maureles,Tâmega e Sousa,309,2025-08-13T15:36:00Z,25835530,Em Resolução/Conclusão,3103,Incêndio rural,0,4,0,18,2025-08-13T15:36:00Z,Marco De Canaveses,Porto,Norte,-8.200547,41.211577,Resolução/Conclusão
25835612,Campo de Besteiros,Viseu Dão Lafões,310,2025-08-13T15:50:00Z,25835612,Em Resolução/Conclusão,3103,Incêndio rural,0,0,0,0,2025-08-13T15:50:00Z,Tondela,Viseu,Centro,-8.134725,40.55412,Resolução/Conclusão
25835630,Sobrosa,Area M. Porto,309,2025-08-13T15:54:00Z,25835630,Em Resolução/Conclusão,3103,Incêndio rural,0,2,0,7,2025-08-13T15:54:00Z,Paredes,Porto,Norte,-8.343173,41.25458,Resolução/Conclusão
25835694,Urros e Peredo Dos Castelhanos,Douro,309,2025-08-13T16:07:00Z,25835694,Em Despacho,3103,Incêndio rural,0,6,0,16,2025-08-13T16:07:00Z,Torre De Moncorvo,Bragança,Norte,-7.073142,41.10885,Despacho
25835764,Aguiar de Sousa,Area M. Porto,309,2025-08-13T16:19:00Z,25835764,Em Resolução/Conclusão,3103,Incêndio rural,0,2,0,8,2025-08-13T16:19:00Z,Paredes,Porto,Norte,-8.424685,41.128008,Resolução/Conclusão
25835361,Fornelos,Tâmega e Sousa,309,2025-08-13T15:08:00Z,25835361,Em Resolução/Conclusão,3103,Incêndio rural,0,2,0,7,2025-08-13T15:08:00Z,Cinfães,Viseu,Norte,-8.200179,41.02132,Resolução/Conclusão
25835404,Lustosa e Barrosas (Santo Estêvão),Tâmega e Sousa,309,2025-08-13T14:29:00Z,25835404,Em Resolução/Conclusão,3103,Incêndio rural,0,1,0,5,2025-08-13T14:29:00Z,Lousada,Porto,Norte,-8.323094,41.339488,Resolução/Conclusão
25835031,Barreiros e Cepões,Viseu Dão Lafões,310,2025-08-13T14:09:00Z,25835031,Em Resolução/Conclusão,3105,Incêndio rural,0,0,0,0,2025-08-13T14:09:00Z,Viseu,Viseu,Centro,-7.813442,40.745812,Resolução/Conclusão
25835516,Padreiro (Salvador e Santa Cristina),Alto Minho,309,2025-08-13T15:35:00Z,25835516,Em Resolução/Conclusão,3103,Incêndio rural,1,1,0,10,2025-08-13T15:35:00Z,Arcos De Valdevez,Viana Do Castelo,Norte,-8.493845,41.824947,Resolução/Conclusão
25835615,Vilarinho Das Cambas,Ave,309,2025-08-13T15:52:00Z,25835615,Em Resolução/Conclusão,3103,Incêndio rural,0,6,0,23,2025-08-13T15:52:00Z,Vila Nova De Famalicão,Braga,Norte,-8.559497,41.386671,Resolução/Conclusão
25835682,Ermidas-Sado,Alentejo Litoral,312,2025-08-13T16:05:00Z,25835682,Em Resolução/Conclusão,3105,Incêndio rural,0,6,0,16,2025-08-13T16:05:00Z,Santiago Do Cacém,Setúbal,Alentejo,-8.401197,38.000605,Resolução/Conclusão
25835967,Recardães e Espinhel,Região de Aveiro,310,2025-08-13T17:02:00Z,25835967,Em Despacho,3101,Incêndio rural,0,4,0,14,2025-08-13T17:02:00Z,Águeda,Aveiro,Centro,-8.480412,40.58362,Despacho
25835831,Nogueira do Cravo e Pindelo,Area M. Porto,309,2025-08-13T16:25:00Z,25835831,Em Resolução/Conclusão,3103,Incêndio rural,1,5,0,25,2025-08-13T16:25:00Z,Oliveira De Azeméis,Aveiro,Norte,-8.45228,40.899077,Resolução/Conclusão
25835906,Gimonde,Terras de Trás-os-Montes,309,2025-08-13T16:49:00Z,25835906,Em Resolução/Conclusão,3105,Incêndio rural,0,4,0,10,2025-08-13T16:49:00Z,Bragança,Bragança,Norte,-6.716981,41.80371,Resolução/Conclusão
25835981,Guilhabreu,Area M. Porto,309,2025-08-13T17:04:00Z,25835981,Em Despacho,3103,Incêndio rural,1,1,0,11,2025-08-13T17:04:00Z,Vila Do Conde,Porto,Norte,-8.637932,41.29419,Despacho
25776263,"Pena, Quintã e Vila Cova",Douro,309,2025-08-02T23:45:00Z,25776263,Em Curso,3103,Incêndio rural,1,138,0,411,2025-08-02T23:45:00Z,Vila Real,Vila Real,Norte,-7.811902,41.317355,Curso
25813482,Freches e Torres,Beiras e Serra da Estrela,310,2025-08-09T16:21:00Z,25813482,Em Curso,3103,Incêndio rural,3,161,0,501,2025-08-09T16:21:00Z,Trancoso,Guarda,Centro,-7.363745,40.709022,Curso
25824945,Povolide,Viseu Dão Lafões,310,2025-08-11T17:17:00Z,25824945,Em Resolução/Conclusão,3103,Incêndio rural,0,0,0,0,2025-08-11T17:17:00Z,Viseu,Viseu,Centro,-7.79583,40.660003,Resolução/Conclusão
25830279,"Pena, Quintã e Vila Cova",Douro,309,2025-08-12T16:21:00Z,25830279,Em Resolução/Conclusão,3103,Incêndio rural,0,2,0,7,2025-08-12T16:21:00Z,Vila Real,Vila Real,Norte,-7.86331,41.318053,Resolução/Conclusão
25830378,Ermidas-Sado,Alentejo Litoral,312,2025-08-12T16:42:00Z,25830378,Em Resolução/Conclusão,3101,Incêndio rural,0,40,0,114,2025-08-12T16:42:00Z,Santiago Do Cacém,Setúbal,Alentejo,-8.407646,38.059897,Resolução/Conclusão
25830830,Podence e Santa Combinha,Terras de Trás-os-Montes,309,2025-08-12T18:14:00Z,25830830,Em Resolução/Conclusão,3103,Incêndio rural,0,3,0,9,2025-08-12T18:14:00Z,Macedo De Cavaleiros,Bragança,Norte,-6.926542,41.595166999999996,Resolução/Conclusão
25831679,Monsanto e Idanha-a-Velha,Beira Baixa,310,2025-08-12T21:21:00Z,25831679,Em Resolução/Conclusão,3103,Incêndio rural,0,4,0,10,2025-08-12T21:21:00Z,Idanha-a-Nova,Castelo Branco,Centro,-7.143792,40.013767,Resolução/Conclusão
25831698,Cendufe,Alto Minho,309,2025-08-12T21:25:00Z,25831698,Em Resolução/Conclusão,3103,Incêndio rural,0,9,0,31,2025-08-12T21:25:00Z,Arcos De Valdevez,Viana Do Castelo,Norte,-8.504462,41.817677,Resolução/Conclusão
25832250,Ferreira de Aves,Viseu Dão Lafões,310,2025-08-13T00:03:00Z,25832250,Em Curso,3103,Incêndio rural,5,80,0,255,2025-08-13T00:03:00Z,Sátão,Viseu,Centro,-7.647793,40.79568,Curso
25835457,Quirás e Pinheiro Novo,Terras de Trás-os-Montes,309,2025-08-13T15:25:00Z,25835457,Em Curso,3103,Incêndio rural,1,24,0,80,2025-08-13T15:25:00Z,Vinhais,Bragança,Norte,-7.170375,41.939618,Curso
25835977,Cendufe,Alto Minho,309,2025-08-13T17:03:00Z,25835977,Em Despacho,3103,Incêndio rural,1,0,0,6,2025-08-13T17:03:00Z,Arcos De Valdevez,Viana Do Castelo,Norte,-8.491774,41.812675,Despacho
