id,address,subregion,neighborhood,date,id.1,state,nature,nature_description,aerial_means,terrestrial_means,aquatic_means,operational,date.1,Concelho,Distrito,NUTII_DSG,longitude,latitude,state_2
25636293,Croca,Tâmega e Sousa,309,2025-07-06T13:23:00Z,25636293,Em Resolução/Conclusão,3103,Incêndio rural,0,1,0,5,2025-07-06T13:23:00Z,Penafiel,Porto,Norte,-8.230017,41.216223,Resolução/Conclusão
25636341,Navió e Vitorino Dos Piães,Alto Minho,309,2025-07-06T13:36:00Z,25636341,Em Curso,3103,Incêndio rural,1,3,0,20,2025-07-06T13:36:00Z,Ponte De Lima,Viana Do Castelo,Norte,-8.617013,41.6809,Curso
25636418,Lomba,Area M. Porto,309,2025-07-06T13:52:00Z,25636418,Em Despacho,3103,Incêndio rural,0,2,0,10,2025-07-06T13:52:00Z,Gondomar,Porto,Norte,-8.426652,41.03456,Despacho
25635960,Santo Antão e São Julião do Tojal,Grande Lisboa,311,2025-07-06T12:01:00Z,25635960,Em Resolução/Conclusão,3103,Incêndio rural,0,8,0,27,2025-07-06T12:01:00Z,Loures,Lisboa,Área Metropolitana De Lisboa,-9.129025,38.845132,Resolução/Conclusão
25636247,Ventosa e Cova,Ave,309,2025-07-06T13:13:00Z,25636247,Em Resolução/Conclusão,3103,Incêndio rural,0,3,0,12,2025-07-06T13:13:00Z,Vieira Do Minho,Braga,Norte,-8.165579,41.68,Resolução/Conclusão
25636279,Carreira e Refojos de Riba de Ave,Area M. Porto,309,2025-07-06T13:20:00Z,25636279,Em Resolução/Conclusão,3105,Incêndio rural,0,3,0,9,2025-07-06T13:20:00Z,Santo Tirso,Porto,Norte,-8.469523,41.30392,Resolução/Conclusão
25610143,Nossa Senhora Das Misericórdias,Médio Tejo,311,2025-07-01T15:32:00Z,25610143,Em Resolução/Conclusão,3103,Incêndio rural,0,0,0,0,2025-07-01T15:32:00Z,Ourém,Santarém,Centro,-8.600277,39.655883,Resolução/Conclusão
25635597,Agilde,Tâmega e Sousa,309,2025-07-06T10:39:00Z,25635597,Em Resolução/Conclusão,3103,Incêndio rural,0,3,0,12,2025-07-06T10:39:00Z,Celorico De Basto,Braga,Norte,-8.110412,41.371243,Resolução/Conclusão
25636024,Castelejo,Beiras e Serra da Estrela,310,2025-07-06T12:16:00Z,25636024,Em Resolução/Conclusão,3103,Incêndio rural,0,11,0,34,2025-07-06T12:16:00Z,Fundão,Castelo Branco,Centro,-7.618568,40.108057,Resolução/Conclusão
25636249,Selho (São Jorge),Ave,309,2025-07-06T13:18:00Z,25636249,Em Resolução/Conclusão,3103,Incêndio rural,0,3,0,14,2025-07-06T13:18:00Z,Guimarães,Braga,Norte,-8.355797,41.42959,Resolução/Conclusão
25636351,Frazão Arreigada,Tâmega e Sousa,309,2025-07-06T13:38:00Z,25636351,Em Curso,3103,Incêndio rural,0,2,0,7,2025-07-06T13:38:00Z,Paços De Ferreira,Porto,Norte,-8.404627,41.2445,Curso
25635921,Tocha,Região de Coimbra,310,2025-07-06T11:53:00Z,25635921,Em Resolução/Conclusão,3103,Incêndio rural,0,2,0,7,2025-07-06T11:53:00Z,Cantanhede,Coimbra,Centro,-8.742294,40.293752,Resolução/Conclusão
25636019,Póvoa da Isenta,Lezíria do Tejo,311,2025-07-06T12:15:00Z,25636019,Em Resolução/Conclusão,3101,Incêndio rural,0,3,0,12,2025-07-06T12:15:00Z,Santarém,Santarém,Alentejo,-8.754253,39.210315,Resolução/Conclusão
25636203,Maxial e Monte Redondo,Oeste,311,2025-07-06T13:01:00Z,25636203,Em Resolução/Conclusão,3103,Incêndio rural,0,7,0,26,2025-07-06T13:01:00Z,Torres Vedras,Lisboa,Centro,-9.16694,39.1525,Resolução/Conclusão
25636336,Cambres,Douro,309,2025-07-06T13:22:00Z,25636336,Em Resolução/Conclusão,3103,Incêndio rural,0,1,0,5,2025-07-06T13:22:00Z,Lamego,Viseu,Norte,-7.791595,41.157698,Resolução/Conclusão
25636470,Meinedo,Tâmega e Sousa,309,2025-07-06T14:05:00Z,25636470,Em Despacho,3105,Incêndio rural,0,0,0,0,2025-07-06T14:05:00Z,Lousada,Porto,Norte,-8.2593,41.24977,Despacho
