id,address,subregion,neighborhood,date,id.1,state,nature,nature_description,aerial_means,terrestrial_means,aquatic_means,operational,date.1,Concelho,Distrito,NUTII_DSG,longitude,latitude,state_2
25773830,Andrães,Douro,309,2025-08-02T14:23:00Z,25773830,Em Resolução/Conclusão,3103,Incêndio rural,0,14,0,52,2025-08-02T14:23:00Z,Vila Real,Vila Real,Norte,-7.671293,41.267593,Resolução/Conclusão
25774883,Arnóia,Tâmega e Sousa,309,2025-08-02T18:20:00Z,25774883,Em Resolução/Conclusão,3103,Incêndio rural,0,9,0,32,2025-08-02T18:20:00Z,Celorico De Basto,Braga,Norte,-7.998983,41.348727,Resolução/Conclusão
25794472,Boelhe,Tâmega e Sousa,309,2025-08-06T09:45:00Z,25794472,Em Resolução/Conclusão,3103,Incêndio rural,0,2,0,7,2025-08-06T09:45:00Z,Penafiel,Porto,Norte,-8.251117,41.129577,Resolução/Conclusão
25801372,São Jorge e Ermelo,Alto Minho,309,2025-08-07T13:06:00Z,25801372,Em Resolução/Conclusão,3103,Incêndio rural,1,1,0,9,2025-08-07T13:06:00Z,Arcos De Valdevez,Viana Do Castelo,Norte,-8.368037,41.81819,Resolução/Conclusão
25801423,Duas Igrejas,Terras de Trás-os-Montes,309,2025-08-07T13:13:00Z,25801423,Em Resolução/Conclusão,3103,Incêndio rural,0,7,0,23,2025-08-07T13:13:00Z,Miranda Do Douro,Bragança,Norte,-6.366825,41.468188,Resolução/Conclusão
25801541,"Cristelos, Boim e Ordem",Tâmega e Sousa,309,2025-08-07T13:38:00Z,25801541,Em Resolução/Conclusão,3105,Incêndio rural,0,1,0,3,2025-08-07T13:38:00Z,Lousada,Porto,Norte,-8.284837,41.248728,Resolução/Conclusão
25785983,Caçarilhe e Infesta,Tâmega e Sousa,309,2025-08-04T18:22:00Z,25785983,Em Resolução/Conclusão,3103,Incêndio rural,0,45,0,144,2025-08-04T18:22:00Z,Celorico De Basto,Braga,Norte,-8.04611,41.419858,Resolução/Conclusão
25790229,Galegos,Tâmega e Sousa,309,2025-08-05T13:59:00Z,25790229,Em Resolução/Conclusão,3103,Incêndio rural,0,15,0,47,2025-08-05T13:59:00Z,Penafiel,Porto,Norte,-8.31029,41.153427,Resolução/Conclusão
25792058,Cibões e Brufe,Cávado,309,2025-08-05T19:10:00Z,25792058,Em Resolução/Conclusão,3103,Incêndio rural,0,6,0,22,2025-08-05T19:10:00Z,Terras De Bouro,Braga,Norte,-8.293932,41.764918,Resolução/Conclusão
25801261,Vila Boa de Quires e Maureles,Tâmega e Sousa,309,2025-08-07T12:42:00Z,25801261,Em Resolução/Conclusão,3103,Incêndio rural,0,1,0,5,2025-08-07T12:42:00Z,Marco De Canaveses,Porto,Norte,-8.201095,41.207266,Resolução/Conclusão
25801404,Pedroso e Seixezelo,Area M. Porto,309,2025-08-07T13:10:00Z,25801404,Em Resolução/Conclusão,3103,Incêndio rural,0,2,0,7,2025-08-07T13:10:00Z,Vila Nova De Gaia,Porto,Norte,-8.55757,41.032807,Resolução/Conclusão
25801677,Vila Caiz,Tâmega e Sousa,309,2025-08-07T14:04:00Z,25801677,Em Curso,3103,Incêndio rural,1,4,0,19,2025-08-07T14:04:00Z,Amarante,Porto,Norte,-8.123593,41.229797,Curso
25801679,Mancelos,Tâmega e Sousa,309,2025-08-07T14:05:00Z,25801679,Em Resolução/Conclusão,3103,Incêndio rural,0,4,0,17,2025-08-07T14:05:00Z,Amarante,Porto,Norte,-8.133617,41.265757,Resolução/Conclusão
25801813,Vila Boa de Quires e Maureles,Tâmega e Sousa,309,2025-08-07T14:00:00Z,25801813,Em Despacho,3103,Incêndio rural,0,1,0,5,2025-08-07T14:00:00Z,Marco De Canaveses,Porto,Norte,-8.207588,41.197577,Despacho
25738747,Lindoso,Alto Minho,309,2025-07-26T21:47:00Z,25738747,Em Resolução/Conclusão,3103,Incêndio rural,0,15,0,51,2025-07-26T21:47:00Z,Ponte Da Barca,Viana Do Castelo,Norte,-8.220528,41.865272,Resolução/Conclusão
25775263,Torgueda,Douro,309,2025-08-02T19:49:00Z,25775263,Em Resolução/Conclusão,3101,Incêndio rural,0,6,0,14,2025-08-02T19:49:00Z,Vila Real,Vila Real,Norte,-7.785983,41.274952,Resolução/Conclusão
25785466,Caçarilhe e Infesta,Tâmega e Sousa,309,2025-08-04T16:48:00Z,25785466,Em Resolução/Conclusão,3103,Incêndio rural,0,1,0,19,2025-08-04T16:48:00Z,Celorico De Basto,Braga,Norte,-8.035342,41.42903,Resolução/Conclusão
25793572,Real,Tâmega e Sousa,309,2025-08-06T04:31:00Z,25793572,Em Resolução/Conclusão,3103,Incêndio rural,0,1,0,5,2025-08-06T04:31:00Z,Castelo De Paiva,Aveiro,Norte,-8.293568,40.988583,Resolução/Conclusão
25800301,Alvão,Alto Tâmega e Barroso,309,2025-08-07T10:03:00Z,25800301,Em Curso,3103,Incêndio rural,9,44,0,158,2025-08-07T10:03:00Z,Vila Pouca De Aguiar,Vila Real,Norte,-7.74157,41.466742000000004,Curso
25800667,Rio Frio,Alto Minho,309,2025-08-07T10:57:00Z,25800667,Em Resolução/Conclusão,3103,Incêndio rural,0,2,0,8,2025-08-07T10:57:00Z,Arcos De Valdevez,Viana Do Castelo,Norte,-8.501798,41.863003,Resolução/Conclusão
25801269,Monchique,Algarve,313,2025-08-07T12:43:00Z,25801269,Em Resolução/Conclusão,3103,Incêndio rural,0,7,0,23,2025-08-07T12:43:00Z,Monchique,Faro,Algarve,-8.635,37.36528,Resolução/Conclusão
25801503,Sopo,Alto Minho,309,2025-08-07T13:31:00Z,25801503,Em Resolução/Conclusão,3103,Incêndio rural,0,4,0,13,2025-08-07T13:31:00Z,Vila Nova De Cerveira,Viana Do Castelo,Norte,-8.723823,41.9099,Resolução/Conclusão
25801869,Chã,Alto Tâmega e Barroso,309,2025-08-07T14:31:00Z,25801869,Em Resolução/Conclusão,3103,Incêndio rural,0,1,0,5,2025-08-07T14:31:00Z,Montalegre,Vila Real,Norte,-7.792707,41.816745,Resolução/Conclusão
25748118,Canelas e Espiunca,Area M. Porto,309,2025-07-28T17:16:00Z,25748118,Em Resolução/Conclusão,3101,Incêndio rural,0,2,0,7,2025-07-28T17:16:00Z,Arouca,Aveiro,Norte,-8.212231,40.969918,Resolução/Conclusão
25776263,"Pena, Quintã e Vila Cova",Douro,309,2025-08-02T23:45:00Z,25776263,Em Resolução/Conclusão,3103,Incêndio rural,1,89,0,279,2025-08-02T23:45:00Z,Vila Real,Vila Real,Norte,-7.811902,41.317355,Resolução/Conclusão
25783717,Cunha Baixa,Viseu Dão Lafões,310,2025-08-04T11:48:00Z,25783717,Em Resolução/Conclusão,3101,Incêndio rural,0,1,0,2,2025-08-04T11:48:00Z,Mangualde,Viseu,Centro,-7.764411,40.559738,Resolução/Conclusão
25785204,Ribas,Tâmega e Sousa,309,2025-08-04T16:03:00Z,25785204,Em Resolução/Conclusão,3103,Incêndio rural,0,3,0,4,2025-08-04T16:03:00Z,Celorico De Basto,Braga,Norte,-8.022547,41.449583,Resolução/Conclusão
25787860,Faíl e Vila Chã de Sá,Viseu Dão Lafões,310,2025-08-05T05:55:00Z,25787860,Em Resolução/Conclusão,3103,Incêndio rural,0,1,0,5,2025-08-05T05:55:00Z,Viseu,Viseu,Centro,-7.987877,40.601342,Resolução/Conclusão
25796634,Várzea Dos Cavaleiros,Beira Baixa,310,2025-08-06T15:20:00Z,25796634,Em Resolução/Conclusão,3101,Incêndio rural,0,14,0,52,2025-08-06T15:20:00Z,Sertã,Castelo Branco,Centro,-8.002335,39.78494,Resolução/Conclusão
25800411,Lustosa e Barrosas (Santo Estêvão),Tâmega e Sousa,309,2025-08-07T10:18:00Z,25800411,Em Resolução/Conclusão,3103,Incêndio rural,0,2,0,10,2025-08-07T10:18:00Z,Lousada,Porto,Norte,-8.30604,41.34375,Resolução/Conclusão
25801149,Rego,Tâmega e Sousa,309,2025-08-07T12:22:00Z,25801149,Em Resolução/Conclusão,3103,Incêndio rural,0,7,0,28,2025-08-07T12:22:00Z,Celorico De Basto,Braga,Norte,-8.098822,41.439243,Resolução/Conclusão
25801961,Lago,Cávado,309,2025-08-07T14:46:00Z,25801961,Em Resolução/Conclusão,3103,Incêndio rural,0,3,0,12,2025-08-07T14:46:00Z,Amares,Braga,Norte,-8.419753,41.612982,Resolução/Conclusão
25801264,Vila Nova de Cacela,Algarve,313,2025-08-07T12:43:00Z,25801264,Em Resolução/Conclusão,3103,Incêndio rural,0,5,0,14,2025-08-07T12:43:00Z,Vila Real De Santo António,Faro,Algarve,-7.52378,37.18119,Resolução/Conclusão
25801363,Mascarenhas,Terras de Trás-os-Montes,309,2025-08-07T13:05:00Z,25801363,Em Resolução/Conclusão,3103,Incêndio rural,0,3,0,10,2025-08-07T13:05:00Z,Mirandela,Bragança,Norte,-7.168512,41.544897,Resolução/Conclusão
25801784,Vila Flor e Nabo,Terras de Trás-os-Montes,309,2025-08-07T14:20:00Z,25801784,Em Curso,3103,Incêndio rural,2,27,0,103,2025-08-07T14:20:00Z,Vila Flor,Bragança,Norte,-7.152188,41.313323,Curso
25802066,Recarei,Area M. Porto,309,2025-08-07T15:04:00Z,25802066,Em Despacho,3103,Incêndio rural,1,5,0,29,2025-08-07T15:04:00Z,Paredes,Porto,Norte,-8.425517,41.14901,Despacho
