id,address,subregion,neighborhood,date,id.1,state,nature,nature_description,aerial_means,terrestrial_means,aquatic_means,operational,date.1,Concelho,Distrito,NUTII_DSG,longitude,latitude
24877003,Malagueira e Horta Das Figueiras,Alentejo Central,312,2025-01-27T11:41:00Z,24877003,Em conclusão,3315,Inundação de estruturas por precipitação intensa,0,0,0,0,2025-01-27T11:41:00Z,Évora,Évora,Alentejo,-7.924277,38.57285
24894317,Charneca de Caparica e Sobreda,Península de Setúbal,311,2025-01-30T20:35:00Z,24894317,Em despacho,3301,Queda de árvore,0,0,0,0,2025-01-30T20:35:00Z,Almada,Setúbal,Área Metropolitana De Lisboa,-9.190193,38.591584
24851780,"São Miguel, Santa Eufémia e Rabaçal",Região de Coimbra,310,2025-01-21T23:25:00Z,24851780,Em curso,3315,Inundação de estruturas por precipitação intensa,0,0,0,0,2025-01-21T23:25:00Z,Penela,Coimbra,Centro,-8.399036,40.025502
24893477,Areosa,Alto Minho,309,2025-01-30T17:10:00Z,24893477,Em curso,3315,Inundação de estruturas por precipitação intensa,0,0,0,0,2025-01-30T17:10:00Z,Viana Do Castelo,Viana Do Castelo,Norte,-8.841057,41.722906
24894346,Caldas da Rainha - Santo Onofre e Serra do Bouro,Oeste,311,2025-01-30T20:52:00Z,24894346,Em despacho,3301,Queda de árvore,0,2,0,4,2025-01-30T20:52:00Z,Caldas Da Rainha,Leiria,Centro,-9.148929,39.401713
