id,address,subregion,neighborhood,date,id.1,state,nature,nature_description,aerial_means,terrestrial_means,aquatic_means,operational,date.1,Concelho,Distrito,NUTII_DSG,longitude,latitude
25299151,Apúlia e Fão,Cávado,309,2025-04-28T13:40:00Z,25299151,Em despacho,3317,Inundação de estruturas por água canalizada,0,1,0,2,2025-04-28T13:40:00Z,Esposende,Braga,Norte,-8.76808,41.49454
25071496,São Manços e São Vicente do Pigeiro,Alentejo Central,312,2025-03-11T13:18:00Z,25071496,Em conclusão,1101,Cheia,0,0,0,0,2025-03-11T13:18:00Z,Évora,Évora,Alentejo,-7.713313,38.513673
25299172,Sé e São Lourenço,Alto Alentejo,312,2025-04-28T13:43:00Z,25299172,Em despacho,3317,Inundação de estruturas por água canalizada,0,1,0,4,2025-04-28T13:43:00Z,Portalegre,Portalegre,Alentejo,-7.4259829999999996,39.295933
25298391,Tavarede,Região de Coimbra,310,2025-04-28T11:15:00Z,25298391,Em despacho,3301,Queda de árvore,0,1,0,2,2025-04-28T11:15:00Z,Figueira Da Foz,Coimbra,Centro,-8.853871,40.165854
25298859,Ílhavo (São Salvador),Região de Aveiro,310,2025-04-28T12:44:00Z,25298859,Em curso,3317,Inundação de estruturas por água canalizada,0,1,0,5,2025-04-28T12:44:00Z,Ílhavo,Aveiro,Centro,-8.699143,40.613385
25299336,Rio de Loba,Viseu Dão Lafões,310,2025-04-28T14:07:00Z,25299336,Em despacho,3317,Inundação de estruturas por água canalizada,0,1,0,2,2025-04-28T14:07:00Z,Viseu,Viseu,Centro,-7.877682,40.665827
25299352,Caldas da Rainha - Santo Onofre e Serra do Bouro,Oeste,311,2025-04-28T14:12:00Z,25299352,Em despacho,3317,Inundação de estruturas por água canalizada,0,1,0,2,2025-04-28T14:12:00Z,Caldas Da Rainha,Leiria,Centro,-9.148929,39.401713
25299470,Alcochete,Península de Setúbal,311,2025-04-28T14:14:00Z,25299470,Em despacho,3317,Inundação de estruturas por água canalizada,0,1,0,4,2025-04-28T14:14:00Z,Alcochete,Setúbal,Área Metropolitana De Lisboa,-8.962464,38.749259
25299253,Malagueira e Horta Das Figueiras,Alentejo Central,312,2025-04-28T13:20:00Z,25299253,Em despacho,3317,Inundação de estruturas por água canalizada,0,1,0,2,2025-04-28T13:20:00Z,Évora,Évora,Alentejo,-7.917338,38.579056
25299307,"Vila Chã, Codal e Vila Cova de Perrinho",Area M. Porto,309,2025-04-28T14:00:00Z,25299307,Em despacho,3317,Inundação de estruturas por água canalizada,0,1,0,2,2025-04-28T14:00:00Z,Vale De Cambra,Aveiro,Norte,-8.401157,40.855797
