id,address,subregion,neighborhood,date,id.1,state,nature,nature_description,aerial_means,terrestrial_means,aquatic_means,operational,date.1,Concelho,Distrito,NUTII_DSG,longitude,latitude
24650377,"Alto do Seixalinho, Santo André e Verderena",Península de Setúbal,311,2024-12-08T08:35:00Z,24650377,Em despacho,3329,Queda de estruturas temporárias ou móveis,0,0,0,0,2024-12-08T08:35:00Z,Barreiro,Setúbal,Área Metropolitana De Lisboa,-9.061632,38.64534
24651181,Monchique,Algarve,313,2024-12-08T11:34:00Z,24651181,Em resolução,3301,Queda de árvore,0,2,0,3,2024-12-08T11:34:00Z,Monchique,Faro,Algarve,-8.570482,37.264878
24651901,Agualva e Mira-Sintra,Grande Lisboa,311,2024-12-08T14:57:00Z,24651901,Em despacho,3329,Queda de estruturas temporárias ou móveis,0,1,0,4,2024-12-08T14:57:00Z,Sintra,Lisboa,Área Metropolitana De Lisboa,-9.28584,38.77344
24652003,Carvoeira,Grande Lisboa,311,2024-12-08T15:09:00Z,24652003,Em despacho,3321,Dano na rede de fornecimento de eletricidade ,0,1,0,2,2024-12-08T15:09:00Z,Mafra,Lisboa,Área Metropolitana De Lisboa,-9.413309,38.938846
24651855,Carcavelos e Parede,Grande Lisboa,311,2024-12-08T14:40:00Z,24651855,Em despacho,3301,Queda de árvore,0,1,0,3,2024-12-08T14:40:00Z,Cascais,Lisboa,Área Metropolitana De Lisboa,-9.337574,38.688343
24651989,Atouguia da Baleia,Oeste,311,2024-12-08T15:10:00Z,24651989,Em despacho,3301,Queda de árvore,0,1,0,3,2024-12-08T15:10:00Z,Peniche,Leiria,Centro,-9.349842,39.339438
24651998,Póvoa de Santa Iria e Forte da Casa,Grande Lisboa,311,2024-12-08T15:12:00Z,24651998,Em despacho,3301,Queda de árvore,0,1,0,2,2024-12-08T15:12:00Z,Vila Franca De Xira,Lisboa,Área Metropolitana De Lisboa,-9.080109,38.86006
