id,address,subregion,neighborhood,date,id.1,state,nature,nature_description,aerial_means,terrestrial_means,aquatic_means,operational,date.1,Concelho,Distrito,NUTII_DSG,longitude,latitude,state_2
26077114,Beja (Salvador e Santa Maria da Feira),Baixo Alentejo,312,2025-10-02T12:00:00Z,26077114,Em Despacho,3105,Incêndio rural,0,4,0,11,2025-10-02T12:00:00Z,Beja,Beja,Alentejo,-7.85522,38.015879,Despacho
26050704,Tortosendo,Beiras e Serra da Estrela,310,2025-09-26T23:04:00Z,26050704,Em Resolução/Conclusão,3103,Incêndio rural,0,1,0,4,2025-09-26T23:04:00Z,Covilhã,Castelo Branco,Centro,-7.521592,40.251592,Resolução/Conclusão
26073480,Alcanede,Lezíria do Tejo,311,2025-10-01T16:15:00Z,26073480,Em Resolução/Conclusão,3103,Incêndio rural,0,4,0,17,2025-10-01T16:15:00Z,Santarém,Santarém,Alentejo,-8.787427,39.400588,Resolução/Conclusão
26076481,Dornelas,Alto Tâmega e Barroso,309,2025-10-02T10:10:00Z,26076481,Em Resolução/Conclusão,3103,Incêndio rural,0,7,0,33,2025-10-02T10:10:00Z,Boticas,Vila Real,Norte,-7.843733,41.66854,Resolução/Conclusão
26077006,Covelas,Area M. Porto,309,2025-10-02T11:44:00Z,26077006,Em Despacho,3103,Incêndio rural,0,1,0,5,2025-10-02T11:44:00Z,Trofa,Porto,Norte,-8.543097,41.29342,Despacho
25951176,Sandomil,Beiras e Serra da Estrela,310,2025-09-06T10:29:00Z,25951176,Em Resolução/Conclusão,3103,Incêndio rural,0,1,0,5,2025-09-06T10:29:00Z,Seia,Guarda,Centro,-7.76001,40.351547,Resolução/Conclusão
26076851,"Cambeses do Rio, Donões e Mourilhe",Alto Tâmega e Barroso,309,2025-10-02T11:13:00Z,26076851,Em Despacho,3103,Incêndio rural,0,4,0,17,2025-10-02T11:13:00Z,Montalegre,Vila Real,Norte,-7.838146,41.846175,Despacho
26022995,Bordeira,Algarve,313,2025-09-21T12:21:00Z,26022995,Em Resolução/Conclusão,3103,Incêndio rural,0,5,0,15,2025-09-21T12:21:00Z,Aljezur,Faro,Algarve,-8.825374,37.23495,Resolução/Conclusão
26076844,Gulpilhares e Valadares,Area M. Porto,309,2025-10-02T11:04:00Z,26076844,Em Resolução/Conclusão,3103,Incêndio rural,0,1,0,5,2025-10-02T11:04:00Z,Vila Nova De Gaia,Porto,Norte,-8.637978,41.084091,Resolução/Conclusão
