id,address,subregion,neighborhood,date,id.1,state,nature,nature_description,aerial_means,terrestrial_means,aquatic_means,operational,date.1,Concelho,Distrito,NUTII_DSG,longitude,latitude
24850857,"Ovar, São João, Arada e São Vicente de Pereira Jusã",Região de Aveiro,310,2025-01-21T19:03:00Z,24850857,Em curso,3315,Inundação de estruturas por precipitação intensa,0,1,0,2,2025-01-21T19:03:00Z,Ovar,Aveiro,Centro,-8.62038,40.85895
24850864,Canelas,Area M. Porto,309,2025-01-21T18:55:00Z,24850864,Em despacho,3315,Inundação de estruturas por precipitação intensa,0,1,0,3,2025-01-21T18:55:00Z,Vila Nova De Gaia,Porto,Norte,-8.600638,41.079331
24850937,"Santa Maria da Feira, Travanca, Sanfins e Espargo",Area M. Porto,309,2025-01-21T19:20:00Z,24850937,Em despacho,3315,Inundação de estruturas por precipitação intensa,0,0,0,0,2025-01-21T19:20:00Z,Santa Maria Da Feira,Aveiro,Norte,-8.558349,40.92593
24850989,Lourosa,Area M. Porto,309,2025-01-21T19:20:00Z,24850989,Em despacho,3315,Inundação de estruturas por precipitação intensa,0,4,0,8,2025-01-21T19:20:00Z,Santa Maria Da Feira,Aveiro,Norte,-8.54384,40.98201
24850991,"Santa Maria da Feira, Travanca, Sanfins e Espargo",Area M. Porto,309,2025-01-21T19:32:00Z,24850991,Em despacho,3315,Inundação de estruturas por precipitação intensa,0,0,0,0,2025-01-21T19:32:00Z,Santa Maria Da Feira,Aveiro,Norte,-8.53693,40.93173
24851016,"Ovar, São João, Arada e São Vicente de Pereira Jusã",Região de Aveiro,310,2025-01-21T19:38:00Z,24851016,Em despacho,3315,Inundação de estruturas por precipitação intensa,0,1,0,1,2025-01-21T19:38:00Z,Ovar,Aveiro,Centro,-8.62922,40.86027
24850899,"Santa Maria da Feira, Travanca, Sanfins e Espargo",Area M. Porto,309,2025-01-21T19:11:00Z,24850899,Em despacho,3315,Inundação de estruturas por precipitação intensa,0,0,0,0,2025-01-21T19:11:00Z,Santa Maria Da Feira,Aveiro,Norte,-8.562675,40.92113
24851006,São João de Ver,Area M. Porto,309,2025-01-21T19:36:00Z,24851006,Em despacho,3315,Inundação de estruturas por precipitação intensa,0,0,0,0,2025-01-21T19:36:00Z,Santa Maria Da Feira,Aveiro,Norte,-8.55052,40.95168
24851056,"Santa Maria da Feira, Travanca, Sanfins e Espargo",Area M. Porto,309,2025-01-21T19:48:00Z,24851056,Em despacho,3301,Queda de árvore,0,0,0,0,2025-01-21T19:48:00Z,Santa Maria Da Feira,Aveiro,Norte,-8.57722,40.89764
24851074,São Brás de Alportel,Algarve,313,2025-01-21T19:47:00Z,24851074,Em curso,3315,Inundação de estruturas por precipitação intensa,0,1,0,5,2025-01-21T19:47:00Z,São Brás De Alportel,Faro,Algarve,-7.910162,37.158259
24851088,"Santa Maria da Feira, Travanca, Sanfins e Espargo",Area M. Porto,309,2025-01-21T19:59:00Z,24851088,Em despacho,3315,Inundação de estruturas por precipitação intensa,0,0,0,0,2025-01-21T19:59:00Z,Santa Maria Da Feira,Aveiro,Norte,-8.58146,40.91809
24851124,"Ovar, São João, Arada e São Vicente de Pereira Jusã",Região de Aveiro,310,2025-01-21T20:10:00Z,24851124,Em despacho,3315,Inundação de estruturas por precipitação intensa,0,0,0,0,2025-01-21T20:10:00Z,Ovar,Aveiro,Centro,-8.632482,40.864029
24851021,"Santa Maria da Feira, Travanca, Sanfins e Espargo",Area M. Porto,309,2025-01-21T19:39:00Z,24851021,Em despacho,3315,Inundação de estruturas por precipitação intensa,0,0,0,0,2025-01-21T19:39:00Z,Santa Maria Da Feira,Aveiro,Norte,-8.57222,40.90922
24851048,São João de Ver,Area M. Porto,309,2025-01-21T19:46:00Z,24851048,Em conclusão,3315,Inundação de estruturas por precipitação intensa,0,0,0,0,2025-01-21T19:46:00Z,Santa Maria Da Feira,Aveiro,Norte,-8.548254,40.94639
24851080,Fiães,Area M. Porto,309,2025-01-21T19:56:00Z,24851080,Em despacho,3313,Deslizamento de terras,0,0,0,0,2025-01-21T19:56:00Z,Santa Maria Da Feira,Aveiro,Norte,-8.51707,40.98689
24851146,Lourosa,Area M. Porto,309,2025-01-21T20:15:00Z,24851146,Em despacho,3315,Inundação de estruturas por precipitação intensa,0,0,0,0,2025-01-21T20:15:00Z,Santa Maria Da Feira,Aveiro,Norte,-8.53787,40.98959
24851307,Paranhos,Area M. Porto,309,2025-01-21T20:48:00Z,24851307,Em despacho,3315,Inundação de estruturas por precipitação intensa,0,1,0,5,2025-01-21T20:48:00Z,Porto,Porto,Norte,-8.607437,41.17569
24851355,Foz do Arelho,Oeste,311,2025-01-21T21:09:00Z,24851355,Em despacho,3315,Inundação de estruturas por precipitação intensa,0,1,0,2,2025-01-21T21:09:00Z,Caldas Da Rainha,Leiria,Centro,-9.207478,39.434512
24850909,"Ovar, São João, Arada e São Vicente de Pereira Jusã",Região de Aveiro,310,2025-01-21T19:13:00Z,24850909,Em curso,3315,Inundação de estruturas por precipitação intensa,0,1,0,1,2025-01-21T19:13:00Z,Ovar,Aveiro,Centro,-8.64249,40.86376
24851095,São João de Ver,Area M. Porto,309,2025-01-21T20:01:00Z,24851095,Em curso,3315,Inundação de estruturas por precipitação intensa,0,0,0,0,2025-01-21T20:01:00Z,Santa Maria Da Feira,Aveiro,Norte,-8.557357,40.94128
24851310,Esmoriz,Região de Aveiro,310,2025-01-21T20:49:00Z,24851310,Em despacho,3315,Inundação de estruturas por precipitação intensa,0,1,0,3,2025-01-21T20:49:00Z,Ovar,Aveiro,Centro,-8.637974,40.962156
24846892,Tavira (Santa Maria e Santiago),Algarve,313,2025-01-20T23:37:00Z,24846892,Em curso,3315,Inundação de estruturas por precipitação intensa,0,0,0,0,2025-01-20T23:37:00Z,Tavira,Faro,Algarve,-7.650217,37.141268
24850934,"Ovar, São João, Arada e São Vicente de Pereira Jusã",Região de Aveiro,310,2025-01-21T19:19:00Z,24850934,Em despacho,3315,Inundação de estruturas por precipitação intensa,0,1,0,4,2025-01-21T19:19:00Z,Ovar,Aveiro,Centro,-8.62968,40.86502
24850983,"Santa Maria da Feira, Travanca, Sanfins e Espargo",Area M. Porto,309,2025-01-21T19:31:00Z,24850983,Em despacho,3315,Inundação de estruturas por precipitação intensa,0,0,0,0,2025-01-21T19:31:00Z,Santa Maria Da Feira,Aveiro,Norte,-8.53669,40.93034
24851301,Arcozelo,Area M. Porto,309,2025-01-21T20:51:00Z,24851301,Em despacho,3315,Inundação de estruturas por precipitação intensa,0,1,0,2,2025-01-21T20:51:00Z,Vila Nova De Gaia,Porto,Norte,-8.640388,41.056331
24851303,Ramalde,Area M. Porto,309,2025-01-21T20:31:00Z,24851303,Em conclusão,3321,Dano na rede de fornecimento de eletricidade ,0,1,0,5,2025-01-21T20:31:00Z,Porto,Porto,Norte,-8.651472,41.168297
24851311,Penafiel,Tâmega e Sousa,309,2025-01-21T20:38:00Z,24851311,Em despacho,3315,Inundação de estruturas por precipitação intensa,0,1,0,3,2025-01-21T20:38:00Z,Penafiel,Porto,Norte,-8.273828,41.209
24851183,Maceda,Região de Aveiro,310,2025-01-21T20:25:00Z,24851183,Em despacho,1101,Cheia,0,1,0,2,2025-01-21T20:25:00Z,Ovar,Aveiro,Centro,-8.62472,40.92642
24851281,"Aldoar, Foz do Douro e Nevogilde",Area M. Porto,309,2025-01-21T20:44:00Z,24851281,Em despacho,3311,Queda de elementos de estruturas edificados,0,1,0,3,2025-01-21T20:44:00Z,Porto,Porto,Norte,-8.672794,41.152891
24851292,Penafiel,Tâmega e Sousa,309,2025-01-21T20:38:00Z,24851292,Em despacho,3315,Inundação de estruturas por precipitação intensa,0,1,0,2,2025-01-21T20:38:00Z,Penafiel,Porto,Norte,-8.292947,41.226083
24851322,Oliveira do Douro,Area M. Porto,309,2025-01-21T20:45:00Z,24851322,Em despacho,3315,Inundação de estruturas por precipitação intensa,0,1,0,3,2025-01-21T20:45:00Z,Vila Nova De Gaia,Porto,Norte,-8.58327,41.127164
