id,address,subregion,neighborhood,date,id.1,state,nature,nature_description,aerial_means,terrestrial_means,aquatic_means,operational,date.1,Concelho,Distrito,NUTII_DSG,longitude,latitude,state_2
25832672,Piódão,Região de Coimbra,310,2025-08-13T05:08:00Z,25832672,Em Resolução/Conclusão,3103,Incêndio rural,0,0,0,0,2025-08-13T05:08:00Z,Arganil,Coimbra,Centro,-7.81972,40.23083,Resolução/Conclusão
25984495,São Salvador da Aramenha,Alto Alentejo,312,2025-09-13T13:28:00Z,25984495,Em Resolução/Conclusão,3101,Incêndio rural,0,3,0,9,2025-09-13T13:28:00Z,Marvão,Portalegre,Alentejo,-7.39094,39.36988,Resolução/Conclusão
25989527,Arnóia,Tâmega e Sousa,309,2025-09-14T15:22:00Z,25989527,Em Resolução/Conclusão,3103,Incêndio rural,0,3,0,12,2025-09-14T15:22:00Z,Celorico De Basto,Braga,Norte,-8.006077,41.35945,Resolução/Conclusão
25989850,Povolide,Viseu Dão Lafões,310,2025-09-14T16:49:00Z,25989850,Em Resolução/Conclusão,3103,Incêndio rural,1,9,0,39,2025-09-14T16:49:00Z,Viseu,Viseu,Centro,-7.785413,40.67811,Resolução/Conclusão
25990061,Quiaios,Região de Coimbra,310,2025-09-14T17:48:00Z,25990061,Em Resolução/Conclusão,3101,Incêndio rural,1,6,0,30,2025-09-14T17:48:00Z,Figueira Da Foz,Coimbra,Centro,-8.82639,40.20972,Resolução/Conclusão
25980131,Carva e Vilares,Douro,309,2025-09-12T14:27:00Z,25980131,Em Resolução/Conclusão,3103,Incêndio rural,1,87,0,255,2025-09-12T14:27:00Z,Murça,Vila Real,Norte,-7.55901,41.401343,Resolução/Conclusão
25980930,Santo André Das Tojeiras,Beira Baixa,310,2025-09-12T17:08:00Z,25980930,Em Resolução/Conclusão,3101,Incêndio rural,0,5,0,17,2025-09-12T17:08:00Z,Castelo Branco,Castelo Branco,Centro,-7.72701,39.809058,Resolução/Conclusão
25988971,Vialonga,Grande Lisboa,311,2025-09-14T13:07:00Z,25988971,Em Resolução/Conclusão,3103,Incêndio rural,0,6,0,19,2025-09-14T13:07:00Z,Vila Franca De Xira,Lisboa,Área Metropolitana De Lisboa,-9.091665,38.862668,Resolução/Conclusão
25989487,Planalto de Monforte (Oucidres e Bobadela),Alto Tâmega e Barroso,309,2025-09-14T15:08:00Z,25989487,Em Resolução/Conclusão,3103,Incêndio rural,0,1,0,5,2025-09-14T15:08:00Z,Chaves,Vila Real,Norte,-7.317415,41.763295,Resolução/Conclusão
25990111,Santo André,Alto Tâmega e Barroso,309,2025-09-14T18:01:00Z,25990111,Em Despacho,3103,Incêndio rural,1,3,0,21,2025-09-14T18:01:00Z,Montalegre,Vila Real,Norte,-7.6676,41.86441,Despacho
25989592,Alfarela de Jales,Alto Tâmega e Barroso,309,2025-09-14T15:40:00Z,25989592,Em Resolução/Conclusão,3103,Incêndio rural,0,2,0,10,2025-09-14T15:40:00Z,Vila Pouca De Aguiar,Vila Real,Norte,-7.565322,41.454693,Resolução/Conclusão
25990103,Águas Frias,Alto Tâmega e Barroso,309,2025-09-14T17:59:00Z,25990103,Em Curso,3103,Incêndio rural,1,4,0,25,2025-09-14T17:59:00Z,Chaves,Vila Real,Norte,-7.362255,41.769246,Curso
25951176,Sandomil,Beiras e Serra da Estrela,310,2025-09-06T10:29:00Z,25951176,Em Resolução/Conclusão,3103,Incêndio rural,0,2,0,10,2025-09-06T10:29:00Z,Seia,Guarda,Centro,-7.76001,40.351547,Resolução/Conclusão
25989064,Vila de Rei,Beira Baixa,310,2025-09-14T13:32:00Z,25989064,Em Resolução/Conclusão,3101,Incêndio rural,0,39,0,126,2025-09-14T13:32:00Z,Vila De Rei,Castelo Branco,Centro,-8.152412,39.660802,Resolução/Conclusão
25989230,Constantim e Vale de Nogueiras,Douro,309,2025-09-14T14:04:00Z,25989230,Em Resolução/Conclusão,3103,Incêndio rural,0,0,0,0,2025-09-14T14:04:00Z,Vila Real,Vila Real,Norte,-7.695305,41.285477,Resolução/Conclusão
25989980,Pedroso e Seixezelo,Area M. Porto,309,2025-09-14T17:24:00Z,25989980,Em Resolução/Conclusão,3103,Incêndio rural,0,1,0,5,2025-09-14T17:24:00Z,Vila Nova De Gaia,Porto,Norte,-8.55728,41.067659,Resolução/Conclusão
