id,address,subregion,neighborhood,date,id.1,state,nature,nature_description,aerial_means,terrestrial_means,aquatic_means,operational,date.1,Concelho,Distrito,NUTII_DSG,longitude,latitude,state_2
25883011,Almofala,Viseu Dão Lafões,310,2025-08-22T17:00:00Z,25883011,Em Resolução/Conclusão,3103,Incêndio rural,0,1,0,2,2025-08-22T17:00:00Z,Castro Daire,Viseu,Centro,-7.767003,40.956183,Resolução/Conclusão
25887019,Pedrógão Grande,Região de Leiria,310,2025-08-23T14:27:00Z,25887019,Em Resolução/Conclusão,3101,Incêndio rural,0,31,0,100,2025-08-23T14:27:00Z,Pedrógão Grande,Leiria,Centro,-8.15364,39.9136,Resolução/Conclusão
25904703,Mexilhoeira Grande,Algarve,313,2025-08-27T09:44:00Z,25904703,Em Resolução/Conclusão,3103,Incêndio rural,0,9,0,27,2025-08-27T09:44:00Z,Portimão,Faro,Algarve,-8.610917,37.241295,Resolução/Conclusão
25906157,Campelo e Ovil,Tâmega e Sousa,309,2025-08-27T14:16:00Z,25906157,Em Resolução/Conclusão,3103,Incêndio rural,0,1,0,5,2025-08-27T14:16:00Z,Baião,Porto,Norte,-8.049897,41.169292,Resolução/Conclusão
25906248,Monte Córdova,Area M. Porto,309,2025-08-27T14:32:00Z,25906248,Em Resolução/Conclusão,3103,Incêndio rural,0,2,0,6,2025-08-27T14:32:00Z,Santo Tirso,Porto,Norte,-8.410577,41.317882,Resolução/Conclusão
25906355,Caçarilhe e Infesta,Tâmega e Sousa,309,2025-08-27T14:53:00Z,25906355,Em Resolução/Conclusão,3103,Incêndio rural,0,7,0,25,2025-08-27T14:53:00Z,Celorico De Basto,Braga,Norte,-8.03357,41.420303,Resolução/Conclusão
25846480,Sabugal e Aldeia de Santo António,Beiras e Serra da Estrela,310,2025-08-15T14:41:00Z,25846480,Em Resolução/Conclusão,3103,Incêndio rural,0,11,0,33,2025-08-15T14:41:00Z,Sabugal,Guarda,Centro,-7.125037,40.34023,Resolução/Conclusão
25891770,São Martinho de Antas e Paradela de Guiães,Douro,309,2025-08-24T15:06:00Z,25891770,Em Resolução/Conclusão,3101,Incêndio rural,0,8,0,28,2025-08-24T15:06:00Z,Sabrosa,Vila Real,Norte,-7.640418,41.23664,Resolução/Conclusão
25906360,Ferreira,Tâmega e Sousa,309,2025-08-27T14:45:00Z,25906360,Em Resolução/Conclusão,3103,Incêndio rural,0,3,0,8,2025-08-27T14:45:00Z,Paços De Ferreira,Porto,Norte,-8.350322,41.264706,Resolução/Conclusão
25906395,"Nossa Senhora do Pópulo, Coto e São Gregório",Oeste,311,2025-08-27T14:57:00Z,25906395,Em Resolução/Conclusão,3103,Incêndio rural,0,14,0,55,2025-08-27T14:57:00Z,Caldas Da Rainha,Leiria,Centro,-9.115143,39.384792,Resolução/Conclusão
25906562,Vilela,Area M. Porto,309,2025-08-27T15:30:00Z,25906562,Em Despacho,3111,Queima,0,1,0,5,2025-08-27T15:30:00Z,Paredes,Porto,Norte,-8.381106,41.242851,Despacho
25906500,Beduído e Veiros,Região de Aveiro,310,2025-08-27T15:22:00Z,25906500,Em Resolução/Conclusão,3101,Incêndio rural,0,7,0,25,2025-08-27T15:22:00Z,Estarreja,Aveiro,Centro,-8.533697,40.763657,Resolução/Conclusão
25906523,Picão e Ermida,Viseu Dão Lafões,310,2025-08-27T15:26:00Z,25906523,Em Curso,3103,Incêndio rural,7,21,0,105,2025-08-27T15:26:00Z,Castro Daire,Viseu,Centro,-7.9416079999999996,40.947432,Curso
25906548,Sanguedo,Area M. Porto,309,2025-08-27T15:27:00Z,25906548,Em Resolução/Conclusão,3101,Incêndio rural,0,1,0,5,2025-08-27T15:27:00Z,Santa Maria Da Feira,Aveiro,Norte,-8.52108,41.015033,Resolução/Conclusão
25906576,"Caia, São Pedro e Alcáçova",Alto Alentejo,312,2025-08-27T15:38:00Z,25906576,Em Resolução/Conclusão,3105,Incêndio rural,0,2,0,9,2025-08-27T15:38:00Z,Elvas,Portalegre,Alentejo,-7.140758,38.890405,Resolução/Conclusão
25906593,Carreira e Bente,Ave,309,2025-08-27T15:44:00Z,25906593,Em Resolução/Conclusão,3103,Incêndio rural,0,2,0,8,2025-08-27T15:44:00Z,Vila Nova De Famalicão,Braga,Norte,-8.455627,41.384875,Resolução/Conclusão
25906729,Moreira do Rei e Várzea Cova,Ave,309,2025-08-27T16:13:00Z,25906729,Em Despacho,3103,Incêndio rural,2,3,0,27,2025-08-27T16:13:00Z,Fafe,Braga,Norte,-8.079458,41.50581,Despacho
25906743,Cristelo,Area M. Porto,309,2025-08-27T16:06:00Z,25906743,Em Curso,3103,Incêndio rural,0,1,0,5,2025-08-27T16:06:00Z,Paredes,Porto,Norte,-8.358551,41.228673,Curso
25813482,Freches e Torres,Beiras e Serra da Estrela,310,2025-08-09T16:21:00Z,25813482,Em Resolução/Conclusão,3103,Incêndio rural,0,1,0,5,2025-08-09T16:21:00Z,Trancoso,Guarda,Centro,-7.363745,40.709022,Resolução/Conclusão
25832250,Ferreira de Aves,Viseu Dão Lafões,310,2025-08-13T00:03:00Z,25832250,Em Resolução/Conclusão,3103,Incêndio rural,0,1,0,2,2025-08-13T00:03:00Z,Sátão,Viseu,Centro,-7.647793,40.79568,Resolução/Conclusão
25836309,Cinfães,Tâmega e Sousa,309,2025-08-13T18:17:00Z,25836309,Em Resolução/Conclusão,3103,Incêndio rural,0,1,0,2,2025-08-13T18:17:00Z,Cinfães,Viseu,Norte,-8.071502,41.049757,Resolução/Conclusão
25851721,Arnóia,Tâmega e Sousa,309,2025-08-16T14:24:00Z,25851721,Em Resolução/Conclusão,3103,Incêndio rural,0,0,0,0,2025-08-16T14:24:00Z,Celorico De Basto,Braga,Norte,-7.994469,41.369836,Resolução/Conclusão
25905699,Vila Boa de Quires e Maureles,Tâmega e Sousa,309,2025-08-27T12:53:00Z,25905699,Em Resolução/Conclusão,3103,Incêndio rural,0,2,0,10,2025-08-27T12:53:00Z,Marco De Canaveses,Porto,Norte,-8.21569,41.197735,Resolução/Conclusão
25906185,Rossas,Ave,309,2025-08-27T14:20:00Z,25906185,Em Resolução/Conclusão,3103,Incêndio rural,0,4,0,17,2025-08-27T14:20:00Z,Vieira Do Minho,Braga,Norte,-8.123105,41.59202,Resolução/Conclusão
25906787,"Margaride (Santa Eulália), Várzea, Lagares, Varziela e Moure",Tâmega e Sousa,309,2025-08-27T16:08:00Z,25906787,Em Despacho,3103,Incêndio rural,0,1,0,5,2025-08-27T16:08:00Z,Felgueiras,Porto,Norte,-8.208433,41.365733,Despacho
25832672,Piódão,Região de Coimbra,310,2025-08-13T05:08:00Z,25832672,Em Resolução/Conclusão,3103,Incêndio rural,0,96,0,299,2025-08-13T05:08:00Z,Arganil,Coimbra,Centro,-7.81972,40.23083,Resolução/Conclusão
25840417,Lousã e Vilarinho,Região de Coimbra,310,2025-08-14T13:46:00Z,25840417,Em Resolução/Conclusão,3101,Incêndio rural,0,2,0,6,2025-08-14T13:46:00Z,Lousã,Coimbra,Centro,-8.201561,40.080016,Resolução/Conclusão
25897250,Viade de Baixo e Fervidelas,Alto Tâmega e Barroso,309,2025-08-25T17:20:00Z,25897250,Em Resolução/Conclusão,3103,Incêndio rural,0,8,0,30,2025-08-25T17:20:00Z,Montalegre,Vila Real,Norte,-7.860477,41.725298,Resolução/Conclusão
25898107,Mondrões,Douro,309,2025-08-25T20:46:00Z,25898107,Em Resolução/Conclusão,3103,Incêndio rural,0,4,0,19,2025-08-25T20:46:00Z,Vila Real,Vila Real,Norte,-7.804065,41.318255,Resolução/Conclusão
25901717,Vale,Alto Minho,309,2025-08-26T15:32:00Z,25901717,Em Resolução/Conclusão,3103,Incêndio rural,0,29,0,81,2025-08-26T15:32:00Z,Arcos De Valdevez,Viana Do Castelo,Norte,-8.345968,41.863728,Resolução/Conclusão
25905965,Ruivães e Campos,Ave,309,2025-08-27T13:44:00Z,25905965,Em Resolução/Conclusão,3103,Incêndio rural,0,5,0,19,2025-08-27T13:44:00Z,Vieira Do Minho,Braga,Norte,-8.05119,41.672205,Resolução/Conclusão
25906449,Caldas da Rainha - Santo Onofre e Serra do Bouro,Oeste,311,2025-08-27T15:10:00Z,25906449,Em Resolução/Conclusão,3101,Incêndio rural,0,2,0,10,2025-08-27T15:10:00Z,Caldas Da Rainha,Leiria,Centro,-9.184142,39.46151,Resolução/Conclusão
25906481,Quinta do Anjo,Península de Setúbal,311,2025-08-27T15:17:00Z,25906481,Em Resolução/Conclusão,3103,Incêndio rural,0,4,0,15,2025-08-27T15:17:00Z,Palmela,Setúbal,Área Metropolitana De Lisboa,-8.97477,38.55216,Resolução/Conclusão
25906774,Paço de Sousa,Tâmega e Sousa,309,2025-08-27T16:20:00Z,25906774,Em Despacho,3103,Incêndio rural,0,1,0,5,2025-08-27T16:20:00Z,Penafiel,Porto,Norte,-8.360695,41.16168,Despacho
