id,address,subregion,neighborhood,date,id.1,state,nature,nature_description,aerial_means,terrestrial_means,aquatic_means,operational,date.1,Concelho,Distrito,NUTII_DSG,longitude,latitude
25518656,Silva Escura e Dornelas,Região de Aveiro,310,2025-06-13T09:33:00Z,25518656,Em conclusão,3101,Incêndio rural,1,3,0,17,2025-06-13T09:33:00Z,Sever Do Vouga,Aveiro,Centro,-8.38983,40.75377
25518481,Pedroso e Seixezelo,Area M. Porto,309,2025-06-13T09:01:00Z,25518481,Em curso,3101,Incêndio rural,0,1,0,5,2025-06-13T09:01:00Z,Vila Nova De Gaia,Porto,Norte,-8.57219,41.06896
25518666,Pedreiras,Região de Leiria,310,2025-06-13T09:35:00Z,25518666,Em resolução,2101,Incêndio em edifícios habitacionais,0,4,0,11,2025-06-13T09:35:00Z,Porto De Mós,Leiria,Centro,-8.860405,39.586323
25518759,Loulé (São Clemente),Algarve,313,2025-06-13T09:51:00Z,25518759,Em curso,3103,Incêndio rural,0,4,0,17,2025-06-13T09:51:00Z,Loulé,Faro,Algarve,-8.018267,37.137687
25518777,Vilar de Andorinho,Area M. Porto,309,2025-06-13T09:54:00Z,25518777,Em despacho,3103,Incêndio rural,0,0,0,0,2025-06-13T09:54:00Z,Vila Nova De Gaia,Porto,Norte,-8.574142,41.09242
