id,address,subregion,neighborhood,date,id.1,state,nature,nature_description,aerial_means,terrestrial_means,aquatic_means,operational,date.1,Concelho,Distrito,NUTII_DSG,longitude,latitude,state_2
25710988,Campo,Viseu Dão Lafões,310,2025-07-21T12:53:00Z,25710988,Em Resolução/Conclusão,3103,Incêndio rural,0,1,0,2,2025-07-21T12:53:00Z,Viseu,Viseu,Centro,-7.945827,40.702132,Resolução/Conclusão
25711397,Vale da Pedra,Lezíria do Tejo,311,2025-07-21T14:16:00Z,25711397,Em Despacho,3103,Incêndio rural,1,11,0,47,2025-07-21T14:16:00Z,Cartaxo,Santarém,Alentejo,-8.77634,39.11787,Despacho
25708284,Bogas de Cima,Beiras e Serra da Estrela,310,2025-07-20T21:26:00Z,25708284,Em Resolução/Conclusão,3103,Incêndio rural,0,1,0,5,2025-07-20T21:26:00Z,Fundão,Castelo Branco,Centro,-7.707703,40.064562,Resolução/Conclusão
25711277,Lavegadas,Região de Coimbra,310,2025-07-21T13:52:00Z,25711277,Em Resolução/Conclusão,3105,Incêndio rural,0,10,0,43,2025-07-21T13:52:00Z,Vila Nova De Poiares,Coimbra,Centro,-8.201218,40.238473,Resolução/Conclusão
25711376,Valongo do Vouga,Região de Aveiro,310,2025-07-21T14:10:00Z,25711376,Em Curso,3105,Incêndio rural,0,3,0,12,2025-07-21T14:10:00Z,Águeda,Aveiro,Centro,-8.452226,40.624239,Curso
25711475,Vimieiro,Alentejo Central,312,2025-07-21T14:29:00Z,25711475,Em Despacho,3103,Incêndio rural,0,0,0,0,2025-07-21T14:29:00Z,Arraiolos,Évora,Alentejo,-7.80118,38.82367,Despacho
