id,address,subregion,neighborhood,date,id.1,state,nature,nature_description,aerial_means,terrestrial_means,aquatic_means,operational,date.1,Concelho,Distrito,NUTII_DSG,longitude,latitude,state_2
25775263,Torgueda,Douro,309,2025-08-02T19:49:00Z,25775263,Em Resolução/Conclusão,3101,Incêndio rural,0,6,0,19,2025-08-02T19:49:00Z,Vila Real,Vila Real,Norte,-7.785983,41.274952,Resolução/Conclusão
25785466,Caçarilhe e Infesta,Tâmega e Sousa,309,2025-08-04T16:48:00Z,25785466,Em Resolução/Conclusão,3103,Incêndio rural,0,0,0,0,2025-08-04T16:48:00Z,Celorico De Basto,Braga,Norte,-8.035342,41.42903,Resolução/Conclusão
25800301,Alvão,Alto Tâmega e Barroso,309,2025-08-07T10:03:00Z,25800301,Em Resolução/Conclusão,3103,Incêndio rural,0,8,0,32,2025-08-07T10:03:00Z,Vila Pouca De Aguiar,Vila Real,Norte,-7.74157,41.466742000000004,Resolução/Conclusão
25802248,Graça,Região de Leiria,310,2025-08-07T15:30:00Z,25802248,Em Resolução/Conclusão,3101,Incêndio rural,0,1,0,2,2025-08-07T15:30:00Z,Pedrógão Grande,Leiria,Centro,-8.217915,39.911242,Resolução/Conclusão
25803707,Almofala e Escarigo,Beiras e Serra da Estrela,310,2025-08-07T20:50:00Z,25803707,Em Resolução/Conclusão,3103,Incêndio rural,1,27,0,89,2025-08-07T20:50:00Z,Figueira De Castelo Rodrigo,Guarda,Centro,-6.847203,40.887165,Resolução/Conclusão
25807426,Alvite,Douro,309,2025-08-08T14:31:00Z,25807426,Em Curso,3103,Incêndio rural,4,137,0,448,2025-08-08T14:31:00Z,Moimenta Da Beira,Viseu,Norte,-7.688727,40.96613,Curso
25812238,Vilar Seco de Lomba,Terras de Trás-os-Montes,309,2025-08-09T12:17:00Z,25812238,Em Resolução/Conclusão,3103,Incêndio rural,0,3,0,9,2025-08-09T12:17:00Z,Vinhais,Bragança,Norte,-7.1475,41.91306,Resolução/Conclusão
25812374,"Ardegão, Arnozela e Seidões",Ave,309,2025-08-09T12:49:00Z,25812374,Em Resolução/Conclusão,3103,Incêndio rural,0,1,0,5,2025-08-09T12:49:00Z,Fafe,Braga,Norte,-8.117422,41.392087,Resolução/Conclusão
25812717,Abrunhosa-a-Velha,Viseu Dão Lafões,310,2025-08-09T12:50:00Z,25812717,Em Resolução/Conclusão,3103,Incêndio rural,0,6,0,19,2025-08-09T12:50:00Z,Mangualde,Viseu,Centro,-7.63944,40.578608,Resolução/Conclusão
25785983,Caçarilhe e Infesta,Tâmega e Sousa,309,2025-08-04T18:22:00Z,25785983,Em Resolução/Conclusão,3103,Incêndio rural,0,9,0,26,2025-08-04T18:22:00Z,Celorico De Basto,Braga,Norte,-8.04611,41.419858,Resolução/Conclusão
25792058,Cibões e Brufe,Cávado,309,2025-08-05T19:10:00Z,25792058,Em Resolução/Conclusão,3103,Incêndio rural,0,1,0,5,2025-08-05T19:10:00Z,Terras De Bouro,Braga,Norte,-8.293932,41.764918,Resolução/Conclusão
25807250,Nave de Haver,Beiras e Serra da Estrela,310,2025-08-08T14:05:00Z,25807250,Em Resolução/Conclusão,3103,Incêndio rural,0,1,0,2,2025-08-08T14:05:00Z,Almeida,Guarda,Centro,-6.839848,40.52156,Resolução/Conclusão
25812089,Travanca de Lagos,Região de Coimbra,310,2025-08-09T11:48:00Z,25812089,Em Resolução/Conclusão,3103,Incêndio rural,0,1,0,2,2025-08-09T11:48:00Z,Oliveira Do Hospital,Coimbra,Centro,-7.930184,40.408717,Resolução/Conclusão
25812641,Vilar de Andorinho,Area M. Porto,309,2025-08-09T13:42:00Z,25812641,Em Resolução/Conclusão,3103,Incêndio rural,0,1,0,5,2025-08-09T13:42:00Z,Vila Nova De Gaia,Porto,Norte,-8.57738,41.09507,Resolução/Conclusão
25812718,São Jorge e Ermelo,Alto Minho,309,2025-08-09T13:56:00Z,25812718,Em Curso,3103,Incêndio rural,1,11,0,46,2025-08-09T13:56:00Z,Arcos De Valdevez,Viana Do Castelo,Norte,-8.37006,41.818575,Curso
25812999,Campo e Sobrado,Area M. Porto,309,2025-08-09T14:47:00Z,25812999,Em Resolução/Conclusão,3103,Incêndio rural,0,3,0,15,2025-08-09T14:47:00Z,Valongo,Porto,Norte,-8.44951,41.19998,Resolução/Conclusão
25813069,Alcaide,Beiras e Serra da Estrela,310,2025-08-09T15:04:00Z,25813069,Em Curso,3103,Incêndio rural,3,13,0,76,2025-08-09T15:04:00Z,Fundão,Castelo Branco,Centro,-7.438316,40.13168,Curso
25813094,Duas Igrejas,Area M. Porto,309,2025-08-09T15:09:00Z,25813094,Em Despacho,3103,Incêndio rural,1,1,0,11,2025-08-09T15:09:00Z,Paredes,Porto,Norte,-8.376281,41.228302,Despacho
25776263,"Pena, Quintã e Vila Cova",Douro,309,2025-08-02T23:45:00Z,25776263,Em Curso,3103,Incêndio rural,3,34,0,128,2025-08-02T23:45:00Z,Vila Real,Vila Real,Norte,-7.811902,41.317355,Curso
25783717,Cunha Baixa,Viseu Dão Lafões,310,2025-08-04T11:48:00Z,25783717,Em Resolução/Conclusão,3101,Incêndio rural,0,1,0,2,2025-08-04T11:48:00Z,Mangualde,Viseu,Centro,-7.764411,40.559738,Resolução/Conclusão
25785204,Ribas,Tâmega e Sousa,309,2025-08-04T16:03:00Z,25785204,Em Resolução/Conclusão,3103,Incêndio rural,0,0,0,0,2025-08-04T16:03:00Z,Celorico De Basto,Braga,Norte,-8.022547,41.449583,Resolução/Conclusão
25787860,Faíl e Vila Chã de Sá,Viseu Dão Lafões,310,2025-08-05T05:55:00Z,25787860,Em Resolução/Conclusão,3103,Incêndio rural,0,1,0,5,2025-08-05T05:55:00Z,Viseu,Viseu,Centro,-7.987877,40.601342,Resolução/Conclusão
25802450,Canas de Santa Maria,Viseu Dão Lafões,310,2025-08-07T16:14:00Z,25802450,Em Resolução/Conclusão,3103,Incêndio rural,0,2,0,7,2025-08-07T16:14:00Z,Tondela,Viseu,Centro,-8.032777,40.56017,Resolução/Conclusão
25808770,Pindo,Viseu Dão Lafões,310,2025-08-08T18:52:00Z,25808770,Em Resolução/Conclusão,3103,Incêndio rural,0,1,0,5,2025-08-08T18:52:00Z,Penalva Do Castelo,Viseu,Centro,-7.763725,40.674402,Resolução/Conclusão
25808937,Abrunhosa-a-Velha,Viseu Dão Lafões,310,2025-08-08T19:26:00Z,25808937,Em Resolução/Conclusão,3103,Incêndio rural,0,0,0,0,2025-08-08T19:26:00Z,Mangualde,Viseu,Centro,-7.647667,40.572515,Resolução/Conclusão
25812245,Rego,Tâmega e Sousa,309,2025-08-09T12:18:00Z,25812245,Em Resolução/Conclusão,3103,Incêndio rural,0,1,0,5,2025-08-09T12:18:00Z,Celorico De Basto,Braga,Norte,-8.093663,41.440515,Resolução/Conclusão
25812713,Bustelo,Tâmega e Sousa,309,2025-08-09T13:56:00Z,25812713,Em Resolução/Conclusão,3103,Incêndio rural,0,1,0,5,2025-08-09T13:56:00Z,Penafiel,Porto,Norte,-8.274282,41.22961,Resolução/Conclusão
25812846,São João Das Lampas e Terrugem,Grande Lisboa,311,2025-08-09T14:20:00Z,25812846,Em Resolução/Conclusão,3103,Incêndio rural,0,6,0,21,2025-08-09T14:20:00Z,Sintra,Lisboa,Área Metropolitana De Lisboa,-9.365279,38.842202,Resolução/Conclusão
25773830,Andrães,Douro,309,2025-08-02T14:23:00Z,25773830,Em Resolução/Conclusão,3103,Incêndio rural,0,2,0,10,2025-08-02T14:23:00Z,Vila Real,Vila Real,Norte,-7.671293,41.267593,Resolução/Conclusão
25774883,Arnóia,Tâmega e Sousa,309,2025-08-02T18:20:00Z,25774883,Em Resolução/Conclusão,3103,Incêndio rural,0,4,0,10,2025-08-02T18:20:00Z,Celorico De Basto,Braga,Norte,-7.998983,41.348727,Resolução/Conclusão
25804968,Alvadia,Alto Tâmega e Barroso,309,2025-08-08T07:21:00Z,25804968,Em Curso,3103,Incêndio rural,1,66,0,199,2025-08-08T07:21:00Z,Ribeira De Pena,Vila Real,Norte,-7.782872,41.457452,Curso
25811853,Campelo e Ovil,Tâmega e Sousa,309,2025-08-09T11:10:00Z,25811853,Em Resolução/Conclusão,3103,Incêndio rural,0,1,0,5,2025-08-09T11:10:00Z,Baião,Porto,Norte,-7.988475,41.19308,Resolução/Conclusão
25812569,Vilela,Area M. Porto,309,2025-08-09T13:28:00Z,25812569,Em Resolução/Conclusão,3103,Incêndio rural,0,4,0,14,2025-08-09T13:28:00Z,Paredes,Porto,Norte,-8.394093,41.234692,Resolução/Conclusão
25812848,Valdreu,Cávado,309,2025-08-09T14:21:00Z,25812848,Em Curso,3103,Incêndio rural,1,10,0,43,2025-08-09T14:21:00Z,Vila Verde,Braga,Norte,-8.333892,41.725233,Curso
25812877,Macieira de Sarnes,Area M. Porto,309,2025-08-09T14:25:00Z,25812877,Em Resolução/Conclusão,3103,Incêndio rural,0,4,0,17,2025-08-09T14:25:00Z,Oliveira De Azeméis,Aveiro,Norte,-8.451827,40.915657,Resolução/Conclusão
25813128,Anjos e Vilar do Chão,Ave,309,2025-08-09T15:15:00Z,25813128,Em Despacho,3103,Incêndio rural,2,0,0,2,2025-08-09T15:15:00Z,Vieira Do Minho,Braga,Norte,-8.06865,41.616567,Despacho
25812769,Vila Boa de Quires e Maureles,Tâmega e Sousa,309,2025-08-09T14:02:00Z,25812769,Em Resolução/Conclusão,3103,Incêndio rural,0,1,0,5,2025-08-09T14:02:00Z,Marco De Canaveses,Porto,Norte,-8.210318,41.180415000000004,Resolução/Conclusão
25812787,Duas Igrejas,Tâmega e Sousa,309,2025-08-09T14:09:00Z,25812787,Em Resolução/Conclusão,3103,Incêndio rural,0,2,0,8,2025-08-09T14:09:00Z,Penafiel,Porto,Norte,-8.269748,41.19633,Resolução/Conclusão
25812953,Santa Cruz do Douro e São Tomé de Covelas,Tâmega e Sousa,309,2025-08-09T14:37:00Z,25812953,Em Resolução/Conclusão,3103,Incêndio rural,0,2,0,10,2025-08-09T14:37:00Z,Baião,Porto,Norte,-7.98177,41.123097,Resolução/Conclusão
25812987,Este (São Pedro e São Mamede),Cávado,309,2025-08-09T14:43:00Z,25812987,Em Curso,3103,Incêndio rural,1,9,0,40,2025-08-09T14:43:00Z,Braga,Braga,Norte,-8.356951,41.570113,Curso
