id,address,subregion,neighborhood,date,id.1,state,nature,nature_description,aerial_means,terrestrial_means,aquatic_means,operational,date.1,Concelho,Distrito,NUTII_DSG,longitude,latitude,state_2
25775263,Torgueda,Douro,309,2025-08-02T19:49:00Z,25775263,Em Resolução/Conclusão,3101,Incêndio rural,0,5,0,14,2025-08-02T19:49:00Z,Vila Real,Vila Real,Norte,-7.785983,41.274952,Resolução/Conclusão
25807426,Alvite,Douro,309,2025-08-08T14:31:00Z,25807426,Em Resolução/Conclusão,3103,Incêndio rural,0,20,0,79,2025-08-08T14:31:00Z,Moimenta Da Beira,Viseu,Norte,-7.688727,40.96613,Resolução/Conclusão
25826678,Landal,Oeste,311,2025-08-12T00:07:00Z,25826678,Em Resolução/Conclusão,3101,Incêndio rural,0,1,0,2,2025-08-12T00:07:00Z,Caldas Da Rainha,Leiria,Centro,-9.020722,39.295158,Resolução/Conclusão
25829740,NA,NA,0,2025-08-12T14:44:00Z,25829740,Em Curso,3103,Incêndio rural,0,5,0,11,2025-08-12T14:44:00Z,NA,NA,NA,-7.03798,42.004282,Curso
25830104,Campo,Viseu Dão Lafões,310,2025-08-12T15:50:00Z,25830104,Em Resolução/Conclusão,3103,Incêndio rural,0,0,0,0,2025-08-12T15:50:00Z,Viseu,Viseu,Centro,-7.924696,40.705094,Resolução/Conclusão
25831149,NA,NA,0,2025-08-12T19:25:00Z,25831149,Em Curso,3103,Incêndio rural,0,3,0,11,2025-08-12T19:25:00Z,NA,NA,NA,-7.487895,41.872966,Curso
25832101,Penha Garcia,Beira Baixa,310,2025-08-12T23:12:00Z,25832101,Em Resolução/Conclusão,3101,Incêndio rural,0,1,0,5,2025-08-12T23:12:00Z,Idanha-a-Nova,Castelo Branco,Centro,-6.988078,39.984595,Resolução/Conclusão
25832119,Santo André,Alto Tâmega e Barroso,309,2025-08-12T23:18:00Z,25832119,Em Despacho,3103,Incêndio rural,0,1,0,5,2025-08-12T23:18:00Z,Montalegre,Vila Real,Norte,-7.697299,41.89729,Despacho
25832160,Muro,Area M. Porto,309,2025-08-12T23:30:00Z,25832160,Em Resolução/Conclusão,3103,Incêndio rural,0,5,0,21,2025-08-12T23:30:00Z,Trofa,Porto,Norte,-8.573092,41.299035,Resolução/Conclusão
25832185,Santa Bárbara de Nexe,Algarve,313,2025-08-12T23:42:00Z,25832185,Em Resolução/Conclusão,3103,Incêndio rural,0,2,0,7,2025-08-12T23:42:00Z,Faro,Faro,Algarve,-7.986814,37.106116,Resolução/Conclusão
25832203,Quadrazais,Beiras e Serra da Estrela,310,2025-08-12T23:47:00Z,25832203,Em Resolução/Conclusão,3103,Incêndio rural,0,3,0,8,2025-08-12T23:47:00Z,Sabugal,Guarda,Centro,-6.879887,40.339228,Resolução/Conclusão
25832246,Fernão Ferro,Península de Setúbal,311,2025-08-13T00:01:00Z,25832246,Em Resolução/Conclusão,3103,Incêndio rural,0,1,0,5,2025-08-13T00:01:00Z,Seixal,Setúbal,Área Metropolitana De Lisboa,-9.10073,38.55454,Resolução/Conclusão
25832269,Loivos da Ribeira e Tresouras,Tâmega e Sousa,309,2025-08-13T00:09:00Z,25832269,Em Resolução/Conclusão,3103,Incêndio rural,0,5,0,22,2025-08-13T00:09:00Z,Baião,Porto,Norte,-7.90393,41.146545,Resolução/Conclusão
25832280,"S.maria, S.miguel, S.martinho, S.pedro Penaferrim",Grande Lisboa,311,2025-08-13T00:16:00Z,25832280,Em Resolução/Conclusão,3103,Incêndio rural,0,2,0,10,2025-08-13T00:16:00Z,Sintra,Lisboa,Área Metropolitana De Lisboa,-9.39512,38.79308,Resolução/Conclusão
25773830,Andrães,Douro,309,2025-08-02T14:23:00Z,25773830,Em Resolução/Conclusão,3103,Incêndio rural,0,0,0,0,2025-08-02T14:23:00Z,Vila Real,Vila Real,Norte,-7.671293,41.267593,Resolução/Conclusão
25774883,Arnóia,Tâmega e Sousa,309,2025-08-02T18:20:00Z,25774883,Em Resolução/Conclusão,3103,Incêndio rural,0,2,0,6,2025-08-02T18:20:00Z,Celorico De Basto,Braga,Norte,-7.998983,41.348727,Resolução/Conclusão
25804968,Alvadia,Alto Tâmega e Barroso,309,2025-08-08T07:21:00Z,25804968,Em Resolução/Conclusão,3103,Incêndio rural,0,2,0,7,2025-08-08T07:21:00Z,Ribeira De Pena,Vila Real,Norte,-7.782872,41.457452,Resolução/Conclusão
25818455,Sobral de São Miguel,Beiras e Serra da Estrela,310,2025-08-10T15:02:00Z,25818455,Em Resolução/Conclusão,3103,Incêndio rural,0,93,0,273,2025-08-10T15:02:00Z,Covilhã,Castelo Branco,Centro,-7.77307,40.200173,Resolução/Conclusão
25830417,Sezures,Viseu Dão Lafões,310,2025-08-12T16:50:00Z,25830417,Em Resolução/Conclusão,3101,Incêndio rural,0,1,0,5,2025-08-12T16:50:00Z,Penalva Do Castelo,Viseu,Centro,-7.601704,40.72072,Resolução/Conclusão
25831856,Rio Torto e Lagarinhos,Beiras e Serra da Estrela,310,2025-08-12T22:04:00Z,25831856,Em Resolução/Conclusão,3103,Incêndio rural,0,2,0,7,2025-08-12T22:04:00Z,Gouveia,Guarda,Centro,-7.650592,40.498292,Resolução/Conclusão
25831922,Penha Garcia,Beira Baixa,310,2025-08-12T22:20:00Z,25831922,Em Resolução/Conclusão,3101,Incêndio rural,0,1,0,5,2025-08-12T22:20:00Z,Idanha-a-Nova,Castelo Branco,Centro,-6.96794,40.004117,Resolução/Conclusão
25776263,"Pena, Quintã e Vila Cova",Douro,309,2025-08-02T23:45:00Z,25776263,Em Curso,3103,Incêndio rural,0,164,0,502,2025-08-02T23:45:00Z,Vila Real,Vila Real,Norte,-7.811902,41.317355,Curso
25813482,Freches e Torres,Beiras e Serra da Estrela,310,2025-08-09T16:21:00Z,25813482,Em Curso,3103,Incêndio rural,0,175,0,516,2025-08-09T16:21:00Z,Trancoso,Guarda,Centro,-7.363745,40.709022,Curso
25824945,Povolide,Viseu Dão Lafões,310,2025-08-11T17:17:00Z,25824945,Em Resolução/Conclusão,3103,Incêndio rural,0,0,0,0,2025-08-11T17:17:00Z,Viseu,Viseu,Centro,-7.79583,40.660003,Resolução/Conclusão
25830279,"Pena, Quintã e Vila Cova",Douro,309,2025-08-12T16:21:00Z,25830279,Em Resolução/Conclusão,3103,Incêndio rural,0,3,0,10,2025-08-12T16:21:00Z,Vila Real,Vila Real,Norte,-7.86331,41.318053,Resolução/Conclusão
25830378,Ermidas-Sado,Alentejo Litoral,312,2025-08-12T16:42:00Z,25830378,Em Curso,3101,Incêndio rural,0,118,0,338,2025-08-12T16:42:00Z,Santiago Do Cacém,Setúbal,Alentejo,-8.404102,38.056457,Curso
25830513,Pelariga,Região de Leiria,310,2025-08-12T17:10:00Z,25830513,Em Resolução/Conclusão,3101,Incêndio rural,0,1,0,1,2025-08-12T17:10:00Z,Pombal,Leiria,Centro,-8.622348,39.986015,Resolução/Conclusão
25830630,Safara e Santo Aleixo da Restauração,Baixo Alentejo,312,2025-08-12T17:24:00Z,25830630,Em Resolução/Conclusão,3103,Incêndio rural,0,10,0,25,2025-08-12T17:24:00Z,Moura,Beja,Alentejo,-7.089277,38.059982,Resolução/Conclusão
25830830,Podence e Santa Combinha,Terras de Trás-os-Montes,309,2025-08-12T18:14:00Z,25830830,Em Resolução/Conclusão,3103,Incêndio rural,0,8,0,21,2025-08-12T18:14:00Z,Macedo De Cavaleiros,Bragança,Norte,-6.926542,41.595166999999996,Resolução/Conclusão
25831562,Monfortinho e Salvaterra do Extremo,Beira Baixa,310,2025-08-12T20:58:00Z,25831562,Em Resolução/Conclusão,3103,Incêndio rural,0,0,0,0,2025-08-12T20:58:00Z,Idanha-a-Nova,Castelo Branco,Centro,-6.928086,40.003347,Resolução/Conclusão
25831615,Idanha-a-Nova e Alcafozes,Beira Baixa,310,2025-08-12T21:08:00Z,25831615,Em Resolução/Conclusão,3105,Incêndio rural,0,13,0,48,2025-08-12T21:08:00Z,Idanha-a-Nova,Castelo Branco,Centro,-7.229203,39.886423,Resolução/Conclusão
25831649,Penha Garcia,Beira Baixa,310,2025-08-12T21:16:00Z,25831649,Em Resolução/Conclusão,3103,Incêndio rural,0,1,0,5,2025-08-12T21:16:00Z,Idanha-a-Nova,Castelo Branco,Centro,-6.957398,40.01665,Resolução/Conclusão
25785983,Caçarilhe e Infesta,Tâmega e Sousa,309,2025-08-04T18:22:00Z,25785983,Em Resolução/Conclusão,3103,Incêndio rural,0,2,0,6,2025-08-04T18:22:00Z,Celorico De Basto,Braga,Norte,-8.04611,41.419858,Resolução/Conclusão
25792058,Cibões e Brufe,Cávado,309,2025-08-05T19:10:00Z,25792058,Em Resolução/Conclusão,3103,Incêndio rural,0,1,0,5,2025-08-05T19:10:00Z,Terras De Bouro,Braga,Norte,-8.293932,41.764918,Resolução/Conclusão
25820422,Távora e Pereiro,Douro,309,2025-08-10T22:27:00Z,25820422,Em Curso,3103,Incêndio rural,0,78,0,236,2025-08-10T22:27:00Z,Tabuaço,Viseu,Norte,-7.55556,41.097602,Curso
25822776,Santos Evos,Viseu Dão Lafões,310,2025-08-11T11:05:00Z,25822776,Em Resolução/Conclusão,3103,Incêndio rural,0,1,0,5,2025-08-11T11:05:00Z,Viseu,Viseu,Centro,-7.810218,40.667813,Resolução/Conclusão
25830257,Vila Alva,Baixo Alentejo,312,2025-08-12T16:21:00Z,25830257,Em Curso,3103,Incêndio rural,0,49,0,129,2025-08-12T16:21:00Z,Cuba,Beja,Alentejo,-7.870563,38.233373,Curso
25831032,Mértola,Baixo Alentejo,312,2025-08-12T18:59:00Z,25831032,Em Resolução/Conclusão,3105,Incêndio rural,0,2,0,6,2025-08-12T18:59:00Z,Mértola,Beja,Alentejo,-7.606915,37.703309,Resolução/Conclusão
25831834,Odeleite,Algarve,313,2025-08-12T21:55:00Z,25831834,Em Resolução/Conclusão,3103,Incêndio rural,0,3,0,12,2025-08-12T21:55:00Z,Castro Marim,Faro,Algarve,-7.604195,37.285238,Resolução/Conclusão
25831936,Tortosendo,Beiras e Serra da Estrela,310,2025-08-12T22:24:00Z,25831936,Em Resolução/Conclusão,3103,Incêndio rural,0,27,0,95,2025-08-12T22:24:00Z,Covilhã,Castelo Branco,Centro,-7.528427,40.250968,Resolução/Conclusão
25831679,Monsanto e Idanha-a-Velha,Beira Baixa,310,2025-08-12T21:21:00Z,25831679,Em Resolução/Conclusão,3103,Incêndio rural,0,8,0,23,2025-08-12T21:21:00Z,Idanha-a-Nova,Castelo Branco,Centro,-7.143792,40.013767,Resolução/Conclusão
25831698,Cendufe,Alto Minho,309,2025-08-12T21:25:00Z,25831698,Em Curso,3103,Incêndio rural,0,10,0,36,2025-08-12T21:25:00Z,Arcos De Valdevez,Viana Do Castelo,Norte,-8.504462,41.817677,Curso
25831815,Póvoa de Rio de Moinhos e Cafede,Beira Baixa,310,2025-08-12T21:50:00Z,25831815,Em Resolução/Conclusão,3103,Incêndio rural,0,5,0,15,2025-08-12T21:50:00Z,Castelo Branco,Castelo Branco,Centro,-7.523551,39.938656,Resolução/Conclusão
25832098,Felgar e Souto da Velha,Douro,309,2025-08-12T23:13:00Z,25832098,Em Resolução/Conclusão,3105,Incêndio rural,0,9,0,28,2025-08-12T23:13:00Z,Torre De Moncorvo,Bragança,Norte,-6.962427,41.20965,Resolução/Conclusão
25832165,"Seixal, Arrentela e Aldeia de Paio Pires",Península de Setúbal,311,2025-08-12T23:32:00Z,25832165,Em Resolução/Conclusão,3103,Incêndio rural,0,1,0,3,2025-08-12T23:32:00Z,Seixal,Setúbal,Área Metropolitana De Lisboa,-9.076367,38.602489,Resolução/Conclusão
25832250,Ferreira de Aves,Viseu Dão Lafões,310,2025-08-13T00:03:00Z,25832250,Em Curso,3103,Incêndio rural,0,11,0,36,2025-08-13T00:03:00Z,Sátão,Viseu,Centro,-7.669943,40.779545,Curso
25832168,Monsanto e Idanha-a-Velha,Beira Baixa,310,2025-08-12T23:34:00Z,25832168,Em Resolução/Conclusão,3105,Incêndio rural,0,5,0,15,2025-08-12T23:34:00Z,Idanha-a-Nova,Castelo Branco,Centro,-7.132077,40.02465,Resolução/Conclusão
25832227,Tortosendo,Beiras e Serra da Estrela,310,2025-08-12T23:55:00Z,25832227,Em Resolução/Conclusão,3103,Incêndio rural,0,2,0,6,2025-08-12T23:55:00Z,Covilhã,Castelo Branco,Centro,-7.528593,40.247367,Resolução/Conclusão
25832238,São Paio,Beiras e Serra da Estrela,310,2025-08-12T23:57:00Z,25832238,Em Resolução/Conclusão,3103,Incêndio rural,0,2,0,7,2025-08-12T23:57:00Z,Gouveia,Guarda,Centro,-7.57647,40.529672,Resolução/Conclusão
