id,address,subregion,neighborhood,date,id.1,state,nature,nature_description,aerial_means,terrestrial_means,aquatic_means,operational,date.1,Concelho,Distrito,NUTII_DSG,longitude,latitude
25298391,Tavarede,Região de Coimbra,310,2025-04-28T11:15:00Z,25298391,Em despacho,3301,Queda de árvore,0,1,0,2,2025-04-28T11:15:00Z,Figueira Da Foz,Coimbra,Centro,-8.853871,40.165854
25298859,Ílhavo (São Salvador),Região de Aveiro,310,2025-04-28T12:44:00Z,25298859,Em conclusão,3317,Inundação de estruturas por água canalizada,0,1,0,5,2025-04-28T12:44:00Z,Ílhavo,Aveiro,Centro,-8.699143,40.613385
25299352,Caldas da Rainha - Santo Onofre e Serra do Bouro,Oeste,311,2025-04-28T14:12:00Z,25299352,Em despacho,3317,Inundação de estruturas por água canalizada,0,1,0,2,2025-04-28T14:12:00Z,Caldas Da Rainha,Leiria,Centro,-9.148929,39.401713
25299470,Alcochete,Península de Setúbal,311,2025-04-28T14:14:00Z,25299470,Em despacho,3317,Inundação de estruturas por água canalizada,0,1,0,4,2025-04-28T14:14:00Z,Alcochete,Setúbal,Área Metropolitana De Lisboa,-8.962464,38.749259
25299661,"Ovar, São João, Arada e São Vicente de Pereira Jusã",Região de Aveiro,310,2025-04-28T15:00:00Z,25299661,Em resolução,3317,Inundação de estruturas por água canalizada,0,1,0,2,2025-04-28T15:00:00Z,Ovar,Aveiro,Centro,-8.632482,40.864029
25299818,"Caia, São Pedro e Alcáçova",Alto Alentejo,312,2025-04-28T15:24:00Z,25299818,Em conclusão,3301,Queda de árvore,0,1,0,2,2025-04-28T15:24:00Z,Elvas,Portalegre,Alentejo,-7.169645,38.882464
25299954,Santo António Dos Cavaleiros e Frielas,Grande Lisboa,311,2025-04-28T15:57:00Z,25299954,Em despacho,3329,Queda de estruturas temporárias ou móveis,0,0,0,0,2025-04-28T15:57:00Z,Loures,Lisboa,Área Metropolitana De Lisboa,-9.16947,38.80989
25299986,Peniche,Oeste,311,2025-04-28T15:58:00Z,25299986,Em despacho,3321,Dano na rede de fornecimento de eletricidade ,0,1,0,1,2025-04-28T15:58:00Z,Peniche,Leiria,Centro,-9.376833,39.357166
25299815,Serzedo e Perosinho,Area M. Porto,309,2025-04-28T15:32:00Z,25299815,Em resolução,3317,Inundação de estruturas por água canalizada,0,1,0,3,2025-04-28T15:32:00Z,Vila Nova De Gaia,Porto,Norte,-8.6093,41.04811
25299494,Manhente,Cávado,309,2025-04-28T14:15:00Z,25299494,Em despacho,3317,Inundação de estruturas por água canalizada,0,1,0,2,2025-04-28T14:15:00Z,Barcelos,Braga,Norte,-8.572773,41.546535
25299528,Bougado (São Martinho e Santiago),Area M. Porto,309,2025-04-28T14:12:00Z,25299528,Em despacho,3317,Inundação de estruturas por água canalizada,0,1,0,3,2025-04-28T14:12:00Z,Trofa,Porto,Norte,-8.58713,41.340548
25299760,Mina de Água,Grande Lisboa,311,2025-04-28T15:23:00Z,25299760,Em despacho,3317,Inundação de estruturas por água canalizada,0,1,0,2,2025-04-28T15:23:00Z,Amadora,Lisboa,Área Metropolitana De Lisboa,-9.23582,38.78175
25300147,Canelas,Area M. Porto,309,2025-04-28T15:40:00Z,25300147,Em despacho,3317,Inundação de estruturas por água canalizada,0,1,0,3,2025-04-28T15:40:00Z,Vila Nova De Gaia,Porto,Norte,-8.599603,41.079376
25071496,São Manços e São Vicente do Pigeiro,Alentejo Central,312,2025-03-11T13:18:00Z,25071496,Em conclusão,1101,Cheia,0,0,0,0,2025-03-11T13:18:00Z,Évora,Évora,Alentejo,-7.713313,38.513673
25299253,Malagueira e Horta Das Figueiras,Alentejo Central,312,2025-04-28T13:20:00Z,25299253,Em despacho,3317,Inundação de estruturas por água canalizada,0,1,0,2,2025-04-28T13:20:00Z,Évora,Évora,Alentejo,-7.917338,38.579056
25299890,Abraveses,Viseu Dão Lafões,310,2025-04-28T15:39:00Z,25299890,Em despacho,3317,Inundação de estruturas por água canalizada,0,1,0,2,2025-04-28T15:39:00Z,Viseu,Viseu,Centro,-7.908379,40.681199
25299956,Ramada e Caneças,Grande Lisboa,311,2025-04-28T15:50:00Z,25299956,Em curso,3317,Inundação de estruturas por água canalizada,0,1,0,4,2025-04-28T15:50:00Z,Odivelas,Lisboa,Área Metropolitana De Lisboa,-9.224517,38.811058
25300059,Carrazedo de Montenegro e Curros,Alto Tâmega e Barroso,309,2025-04-28T16:03:00Z,25300059,Em despacho,3317,Inundação de estruturas por água canalizada,0,1,0,4,2025-04-28T16:03:00Z,Valpaços,Vila Real,Norte,-7.425841,41.563476
25300160,Carcavelos e Parede,Grande Lisboa,311,2025-04-28T15:10:00Z,25300160,Em despacho,3317,Inundação de estruturas por água canalizada,0,1,0,2,2025-04-28T15:10:00Z,Cascais,Lisboa,Área Metropolitana De Lisboa,-9.36428,38.704278
25300185,Moita,Região de Aveiro,310,2025-04-28T16:25:00Z,25300185,Em curso,3317,Inundação de estruturas por água canalizada,0,1,0,2,2025-04-28T16:25:00Z,Anadia,Aveiro,Centro,-8.427725,40.427989
25300231,Vialonga,Grande Lisboa,311,2025-04-28T16:30:00Z,25300231,Em despacho,3317,Inundação de estruturas por água canalizada,0,1,0,3,2025-04-28T16:30:00Z,Vila Franca De Xira,Lisboa,Área Metropolitana De Lisboa,-9.087262,38.878017
25300223,Mira,Região de Coimbra,310,2025-04-28T12:29:00Z,25300223,Em curso,3317,Inundação de estruturas por água canalizada,0,0,0,0,2025-04-28T12:29:00Z,Mira,Coimbra,Centro,-8.734102,40.4268
25300258,Apúlia e Fão,Cávado,309,2025-04-28T16:41:00Z,25300258,Em despacho,3317,Inundação de estruturas por água canalizada,0,2,0,4,2025-04-28T16:41:00Z,Esposende,Braga,Norte,-8.76808,41.49454
