id,address,subregion,neighborhood,date,id.1,state,nature,nature_description,aerial_means,terrestrial_means,aquatic_means,operational,date.1,Concelho,Distrito,NUTII_DSG,longitude,latitude,state_2
25641154,Urra,Alto Alentejo,312,2025-07-07T12:29:00Z,25641154,Em Resolução/Conclusão,3101,Incêndio rural,0,9,0,29,2025-07-07T12:29:00Z,Portalegre,Portalegre,Alentejo,-7.46314,39.23684,Resolução/Conclusão
25644630,Recezinhos (São Mamede),Tâmega e Sousa,309,2025-07-08T04:33:00Z,25644630,Em Resolução/Conclusão,3103,Incêndio rural,0,6,0,18,2025-07-08T04:33:00Z,Penafiel,Porto,Norte,-8.216673,41.2387,Resolução/Conclusão
25644846,Castêlo da Maia,Area M. Porto,309,2025-07-08T07:09:00Z,25644846,Em Resolução/Conclusão,3101,Incêndio rural,0,3,0,9,2025-07-08T07:09:00Z,Maia,Porto,Norte,-8.639653,41.276835,Resolução/Conclusão
25645343,"Lobão, Gião, Louredo e Guisande",Area M. Porto,309,2025-07-08T09:06:00Z,25645343,Em Resolução/Conclusão,3103,Incêndio rural,0,2,0,7,2025-07-08T09:06:00Z,Santa Maria Da Feira,Aveiro,Norte,-8.448798,40.964302000000004,Resolução/Conclusão
25645409,"N.s. Conceição, S. Brás Matos, Juromenha",Alentejo Central,312,2025-07-08T09:22:00Z,25645409,Em Curso,3103,Incêndio rural,6,55,0,174,2025-07-08T09:22:00Z,Alandroal,Évora,Alentejo,-7.4021,38.67416,Curso
25646277,Talhinhas e Bagueixe,Terras de Trás-os-Montes,309,2025-07-08T11:44:00Z,25646277,Em Curso,3103,Incêndio rural,3,12,0,46,2025-07-08T11:44:00Z,Macedo De Cavaleiros,Bragança,Norte,-6.758352,41.539552,Curso
25646352,São Marcos da Ataboeira,Baixo Alentejo,312,2025-07-08T11:56:00Z,25646352,Em Curso,3105,Incêndio rural,0,15,0,40,2025-07-08T11:56:00Z,Castro Verde,Beja,Alentejo,-7.912954,37.747521,Curso
25646420,"Aboim, Felgueiras, Gontim e Pedraído",Ave,309,2025-07-08T12:18:00Z,25646420,Em Curso,3103,Incêndio rural,2,2,0,22,2025-07-08T12:18:00Z,Fafe,Braga,Norte,-8.093587,41.53258,Curso
25646452,Fiães,Area M. Porto,309,2025-07-08T12:21:00Z,25646452,Em Despacho,3103,Incêndio rural,1,3,0,21,2025-07-08T12:21:00Z,Santa Maria Da Feira,Aveiro,Norte,-8.51591,40.99384,Despacho
25641261,"Crato e Mártires, Flor da Rosa e Vale do Peso",Alto Alentejo,312,2025-07-07T12:51:00Z,25641261,Em Resolução/Conclusão,3105,Incêndio rural,0,1,0,4,2025-07-07T12:51:00Z,Crato,Portalegre,Alentejo,-7.558015,39.310169,Resolução/Conclusão
25644550,Lomba,Area M. Porto,309,2025-07-08T03:03:00Z,25644550,Em Resolução/Conclusão,3103,Incêndio rural,0,4,0,14,2025-07-08T03:03:00Z,Gondomar,Porto,Norte,-8.406343,41.033605,Resolução/Conclusão
25644819,Penafiel,Tâmega e Sousa,309,2025-07-08T06:45:00Z,25644819,Em Resolução/Conclusão,3103,Incêndio rural,0,1,0,2,2025-07-08T06:45:00Z,Penafiel,Porto,Norte,-8.280964,41.200887,Resolução/Conclusão
25646023,Astromil,Area M. Porto,309,2025-07-08T10:50:00Z,25646023,Em Resolução/Conclusão,3103,Incêndio rural,0,4,0,17,2025-07-08T10:50:00Z,Paredes,Porto,Norte,-8.424297,41.196585,Resolução/Conclusão
25644760,Soalhães,Tâmega e Sousa,309,2025-07-08T06:34:00Z,25644760,Em Resolução/Conclusão,3103,Incêndio rural,0,1,0,5,2025-07-08T06:34:00Z,Marco De Canaveses,Porto,Norte,-8.081728,41.158313,Resolução/Conclusão
25646097,Carvalhal Benfeito,Oeste,311,2025-07-08T11:10:00Z,25646097,Em Resolução/Conclusão,3103,Incêndio rural,0,7,0,26,2025-07-08T11:10:00Z,Caldas Da Rainha,Leiria,Centro,-9.04503,39.458178,Resolução/Conclusão
25646366,Regilde,Tâmega e Sousa,309,2025-07-08T12:03:00Z,25646366,Em Despacho,3105,Incêndio rural,0,1,0,5,2025-07-08T12:03:00Z,Felgueiras,Porto,Norte,-8.276897,41.367823,Despacho
25646433,Poiares,Alto Minho,309,2025-07-08T12:15:00Z,25646433,Em Resolução/Conclusão,3103,Incêndio rural,0,2,0,4,2025-07-08T12:15:00Z,Ponte De Lima,Viana Do Castelo,Norte,-8.630928,41.664155,Resolução/Conclusão
25642652,São Teotónio,Alentejo Litoral,312,2025-07-07T17:18:00Z,25642652,Em Resolução/Conclusão,3101,Incêndio rural,0,12,0,30,2025-07-07T17:18:00Z,Odemira,Beja,Alentejo,-8.590532,37.422208,Resolução/Conclusão
25644640,Lustosa e Barrosas (Santo Estêvão),Tâmega e Sousa,309,2025-07-08T04:44:00Z,25644640,Em Resolução/Conclusão,3103,Incêndio rural,0,1,0,5,2025-07-08T04:44:00Z,Lousada,Porto,Norte,-8.320393,41.34515,Resolução/Conclusão
25644672,Pedrógão Grande,Região de Leiria,310,2025-07-08T05:25:00Z,25644672,Em Resolução/Conclusão,3101,Incêndio rural,0,1,0,2,2025-07-08T05:25:00Z,Pedrógão Grande,Leiria,Centro,-8.177475,39.934117,Resolução/Conclusão
25644708,Vila Facaia,Região de Leiria,310,2025-07-08T05:53:00Z,25644708,Em Resolução/Conclusão,3101,Incêndio rural,0,4,0,14,2025-07-08T05:53:00Z,Pedrógão Grande,Leiria,Centro,-8.219692,39.940218,Resolução/Conclusão
25646244,Martim Longo,Algarve,313,2025-07-08T11:39:00Z,25646244,Em Resolução/Conclusão,3103,Incêndio rural,0,4,0,14,2025-07-08T11:39:00Z,Alcoutim,Faro,Algarve,-7.766255,37.440642,Resolução/Conclusão
25646326,Alfena,Area M. Porto,309,2025-07-08T11:55:00Z,25646326,Em Resolução/Conclusão,3103,Incêndio rural,1,3,0,19,2025-07-08T11:55:00Z,Valongo,Porto,Norte,-8.52722,41.226382,Resolução/Conclusão
25646204,Ribeirão,Ave,309,2025-07-08T11:30:00Z,25646204,Em Resolução/Conclusão,3105,Incêndio rural,0,2,0,7,2025-07-08T11:30:00Z,Vila Nova De Famalicão,Braga,Norte,-8.556505,41.347217,Resolução/Conclusão
25646494,"Camarate, Unhos e Apelação",Grande Lisboa,311,2025-07-08T12:32:00Z,25646494,Em Despacho,3101,Incêndio rural,0,0,0,0,2025-07-08T12:32:00Z,Loures,Lisboa,Área Metropolitana De Lisboa,-9.145055,38.79245,Despacho
