id,address,subregion,neighborhood,date,id.1,state,nature,nature_description,aerial_means,terrestrial_means,aquatic_means,operational,date.1,Concelho,Distrito,NUTII_DSG,longitude,latitude
25498041,Bodiosa,Viseu Dão Lafões,310,2025-06-08T23:55:00Z,25498041,Em resolução,3111,Queima,0,1,0,3,2025-06-08T23:55:00Z,Viseu,Viseu,Centro,-7.995132,40.720737
25498077,Faro (Sé e São Pedro),Algarve,313,2025-06-09T00:16:00Z,25498077,Em conclusão,3203,Detritos confinados,0,3,0,6,2025-06-09T00:16:00Z,Faro,Faro,Algarve,-7.9324,37.0122
25498086,Castelo Branco,Beira Baixa,310,2025-06-09T00:12:00Z,25498086,Em conclusão,2101,Incêndio em edifícios habitacionais,0,2,0,7,2025-06-09T00:12:00Z,Castelo Branco,Castelo Branco,Centro,-7.480825,39.814697
25495190,Peva e Segões,Douro,309,2025-06-08T11:17:00Z,25495190,Em conclusão,2127,"Incêndio em edifícios e recintos industriais, oficinas e armazéns",0,2,0,7,2025-06-08T11:17:00Z,Moimenta Da Beira,Viseu,Norte,-7.69063,40.890053
25498066,Pedroso e Seixezelo,Area M. Porto,309,2025-06-09T00:08:00Z,25498066,Em conclusão,2127,"Incêndio em edifícios e recintos industriais, oficinas e armazéns",0,5,0,15,2025-06-09T00:08:00Z,Vila Nova De Gaia,Porto,Norte,-8.538487,41.08813
25498100,"Nossa Senhora da Conceição, São Pedro e São Dinis",Douro,309,2025-06-09T00:26:00Z,25498100,Em curso,2201,Incêndio em equipamentos ou produtos,0,2,0,7,2025-06-09T00:26:00Z,Vila Real,Vila Real,Norte,-7.742072,41.306337
25498012,Freiriz,Cávado,309,2025-06-08T23:48:00Z,25498012,Em curso,3103,Incêndio rural,0,7,0,29,2025-06-08T23:48:00Z,Vila Verde,Braga,Norte,-8.502703,41.633588
