id,address,subregion,neighborhood,date,id.1,state,nature,nature_description,aerial_means,terrestrial_means,aquatic_means,operational,date.1,Concelho,Distrito,NUTII_DSG,longitude,latitude,state_2
25887019,Pedrógão Grande,Região de Leiria,310,2025-08-23T14:27:00Z,25887019,Em Resolução/Conclusão,3101,Incêndio rural,0,4,0,14,2025-08-23T14:27:00Z,Pedrógão Grande,Leiria,Centro,-8.15364,39.9136,Resolução/Conclusão
25922435,"Seia, São Romão e Lapa Dos Dinheiros",Beiras e Serra da Estrela,310,2025-08-31T00:28:00Z,25922435,Em Resolução/Conclusão,3103,Incêndio rural,0,1,0,5,2025-08-31T00:28:00Z,Seia,Guarda,Centro,-7.648788,40.376587,Resolução/Conclusão
25924405,Areias e Pias,Médio Tejo,311,2025-08-31T13:45:00Z,25924405,Em Resolução/Conclusão,3101,Incêndio rural,0,8,0,30,2025-08-31T13:45:00Z,Ferreira Do Zêzere,Santarém,Centro,-8.375693,39.744392,Resolução/Conclusão
25924564,Beja (Salvador e Santa Maria da Feira),Baixo Alentejo,312,2025-08-31T14:25:00Z,25924564,Em Resolução/Conclusão,3105,Incêndio rural,0,2,0,7,2025-08-31T14:25:00Z,Beja,Beja,Alentejo,-7.865047,38.029823,Resolução/Conclusão
25836309,Cinfães,Tâmega e Sousa,309,2025-08-13T18:17:00Z,25836309,Em Resolução/Conclusão,3103,Incêndio rural,0,1,0,2,2025-08-13T18:17:00Z,Cinfães,Viseu,Norte,-8.071502,41.049757,Resolução/Conclusão
25917734,São João da Pesqueira e Várzea de Trevões,Douro,309,2025-08-29T22:20:00Z,25917734,Em Resolução/Conclusão,3103,Incêndio rural,0,0,0,0,2025-08-29T22:20:00Z,São João Da Pesqueira,Viseu,Norte,-7.500588,41.084698,Resolução/Conclusão
25924069,Moncarapacho e Fuseta,Algarve,313,2025-08-31T12:15:00Z,25924069,Em Resolução/Conclusão,3103,Incêndio rural,0,1,0,2,2025-08-31T12:15:00Z,Olhão,Faro,Algarve,-7.805735,37.077937,Resolução/Conclusão
25924886,Vila da Ponte,Douro,309,2025-08-31T15:52:00Z,25924886,Em Resolução/Conclusão,3103,Incêndio rural,0,1,0,2,2025-08-31T15:52:00Z,Sernancelhe,Viseu,Norte,-7.498117,40.910199,Resolução/Conclusão
25832672,Piódão,Região de Coimbra,310,2025-08-13T05:08:00Z,25832672,Em Resolução/Conclusão,3103,Incêndio rural,0,18,0,52,2025-08-13T05:08:00Z,Arganil,Coimbra,Centro,-7.81972,40.23083,Resolução/Conclusão
25840417,Lousã e Vilarinho,Região de Coimbra,310,2025-08-14T13:46:00Z,25840417,Em Resolução/Conclusão,3101,Incêndio rural,0,1,0,1,2025-08-14T13:46:00Z,Lousã,Coimbra,Centro,-8.201561,40.080016,Resolução/Conclusão
25924958,Figueiras e Covas,Tâmega e Sousa,309,2025-08-31T15:51:00Z,25924958,Em Resolução/Conclusão,3103,Incêndio rural,0,1,0,5,2025-08-31T15:51:00Z,Lousada,Porto,Norte,-8.32884,41.286243,Resolução/Conclusão
25846480,Sabugal e Aldeia de Santo António,Beiras e Serra da Estrela,310,2025-08-15T14:41:00Z,25846480,Em Resolução/Conclusão,3103,Incêndio rural,0,4,0,15,2025-08-15T14:41:00Z,Sabugal,Guarda,Centro,-7.125037,40.34023,Resolução/Conclusão
25851895,Sortelha,Beiras e Serra da Estrela,310,2025-08-16T14:53:00Z,25851895,Em Resolução/Conclusão,3103,Incêndio rural,0,2,0,10,2025-08-16T14:53:00Z,Sabugal,Guarda,Centro,-7.254367,40.318488,Resolução/Conclusão
25910055,Rebordelo,Terras de Trás-os-Montes,309,2025-08-28T11:08:00Z,25910055,Em Resolução/Conclusão,3103,Incêndio rural,0,48,0,146,2025-08-28T11:08:00Z,Vinhais,Bragança,Norte,-7.134773,41.765422,Resolução/Conclusão
25924662,São Bartolomeu Dos Galegos e Moledo,Oeste,311,2025-08-31T14:54:00Z,25924662,Em Resolução/Conclusão,3105,Incêndio rural,0,3,0,8,2025-08-31T14:54:00Z,Lourinhã,Lisboa,Centro,-9.244416,39.273843,Resolução/Conclusão
25924861,"Canedo, Vale e Vila Maior",Area M. Porto,309,2025-08-31T15:40:00Z,25924861,Em Resolução/Conclusão,3103,Incêndio rural,0,3,0,15,2025-08-31T15:40:00Z,Santa Maria Da Feira,Aveiro,Norte,-8.44282,41.010572,Resolução/Conclusão
