id,address,subregion,neighborhood,date,id.1,state,nature,nature_description,aerial_means,terrestrial_means,aquatic_means,operational,date.1,Concelho,Distrito,NUTII_DSG,longitude,latitude
25553154,Pedrógão,Baixo Alentejo,312,2025-06-20T12:23:00Z,25553154,Em conclusão,3103,Incêndio rural,0,16,0,46,2025-06-20T12:23:00Z,Vidigueira,Beja,Alentejo,-7.549947,38.179912
25554773,Cativelos,Beiras e Serra da Estrela,310,2025-06-20T17:46:00Z,25554773,Em conclusão,3103,Incêndio rural,0,5,0,18,2025-06-20T17:46:00Z,Gouveia,Guarda,Centro,-7.702992,40.53306
25556627,Bougado (São Martinho e Santiago),Area M. Porto,309,2025-06-21T03:58:00Z,25556627,Em conclusão,2101,Incêndio em edifícios habitacionais,0,5,0,17,2025-06-21T03:58:00Z,Trofa,Porto,Norte,-8.561667,41.343032
25556744,Amoreira,Oeste,311,2025-06-21T05:38:00Z,25556744,Em conclusão,3107,Consolidação de rescaldo de incêndio rural,0,2,0,7,2025-06-21T05:38:00Z,Óbidos,Leiria,Centro,-9.20639,39.34722
25556902,Campanhã,Area M. Porto,309,2025-06-21T07:29:00Z,25556902,Em despacho,2129,Incêndio em edifícios degradados ou devolutos,0,4,0,17,2025-06-21T07:29:00Z,Porto,Porto,Norte,-8.588103,41.15625
