id,address,subregion,neighborhood,date,id.1,state,nature,nature_description,aerial_means,terrestrial_means,aquatic_means,operational,date.1,Concelho,Distrito,NUTII_DSG,longitude,latitude,state_2
25813482,Freches e Torres,Beiras e Serra da Estrela,310,2025-08-09T16:21:00Z,25813482,Em Resolução/Conclusão,3103,Incêndio rural,0,1,0,5,2025-08-09T16:21:00Z,Trancoso,Guarda,Centro,-7.363745,40.709022,Resolução/Conclusão
25832250,Ferreira de Aves,Viseu Dão Lafões,310,2025-08-13T00:03:00Z,25832250,Em Resolução/Conclusão,3103,Incêndio rural,0,1,0,2,2025-08-13T00:03:00Z,Sátão,Viseu,Centro,-7.647793,40.79568,Resolução/Conclusão
25836309,Cinfães,Tâmega e Sousa,309,2025-08-13T18:17:00Z,25836309,Em Resolução/Conclusão,3103,Incêndio rural,0,1,0,2,2025-08-13T18:17:00Z,Cinfães,Viseu,Norte,-8.071502,41.049757,Resolução/Conclusão
25851721,Arnóia,Tâmega e Sousa,309,2025-08-16T14:24:00Z,25851721,Em Resolução/Conclusão,3103,Incêndio rural,0,1,0,1,2025-08-16T14:24:00Z,Celorico De Basto,Braga,Norte,-7.994469,41.369836,Resolução/Conclusão
25891313,Cervães,Cávado,309,2025-08-24T13:23:00Z,25891313,Em Resolução/Conclusão,3103,Incêndio rural,0,1,0,3,2025-08-24T13:23:00Z,Vila Verde,Braga,Norte,-8.525457,41.612832,Resolução/Conclusão
25902089,Safara e Santo Aleixo da Restauração,Baixo Alentejo,312,2025-08-26T16:56:00Z,25902089,Em Resolução/Conclusão,3105,Incêndio rural,0,0,0,0,2025-08-26T16:56:00Z,Moura,Beja,Alentejo,-7.236252,38.128022,Resolução/Conclusão
25903527,Alcaria Ruiva,Baixo Alentejo,312,2025-08-26T23:39:00Z,25903527,Em Resolução/Conclusão,3103,Incêndio rural,0,4,0,17,2025-08-26T23:39:00Z,Mértola,Beja,Alentejo,-7.85308,37.75233,Resolução/Conclusão
25903545,Silva Escura e Dornelas,Região de Aveiro,310,2025-08-26T23:46:00Z,25903545,Em Resolução/Conclusão,3101,Incêndio rural,0,2,0,10,2025-08-26T23:46:00Z,Sever Do Vouga,Aveiro,Centro,-8.369307,40.781,Resolução/Conclusão
25846480,Sabugal e Aldeia de Santo António,Beiras e Serra da Estrela,310,2025-08-15T14:41:00Z,25846480,Em Resolução/Conclusão,3103,Incêndio rural,0,11,0,33,2025-08-15T14:41:00Z,Sabugal,Guarda,Centro,-7.125037,40.34023,Resolução/Conclusão
25891770,São Martinho de Antas e Paradela de Guiães,Douro,309,2025-08-24T15:06:00Z,25891770,Em Resolução/Conclusão,3101,Incêndio rural,0,9,0,31,2025-08-24T15:06:00Z,Sabrosa,Vila Real,Norte,-7.640418,41.23664,Resolução/Conclusão
25901832,Basto (São Clemente),Tâmega e Sousa,309,2025-08-26T15:55:00Z,25901832,Em Resolução/Conclusão,3103,Incêndio rural,0,2,0,7,2025-08-26T15:55:00Z,Celorico De Basto,Braga,Norte,-8.03586,41.462048,Resolução/Conclusão
25883011,Almofala,Viseu Dão Lafões,310,2025-08-22T17:00:00Z,25883011,Em Resolução/Conclusão,3103,Incêndio rural,0,1,0,2,2025-08-22T17:00:00Z,Castro Daire,Viseu,Centro,-7.767003,40.956183,Resolução/Conclusão
25887019,Pedrógão Grande,Região de Leiria,310,2025-08-23T14:27:00Z,25887019,Em Resolução/Conclusão,3101,Incêndio rural,0,31,0,101,2025-08-23T14:27:00Z,Pedrógão Grande,Leiria,Centro,-8.15364,39.9136,Resolução/Conclusão
25903281,Portela e Extremo,Alto Minho,309,2025-08-26T22:08:00Z,25903281,Em Resolução/Conclusão,3103,Incêndio rural,0,2,0,10,2025-08-26T22:08:00Z,Arcos De Valdevez,Viana Do Castelo,Norte,-8.452428,41.945738,Resolução/Conclusão
25903531,Silva Escura e Dornelas,Região de Aveiro,310,2025-08-26T23:33:00Z,25903531,Em Resolução/Conclusão,3101,Incêndio rural,0,3,0,9,2025-08-26T23:33:00Z,Sever Do Vouga,Aveiro,Centro,-8.37352,40.764377,Resolução/Conclusão
25903643,"Amarante (São Gonçalo), Madalena, Cepelos e Gatão",Tâmega e Sousa,309,2025-08-27T00:28:00Z,25903643,Em Despacho,3103,Incêndio rural,0,3,0,15,2025-08-27T00:28:00Z,Amarante,Porto,Norte,-8.08057,41.27313,Despacho
25903661,Gaio-Rosário e Sarilhos Pequenos,Península de Setúbal,311,2025-08-27T00:34:00Z,25903661,Em Despacho,3103,Incêndio rural,0,1,0,5,2025-08-27T00:34:00Z,Moita,Setúbal,Área Metropolitana De Lisboa,-8.993879,38.683274,Despacho
25832672,Piódão,Região de Coimbra,310,2025-08-13T05:08:00Z,25832672,Em Resolução/Conclusão,3103,Incêndio rural,0,89,0,272,2025-08-13T05:08:00Z,Arganil,Coimbra,Centro,-7.81972,40.23083,Resolução/Conclusão
25840417,Lousã e Vilarinho,Região de Coimbra,310,2025-08-14T13:46:00Z,25840417,Em Resolução/Conclusão,3101,Incêndio rural,0,2,0,6,2025-08-14T13:46:00Z,Lousã,Coimbra,Centro,-8.201561,40.080016,Resolução/Conclusão
25897250,Viade de Baixo e Fervidelas,Alto Tâmega e Barroso,309,2025-08-25T17:20:00Z,25897250,Em Resolução/Conclusão,3103,Incêndio rural,0,1,0,5,2025-08-25T17:20:00Z,Montalegre,Vila Real,Norte,-7.860477,41.725298,Resolução/Conclusão
25898107,Mondrões,Douro,309,2025-08-25T20:46:00Z,25898107,Em Resolução/Conclusão,3103,Incêndio rural,0,13,0,46,2025-08-25T20:46:00Z,Vila Real,Vila Real,Norte,-7.804065,41.318255,Resolução/Conclusão
25901717,Vale,Alto Minho,309,2025-08-26T15:32:00Z,25901717,Em Curso,3103,Incêndio rural,0,41,0,120,2025-08-26T15:32:00Z,Arcos De Valdevez,Viana Do Castelo,Norte,-8.345968,41.863728,Curso
25902278,Mondrões,Douro,309,2025-08-26T17:34:00Z,25902278,Em Resolução/Conclusão,3103,Incêndio rural,0,4,0,20,2025-08-26T17:34:00Z,Vila Real,Vila Real,Norte,-7.78592,41.28857,Resolução/Conclusão
25903037,Conceição e Cabanas de Tavira,Algarve,313,2025-08-26T20:58:00Z,25903037,Em Resolução/Conclusão,3103,Incêndio rural,0,22,0,66,2025-08-26T20:58:00Z,Tavira,Faro,Algarve,-7.615914,37.220415,Resolução/Conclusão
