id,address,subregion,neighborhood,date,id.1,state,nature,nature_description,aerial_means,terrestrial_means,aquatic_means,operational,date.1,Concelho,Distrito,NUTII_DSG,longitude,latitude,state_2
25602673,Castro Verde e Casével,Baixo Alentejo,312,2025-06-30T10:26:00Z,25602673,Em Resolução/Conclusão,3107,Consolidação de rescaldo de incêndio rural,0,2,0,5,2025-06-30T10:26:00Z,Castro Verde,Beja,Alentejo,-8.080915,37.697259,Resolução/Conclusão
25603618,Messejana,Baixo Alentejo,312,2025-06-30T13:09:00Z,25603618,Em Curso,3101,Incêndio rural,4,92,0,259,2025-06-30T13:09:00Z,Aljustrel,Beja,Alentejo,-8.169013,37.814978,Curso
25603684,Vilarinho Dos Freires,Douro,309,2025-06-30T13:15:00Z,25603684,Em Resolução/Conclusão,3107,Consolidação de rescaldo de incêndio rural,0,3,0,8,2025-06-30T13:15:00Z,Peso Da Régua,Vila Real,Norte,-7.731495,41.205995,Resolução/Conclusão
25604086,Alvarenga,Area M. Porto,309,2025-06-30T14:23:00Z,25604086,Em Resolução/Conclusão,3103,Incêndio rural,4,26,0,97,2025-06-30T14:23:00Z,Arouca,Aveiro,Norte,-8.16662,40.977807,Resolução/Conclusão
25604815,Ermidas-Sado,Alentejo Litoral,312,2025-06-30T16:36:00Z,25604815,Em Curso,3103,Incêndio rural,0,34,0,97,2025-06-30T16:36:00Z,Santiago Do Cacém,Setúbal,Alentejo,-8.379001,38.002851,Curso
25604938,Alvalade,Alentejo Litoral,312,2025-06-30T16:40:00Z,25604938,Em Resolução/Conclusão,3103,Incêndio rural,0,4,0,12,2025-06-30T16:40:00Z,Santiago Do Cacém,Setúbal,Alentejo,-8.390153,37.933937,Resolução/Conclusão
25605147,Vale do Côa,Beiras e Serra da Estrela,310,2025-06-30T17:42:00Z,25605147,Em Curso,3103,Incêndio rural,1,13,0,59,2025-06-30T17:42:00Z,Pinhel,Guarda,Centro,-7.114498,40.945683,Curso
25605390,Nossa Senhora de Machede,Alentejo Central,312,2025-06-30T18:28:00Z,25605390,Em Resolução/Conclusão,3105,Incêndio rural,0,3,0,8,2025-06-30T18:28:00Z,Évora,Évora,Alentejo,-7.797455,38.622137,Resolução/Conclusão
25445507,Cabeça Gorda,Baixo Alentejo,312,2025-05-29T12:44:00Z,25445507,Em Resolução/Conclusão,3101,Incêndio rural,0,0,0,0,2025-05-29T12:44:00Z,Beja,Beja,Alentejo,-7.811333,37.900468,Resolução/Conclusão
25599361,Chancelaria,Médio Tejo,311,2025-06-29T16:59:00Z,25599361,Em Resolução/Conclusão,3101,Incêndio rural,0,3,0,11,2025-06-29T16:59:00Z,Torres Novas,Santarém,Centro,-8.54621,39.518782,Resolução/Conclusão
25603690,Romariz,Area M. Porto,309,2025-06-30T13:23:00Z,25603690,Em Resolução/Conclusão,3103,Incêndio rural,0,2,0,7,2025-06-30T13:23:00Z,Santa Maria Da Feira,Aveiro,Norte,-8.449163,40.954263,Resolução/Conclusão
25604426,Selho (São Cristóvão),Ave,309,2025-06-30T15:26:00Z,25604426,Em Resolução/Conclusão,3103,Incêndio rural,1,21,0,60,2025-06-30T15:26:00Z,Guimarães,Braga,Norte,-8.350317,41.412065,Resolução/Conclusão
25605562,Sobrosa,Area M. Porto,309,2025-06-30T18:55:00Z,25605562,Em Resolução/Conclusão,3103,Incêndio rural,0,1,0,5,2025-06-30T18:55:00Z,Paredes,Porto,Norte,-8.359816,41.249381,Resolução/Conclusão
25602092,Santa Marinha,Alto Tâmega e Barroso,309,2025-06-30T08:59:00Z,25602092,Em Curso,3107,Consolidação de rescaldo de incêndio rural,0,1,0,3,2025-06-30T08:59:00Z,Ribeira De Pena,Vila Real,Norte,-7.781975,41.547104,Curso
25604181,São João de Ver,Area M. Porto,309,2025-06-30T14:45:00Z,25604181,Em Resolução/Conclusão,3103,Incêndio rural,0,1,0,5,2025-06-30T14:45:00Z,Santa Maria Da Feira,Aveiro,Norte,-8.554135,40.95554,Resolução/Conclusão
25605269,Recezinhos (São Mamede),Tâmega e Sousa,309,2025-06-30T18:06:00Z,25605269,Em Resolução/Conclusão,3103,Incêndio rural,0,11,0,41,2025-06-30T18:06:00Z,Penafiel,Porto,Norte,-8.225542,41.241077,Resolução/Conclusão
25605302,Abaças,Douro,309,2025-06-30T18:13:00Z,25605302,Em Curso,3103,Incêndio rural,1,2,0,16,2025-06-30T18:13:00Z,Vila Real,Vila Real,Norte,-7.696653,41.22761,Curso
25605436,Alcantarilha e Pêra,Algarve,313,2025-06-30T18:43:00Z,25605436,Em Resolução/Conclusão,3103,Incêndio rural,0,9,0,31,2025-06-30T18:43:00Z,Silves,Faro,Algarve,-8.346086,37.16693,Resolução/Conclusão
25605535,Canha,Península de Setúbal,311,2025-06-30T18:57:00Z,25605535,Em Resolução/Conclusão,3103,Incêndio rural,0,4,0,16,2025-06-30T18:57:00Z,Montijo,Setúbal,Área Metropolitana De Lisboa,-8.615892,38.724855,Resolução/Conclusão
25599357,Alpalhão,Alto Alentejo,312,2025-06-29T16:55:00Z,25599357,Em Resolução/Conclusão,3103,Incêndio rural,0,9,0,28,2025-06-29T16:55:00Z,Nisa,Portalegre,Alentejo,-7.63684,39.452513,Resolução/Conclusão
25599382,Almaceda,Beira Baixa,310,2025-06-29T17:03:00Z,25599382,Em Resolução/Conclusão,3101,Incêndio rural,2,51,0,152,2025-06-29T17:03:00Z,Castelo Branco,Castelo Branco,Centro,-7.65644,39.97,Resolução/Conclusão
25602624,Lomba,Area M. Porto,309,2025-06-30T10:19:00Z,25602624,Em Resolução/Conclusão,3103,Incêndio rural,0,2,0,7,2025-06-30T10:19:00Z,Gondomar,Porto,Norte,-8.408252,41.034001,Resolução/Conclusão
25604069,Galveias,Alto Alentejo,312,2025-06-30T14:26:00Z,25604069,Em Resolução/Conclusão,3103,Incêndio rural,0,7,0,21,2025-06-30T14:26:00Z,Ponte De Sor,Portalegre,Alentejo,-8.026567,39.117655,Resolução/Conclusão
25604703,Fronteira,Alto Alentejo,312,2025-06-30T16:13:00Z,25604703,Em Resolução/Conclusão,3105,Incêndio rural,0,4,0,11,2025-06-30T16:13:00Z,Fronteira,Portalegre,Alentejo,-7.7002370000000004,39.103278,Resolução/Conclusão
25605132,"Camarate, Unhos e Apelação",Grande Lisboa,311,2025-06-30T17:32:00Z,25605132,Em Resolução/Conclusão,3103,Incêndio rural,0,9,0,32,2025-06-30T17:32:00Z,Loures,Lisboa,Área Metropolitana De Lisboa,-9.114767,38.807872,Resolução/Conclusão
25605355,Caparica e Trafaria,Península de Setúbal,311,2025-06-30T18:26:00Z,25605355,Em Resolução/Conclusão,3103,Incêndio rural,0,3,0,8,2025-06-30T18:26:00Z,Almada,Setúbal,Área Metropolitana De Lisboa,-9.203307,38.664303,Resolução/Conclusão
25605843,Croca,Tâmega e Sousa,309,2025-06-30T20:04:00Z,25605843,Em Despacho,3103,Incêndio rural,1,0,0,6,2025-06-30T20:04:00Z,Penafiel,Porto,Norte,-8.248818,41.225235,Despacho
