id,address,subregion,neighborhood,date,id.1,state,nature,nature_description,aerial_means,terrestrial_means,aquatic_means,operational,date.1,Concelho,Distrito,NUTII_DSG,longitude,latitude
25480100,Arazede,Região de Coimbra,310,2025-06-05T10:37:00Z,25480100,Em resolução,2301,Incêndio em transporte rodoviário,0,1,0,3,2025-06-05T10:37:00Z,Montemor-o-Velho,Coimbra,Centro,-8.63571,40.26072
25480095,Landeira,Alentejo Central,312,2025-06-05T10:36:00Z,25480095,Em curso,2301,Incêndio em transporte rodoviário,0,1,0,4,2025-06-05T10:36:00Z,Vendas Novas,Évora,Alentejo,-8.616389,38.56194
25479342,Estreito-Vilar Barroco,Beira Baixa,310,2025-06-05T08:29:00Z,25479342,Em conclusão,3201,Detritos não confinados,0,0,0,0,2025-06-05T08:29:00Z,Oleiros,Castelo Branco,Centro,-7.763863,39.868827
25480175,São Domingos de Rana,Grande Lisboa,311,2025-06-05T10:50:00Z,25480175,Em despacho,2101,Incêndio em edifícios habitacionais,0,2,0,7,2025-06-05T10:50:00Z,Cascais,Lisboa,Área Metropolitana De Lisboa,-9.362035,38.710143
25479453,Aveiras de Baixo,Lezíria do Tejo,311,2025-06-05T08:49:00Z,25479453,Em despacho,3109,Gestão de combustível,0,1,0,2,2025-06-05T08:49:00Z,Azambuja,Lisboa,Alentejo,-8.869588,39.111989
25479771,Muxagata,Douro,309,2025-06-05T09:43:00Z,25479771,Em despacho,3109,Gestão de combustível,0,2,0,10,2025-06-05T09:43:00Z,Vila Nova De Foz Côa,Guarda,Norte,-7.168678,41.037581
25480003,Beduído e Veiros,Região de Aveiro,310,2025-06-05T10:20:00Z,25480003,Em conclusão,3105,Incêndio rural,0,1,0,3,2025-06-05T10:20:00Z,Estarreja,Aveiro,Centro,-8.593235,40.760977
25480046,Melides,Alentejo Litoral,312,2025-06-05T10:28:00Z,25480046,Em resolução,3103,Incêndio rural,0,6,0,23,2025-06-05T10:28:00Z,Grândola,Setúbal,Alentejo,-8.735795,38.14169
25480153,Rio Tinto,Area M. Porto,309,2025-06-05T10:42:00Z,25480153,Em resolução,2109,Incêndio em edifícios escolares,0,3,0,12,2025-06-05T10:42:00Z,Gondomar,Porto,Norte,-8.560102,41.179302
