id,address,subregion,neighborhood,date,id.1,state,nature,nature_description,aerial_means,terrestrial_means,aquatic_means,operational,date.1,Concelho,Distrito,NUTII_DSG,longitude,latitude
25560753,"Oliveira de Frades, Souto de Lafões e Sejães",Viseu Dão Lafões,310,2025-06-21T22:52:00Z,25560753,Em resolução,3103,Incêndio rural,0,7,0,29,2025-06-21T22:52:00Z,Oliveira De Frades,Viseu,Centro,-8.16921,40.740963
25560820,Padroso,Alto Minho,309,2025-06-21T23:14:00Z,25560820,Em resolução,3103,Incêndio rural,0,1,0,5,2025-06-21T23:14:00Z,Arcos De Valdevez,Viana Do Castelo,Norte,-8.473467,41.943507
25553154,Pedrógão,Baixo Alentejo,312,2025-06-20T12:23:00Z,25553154,Em conclusão,3103,Incêndio rural,0,0,0,0,2025-06-20T12:23:00Z,Vidigueira,Beja,Alentejo,-7.549947,38.179912
25560908,Ramada e Caneças,Grande Lisboa,311,2025-06-21T23:42:00Z,25560908,Em conclusão,2101,Incêndio em edifícios habitacionais,0,1,0,5,2025-06-21T23:42:00Z,Odivelas,Lisboa,Área Metropolitana De Lisboa,-9.194441,38.801427
25561058,Paranhos,Area M. Porto,309,2025-06-22T00:43:00Z,25561058,Em curso,2101,Incêndio em edifícios habitacionais,0,1,0,5,2025-06-22T00:43:00Z,Porto,Porto,Norte,-8.607437,41.17569
25561081,Agualva e Mira-Sintra,Grande Lisboa,311,2025-06-22T01:02:00Z,25561081,Em despacho,2101,Incêndio em edifícios habitacionais,0,0,0,0,2025-06-22T01:02:00Z,Sintra,Lisboa,Área Metropolitana De Lisboa,-9.302911,38.77294
25559128,Ermelo e Pardelhas,Ave,309,2025-06-21T15:50:00Z,25559128,Em conclusão,3103,Incêndio rural,0,1,0,5,2025-06-21T15:50:00Z,Mondim De Basto,Vila Real,Norte,-7.835997,41.35894
25560920,Campo e Sobrado,Area M. Porto,309,2025-06-21T23:35:00Z,25560920,Em conclusão,3101,Incêndio rural,0,2,0,7,2025-06-21T23:35:00Z,Valongo,Porto,Norte,-8.473333,41.21806
25561075,Luz,Algarve,313,2025-06-22T00:59:00Z,25561075,Em despacho,3201,Detritos não confinados,0,1,0,6,2025-06-22T00:59:00Z,Lagos,Faro,Algarve,-8.73289,37.08503
