id,address,subregion,neighborhood,date,id.1,state,nature,nature_description,aerial_means,terrestrial_means,aquatic_means,operational,date.1,Concelho,Distrito,NUTII_DSG,longitude,latitude
25057015,Santa Maria do Castelo e Santiago e Santa Susana,Alentejo Litoral,312,2025-03-08T10:20:00Z,25057015,Em curso,1101,Cheia,0,2,0,3,2025-03-08T10:20:00Z,Alcácer Do Sal,Setúbal,Alentejo,-8.432801,38.398147
25059574,Branca,Lezíria do Tejo,311,2025-03-08T21:24:00Z,25059574,Em conclusão,3311,Queda de elementos de estruturas edificados,0,0,0,0,2025-03-08T21:24:00Z,Montijo,Setúbal,Área Metropolitana De Lisboa,-8.597557,38.840492
25059706,Cascais e Estoril,Grande Lisboa,311,2025-03-08T21:59:00Z,25059706,Em despacho,3301,Queda de árvore,0,1,0,2,2025-03-08T21:59:00Z,Cascais,Lisboa,Área Metropolitana De Lisboa,-9.398759,38.70391
25059800,Teixoso e Sarzedo,Beiras e Serra da Estrela,310,2025-03-08T22:30:00Z,25059800,Em curso,3313,Deslizamento de terras,0,3,0,6,2025-03-08T22:30:00Z,Covilhã,Castelo Branco,Centro,-7.465258,40.305112
25059917,Sesimbra (Castelo),Península de Setúbal,311,2025-03-08T23:34:00Z,25059917,Em despacho,3313,Deslizamento de terras,0,1,0,4,2025-03-08T23:34:00Z,Sesimbra,Setúbal,Área Metropolitana De Lisboa,-9.124957,38.490885
25056922,Bougado (São Martinho e Santiago),Area M. Porto,309,2025-01-22T10:38:00Z,25056922,Em despacho,1101,Cheia,0,0,0,0,2025-01-22T10:38:00Z,Trofa,Porto,Norte,-8.558796,41.329536
25059337,Marmelete,Algarve,313,2025-03-08T19:03:00Z,25059337,Em despacho,3313,Deslizamento de terras,0,1,0,2,2025-03-08T19:03:00Z,Monchique,Faro,Algarve,-8.673138,37.274364
25057228,Carregueira,Lezíria do Tejo,311,2025-03-08T11:12:00Z,25057228,Em despacho,3313,Deslizamento de terras,0,1,0,1,2025-03-08T11:12:00Z,Chamusca,Santarém,Alentejo,-8.411811,39.421134
25059711,Faro (Sé e São Pedro),Algarve,313,2025-03-08T22:06:00Z,25059711,Em conclusão,3329,Queda de estruturas temporárias ou móveis,0,1,0,4,2025-03-08T22:06:00Z,Faro,Faro,Algarve,-7.961044,37.059227
