id,address,subregion,neighborhood,date,id.1,state,nature,nature_description,aerial_means,terrestrial_means,aquatic_means,operational,date.1,Concelho,Distrito,NUTII_DSG,longitude,latitude
24875937,Açores e Velosa,Beiras e Serra da Estrela,310,2025-01-27T09:15:00Z,24875937,Em despacho,3301,Queda de árvore,0,2,0,4,2025-01-27T09:15:00Z,Celorico Da Beira,Guarda,Centro,-7.293622,40.654959
24876436,Beja (Santiago Maior e São João Baptista),Baixo Alentejo,312,2025-01-27T10:20:00Z,24876436,Em conclusão,3301,Queda de árvore,0,2,0,3,2025-01-27T10:20:00Z,Beja,Beja,Alentejo,-7.858232,38.009245
24877543,"S.julião, N.s. da Anunciada e S. Maria da Graça",Península de Setúbal,311,2025-01-27T13:16:00Z,24877543,Em conclusão,3329,Queda de estruturas temporárias ou móveis,0,2,0,4,2025-01-27T13:16:00Z,Setúbal,Setúbal,Área Metropolitana De Lisboa,-8.89348,38.535337
24877623,Ega,Região de Coimbra,310,2025-01-27T13:34:00Z,24877623,Em conclusão,3301,Queda de árvore,0,2,0,4,2025-01-27T13:34:00Z,Condeixa-a-Nova,Coimbra,Centro,-8.53647,40.09942
24877710,"Seixal, Arrentela e Aldeia de Paio Pires",Península de Setúbal,311,2025-01-27T13:48:00Z,24877710,Em despacho,3315,Inundação de estruturas por precipitação intensa,0,1,0,2,2025-01-27T13:48:00Z,Seixal,Setúbal,Área Metropolitana De Lisboa,-9.09472,38.63538
24877776,Mafamude e Vilar do Paraíso,Area M. Porto,309,2025-01-27T13:51:00Z,24877776,Em despacho,3329,Queda de estruturas temporárias ou móveis,0,2,0,6,2025-01-27T13:51:00Z,Vila Nova De Gaia,Porto,Norte,-8.622265,41.086486
24877875,Espinho,Area M. Porto,309,2025-01-27T14:11:00Z,24877875,Em curso,3329,Queda de estruturas temporárias ou móveis,0,1,0,4,2025-01-27T14:11:00Z,Espinho,Aveiro,Norte,-8.64078,41.007665
24877907,"Barcelos, V. Boa e V. Frescainha",Cávado,309,2025-01-27T14:15:00Z,24877907,Em despacho,3309,Desabamento de estruturas edificadas,0,1,0,3,2025-01-27T14:15:00Z,Barcelos,Braga,Norte,-8.61958,41.532406
24877910,Constantim e Vale de Nogueiras,Douro,309,2025-01-27T14:24:00Z,24877910,Em despacho,3309,Desabamento de estruturas edificadas,0,0,0,0,2025-01-27T14:24:00Z,Vila Real,Vila Real,Norte,-7.711022,41.27386
24877957,"Marvila, Ribeira Santarém, S.salvador, S.nicolau",Lezíria do Tejo,311,2025-01-27T14:32:00Z,24877957,Em despacho,3313,Deslizamento de terras,0,1,0,1,2025-01-27T14:32:00Z,Santarém,Santarém,Alentejo,-8.678591,39.231938
24878043,Salto,Alto Tâmega e Barroso,309,2025-01-27T14:30:00Z,24878043,Em despacho,3301,Queda de árvore,0,1,0,4,2025-01-27T14:30:00Z,Montalegre,Vila Real,Norte,-7.930242,41.659104
24878044,Alvorninha,Oeste,311,2025-01-27T14:34:00Z,24878044,Em curso,3301,Queda de árvore,0,3,0,9,2025-01-27T14:34:00Z,Caldas Da Rainha,Leiria,Centro,-9.045749,39.412477
24878060,"Sé, Santa Maria e Meixedo",Terras de Trás-os-Montes,309,2025-01-27T14:20:00Z,24878060,Em despacho,3315,Inundação de estruturas por precipitação intensa,0,1,0,2,2025-01-27T14:20:00Z,Bragança,Bragança,Norte,-6.761223,41.813164
24878091,"Vila Nova de Paiva, Alhais e Fráguas",Viseu Dão Lafões,310,2025-01-27T14:51:00Z,24878091,Em despacho,3301,Queda de árvore,0,1,0,3,2025-01-27T14:51:00Z,Vila Nova De Paiva,Viseu,Centro,-7.740568,40.856347
24878128,Vila Nova de Foz Côa,Douro,309,2025-01-27T14:56:00Z,24878128,Em despacho,3301,Queda de árvore,0,2,0,4,2025-01-27T14:56:00Z,Vila Nova De Foz Côa,Guarda,Norte,-7.133474,41.085004
24878158,"Ardegão, Freixo e Mato",Alto Minho,309,2025-01-27T15:05:00Z,24878158,Em curso,3301,Queda de árvore,0,1,0,4,2025-01-27T15:05:00Z,Ponte De Lima,Viana Do Castelo,Norte,-8.58688,41.65982
24875531,Silveira,Oeste,311,2025-01-27T07:52:00Z,24875531,Em despacho,3313,Deslizamento de terras,0,1,0,2,2025-01-27T07:52:00Z,Torres Vedras,Lisboa,Centro,-9.3555,39.09169
24875758,Valhelhas,Beiras e Serra da Estrela,310,2025-01-27T08:41:00Z,24875758,Em curso,3301,Queda de árvore,0,1,0,2,2025-01-27T08:41:00Z,Guarda,Guarda,Centro,-7.405093,40.406271
24876669,Bilhó,Ave,309,2025-01-27T11:00:00Z,24876669,Em despacho,3311,Queda de elementos de estruturas edificados,0,1,0,2,2025-01-27T11:00:00Z,Mondim De Basto,Vila Real,Norte,-7.839872,41.409996
24876708,Montaria,Alto Minho,309,2025-01-27T10:59:00Z,24876708,Em curso,3301,Queda de árvore,0,2,0,4,2025-01-27T10:59:00Z,Viana Do Castelo,Viana Do Castelo,Norte,-8.694724,41.798689
24876783,Santo António Dos Olivais,Região de Coimbra,310,2025-01-27T10:56:00Z,24876783,Em despacho,3315,Inundação de estruturas por precipitação intensa,0,1,0,2,2025-01-27T10:56:00Z,Coimbra,Coimbra,Centro,-8.426807,40.217261
24877003,Malagueira e Horta Das Figueiras,Alentejo Central,312,2025-01-27T11:41:00Z,24877003,Em conclusão,3315,Inundação de estruturas por precipitação intensa,0,1,0,2,2025-01-27T11:41:00Z,Évora,Évora,Alentejo,-7.924277,38.57285
24877026,Buarcos,Região de Coimbra,310,2025-01-27T11:50:00Z,24877026,Em despacho,3317,Inundação de estruturas por água canalizada,0,1,0,3,2025-01-27T11:50:00Z,Figueira Da Foz,Coimbra,Centro,-8.880897,40.168384
24851780,"São Miguel, Santa Eufémia e Rabaçal",Região de Coimbra,310,2025-01-21T23:25:00Z,24851780,Em curso,3315,Inundação de estruturas por precipitação intensa,0,0,0,0,2025-01-21T23:25:00Z,Penela,Coimbra,Centro,-8.399036,40.025502
24875677,Mondim de Basto,Ave,309,2025-01-27T08:25:00Z,24875677,Em despacho,3301,Queda de árvore,0,2,0,6,2025-01-27T08:25:00Z,Mondim De Basto,Vila Real,Norte,-7.962111,41.409753
24875862,Ramela,Beiras e Serra da Estrela,310,2025-01-27T09:01:00Z,24875862,Em despacho,3329,Queda de estruturas temporárias ou móveis,0,2,0,4,2025-01-27T09:01:00Z,Guarda,Guarda,Centro,-7.258056,40.46528
24875911,Tavarede,Região de Coimbra,310,2025-01-27T08:50:00Z,24875911,Em despacho,3315,Inundação de estruturas por precipitação intensa,0,0,0,0,2025-01-27T08:50:00Z,Figueira Da Foz,Coimbra,Centro,-8.853871,40.165854
24876130,Bornes de Aguiar,Alto Tâmega e Barroso,309,2025-01-27T09:37:00Z,24876130,Em curso,3315,Inundação de estruturas por precipitação intensa,0,1,0,5,2025-01-27T09:37:00Z,Vila Pouca De Aguiar,Vila Real,Norte,-7.60702,41.543737
24876897,Esmoriz,Região de Aveiro,310,2025-01-27T11:30:00Z,24876897,Em resolução,1115,Galgamento costeiro,0,2,0,6,2025-01-27T11:30:00Z,Ovar,Aveiro,Centro,-8.626595,40.959676
24877501,"Torres Novas (Santa Maria, Salvador e Santiago)",Médio Tejo,311,2025-01-27T13:14:00Z,24877501,Em conclusão,3309,Desabamento de estruturas edificadas,0,3,0,5,2025-01-27T13:14:00Z,Torres Novas,Santarém,Centro,-8.527287,39.530908
24874428,Donai,Terras de Trás-os-Montes,309,2025-01-26T21:18:00Z,24874428,Em curso,3315,Inundação de estruturas por precipitação intensa,0,1,0,2,2025-01-26T21:18:00Z,Bragança,Bragança,Norte,-6.805385,41.830788
24874564,"Sé, Santa Maria e Meixedo",Terras de Trás-os-Montes,309,2025-01-26T21:55:00Z,24874564,Em curso,3315,Inundação de estruturas por precipitação intensa,0,1,0,2,2025-01-26T21:55:00Z,Bragança,Bragança,Norte,-6.761223,41.813164
24875382,Pampilhosa da Serra,Região de Coimbra,310,2025-01-27T06:56:00Z,24875382,Em despacho,3315,Inundação de estruturas por precipitação intensa,0,4,0,8,2025-01-27T06:56:00Z,Pampilhosa Da Serra,Coimbra,Centro,-7.953077,40.054967
24875591,Serpins,Região de Coimbra,310,2025-01-27T08:05:00Z,24875591,Em curso,3315,Inundação de estruturas por precipitação intensa,0,1,0,1,2025-01-27T08:05:00Z,Lousã,Coimbra,Centro,-8.200016,40.156377
24876200,Ceira,Região de Coimbra,310,2025-01-27T09:56:00Z,24876200,Em despacho,3315,Inundação de estruturas por precipitação intensa,0,1,0,2,2025-01-27T09:56:00Z,Coimbra,Coimbra,Centro,-8.376144,40.175952
24876277,Alhadas,Região de Coimbra,310,2025-01-27T10:00:00Z,24876277,Em despacho,3301,Queda de árvore,0,0,0,0,2025-01-27T10:00:00Z,Figueira Da Foz,Coimbra,Centro,-8.808093,40.16613
24876461,Buarcos,Região de Coimbra,310,2025-01-27T10:20:00Z,24876461,Em despacho,3315,Inundação de estruturas por precipitação intensa,0,2,0,5,2025-01-27T10:20:00Z,Figueira Da Foz,Coimbra,Centro,-8.880897,40.168384
24876602,Barreiro e Lavradio,Península de Setúbal,311,2025-01-27T10:54:00Z,24876602,Em conclusão,3313,Deslizamento de terras,0,2,0,3,2025-01-27T10:54:00Z,Barreiro,Setúbal,Área Metropolitana De Lisboa,-9.076291,38.66241
24877228,Eiras e São Paulo de Frades,Região de Coimbra,310,2025-01-27T12:14:00Z,24877228,Em despacho,3301,Queda de árvore,0,1,0,2,2025-01-27T12:14:00Z,Coimbra,Coimbra,Centro,-8.392843,40.24436
24877462,Canelas,Area M. Porto,309,2025-01-27T13:06:00Z,24877462,Em despacho,3301,Queda de árvore,0,2,0,8,2025-01-27T13:06:00Z,Vila Nova De Gaia,Porto,Norte,-8.593513,41.08389
24877644,Tavira (Santa Maria e Santiago),Algarve,313,2025-01-27T13:33:00Z,24877644,Em curso,3301,Queda de árvore,0,2,0,2,2025-01-27T13:33:00Z,Tavira,Faro,Algarve,-7.64864,37.125854
24877871,Cepos e Teixeira,Região de Coimbra,310,2025-01-27T14:07:00Z,24877871,Em despacho,3301,Queda de árvore,0,1,0,4,2025-01-27T14:07:00Z,Arganil,Coimbra,Centro,-7.973479,40.160791
24878048,Oliveira do Douro,Area M. Porto,309,2025-01-27T14:09:00Z,24878048,Em despacho,3313,Deslizamento de terras,0,1,0,2,2025-01-27T14:09:00Z,Vila Nova De Gaia,Porto,Norte,-8.585272,41.125484
24878055,"Cedofeita, Ildefonso, Sé, Miragaia, Nicolau e Vitória",Area M. Porto,309,2025-01-27T13:54:00Z,24878055,Em despacho,3329,Queda de estruturas temporárias ou móveis,0,1,0,5,2025-01-27T13:54:00Z,Porto,Porto,Norte,-8.615939,41.15359
24877818,Chamusca e Pinheiro Grande,Lezíria do Tejo,311,2025-01-27T14:04:00Z,24877818,Em curso,3301,Queda de árvore,0,1,0,2,2025-01-27T14:04:00Z,Porto De Mós,Leiria,Centro,-8.82724,39.561155
24878001,Fazendas de Almeirim,Lezíria do Tejo,311,2025-01-27T14:38:00Z,24878001,Em resolução,3301,Queda de árvore,0,3,0,9,2025-01-27T14:38:00Z,Almeirim,Santarém,Alentejo,-8.468478,39.17567
24878134,Friúmes e Paradela,Região de Coimbra,310,2025-01-27T14:57:00Z,24878134,Em despacho,3313,Deslizamento de terras,0,1,0,2,2025-01-27T14:57:00Z,Penacova,Coimbra,Centro,-8.244833,40.286025
24878150,Sesimbra (Castelo),Península de Setúbal,311,2025-01-27T14:56:00Z,24878150,Em curso,3301,Queda de árvore,0,1,0,5,2025-01-27T14:56:00Z,Sesimbra,Setúbal,Área Metropolitana De Lisboa,-9.112506,38.449031
24878166,"Assunção, Ajuda, Salvador e Santo Ildefonso",Alto Alentejo,312,2025-01-27T14:56:00Z,24878166,Em conclusão,3321,Dano na rede de fornecimento de eletricidade ,0,1,0,2,2025-01-27T14:56:00Z,Elvas,Portalegre,Alentejo,-7.167353,38.881544
24878167,Mujães,Alto Minho,309,2025-01-27T14:58:00Z,24878167,Em despacho,3301,Queda de árvore,0,1,0,3,2025-01-27T14:58:00Z,Viana Do Castelo,Viana Do Castelo,Norte,-8.705645,41.659904
24878184,Arca e Varzielas,Viseu Dão Lafões,310,2025-01-27T14:57:00Z,24878184,Em despacho,3301,Queda de árvore,0,1,0,2,2025-01-27T14:57:00Z,Oliveira De Frades,Viseu,Centro,-8.196922,40.601252
24876802,Paião,Região de Coimbra,310,2025-01-27T11:17:00Z,24876802,Em despacho,3301,Queda de árvore,0,1,0,5,2025-01-27T11:17:00Z,Figueira Da Foz,Coimbra,Centro,-8.771908,40.062768
24876893,"Sé, Santa Maria e Meixedo",Terras de Trás-os-Montes,309,2025-01-27T11:22:00Z,24876893,Em curso,3315,Inundação de estruturas por precipitação intensa,0,1,0,1,2025-01-27T11:22:00Z,Bragança,Bragança,Norte,-6.761223,41.813164
24877711,Bonfim,Area M. Porto,309,2025-01-27T13:48:00Z,24877711,Em despacho,3311,Queda de elementos de estruturas edificados,0,1,0,3,2025-01-27T13:48:00Z,Porto,Porto,Norte,-8.594893,41.1531
24877738,"Torres Novas (Santa Maria, Salvador e Santiago)",Médio Tejo,311,2025-01-27T13:51:00Z,24877738,Em conclusão,3309,Desabamento de estruturas edificadas,0,4,0,12,2025-01-27T13:51:00Z,Torres Novas,Santarém,Centro,-8.5355,39.48231
24877806,Góis,Região de Coimbra,310,2025-01-27T14:00:00Z,24877806,Em despacho,3301,Queda de árvore,0,1,0,3,2025-01-27T14:00:00Z,Góis,Coimbra,Centro,-8.157756,40.138382
24877904,Fonte Arcada e Escurquela,Douro,309,2025-01-27T14:19:00Z,24877904,Em despacho,3301,Queda de árvore,0,1,0,3,2025-01-27T14:19:00Z,Sernancelhe,Viseu,Norte,-7.51894,40.968841
24877906,São Pedro de Agostém,Alto Tâmega e Barroso,309,2025-01-27T14:20:00Z,24877906,Em despacho,3313,Deslizamento de terras,0,1,0,3,2025-01-27T14:20:00Z,Chaves,Vila Real,Norte,-7.492702,41.679705
24878200,Gouveia (São Pedro e São Julião),Beiras e Serra da Estrela,310,2025-01-27T15:13:00Z,24878200,Em despacho,3315,Inundação de estruturas por precipitação intensa,0,1,0,3,2025-01-27T15:13:00Z,Gouveia,Guarda,Centro,-7.586951,40.497325
24878201,Santo António da Charneca,Península de Setúbal,311,2025-01-27T15:01:00Z,24878201,Em despacho,3311,Queda de elementos de estruturas edificados,0,1,0,5,2025-01-27T15:01:00Z,Barreiro,Setúbal,Área Metropolitana De Lisboa,-9.029919,38.624451
24878057,Salto,Alto Tâmega e Barroso,309,2025-01-27T14:42:00Z,24878057,Em despacho,3301,Queda de árvore,0,1,0,4,2025-01-27T14:42:00Z,Montalegre,Vila Real,Norte,-7.929191,41.611383
24878071,Seixas,Alto Minho,309,2025-01-27T14:45:00Z,24878071,Em despacho,3301,Queda de árvore,0,1,0,4,2025-01-27T14:45:00Z,Caminha,Viana Do Castelo,Norte,-8.820794,41.891932
24878082,Venteira,Grande Lisboa,311,2025-01-27T14:41:00Z,24878082,Em conclusão,3329,Queda de estruturas temporárias ou móveis,0,1,0,6,2025-01-27T14:41:00Z,Amadora,Lisboa,Área Metropolitana De Lisboa,-9.240965,38.755077
24878087,Pampilhosa da Serra,Região de Coimbra,310,2025-01-27T14:40:00Z,24878087,Em despacho,3301,Queda de árvore,0,1,0,2,2025-01-27T14:40:00Z,Pampilhosa Da Serra,Coimbra,Centro,-7.924604,40.021122
24878139,"Sé, Santa Maria e Meixedo",Terras de Trás-os-Montes,309,2025-01-27T14:59:00Z,24878139,Em despacho,3315,Inundação de estruturas por precipitação intensa,0,1,0,2,2025-01-27T14:59:00Z,Bragança,Bragança,Norte,-6.761223,41.813164
24878148,Vila Praia de Âncora,Alto Minho,309,2025-01-27T14:58:00Z,24878148,Em despacho,3301,Queda de árvore,0,1,0,5,2025-01-27T14:58:00Z,Caminha,Viana Do Castelo,Norte,-8.853052,41.820795
24878173,Olaia e Paço,Médio Tejo,311,2025-01-27T15:08:00Z,24878173,Em despacho,3321,Dano na rede de fornecimento de eletricidade ,0,1,0,3,2025-01-27T15:08:00Z,Torres Novas,Santarém,Centro,-8.477336,39.520934
24878182,Manteigas (São Pedro),Beiras e Serra da Estrela,310,2025-01-27T15:09:00Z,24878182,Em despacho,3301,Queda de árvore,0,1,0,2,2025-01-27T15:09:00Z,Manteigas,Guarda,Centro,-7.537096,40.398921
24877995,Póvoa da Isenta,Lezíria do Tejo,311,2025-01-27T14:39:00Z,24877995,Em conclusão,3301,Queda de árvore,0,1,0,5,2025-01-27T14:39:00Z,Santarém,Santarém,Alentejo,-8.78889,39.21783
24878063,Vila Pouca de Aguiar,Alto Tâmega e Barroso,309,2025-01-27T14:46:00Z,24878063,Em despacho,3315,Inundação de estruturas por precipitação intensa,0,1,0,5,2025-01-27T14:46:00Z,Vila Pouca De Aguiar,Vila Real,Norte,-7.645977,41.499519
24878090,Pousaflores,Região de Leiria,310,2025-01-27T14:48:00Z,24878090,Em despacho,3301,Queda de árvore,0,1,0,4,2025-01-27T14:48:00Z,Ansião,Leiria,Centro,-8.424547,39.876158
24878106,São Pedro de Sarracenos,Terras de Trás-os-Montes,309,2025-01-27T14:44:00Z,24878106,Em despacho,3315,Inundação de estruturas por precipitação intensa,0,1,0,2,2025-01-27T14:44:00Z,Bragança,Bragança,Norte,-6.751439,41.76443
24878170,São João Baptista,Médio Tejo,311,2025-01-27T15:06:00Z,24878170,Em despacho,3301,Queda de árvore,0,1,0,1,2025-01-27T15:06:00Z,Entroncamento,Santarém,Centro,-8.472394,39.461503
24878195,Lordelo do Ouro e Massarelos,Area M. Porto,309,2025-01-27T14:45:00Z,24878195,Em despacho,3301,Queda de árvore,0,1,0,2,2025-01-27T14:45:00Z,Porto,Porto,Norte,-8.644953,41.152973
24878206,Cascais e Estoril,Grande Lisboa,311,2025-01-27T15:08:00Z,24878206,Em despacho,3301,Queda de árvore,0,1,0,5,2025-01-27T15:08:00Z,Cascais,Lisboa,Área Metropolitana De Lisboa,-9.377584,38.703177
