id,address,subregion,neighborhood,date,id.1,state,nature,nature_description,aerial_means,terrestrial_means,aquatic_means,operational,date.1,Concelho,Distrito,NUTII_DSG,longitude,latitude,state_2
25951176,Sandomil,Beiras e Serra da Estrela,310,2025-09-06T10:29:00Z,25951176,Em Resolução/Conclusão,3103,Incêndio rural,0,2,0,10,2025-09-06T10:29:00Z,Seia,Guarda,Centro,-7.76001,40.351547,Resolução/Conclusão
26072942,"Souto Santa Maria, Souto São Salvador e Gondomar",Ave,309,2025-10-01T14:31:00Z,26072942,Em Resolução/Conclusão,3105,Incêndio rural,0,2,0,7,2025-10-01T14:31:00Z,Guimarães,Braga,Norte,-8.294662,41.493282,Resolução/Conclusão
26050704,Tortosendo,Beiras e Serra da Estrela,310,2025-09-26T23:04:00Z,26050704,Em Resolução/Conclusão,3103,Incêndio rural,0,1,0,4,2025-09-26T23:04:00Z,Covilhã,Castelo Branco,Centro,-7.521592,40.251592,Resolução/Conclusão
26070906,Nave de Haver,Beiras e Serra da Estrela,310,2025-10-01T08:15:00Z,26070906,Em Resolução/Conclusão,3103,Incêndio rural,0,4,0,17,2025-10-01T08:15:00Z,Almeida,Guarda,Centro,-6.836197,40.507088,Resolução/Conclusão
26072226,Santa Maria do Castelo e Santiago e Santa Susana,Alentejo Litoral,312,2025-10-01T12:02:00Z,26072226,Em Resolução/Conclusão,3103,Incêndio rural,0,10,0,20,2025-10-01T12:02:00Z,Alcácer Do Sal,Setúbal,Alentejo,-8.550703,38.527792,Resolução/Conclusão
26072805,Cota,Viseu Dão Lafões,310,2025-10-01T14:09:00Z,26072805,Em Resolução/Conclusão,3103,Incêndio rural,0,2,0,9,2025-10-01T14:09:00Z,Viseu,Viseu,Centro,-7.806298,40.79842,Resolução/Conclusão
26072912,Negrões,Alto Tâmega e Barroso,309,2025-10-01T14:25:00Z,26072912,Em Resolução/Conclusão,3103,Incêndio rural,1,3,0,21,2025-10-01T14:25:00Z,Montalegre,Vila Real,Norte,-7.806182,41.719217,Resolução/Conclusão
26073089,Resende,Tâmega e Sousa,309,2025-10-01T14:48:00Z,26073089,Em Resolução/Conclusão,3103,Incêndio rural,0,1,0,5,2025-10-01T14:48:00Z,Resende,Viseu,Norte,-7.955755,41.105403,Resolução/Conclusão
26073139,Grade e Carralcova,Alto Minho,309,2025-10-01T15:10:00Z,26073139,Em Curso,3103,Incêndio rural,1,2,0,11,2025-10-01T15:10:00Z,Arcos De Valdevez,Viana Do Castelo,Norte,-8.36621,41.895975,Curso
26072318,Estorãos,Ave,309,2025-10-01T12:31:00Z,26072318,Em Resolução/Conclusão,3103,Incêndio rural,0,2,0,8,2025-10-01T12:31:00Z,Fafe,Braga,Norte,-8.122262,41.496883,Resolução/Conclusão
26072731,Poceirão e Marateca,Península de Setúbal,311,2025-10-01T13:46:00Z,26072731,Em Resolução/Conclusão,3103,Incêndio rural,0,5,0,17,2025-10-01T13:46:00Z,Palmela,Setúbal,Área Metropolitana De Lisboa,-8.747517,38.633484,Resolução/Conclusão
26022995,Bordeira,Algarve,313,2025-09-21T12:21:00Z,26022995,Em Resolução/Conclusão,3103,Incêndio rural,0,5,0,15,2025-09-21T12:21:00Z,Aljezur,Faro,Algarve,-8.825374,37.23495,Resolução/Conclusão
