id,address,subregion,neighborhood,date,id.1,state,nature,nature_description,aerial_means,terrestrial_means,aquatic_means,operational,date.1,Concelho,Distrito,NUTII_DSG,longitude,latitude,state_2
25971454,Pedroso e Seixezelo,Area M. Porto,309,2025-09-10T17:02:00Z,25971454,Em Despacho,3101,Incêndio rural,0,1,0,5,2025-09-10T17:02:00Z,Vila Nova De Gaia,Porto,Norte,-8.54913,41.0491,Despacho
25971490,Algoz e Tunes,Algarve,313,2025-09-10T17:09:00Z,25971490,Em Despacho,3103,Incêndio rural,1,4,0,23,2025-09-10T17:09:00Z,Silves,Faro,Algarve,-8.304204,37.167351,Despacho
25910698,Nogueira e Silva Escura,Area M. Porto,309,2025-08-28T13:06:00Z,25910698,Em Resolução/Conclusão,3105,Incêndio rural,0,0,0,0,2025-08-28T13:06:00Z,Maia,Porto,Norte,-8.588632,41.238505,Resolução/Conclusão
25951176,Sandomil,Beiras e Serra da Estrela,310,2025-09-06T10:29:00Z,25951176,Em Resolução/Conclusão,3103,Incêndio rural,0,17,0,59,2025-09-06T10:29:00Z,Seia,Guarda,Centro,-7.76001,40.351547,Resolução/Conclusão
25961053,Santo António de Monforte,Alto Tâmega e Barroso,309,2025-09-08T13:20:00Z,25961053,Em Resolução/Conclusão,3103,Incêndio rural,0,0,0,0,2025-09-08T13:20:00Z,Chaves,Vila Real,Norte,-7.339083,41.787585,Resolução/Conclusão
25971312,Alijó,Douro,309,2025-09-10T16:25:00Z,25971312,Em Resolução/Conclusão,3103,Incêndio rural,0,2,0,7,2025-09-10T16:25:00Z,Alijó,Vila Real,Norte,-7.475454,41.280149,Resolução/Conclusão
25832672,Piódão,Região de Coimbra,310,2025-08-13T05:08:00Z,25832672,Em Resolução/Conclusão,3103,Incêndio rural,0,14,0,41,2025-08-13T05:08:00Z,Arganil,Coimbra,Centro,-7.81972,40.23083,Resolução/Conclusão
25840417,Lousã e Vilarinho,Região de Coimbra,310,2025-08-14T13:46:00Z,25840417,Em Resolução/Conclusão,3101,Incêndio rural,0,0,0,0,2025-08-14T13:46:00Z,Lousã,Coimbra,Centro,-8.201561,40.080016,Resolução/Conclusão
25952858,Figueira de Castelo Rodrigo,Beiras e Serra da Estrela,310,2025-09-06T16:22:00Z,25952858,Em Resolução/Conclusão,3103,Incêndio rural,0,4,0,16,2025-09-06T16:22:00Z,Figueira De Castelo Rodrigo,Guarda,Centro,-6.934648,40.906778,Resolução/Conclusão
25966389,Cimo de Vila da Castanheira,Alto Tâmega e Barroso,309,2025-09-09T15:30:00Z,25966389,Em Resolução/Conclusão,3103,Incêndio rural,0,4,0,11,2025-09-09T15:30:00Z,Chaves,Vila Real,Norte,-7.24149,41.805822,Resolução/Conclusão
25970006,São Luís,Alentejo Litoral,312,2025-09-10T11:55:00Z,25970006,Em Resolução/Conclusão,3103,Incêndio rural,0,11,0,37,2025-09-10T11:55:00Z,Odemira,Beja,Alentejo,-8.672553,37.714702,Resolução/Conclusão
25971503,Benfica do Ribatejo,Lezíria do Tejo,311,2025-09-10T17:10:00Z,25971503,Em Despacho,3105,Incêndio rural,0,4,0,12,2025-09-10T17:10:00Z,Almeirim,Santarém,Alentejo,-8.688346,39.147223,Despacho
