id,address,subregion,neighborhood,date,id.1,state,nature,nature_description,aerial_means,terrestrial_means,aquatic_means,operational,date.1,Concelho,Distrito,NUTII_DSG,longitude,latitude,state_2
25749937,Moimenta,Tâmega e Sousa,309,2025-07-29T04:11:00Z,25749937,Em Resolução/Conclusão,3103,Incêndio rural,0,24,0,77,2025-07-29T04:11:00Z,Cinfães,Viseu,Norte,-8.173308,41.072792,Resolução/Conclusão
25751241,Molelos,Viseu Dão Lafões,310,2025-07-29T10:43:00Z,25751241,Em Resolução/Conclusão,3103,Incêndio rural,0,2,0,7,2025-07-29T10:43:00Z,Tondela,Viseu,Centro,-8.09574,40.551495,Resolução/Conclusão
25751893,"Espírito Santo, Nossa Senhora da Graça e São Simão",Alto Alentejo,312,2025-07-29T12:32:00Z,25751893,Em Resolução/Conclusão,3101,Incêndio rural,0,2,0,6,2025-07-29T12:32:00Z,Nisa,Portalegre,Alentejo,-7.634827,39.571162,Resolução/Conclusão
25761996,Ninho do Açor e Sobral do Campo,Beira Baixa,310,2025-07-31T10:54:00Z,25761996,Em Resolução/Conclusão,3101,Incêndio rural,0,3,0,15,2025-07-31T10:54:00Z,Castelo Branco,Castelo Branco,Centro,-7.588895,39.990642,Resolução/Conclusão
25763532,Ninho do Açor e Sobral do Campo,Beira Baixa,310,2025-07-31T15:31:00Z,25763532,Em Resolução/Conclusão,3101,Incêndio rural,0,1,0,2,2025-07-31T15:31:00Z,Castelo Branco,Castelo Branco,Centro,-7.57756,39.994833,Resolução/Conclusão
25763650,Milagres,Região de Leiria,310,2025-07-31T15:58:00Z,25763650,Em Resolução/Conclusão,3101,Incêndio rural,0,1,0,2,2025-07-31T15:58:00Z,Leiria,Leiria,Centro,-8.792217,39.793427,Resolução/Conclusão
25766247,"Bagunte, Ferreiró, Outeiro Maior e Parada",Area M. Porto,309,2025-08-01T07:01:00Z,25766247,Em Resolução/Conclusão,3103,Incêndio rural,0,1,0,4,2025-08-01T07:01:00Z,Vila Do Conde,Porto,Norte,-8.678493,41.358535,Resolução/Conclusão
25767810,Freixiel,Terras de Trás-os-Montes,309,2025-08-01T11:53:00Z,25767810,Em Resolução/Conclusão,3103,Incêndio rural,0,6,0,17,2025-08-01T11:53:00Z,Vila Flor,Bragança,Norte,-7.209887,41.311842,Resolução/Conclusão
25767817,Cabanas de Viriato,Viseu Dão Lafões,310,2025-08-01T11:54:00Z,25767817,Em Resolução/Conclusão,3103,Incêndio rural,0,8,0,24,2025-08-01T11:54:00Z,Tondela,Viseu,Centro,-8.120597,40.489477,Resolução/Conclusão
25768094,Arcozelo Das Maias,Viseu Dão Lafões,310,2025-08-01T12:46:00Z,25768094,Em Resolução/Conclusão,3103,Incêndio rural,0,9,0,30,2025-08-01T12:46:00Z,Oliveira De Frades,Viseu,Centro,-8.269723,40.732348,Resolução/Conclusão
25768312,Monte Córdova,Area M. Porto,309,2025-08-01T13:28:00Z,25768312,Em Resolução/Conclusão,3103,Incêndio rural,0,3,0,11,2025-08-01T13:28:00Z,Santo Tirso,Porto,Norte,-8.446047,41.318509,Resolução/Conclusão
25768821,Bustelo,Tâmega e Sousa,309,2025-08-01T14:58:00Z,25768821,Em Resolução/Conclusão,3103,Incêndio rural,0,2,0,7,2025-08-01T14:58:00Z,Penafiel,Porto,Norte,-8.2544,41.23357,Resolução/Conclusão
25769003,Castro Vicente,Terras de Trás-os-Montes,309,2025-08-01T15:30:00Z,25769003,Em Resolução/Conclusão,3105,Incêndio rural,1,11,0,48,2025-08-01T15:30:00Z,Mogadouro,Bragança,Norte,-6.833188,41.405293,Resolução/Conclusão
25769048,Âncora,Alto Minho,309,2025-08-01T15:45:00Z,25769048,Em Resolução/Conclusão,3103,Incêndio rural,0,1,0,3,2025-08-01T15:45:00Z,Caminha,Viana Do Castelo,Norte,-8.859335,41.801613,Resolução/Conclusão
25769173,Ramalhal,Oeste,311,2025-08-01T16:06:00Z,25769173,Em Curso,3103,Incêndio rural,0,8,0,28,2025-08-01T16:06:00Z,Torres Vedras,Lisboa,Centro,-9.229202,39.14567,Curso
25749681,Fornos de Maceira Dão,Viseu Dão Lafões,310,2025-07-29T01:19:00Z,25749681,Em Resolução/Conclusão,3103,Incêndio rural,0,2,0,6,2025-07-29T01:19:00Z,Mangualde,Viseu,Centro,-7.806963,40.617022,Resolução/Conclusão
25750701,Capela,Tâmega e Sousa,309,2025-07-29T09:26:00Z,25750701,Em Resolução/Conclusão,3103,Incêndio rural,0,60,0,197,2025-07-29T09:26:00Z,Penafiel,Porto,Norte,-8.345202,41.09353,Resolução/Conclusão
25762916,Cota,Viseu Dão Lafões,310,2025-07-31T13:40:00Z,25762916,Em Resolução/Conclusão,3101,Incêndio rural,0,0,0,0,2025-07-31T13:40:00Z,Viseu,Viseu,Centro,-7.801223,40.780375,Resolução/Conclusão
25765473,Sameice e Santa Eulália,Beiras e Serra da Estrela,310,2025-07-31T23:02:00Z,25765473,Em Resolução/Conclusão,3103,Incêndio rural,0,1,0,5,2025-07-31T23:02:00Z,Seia,Guarda,Centro,-7.775783,40.420218,Resolução/Conclusão
25766143,Pias,Alto Minho,309,2025-08-01T05:34:00Z,25766143,Em Resolução/Conclusão,3103,Incêndio rural,0,11,0,26,2025-08-01T05:34:00Z,Monção,Viana Do Castelo,Norte,-8.522008,42.015168,Resolução/Conclusão
25767713,Passô,Douro,309,2025-08-01T11:36:00Z,25767713,Em Resolução/Conclusão,3103,Incêndio rural,0,1,0,2,2025-08-01T11:36:00Z,Moimenta Da Beira,Viseu,Norte,-7.718256,41.011149,Resolução/Conclusão
25767796,"Mangualde, Mesquitela e Cunha Alta",Viseu Dão Lafões,310,2025-08-01T11:50:00Z,25767796,Em Resolução/Conclusão,3103,Incêndio rural,0,6,0,17,2025-08-01T11:50:00Z,Mangualde,Viseu,Centro,-7.788212,40.612402,Resolução/Conclusão
25768400,Paradinha e Nagosa,Douro,309,2025-08-01T13:43:00Z,25768400,Em Curso,3103,Incêndio rural,2,28,0,112,2025-08-01T13:43:00Z,Moimenta Da Beira,Viseu,Norte,-7.602597,41.01336,Curso
25748118,Canelas e Espiunca,Area M. Porto,309,2025-07-28T17:16:00Z,25748118,Em Resolução/Conclusão,3101,Incêndio rural,0,158,0,434,2025-07-28T17:16:00Z,Arouca,Aveiro,Norte,-8.212231,40.969918,Resolução/Conclusão
25749320,Rebordões (Santa Maria),Alto Minho,309,2025-07-28T22:47:00Z,25749320,Em Resolução/Conclusão,3103,Incêndio rural,0,7,0,27,2025-07-28T22:47:00Z,Ponte De Lima,Viana Do Castelo,Norte,-8.588365,41.729993,Resolução/Conclusão
25749641,Silva Escura e Dornelas,Região de Aveiro,310,2025-07-29T01:02:00Z,25749641,Em Resolução/Conclusão,3101,Incêndio rural,0,6,0,20,2025-07-29T01:02:00Z,Sever Do Vouga,Aveiro,Centro,-8.399623,40.769354,Resolução/Conclusão
25756006,Pinhanços,Beiras e Serra da Estrela,310,2025-07-30T09:07:00Z,25756006,Em Resolução/Conclusão,3103,Incêndio rural,0,11,0,29,2025-07-30T09:07:00Z,Seia,Guarda,Centro,-7.708132,40.473517,Resolução/Conclusão
25756459,Nespereira,Tâmega e Sousa,309,2025-07-30T10:20:00Z,25756459,Em Resolução/Conclusão,3103,Incêndio rural,0,8,0,34,2025-07-30T10:20:00Z,Cinfães,Viseu,Norte,-8.130378,41.039695,Resolução/Conclusão
25763964,Pêro Viseu,Beiras e Serra da Estrela,310,2025-07-31T16:58:00Z,25763964,Em Resolução/Conclusão,3103,Incêndio rural,0,1,0,5,2025-07-31T16:58:00Z,Fundão,Castelo Branco,Centro,-7.457652,40.199215,Resolução/Conclusão
25766385,Boelhe,Tâmega e Sousa,309,2025-08-01T07:54:00Z,25766385,Em Resolução/Conclusão,3103,Incêndio rural,0,2,0,8,2025-08-01T07:54:00Z,Penafiel,Porto,Norte,-8.237738,41.138423,Resolução/Conclusão
25768869,Pontével,Lezíria do Tejo,311,2025-08-01T15:07:00Z,25768869,Em Resolução/Conclusão,3101,Incêndio rural,1,13,0,55,2025-08-01T15:07:00Z,Cartaxo,Santarém,Alentejo,-8.826073,39.12279,Resolução/Conclusão
25769099,Fonte de Angeão e Covão do Lobo,Região de Aveiro,310,2025-08-01T15:52:00Z,25769099,Em Curso,3103,Incêndio rural,1,11,0,48,2025-08-01T15:52:00Z,Vagos,Aveiro,Centro,-8.675381,40.451405,Curso
25769219,Frazão Arreigada,Tâmega e Sousa,309,2025-08-01T16:12:00Z,25769219,Em Despacho,3103,Incêndio rural,0,1,0,5,2025-08-01T16:12:00Z,Paços De Ferreira,Porto,Norte,-8.418342,41.264557,Despacho
25767707,Vila Nova de São Bento e Vale de Vargo,Baixo Alentejo,312,2025-08-01T11:29:00Z,25767707,Em Resolução/Conclusão,3103,Incêndio rural,0,9,0,26,2025-08-01T11:29:00Z,Serpa,Beja,Alentejo,-7.478578,37.881722,Resolução/Conclusão
25768658,Duas Igrejas,Area M. Porto,309,2025-08-01T14:25:00Z,25768658,Em Resolução/Conclusão,3103,Incêndio rural,0,3,0,9,2025-08-01T14:25:00Z,Paredes,Porto,Norte,-8.370023,41.221463,Resolução/Conclusão
25768842,São Gens,Ave,309,2025-08-01T15:00:00Z,25768842,Em Resolução/Conclusão,3103,Incêndio rural,0,1,0,5,2025-08-01T15:00:00Z,Fafe,Braga,Norte,-8.116663,41.442733,Resolução/Conclusão
25768993,Cambra e Carvalhal de Vermilhas,Viseu Dão Lafões,310,2025-08-01T15:28:00Z,25768993,Em Curso,3103,Incêndio rural,0,1,0,2,2025-08-01T15:28:00Z,Vouzela,Viseu,Centro,-8.176662,40.68206,Curso
25769058,Campo e Sobrado,Area M. Porto,309,2025-08-01T15:36:00Z,25769058,Em Resolução/Conclusão,3103,Incêndio rural,0,1,0,5,2025-08-01T15:36:00Z,Valongo,Porto,Norte,-8.463737,41.189757,Resolução/Conclusão
25738747,Lindoso,Alto Minho,309,2025-07-26T21:47:00Z,25738747,Em Curso,3103,Incêndio rural,9,224,0,672,2025-07-26T21:47:00Z,Ponte Da Barca,Viana Do Castelo,Norte,-8.220528,41.865272,Curso
25741169,Cota,Viseu Dão Lafões,310,2025-07-27T11:54:00Z,25741169,Em Resolução/Conclusão,3101,Incêndio rural,0,1,0,4,2025-07-27T11:54:00Z,Viseu,Viseu,Centro,-7.815572,40.816505,Resolução/Conclusão
25747773,Aranhas,Beira Baixa,310,2025-07-28T16:36:00Z,25747773,Em Resolução/Conclusão,3103,Incêndio rural,0,11,0,39,2025-07-28T16:36:00Z,Penamacor,Castelo Branco,Centro,-7.14438,40.117542,Resolução/Conclusão
25751999,Pombal,Região de Leiria,310,2025-07-29T12:53:00Z,25751999,Em Resolução/Conclusão,3101,Incêndio rural,0,1,0,2,2025-07-29T12:53:00Z,Pombal,Leiria,Centro,-8.6801,39.93227,Resolução/Conclusão
25752083,Alcanede,Lezíria do Tejo,311,2025-07-29T13:12:00Z,25752083,Em Resolução/Conclusão,3103,Incêndio rural,0,16,0,47,2025-07-29T13:12:00Z,Santarém,Santarém,Alentejo,-8.802682,39.405543,Resolução/Conclusão
25756620,Recarei,Area M. Porto,309,2025-07-30T10:47:00Z,25756620,Em Resolução/Conclusão,3103,Incêndio rural,1,25,0,68,2025-07-30T10:47:00Z,Paredes,Porto,Norte,-8.416721,41.151,Resolução/Conclusão
25764258,Valongo de Milhais,Douro,309,2025-07-31T18:03:00Z,25764258,Em Resolução/Conclusão,3103,Incêndio rural,0,2,0,6,2025-07-31T18:03:00Z,Murça,Vila Real,Norte,-7.42714,41.46461,Resolução/Conclusão
25766012,"Sande, Vilarinho, Barros e Gomide",Cávado,309,2025-08-01T03:15:00Z,25766012,Em Resolução/Conclusão,3103,Incêndio rural,0,0,0,0,2025-08-01T03:15:00Z,Vila Verde,Braga,Norte,-8.405045,41.734195,Resolução/Conclusão
25766089,"Sande, Vilarinho, Barros e Gomide",Cávado,309,2025-08-01T04:35:00Z,25766089,Em Curso,3103,Incêndio rural,2,35,0,112,2025-08-01T04:35:00Z,Vila Verde,Braga,Norte,-8.38083,41.72917,Curso
25766714,Oliveira do Douro,Tâmega e Sousa,309,2025-08-01T09:00:00Z,25766714,Em Resolução/Conclusão,3103,Incêndio rural,0,4,0,17,2025-08-01T09:00:00Z,Cinfães,Viseu,Norte,-8.071249,41.083011,Resolução/Conclusão
25768345,Torre de Coelheiros,Alentejo Central,312,2025-08-01T13:35:00Z,25768345,Em Resolução/Conclusão,3105,Incêndio rural,0,9,0,30,2025-08-01T13:35:00Z,Évora,Évora,Alentejo,-7.825333,38.453715,Resolução/Conclusão
25769020,"Requeixo, Nossa Senhora de Fátima e Nariz",Região de Aveiro,310,2025-08-01T15:34:00Z,25769020,Em Resolução/Conclusão,3101,Incêndio rural,1,6,0,26,2025-08-01T15:34:00Z,Aveiro,Aveiro,Centro,-8.582573,40.594472,Resolução/Conclusão
25769070,Lanhoso,Ave,309,2025-08-01T15:46:00Z,25769070,Em Resolução/Conclusão,3105,Incêndio rural,0,0,0,0,2025-08-01T15:46:00Z,Póvoa De Lanhoso,Braga,Norte,-8.286367,41.577297,Resolução/Conclusão
25769147,Água Longa,Area M. Porto,309,2025-08-01T16:00:00Z,25769147,Em Despacho,3101,Incêndio rural,1,3,0,12,2025-08-01T16:00:00Z,Santo Tirso,Porto,Norte,-8.495538,41.26598,Despacho
