id,address,subregion,neighborhood,date,id.1,state,nature,nature_description,aerial_means,terrestrial_means,aquatic_means,operational,date.1,Concelho,Distrito,NUTII_DSG,longitude,latitude,state_2
25951176,Sandomil,Beiras e Serra da Estrela,310,2025-09-06T10:29:00Z,25951176,Em Resolução/Conclusão,3103,Incêndio rural,0,2,0,10,2025-09-06T10:29:00Z,Seia,Guarda,Centro,-7.76001,40.351547,Resolução/Conclusão
26020631,"Tavares (Chãs, Várzea e Travanca)",Viseu Dão Lafões,310,2025-09-20T21:15:00Z,26020631,Em Resolução/Conclusão,3103,Incêndio rural,0,0,0,0,2025-09-20T21:15:00Z,Mangualde,Viseu,Centro,-7.639468,40.609133,Resolução/Conclusão
26024276,Monte Redondo e Carreira,Região de Leiria,310,2025-09-21T17:24:00Z,26024276,Em Resolução/Conclusão,3105,Incêndio rural,0,1,0,2,2025-09-21T17:24:00Z,Leiria,Leiria,Centro,-8.786287,39.874758,Resolução/Conclusão
26024592,Monte Redondo e Carreira,Região de Leiria,310,2025-09-21T18:44:00Z,26024592,Em Resolução/Conclusão,3105,Incêndio rural,0,1,0,2,2025-09-21T18:44:00Z,Leiria,Leiria,Centro,-8.85119,39.877718,Resolução/Conclusão
26027819,Santo André,Alto Tâmega e Barroso,309,2025-09-22T12:42:00Z,26027819,Em Resolução/Conclusão,3103,Incêndio rural,4,30,0,94,2025-09-22T12:42:00Z,Montalegre,Vila Real,Norte,-7.688477,41.868948,Resolução/Conclusão
26032631,Lordelo,Area M. Porto,309,2025-09-23T12:15:00Z,26032631,Em Resolução/Conclusão,3103,Incêndio rural,0,5,0,19,2025-09-23T12:15:00Z,Paredes,Porto,Norte,-8.4247,41.247832,Resolução/Conclusão
26033399,Foz do Sousa e Covelo,Area M. Porto,309,2025-09-23T14:41:00Z,26033399,Em Despacho,3103,Incêndio rural,1,3,0,21,2025-09-23T14:41:00Z,Gondomar,Porto,Norte,-8.482621,41.0963,Despacho
26033433,"Sé Nova, Santa Cruz, Almedina e São Bartolomeu",Região de Coimbra,310,2025-09-23T14:45:00Z,26033433,Em Resolução/Conclusão,3105,Incêndio rural,0,1,0,5,2025-09-23T14:45:00Z,Coimbra,Coimbra,Centro,-8.465693,40.241471,Resolução/Conclusão
26033483,Boelhe,Tâmega e Sousa,309,2025-09-23T14:59:00Z,26033483,Em Despacho,3103,Incêndio rural,1,4,0,19,2025-09-23T14:59:00Z,Penafiel,Porto,Norte,-8.24849,41.12758,Despacho
26033536,Vila Franca de Xira,Grande Lisboa,311,2025-09-23T15:05:00Z,26033536,Em Curso,3103,Incêndio rural,0,4,0,14,2025-09-23T15:05:00Z,Vila Franca De Xira,Lisboa,Área Metropolitana De Lisboa,-8.99128,38.95712,Curso
26033585,Seroa,Tâmega e Sousa,309,2025-09-23T15:15:00Z,26033585,Em Despacho,3105,Incêndio rural,0,0,0,0,2025-09-23T15:15:00Z,Paços De Ferreira,Porto,Norte,-8.42655,41.26984,Despacho
25832672,Piódão,Região de Coimbra,310,2025-08-13T05:08:00Z,25832672,Em Resolução/Conclusão,3103,Incêndio rural,0,0,0,0,2025-08-13T05:08:00Z,Arganil,Coimbra,Centro,-7.81972,40.23083,Resolução/Conclusão
26013902,Penacova,Região de Coimbra,310,2025-09-19T13:28:00Z,26013902,Em Resolução/Conclusão,3103,Incêndio rural,0,3,0,11,2025-09-19T13:28:00Z,Penacova,Coimbra,Centro,-8.32583,40.32722,Resolução/Conclusão
26025073,Fátima,Médio Tejo,311,2025-09-21T21:01:00Z,26025073,Em Resolução/Conclusão,3103,Incêndio rural,0,1,0,5,2025-09-21T21:01:00Z,Ourém,Santarém,Centro,-8.65072,39.578831,Resolução/Conclusão
26032502,"Mangualde, Mesquitela e Cunha Alta",Viseu Dão Lafões,310,2025-09-23T11:58:00Z,26032502,Em Resolução/Conclusão,3103,Incêndio rural,0,4,0,9,2025-09-23T11:58:00Z,Mangualde,Viseu,Centro,-7.746452,40.602352,Resolução/Conclusão
26032779,Baltar,Area M. Porto,309,2025-09-23T12:49:00Z,26032779,Em Resolução/Conclusão,3103,Incêndio rural,0,0,0,0,2025-09-23T12:49:00Z,Paredes,Porto,Norte,-8.387015,41.186516,Resolução/Conclusão
26032986,São Bartolomeu de Messines,Algarve,313,2025-09-23T13:34:00Z,26032986,Em Resolução/Conclusão,3103,Incêndio rural,0,12,0,40,2025-09-23T13:34:00Z,Silves,Faro,Algarve,-8.377982,37.362762,Resolução/Conclusão
26033195,Vila Nova de Milfontes,Alentejo Litoral,312,2025-09-23T14:01:00Z,26033195,Em Resolução/Conclusão,3103,Incêndio rural,0,16,0,50,2025-09-23T14:01:00Z,Odemira,Beja,Alentejo,-8.737267,37.75353,Resolução/Conclusão
26013065,Mezio e Moura Morta,Viseu Dão Lafões,310,2025-09-19T11:05:00Z,26013065,Em Resolução/Conclusão,3103,Incêndio rural,0,8,0,26,2025-09-19T11:05:00Z,Castro Daire,Viseu,Centro,-7.878187,40.98632,Resolução/Conclusão
26013919,Ervedal e Vila Franca da Beira,Região de Coimbra,310,2025-09-19T13:25:00Z,26013919,Em Resolução/Conclusão,3101,Incêndio rural,0,6,0,20,2025-09-19T13:25:00Z,Oliveira Do Hospital,Coimbra,Centro,-7.90472,40.43917,Resolução/Conclusão
26028091,Pelmá,Região de Leiria,310,2025-09-22T13:35:00Z,26028091,Em Resolução/Conclusão,3103,Incêndio rural,0,1,0,2,2025-09-22T13:35:00Z,Alvaiázere,Leiria,Centro,-8.455905,39.771273,Resolução/Conclusão
26028225,Aldeias e Mangualde da Serra,Beiras e Serra da Estrela,310,2025-09-22T14:00:00Z,26028225,Em Resolução/Conclusão,3103,Incêndio rural,0,15,0,50,2025-09-22T14:00:00Z,Gouveia,Guarda,Centro,-7.605367,40.459313,Resolução/Conclusão
26031758,Jou,Douro,309,2025-09-23T09:58:00Z,26031758,Em Resolução/Conclusão,3103,Incêndio rural,0,0,0,0,2025-09-23T09:58:00Z,Murça,Vila Real,Norte,-7.4119,41.489272,Resolução/Conclusão
26031908,Arcozelo Das Maias,Viseu Dão Lafões,310,2025-09-23T10:21:00Z,26031908,Em Resolução/Conclusão,3103,Incêndio rural,4,36,0,129,2025-09-23T10:21:00Z,Oliveira De Frades,Viseu,Centro,-8.27871,40.723646,Resolução/Conclusão
26032603,São João Baptista,Alto Alentejo,312,2025-09-23T12:18:00Z,26032603,Em Resolução/Conclusão,3105,Incêndio rural,0,4,0,17,2025-09-23T12:18:00Z,Campo Maior,Portalegre,Alentejo,-7.03069,39.0861,Resolução/Conclusão
26032955,Alfândega da Fé,Terras de Trás-os-Montes,309,2025-09-23T13:30:00Z,26032955,Em Resolução/Conclusão,3103,Incêndio rural,0,18,0,59,2025-09-23T13:30:00Z,Alfândega Da Fé,Bragança,Norte,-6.965727,41.350846,Resolução/Conclusão
26033454,São Roque,Area M. Porto,309,2025-09-23T14:52:00Z,26033454,Em Despacho,3103,Incêndio rural,1,4,0,22,2025-09-23T14:52:00Z,Oliveira De Azeméis,Aveiro,Norte,-8.48167,40.87923,Despacho
26033461,Grijó e Sermonde,Area M. Porto,309,2025-09-23T14:54:00Z,26033461,Em Resolução/Conclusão,3103,Incêndio rural,0,2,0,11,2025-09-23T14:54:00Z,Vila Nova De Gaia,Porto,Norte,-8.57494,41.03498,Resolução/Conclusão
26033531,Ermesinde,Area M. Porto,309,2025-09-23T14:55:00Z,26033531,Em Resolução/Conclusão,3103,Incêndio rural,0,1,0,5,2025-09-23T14:55:00Z,Valongo,Porto,Norte,-8.549319,41.21602,Resolução/Conclusão
26033540,Vendas Novas,Alentejo Central,312,2025-09-23T15:06:00Z,26033540,Em Despacho,3101,Incêndio rural,1,3,0,16,2025-09-23T15:06:00Z,Vendas Novas,Évora,Alentejo,-8.438683,38.657222,Despacho
26033478,Milheirós,Area M. Porto,309,2025-09-23T14:57:00Z,26033478,Em Despacho,3105,Incêndio rural,0,0,0,0,2025-09-23T14:57:00Z,Maia,Porto,Norte,-8.59244,41.20919,Despacho
26033498,Falagueira-Venda Nova,Grande Lisboa,311,2025-09-23T15:00:00Z,26033498,Em Resolução/Conclusão,3103,Incêndio rural,0,4,0,17,2025-09-23T15:00:00Z,Amadora,Lisboa,Área Metropolitana De Lisboa,-9.224437,38.762615,Resolução/Conclusão
26013405,Barreiros e Cepões,Viseu Dão Lafões,310,2025-09-19T11:56:00Z,26013405,Em Resolução/Conclusão,3103,Incêndio rural,0,7,0,29,2025-09-19T11:56:00Z,Viseu,Viseu,Centro,-7.786007,40.76602,Resolução/Conclusão
26022995,Bordeira,Algarve,313,2025-09-21T12:21:00Z,26022995,Em Curso,3103,Incêndio rural,10,217,0,653,2025-09-21T12:21:00Z,Aljezur,Faro,Algarve,-8.825374,37.23495,Curso
26030653,Canelas,Tâmega e Sousa,309,2025-09-23T01:12:00Z,26030653,Em Resolução/Conclusão,3103,Incêndio rural,0,2,0,7,2025-09-23T01:12:00Z,Penafiel,Porto,Norte,-8.348435,41.077193,Resolução/Conclusão
26031486,Penude,Douro,309,2025-09-23T09:10:00Z,26031486,Em Resolução/Conclusão,3103,Incêndio rural,0,3,0,15,2025-09-23T09:10:00Z,Lamego,Viseu,Norte,-7.8658,41.071602,Resolução/Conclusão
26032440,Sande e São Lourenço,Tâmega e Sousa,309,2025-09-23T11:52:00Z,26032440,Em Resolução/Conclusão,3105,Incêndio rural,0,0,0,0,2025-09-23T11:52:00Z,Marco De Canaveses,Porto,Norte,-8.19891,41.10066,Resolução/Conclusão
26032658,"São Miguel, Santa Eufémia e Rabaçal",Região de Coimbra,310,2025-09-23T12:27:00Z,26032658,Em Resolução/Conclusão,3105,Incêndio rural,0,4,0,14,2025-09-23T12:27:00Z,Penela,Coimbra,Centro,-8.34222,40.04194,Resolução/Conclusão
26032791,Veiros,Alentejo Central,312,2025-09-23T12:55:00Z,26032791,Em Resolução/Conclusão,3105,Incêndio rural,0,14,0,34,2025-09-23T12:55:00Z,Estremoz,Évora,Alentejo,-7.491595,38.947008,Resolução/Conclusão
26033258,Pernes,Lezíria do Tejo,311,2025-09-23T14:18:00Z,26033258,Em Resolução/Conclusão,3103,Incêndio rural,0,1,0,5,2025-09-23T14:18:00Z,Ourém,Santarém,Centro,-8.651275,39.551733,Resolução/Conclusão
26033458,"Real, Dume e Semelhe",Cávado,309,2025-09-23T14:57:00Z,26033458,Em Resolução/Conclusão,3105,Incêndio rural,0,1,0,5,2025-09-23T14:57:00Z,Braga,Braga,Norte,-8.43394,41.56219,Resolução/Conclusão
26033459,Grândola e Santa Margarida da Serra,Alentejo Litoral,312,2025-09-23T14:53:00Z,26033459,Em Curso,3105,Incêndio rural,0,12,0,38,2025-09-23T14:53:00Z,Grândola,Setúbal,Alentejo,-8.54756,38.19744,Curso
26033476,Águas Santas,Area M. Porto,309,2025-09-23T14:55:00Z,26033476,Em Despacho,3103,Incêndio rural,0,2,0,10,2025-09-23T14:55:00Z,Maia,Porto,Norte,-8.586605,41.2078,Despacho
