id,address,subregion,neighborhood,date,id.1,state,nature,nature_description,aerial_means,terrestrial_means,aquatic_means,operational,date.1,Concelho,Distrito,NUTII_DSG,longitude,latitude
24843001,Loulé (São Clemente),Algarve,313,2025-01-20T08:54:00Z,24843001,Em despacho,3315,Inundação de estruturas por precipitação intensa,0,1,0,2,2025-01-20T08:54:00Z,Loulé,Faro,Algarve,-8.018267,37.137687
24843233,Tavira (Santa Maria e Santiago),Algarve,313,2025-01-20T09:25:00Z,24843233,Em despacho,3315,Inundação de estruturas por precipitação intensa,0,1,0,2,2025-01-20T09:25:00Z,Tavira,Faro,Algarve,-7.64691,37.130442
24843253,Tavira (Santa Maria e Santiago),Algarve,313,2025-01-20T09:27:00Z,24843253,Em despacho,3315,Inundação de estruturas por precipitação intensa,0,1,0,2,2025-01-20T09:27:00Z,Tavira,Faro,Algarve,-7.64691,37.130442
24843209,Tavira (Santa Maria e Santiago),Algarve,313,2025-01-20T09:23:00Z,24843209,Em curso,3315,Inundação de estruturas por precipitação intensa,0,0,0,0,2025-01-20T09:23:00Z,Tavira,Faro,Algarve,-7.64691,37.130442
24843188,Vila do Bispo e Raposeira,Algarve,313,2025-01-20T09:20:00Z,24843188,Em conclusão,3313,Deslizamento de terras,0,1,0,2,2025-01-20T09:20:00Z,Vila Do Bispo,Faro,Algarve,-8.90908,37.083835
24843206,Tavira (Santa Maria e Santiago),Algarve,313,2025-01-20T09:37:00Z,24843206,Em despacho,3315,Inundação de estruturas por precipitação intensa,0,0,0,0,2025-01-20T09:37:00Z,Tavira,Faro,Algarve,-7.65668,37.12318
24843338,Cascais e Estoril,Grande Lisboa,311,2025-01-20T09:51:00Z,24843338,Em curso,3321,Dano na rede de fornecimento de eletricidade ,0,3,0,12,2025-01-20T09:51:00Z,Cascais,Lisboa,Área Metropolitana De Lisboa,-9.408908,38.704814
24843312,Gâmbia-Pontes-Alto da Guerra,Península de Setúbal,311,2025-01-20T09:51:00Z,24843312,Em despacho,3315,Inundação de estruturas por precipitação intensa,0,1,0,5,2025-01-20T09:51:00Z,Setúbal,Setúbal,Área Metropolitana De Lisboa,-8.78939,38.547536
