id,address,subregion,neighborhood,date,id.1,state,nature,nature_description,aerial_means,terrestrial_means,aquatic_means,operational,date.1,Concelho,Distrito,NUTII_DSG,longitude,latitude
25483628,Alcochete,Península de Setúbal,311,2025-06-06T00:29:00Z,25483628,Em despacho,2301,Incêndio em transporte rodoviário,0,1,0,5,2025-06-06T00:29:00Z,Alcochete,Setúbal,Área Metropolitana De Lisboa,-8.92518,38.74534
25483456,Ventosa e Cova,Ave,309,2025-06-05T22:54:00Z,25483456,Em conclusão,3103,Incêndio rural,0,5,0,22,2025-06-05T22:54:00Z,Vieira Do Minho,Braga,Norte,-8.178788,41.665873
25483638,Santa Maria de Lamas,Area M. Porto,309,2025-06-06T00:23:00Z,25483638,Em curso,3103,Incêndio rural,0,1,0,5,2025-06-06T00:23:00Z,Santa Maria Da Feira,Aveiro,Norte,-8.570375,40.978641
25482200,São João Dos Caldeireiros,Baixo Alentejo,312,2025-06-05T17:13:00Z,25482200,Em conclusão,3105,Incêndio rural,0,13,0,36,2025-06-05T17:13:00Z,Mértola,Beja,Alentejo,-7.81599,37.59366
25483584,Paranhos,Area M. Porto,309,2025-06-05T23:59:00Z,25483584,Em despacho,2101,Incêndio em edifícios habitacionais,0,4,0,17,2025-06-05T23:59:00Z,Porto,Porto,Norte,-8.599062,41.17026
25483635,Arões (São Romão),Ave,309,2025-06-06T00:33:00Z,25483635,Em despacho,3111,Queima,0,1,0,2,2025-06-06T00:33:00Z,Fafe,Braga,Norte,-8.215388,41.45506
