id,address,subregion,neighborhood,date,id.1,state,nature,nature_description,aerial_means,terrestrial_means,aquatic_means,operational,date.1,Concelho,Distrito,NUTII_DSG,longitude,latitude
25063232,Santa Maria do Castelo e Santiago e Santa Susana,Alentejo Litoral,312,2025-03-09T19:02:00Z,25063232,Em conclusão,1101,Cheia,0,0,0,0,2025-03-09T19:02:00Z,Alcácer Do Sal,Setúbal,Alentejo,-8.48167,38.29806
25113469,Arruda Dos Vinhos,Oeste,311,2025-03-20T01:39:00Z,25113469,Em resolução,3301,Queda de árvore,0,3,0,3,2025-03-20T01:39:00Z,Arruda Dos Vinhos,Lisboa,Centro,-9.074841,38.984407
25126874,Santana da Azinha,Beiras e Serra da Estrela,310,2025-03-21T11:27:00Z,25126874,Em despacho,3311,Queda de elementos de estruturas edificados,0,1,0,2,2025-03-21T11:27:00Z,Guarda,Guarda,Centro,-7.226578,40.45364
25127442,Cascais e Estoril,Grande Lisboa,311,2025-03-21T13:09:00Z,25127442,Em despacho,3301,Queda de árvore,0,0,0,0,2025-03-21T13:09:00Z,Cascais,Lisboa,Área Metropolitana De Lisboa,-9.44074,38.71857
25127575,Cela,Oeste,311,2025-03-21T13:33:00Z,25127575,Em despacho,3301,Queda de árvore,0,1,0,3,2025-03-21T13:33:00Z,Alcobaça,Leiria,Centro,-9.062135,39.50962
25127944,"S.maria, S.miguel, S.martinho, S.pedro Penaferrim",Grande Lisboa,311,2025-03-21T14:29:00Z,25127944,Em despacho,3301,Queda de árvore,0,5,0,22,2025-03-21T14:29:00Z,Sintra,Lisboa,Área Metropolitana De Lisboa,-9.402206,38.768727
25127978,Azeitão (São Lourenço e São Simão),Península de Setúbal,311,2025-03-21T14:21:00Z,25127978,Em curso,3301,Queda de árvore,0,0,0,0,2025-03-21T14:21:00Z,Setúbal,Setúbal,Área Metropolitana De Lisboa,-9.04265,38.541479
25128127,Azeitão (São Lourenço e São Simão),Península de Setúbal,311,2025-03-21T14:59:00Z,25128127,Em curso,3301,Queda de árvore,0,1,0,2,2025-03-21T14:59:00Z,Setúbal,Setúbal,Área Metropolitana De Lisboa,-9.004314,38.501234
25128310,Cascais e Estoril,Grande Lisboa,311,2025-03-21T15:24:00Z,25128310,Em curso,3301,Queda de árvore,0,3,0,9,2025-03-21T15:24:00Z,Cascais,Lisboa,Área Metropolitana De Lisboa,-9.398759,38.70391
25128327,Bemposta,Médio Tejo,311,2025-03-21T15:32:00Z,25128327,Em despacho,3313,Deslizamento de terras,0,1,0,1,2025-03-21T15:32:00Z,Abrantes,Santarém,Centro,-8.150503,39.352114
25128412,Buarcos,Região de Coimbra,310,2025-03-21T15:42:00Z,25128412,Em despacho,3329,Queda de estruturas temporárias ou móveis,0,1,0,2,2025-03-21T15:42:00Z,Figueira Da Foz,Coimbra,Centro,-8.870977,40.171768
25128562,Figueiró Dos Vinhos e Bairradas,Região de Leiria,310,2025-03-21T16:10:00Z,25128562,Em despacho,3313,Deslizamento de terras,0,1,0,1,2025-03-21T16:10:00Z,Figueiró Dos Vinhos,Leiria,Centro,-8.244145,39.868147
25128577,Almaceda,Beira Baixa,310,2025-03-21T15:59:00Z,25128577,Em despacho,3313,Deslizamento de terras,0,2,0,4,2025-03-21T15:59:00Z,Castelo Branco,Castelo Branco,Centro,-7.664371,39.972402
25128578,Azeitão (São Lourenço e São Simão),Península de Setúbal,311,2025-03-21T15:52:00Z,25128578,Em despacho,3301,Queda de árvore,0,1,0,4,2025-03-21T15:52:00Z,Setúbal,Setúbal,Área Metropolitana De Lisboa,-9.04265,38.541479
25128580,"Cedofeita, Ildefonso, Sé, Miragaia, Nicolau e Vitória",Area M. Porto,309,2025-03-21T16:10:00Z,25128580,Em despacho,3311,Queda de elementos de estruturas edificados,0,1,0,5,2025-03-21T16:10:00Z,Porto,Porto,Norte,-8.615939,41.15359
25128661,"Almada, Cova da Piedade, Pragal e Cacilhas",Península de Setúbal,311,2025-03-21T16:20:00Z,25128661,Em despacho,3311,Queda de elementos de estruturas edificados,0,2,0,6,2025-03-21T16:20:00Z,Almada,Setúbal,Área Metropolitana De Lisboa,-9.173069,38.677312
25128662,Cacia,Região de Aveiro,310,2025-03-21T16:25:00Z,25128662,Em despacho,3301,Queda de árvore,0,1,0,4,2025-03-21T16:25:00Z,Aveiro,Aveiro,Centro,-8.590939,40.687707
25128663,Condeixa-a-Velha e Condeixa-a-Nova,Região de Coimbra,310,2025-03-21T16:21:00Z,25128663,Em curso,3315,Inundação de estruturas por precipitação intensa,0,0,0,0,2025-03-21T16:21:00Z,Condeixa-a-Nova,Coimbra,Centro,-8.508357,40.093644
25128681,Queluz e Belas,Grande Lisboa,311,2025-03-21T16:25:00Z,25128681,Em despacho,3301,Queda de árvore,0,1,0,3,2025-03-21T16:25:00Z,Sintra,Lisboa,Área Metropolitana De Lisboa,-9.270072,38.779997
25128711,"Oeiras e S. Julião da Barra, Paço de Arcos e Caxias",Grande Lisboa,311,2025-03-21T16:30:00Z,25128711,Em despacho,3301,Queda de árvore,0,1,0,3,2025-03-21T16:30:00Z,Oeiras,Lisboa,Área Metropolitana De Lisboa,-9.290593,38.696925
25128731,Santo António Dos Cavaleiros e Frielas,Grande Lisboa,311,2025-03-21T15:54:00Z,25128731,Em despacho,3311,Queda de elementos de estruturas edificados,0,1,0,1,2025-03-21T15:54:00Z,Loures,Lisboa,Área Metropolitana De Lisboa,-9.171619,38.815144
25128778,Costa da Caparica,Península de Setúbal,311,2025-03-21T16:25:00Z,25128778,Em despacho,3301,Queda de árvore,0,1,0,3,2025-03-21T16:25:00Z,Almada,Setúbal,Área Metropolitana De Lisboa,-9.220385,38.624272
25128829,Poiares (Santo André),Região de Coimbra,310,2025-03-21T16:40:00Z,25128829,Em despacho,3315,Inundação de estruturas por precipitação intensa,0,1,0,3,2025-03-21T16:40:00Z,Vila Nova De Poiares,Coimbra,Centro,-8.257628,40.210364
25059714,Torrão,Alentejo Litoral,312,2025-03-08T22:10:00Z,25059714,Em curso,1101,Cheia,0,1,0,2,2025-03-08T22:10:00Z,Alcácer Do Sal,Setúbal,Alentejo,-8.359133,38.252053
25070044,Praia do Ribatejo,Médio Tejo,311,2025-03-10T19:30:00Z,25070044,Em curso,1101,Cheia,0,0,0,0,2025-03-10T19:30:00Z,Vila Nova Da Barquinha,Santarém,Centro,-8.357309,39.485638
25071496,São Manços e São Vicente do Pigeiro,Alentejo Central,312,2025-03-11T13:18:00Z,25071496,Em curso,1101,Cheia,0,2,0,4,2025-03-11T13:18:00Z,Évora,Évora,Alentejo,-7.713313,38.513673
25126246,Corval,Alentejo Central,312,2025-03-21T09:54:00Z,25126246,Em despacho,3311,Queda de elementos de estruturas edificados,0,1,0,2,2025-03-21T09:54:00Z,Reguengos De Monsaraz,Évora,Alentejo,-7.465278,38.444932
25126933,Azeitão (São Lourenço e São Simão),Península de Setúbal,311,2025-03-21T11:20:00Z,25126933,Em curso,3301,Queda de árvore,0,0,0,0,2025-03-21T11:20:00Z,Setúbal,Setúbal,Área Metropolitana De Lisboa,-9.04265,38.541479
25126998,Arruda Dos Vinhos,Oeste,311,2025-03-21T11:45:00Z,25126998,Em despacho,3301,Queda de árvore,0,1,0,1,2025-03-21T11:45:00Z,Arruda Dos Vinhos,Lisboa,Centro,-9.074841,38.984407
25127133,"S.julião, N.s. da Anunciada e S. Maria da Graça",Península de Setúbal,311,2025-03-21T12:04:00Z,25127133,Em despacho,3301,Queda de árvore,0,1,0,5,2025-03-21T12:04:00Z,Setúbal,Setúbal,Área Metropolitana De Lisboa,-8.889983,38.529955
25068300,Almeirim,Lezíria do Tejo,311,2025-03-10T20:52:00Z,25068300,Em curso,1101,Cheia,0,0,0,0,2025-03-10T20:52:00Z,Almeirim,Santarém,Alentejo,-8.635002,39.187436
25121298,Gafanhoeira (São Pedro) e Sabugueiro,Alentejo Central,312,2025-03-20T14:26:00Z,25121298,Em resolução,3301,Queda de árvore,0,0,0,0,2025-03-20T14:26:00Z,Arraiolos,Évora,Alentejo,-8.088754,38.754507
25127153,Algueirão-Mem Martins,Grande Lisboa,311,2025-03-21T09:48:00Z,25127153,Em conclusão,3301,Queda de árvore,0,1,0,4,2025-03-21T09:48:00Z,Sintra,Lisboa,Área Metropolitana De Lisboa,-9.340934,38.801232
25127396,"Santa Iria de Azoia, São João da Talha e Bobadela",Grande Lisboa,311,2025-03-21T12:45:00Z,25127396,Em curso,3301,Queda de árvore,0,2,0,5,2025-03-21T12:45:00Z,Loures,Lisboa,Área Metropolitana De Lisboa,-9.098065,38.824783
25127562,Sabóia,Alentejo Litoral,312,2025-03-21T13:20:00Z,25127562,Em despacho,3301,Queda de árvore,0,1,0,2,2025-03-21T13:20:00Z,Odemira,Beja,Alentejo,-8.502858,37.49757
25127939,"Leiria, Pousos, Barreira e Cortes",Região de Leiria,310,2025-03-21T14:28:00Z,25127939,Em despacho,3313,Deslizamento de terras,0,1,0,2,2025-03-21T14:28:00Z,Leiria,Leiria,Centro,-8.777233,39.756529
25087162,Pedrógão,Baixo Alentejo,312,2025-03-14T17:00:00Z,25087162,Em curso,1101,Cheia,0,0,0,0,2025-03-14T17:00:00Z,Vidigueira,Beja,Alentejo,-7.630327,38.110775
25126336,Manteigas (Santa Maria),Beiras e Serra da Estrela,310,2025-03-21T10:00:00Z,25126336,Em despacho,3301,Queda de árvore,0,2,0,4,2025-03-21T10:00:00Z,Manteigas,Guarda,Centro,-7.537826,40.403513
25126702,São João Das Lampas e Terrugem,Grande Lisboa,311,2025-03-21T11:01:00Z,25126702,Em despacho,3301,Queda de árvore,0,1,0,1,2025-03-21T11:01:00Z,Sintra,Lisboa,Área Metropolitana De Lisboa,-9.442718,38.844843
25126795,Sarzedas,Beira Baixa,310,2025-03-21T11:17:00Z,25126795,Em resolução,3313,Deslizamento de terras,0,3,0,5,2025-03-21T11:17:00Z,Castelo Branco,Castelo Branco,Centro,-7.61616,39.847017
25126986,São Pedro e Santa Maria e Vila Boa do Mondego,Beiras e Serra da Estrela,310,2025-03-21T11:40:00Z,25126986,Em despacho,3301,Queda de árvore,0,1,0,2,2025-03-21T11:40:00Z,Celorico Da Beira,Guarda,Centro,-7.39057,40.639156
25127322,Caldas da Rainha - Santo Onofre e Serra do Bouro,Oeste,311,2025-03-21T12:44:00Z,25127322,Em conclusão,3301,Queda de árvore,0,1,0,5,2025-03-21T12:44:00Z,Caldas Da Rainha,Leiria,Centro,-9.173623,39.439262
25127422,Quinta do Anjo,Península de Setúbal,311,2025-03-21T13:04:00Z,25127422,Em despacho,3301,Queda de árvore,0,1,0,3,2025-03-21T13:04:00Z,Palmela,Setúbal,Área Metropolitana De Lisboa,-8.9767,38.62244
25127615,Alcabideche,Grande Lisboa,311,2025-03-21T13:35:00Z,25127615,Em despacho,3301,Queda de árvore,0,1,0,5,2025-03-21T13:35:00Z,Cascais,Lisboa,Área Metropolitana De Lisboa,-9.438785,38.755713
25127783,Colares,Grande Lisboa,311,2025-03-21T13:55:00Z,25127783,Em despacho,3315,Inundação de estruturas por precipitação intensa,0,1,0,3,2025-03-21T13:55:00Z,Sintra,Lisboa,Área Metropolitana De Lisboa,-9.464841,38.795953
25127963,Alcabideche,Grande Lisboa,311,2025-03-21T14:32:00Z,25127963,Em despacho,3301,Queda de árvore,0,2,0,7,2025-03-21T14:32:00Z,Cascais,Lisboa,Área Metropolitana De Lisboa,-9.438785,38.755713
25128831,Barcarena,Grande Lisboa,311,2025-03-21T16:47:00Z,25128831,Em conclusão,3321,Dano na rede de fornecimento de eletricidade ,0,1,0,5,2025-03-21T16:47:00Z,Oeiras,Lisboa,Área Metropolitana De Lisboa,-9.268179,38.733176
25128864,"Cedofeita, Ildefonso, Sé, Miragaia, Nicolau e Vitória",Area M. Porto,309,2025-03-21T16:57:00Z,25128864,Em despacho,3311,Queda de elementos de estruturas edificados,0,1,0,5,2025-03-21T16:57:00Z,Porto,Porto,Norte,-8.615939,41.15359
25128865,Covas e Vila Nova de Oliveirinha,Região de Coimbra,310,2025-03-21T17:00:00Z,25128865,Em despacho,3301,Queda de árvore,0,1,0,3,2025-03-21T17:00:00Z,Tábua,Coimbra,Centro,-7.927138,40.348037
25128897,Cascais e Estoril,Grande Lisboa,311,2025-03-21T13:05:00Z,25128897,Em despacho,3301,Queda de árvore,0,2,0,5,2025-03-21T13:05:00Z,Cascais,Lisboa,Área Metropolitana De Lisboa,-9.419397,38.700982
25128898,Queluz e Belas,Grande Lisboa,311,2025-03-21T16:53:00Z,25128898,Em despacho,3301,Queda de árvore,0,1,0,3,2025-03-21T16:53:00Z,Sintra,Lisboa,Área Metropolitana De Lisboa,-9.282171,38.81681
25128930,Cete,Area M. Porto,309,2025-03-21T16:57:00Z,25128930,Em despacho,3311,Queda de elementos de estruturas edificados,0,1,0,2,2025-03-21T16:57:00Z,Paredes,Porto,Norte,-8.354781,41.171954
25128931,Cacia,Região de Aveiro,310,2025-03-21T17:05:00Z,25128931,Em despacho,3311,Queda de elementos de estruturas edificados,0,1,0,3,2025-03-21T17:05:00Z,Aveiro,Aveiro,Centro,-8.590939,40.687707
25128120,Rio de Mouro,Grande Lisboa,311,2025-03-21T14:59:00Z,25128120,Em despacho,3315,Inundação de estruturas por precipitação intensa,0,1,0,4,2025-03-21T14:59:00Z,Sintra,Lisboa,Área Metropolitana De Lisboa,-9.344491,38.75763
25128188,Carregal do Sal,Viseu Dão Lafões,310,2025-03-21T15:09:00Z,25128188,Em curso,3311,Queda de elementos de estruturas edificados,0,3,0,8,2025-03-21T15:09:00Z,Carregal Do Sal,Viseu,Centro,-8.005868,40.418393
25128204,Matosinhos e Leça da Palmeira,Area M. Porto,309,2025-03-21T14:55:00Z,25128204,Em despacho,3311,Queda de elementos de estruturas edificados,0,1,0,3,2025-03-21T14:55:00Z,Matosinhos,Porto,Norte,-8.692583,41.193749
25128285,"Alhandra, São João Dos Montes e Calhandriz",Grande Lisboa,311,2025-03-21T15:06:00Z,25128285,Em despacho,3301,Queda de árvore,0,1,0,3,2025-03-21T15:06:00Z,Vila Franca De Xira,Lisboa,Área Metropolitana De Lisboa,-9.029303,38.94243
25128304,Cascais e Estoril,Grande Lisboa,311,2025-03-21T13:17:00Z,25128304,Em despacho,3301,Queda de árvore,0,1,0,5,2025-03-21T13:17:00Z,Cascais,Lisboa,Área Metropolitana De Lisboa,-9.419397,38.700982
25128386,Ramalhal,Oeste,311,2025-03-21T15:40:00Z,25128386,Em despacho,3301,Queda de árvore,0,1,0,3,2025-03-21T15:40:00Z,Torres Vedras,Lisboa,Centro,-9.24961,39.163007
25128388,Bombarral e Vale Covo,Oeste,311,2025-03-21T15:39:00Z,25128388,Em despacho,3301,Queda de árvore,0,1,0,5,2025-03-21T15:39:00Z,Bombarral,Leiria,Centro,-9.142029,39.245053
25128421,Luz de Tavira e Santo Estêvão,Algarve,313,2025-03-21T15:35:00Z,25128421,Em curso,3301,Queda de árvore,0,1,0,3,2025-03-21T15:35:00Z,Tavira,Faro,Algarve,-7.714632,37.093757
25128435,São Vicente do Paul e Vale de Figueira,Lezíria do Tejo,311,2025-03-21T15:48:00Z,25128435,Em despacho,3301,Queda de árvore,0,1,0,5,2025-03-21T15:48:00Z,Santarém,Santarém,Alentejo,-8.622647,39.347479
25128033,"S.maria, S.miguel, S.martinho, S.pedro Penaferrim",Grande Lisboa,311,2025-03-21T14:46:00Z,25128033,Em despacho,3301,Queda de árvore,0,2,0,6,2025-03-21T14:46:00Z,Sintra,Lisboa,Área Metropolitana De Lisboa,-9.366763,38.781718
25128038,São Bartolomeu de Messines,Algarve,313,2025-03-21T14:40:00Z,25128038,Em despacho,3301,Queda de árvore,0,2,0,4,2025-03-21T14:40:00Z,Silves,Faro,Algarve,-8.22463,37.255898
25128056,Santa Maria do Castelo e Santiago e Santa Susana,Alentejo Litoral,312,2025-03-21T14:41:00Z,25128056,Em curso,1101,Cheia,0,0,0,0,2025-03-21T14:41:00Z,Alcácer Do Sal,Setúbal,Alentejo,-8.434671,38.401157
25128067,Meimão,Beira Baixa,310,2025-03-21T14:51:00Z,25128067,Em conclusão,3313,Deslizamento de terras,0,4,0,6,2025-03-21T14:51:00Z,Penamacor,Castelo Branco,Centro,-7.118335,40.282541
25128181,Bombarral e Vale Covo,Oeste,311,2025-03-21T15:09:00Z,25128181,Em despacho,3301,Queda de árvore,0,1,0,4,2025-03-21T15:09:00Z,Bombarral,Leiria,Centro,-9.184976,39.250978
25128251,"Santa Iria de Azoia, São João da Talha e Bobadela",Grande Lisboa,311,2025-03-21T15:22:00Z,25128251,Em despacho,3321,Dano na rede de fornecimento de eletricidade ,0,0,0,0,2025-03-21T15:22:00Z,Loures,Lisboa,Área Metropolitana De Lisboa,-9.09696,38.80996
25128276,"Belazaima do Chão, Castanheira do Vouga e Agadão",Região de Aveiro,310,2025-03-21T15:19:00Z,25128276,Em despacho,3301,Queda de árvore,0,2,0,5,2025-03-21T15:19:00Z,Águeda,Aveiro,Centro,-8.380975,40.532562
25128365,Vale de Santarém,Lezíria do Tejo,311,2025-03-21T15:37:00Z,25128365,Em despacho,3321,Dano na rede de fornecimento de eletricidade ,0,1,0,2,2025-03-21T15:37:00Z,Santarém,Santarém,Alentejo,-8.723394,39.188484
25128431,"Seia, São Romão e Lapa Dos Dinheiros",Beiras e Serra da Estrela,310,2025-03-21T15:44:00Z,25128431,Em curso,3313,Deslizamento de terras,0,2,0,4,2025-03-21T15:44:00Z,Seia,Guarda,Centro,-7.706579,40.420381
25128248,São Brás de Alportel,Algarve,313,2025-03-21T15:06:00Z,25128248,Em despacho,3315,Inundação de estruturas por precipitação intensa,0,1,0,5,2025-03-21T15:06:00Z,São Brás De Alportel,Faro,Algarve,-7.892178,37.149213
25128284,Canha,Península de Setúbal,311,2025-03-21T15:28:00Z,25128284,Em resolução,3301,Queda de árvore,0,5,0,12,2025-03-21T15:28:00Z,Montijo,Setúbal,Área Metropolitana De Lisboa,-8.657477,38.74015
25128341,Caparica e Trafaria,Península de Setúbal,311,2025-03-21T15:19:00Z,25128341,Em despacho,3301,Queda de árvore,0,2,0,7,2025-03-21T15:19:00Z,Almada,Setúbal,Área Metropolitana De Lisboa,-9.234918,38.664134
25128373,Alfena,Area M. Porto,309,2025-03-21T15:38:00Z,25128373,Em conclusão,3301,Queda de árvore,0,3,0,8,2025-03-21T15:38:00Z,Valongo,Porto,Norte,-8.528973,41.241265
25128389,Ramada e Caneças,Grande Lisboa,311,2025-03-21T15:30:00Z,25128389,Em despacho,3301,Queda de árvore,0,1,0,4,2025-03-21T15:30:00Z,Odivelas,Lisboa,Área Metropolitana De Lisboa,-9.224517,38.811058
25128425,Bombarral e Vale Covo,Oeste,311,2025-03-21T15:39:00Z,25128425,Em despacho,3313,Deslizamento de terras,0,2,0,2,2025-03-21T15:39:00Z,Bombarral,Leiria,Centro,-9.184976,39.250978
25128441,Santa Marinha e São Pedro da Afurada,Area M. Porto,309,2025-03-21T15:39:00Z,25128441,Em conclusão,3301,Queda de árvore,0,2,0,4,2025-03-21T15:39:00Z,Vila Nova De Gaia,Porto,Norte,-8.624714,41.132843
25128438,"Braga (Maximinos, Sé e Cividade)",Cávado,309,2025-03-21T15:50:00Z,25128438,Em despacho,3311,Queda de elementos de estruturas edificados,0,1,0,3,2025-03-21T15:50:00Z,Braga,Braga,Norte,-8.43035,41.54389
25128489,Benfica do Ribatejo,Lezíria do Tejo,311,2025-03-21T15:59:00Z,25128489,Em conclusão,3301,Queda de árvore,0,4,0,9,2025-03-21T15:59:00Z,Almeirim,Santarém,Alentejo,-8.68469,39.14425
25128536,Carnaxide e Queijas,Grande Lisboa,311,2025-03-21T10:40:00Z,25128536,Em curso,3301,Queda de árvore,0,1,0,2,2025-03-21T10:40:00Z,Oeiras,Lisboa,Área Metropolitana De Lisboa,-9.25881,38.722457
25128554,Moita,Península de Setúbal,311,2025-03-21T16:08:00Z,25128554,Em despacho,3329,Queda de estruturas temporárias ou móveis,0,1,0,5,2025-03-21T16:08:00Z,Moita,Setúbal,Área Metropolitana De Lisboa,-8.9759620000000009,38.642311
25128570,"Nossa Senhora do Pópulo, Coto e São Gregório",Oeste,311,2025-03-21T16:05:00Z,25128570,Em conclusão,3321,Dano na rede de fornecimento de eletricidade ,0,1,0,2,2025-03-21T16:05:00Z,Caldas Da Rainha,Leiria,Centro,-9.119016,39.420885
25128572,Costa da Caparica,Península de Setúbal,311,2025-03-21T16:13:00Z,25128572,Em despacho,3301,Queda de árvore,0,1,0,3,2025-03-21T16:13:00Z,Almada,Setúbal,Área Metropolitana De Lisboa,-9.2338,38.6422
25128604,Belmonte e Colmeal da Torre,Beiras e Serra da Estrela,310,2025-03-21T16:14:00Z,25128604,Em despacho,3301,Queda de árvore,0,2,0,7,2025-03-21T16:14:00Z,Belmonte,Castelo Branco,Centro,-7.336464,40.331975
25128605,Peral,Oeste,311,2025-03-21T16:04:00Z,25128605,Em despacho,3301,Queda de árvore,0,1,0,2,2025-03-21T16:04:00Z,Cadaval,Lisboa,Centro,-9.051808,39.254808
25128606,Arões,Area M. Porto,309,2025-03-21T16:10:00Z,25128606,Em conclusão,3329,Queda de estruturas temporárias ou móveis,0,1,0,3,2025-03-21T16:10:00Z,Vale De Cambra,Aveiro,Norte,-8.277264,40.813152
25128456,Silvares (São Martinho),Ave,309,2025-03-21T15:50:00Z,25128456,Em despacho,3301,Queda de árvore,0,1,0,2,2025-03-21T15:50:00Z,Fafe,Braga,Norte,-8.166149,41.410835
25128576,Batalha,Região de Leiria,310,2025-03-21T16:10:00Z,25128576,Em curso,3301,Queda de árvore,0,1,0,2,2025-03-21T16:10:00Z,Batalha,Leiria,Centro,-8.833621,39.678747
25128615,Condeixa-a-Velha e Condeixa-a-Nova,Região de Coimbra,310,2025-03-21T16:18:00Z,25128615,Em despacho,3315,Inundação de estruturas por precipitação intensa,0,0,0,0,2025-03-21T16:18:00Z,Condeixa-a-Nova,Coimbra,Centro,-8.483802,40.10723
25128633,Benavente,Lezíria do Tejo,311,2025-03-21T16:22:00Z,25128633,Em resolução,3301,Queda de árvore,0,1,0,3,2025-03-21T16:22:00Z,Benavente,Santarém,Alentejo,-8.804753,38.980872
25128699,Soure,Região de Coimbra,310,2025-03-21T16:34:00Z,25128699,Em despacho,3301,Queda de árvore,0,1,0,5,2025-03-21T16:34:00Z,Soure,Coimbra,Centro,-8.639406,40.055319
25128758,São João Das Lampas e Terrugem,Grande Lisboa,311,2025-03-21T15:27:00Z,25128758,Em despacho,3301,Queda de árvore,0,1,0,2,2025-03-21T15:27:00Z,Sintra,Lisboa,Área Metropolitana De Lisboa,-9.35772,38.858377
25128819,Algueirão-Mem Martins,Grande Lisboa,311,2025-03-21T16:37:00Z,25128819,Em despacho,3301,Queda de árvore,0,1,0,2,2025-03-21T16:37:00Z,Sintra,Lisboa,Área Metropolitana De Lisboa,-9.340934,38.801232
25128636,Colares,Grande Lisboa,311,2025-03-21T16:09:00Z,25128636,Em despacho,3301,Queda de árvore,0,2,0,4,2025-03-21T16:09:00Z,Sintra,Lisboa,Área Metropolitana De Lisboa,-9.448532,38.785329
25128670,Condeixa-a-Velha e Condeixa-a-Nova,Região de Coimbra,310,2025-03-21T16:25:00Z,25128670,Em curso,3315,Inundação de estruturas por precipitação intensa,0,1,0,1,2025-03-21T16:25:00Z,Condeixa-a-Nova,Coimbra,Centro,-8.482693,40.119842
25128673,"Santa Iria de Azoia, São João da Talha e Bobadela",Grande Lisboa,311,2025-03-21T11:49:00Z,25128673,Em despacho,3301,Queda de árvore,0,1,0,4,2025-03-21T11:49:00Z,Loures,Lisboa,Área Metropolitana De Lisboa,-9.098065,38.824783
25128689,Semide e Rio Vide,Região de Coimbra,310,2025-03-21T16:30:00Z,25128689,Em despacho,3301,Queda de árvore,0,1,0,2,2025-03-21T16:30:00Z,Miranda Do Corvo,Coimbra,Centro,-8.300895,40.131958
25128722,"Alto do Seixalinho, Santo André e Verderena",Península de Setúbal,311,2025-03-21T16:35:00Z,25128722,Em despacho,3301,Queda de árvore,0,1,0,4,2025-03-21T16:35:00Z,Barreiro,Setúbal,Área Metropolitana De Lisboa,-9.065968,38.6593
25128739,Santo António Dos Olivais,Região de Coimbra,310,2025-03-21T16:21:00Z,25128739,Em despacho,3315,Inundação de estruturas por precipitação intensa,0,1,0,3,2025-03-21T16:21:00Z,Coimbra,Coimbra,Centro,-8.408011,40.217307
25128772,São Miguel do Rio Torto e Rossio Ao Sul do Tejo,Médio Tejo,311,2025-03-21T16:43:00Z,25128772,Em despacho,3329,Queda de estruturas temporárias ou móveis,0,1,0,2,2025-03-21T16:43:00Z,Abrantes,Santarém,Centro,-8.1877,39.443074
25128790,Peniche,Oeste,311,2025-03-21T16:41:00Z,25128790,Em despacho,3329,Queda de estruturas temporárias ou móveis,0,2,0,4,2025-03-21T16:41:00Z,Peniche,Leiria,Centro,-9.376833,39.357166
25128806,Alverca do Ribatejo e Sobralinho,Grande Lisboa,311,2025-03-21T16:47:00Z,25128806,Em despacho,3301,Queda de árvore,0,1,0,5,2025-03-21T16:47:00Z,Vila Franca De Xira,Lisboa,Área Metropolitana De Lisboa,-9.046012,38.896362
25128820,Sesimbra (Castelo),Península de Setúbal,311,2025-03-21T16:24:00Z,25128820,Em despacho,3301,Queda de árvore,0,1,0,5,2025-03-21T16:24:00Z,Sesimbra,Setúbal,Área Metropolitana De Lisboa,-9.103501,38.460817
25128823,Paranhos,Area M. Porto,309,2025-03-21T16:40:00Z,25128823,Em despacho,3301,Queda de árvore,0,1,0,3,2025-03-21T16:40:00Z,Porto,Porto,Norte,-8.604254,41.174248
25128870,Fanhões,Grande Lisboa,311,2025-03-21T16:59:00Z,25128870,Em despacho,3321,Dano na rede de fornecimento de eletricidade ,0,1,0,4,2025-03-21T16:59:00Z,Loures,Lisboa,Área Metropolitana De Lisboa,-9.170259,38.880011
25128887,Guarda,Beiras e Serra da Estrela,310,2025-03-21T16:56:00Z,25128887,Em despacho,3311,Queda de elementos de estruturas edificados,0,2,0,4,2025-03-21T16:56:00Z,Guarda,Guarda,Centro,-7.260869,40.536751
25128903,Chamusca e Pinheiro Grande,Lezíria do Tejo,311,2025-03-21T17:09:00Z,25128903,Em despacho,3321,Dano na rede de fornecimento de eletricidade ,0,1,0,2,2025-03-21T17:09:00Z,Chamusca,Santarém,Alentejo,-8.490477,39.362372
25128923,Alcafache,Viseu Dão Lafões,310,2025-03-21T16:58:00Z,25128923,Em despacho,3301,Queda de árvore,0,1,0,3,2025-03-21T16:58:00Z,Mangualde,Viseu,Centro,-7.883859,40.5947
25128559,Branca,Região de Aveiro,310,2025-03-21T16:10:00Z,25128559,Em despacho,3315,Inundação de estruturas por precipitação intensa,0,1,0,2,2025-03-21T16:10:00Z,Albergaria-a-Velha,Aveiro,Centro,-8.48966,40.75384
25128598,Riachos,Médio Tejo,311,2025-03-21T16:16:00Z,25128598,Em conclusão,3301,Queda de árvore,0,1,0,4,2025-03-21T16:16:00Z,Torres Novas,Santarém,Centro,-8.519881,39.45946
25128600,Alferce,Algarve,313,2025-03-21T16:03:00Z,25128600,Em despacho,3313,Deslizamento de terras,0,1,0,2,2025-03-21T16:03:00Z,Monchique,Faro,Algarve,-8.493023,37.333617
25128668,Silves,Algarve,313,2025-03-21T16:14:00Z,25128668,Em curso,3301,Queda de árvore,0,1,0,4,2025-03-21T16:14:00Z,Silves,Faro,Algarve,-8.504821,37.209239
25128709,Igreja Nova e Cheleiros,Grande Lisboa,311,2025-03-21T16:30:00Z,25128709,Em despacho,3301,Queda de árvore,0,1,0,5,2025-03-21T16:30:00Z,Mafra,Lisboa,Área Metropolitana De Lisboa,-9.319624,38.922723
25128725,Castanheira do Ribatejo e Cachoeiras,Grande Lisboa,311,2025-03-21T16:34:00Z,25128725,Em despacho,3301,Queda de árvore,0,1,0,3,2025-03-21T16:34:00Z,Vila Franca De Xira,Lisboa,Área Metropolitana De Lisboa,-8.979234,38.999552
25128732,Dois Portos e Runa,Oeste,311,2025-03-21T16:38:00Z,25128732,Em despacho,3301,Queda de árvore,0,1,0,4,2025-03-21T16:38:00Z,Torres Vedras,Lisboa,Centro,-9.19813,39.0522
25128757,Rio Tinto,Area M. Porto,309,2025-03-21T16:29:00Z,25128757,Em despacho,3311,Queda de elementos de estruturas edificados,0,1,0,5,2025-03-21T16:29:00Z,Gondomar,Porto,Norte,-8.556242,41.183094
25128793,Bonfim,Area M. Porto,309,2025-03-21T16:27:00Z,25128793,Em despacho,3315,Inundação de estruturas por precipitação intensa,0,1,0,5,2025-03-21T16:27:00Z,Porto,Porto,Norte,-8.596119,41.151713
25128824,"Assunção, Ajuda, Salvador e Santo Ildefonso",Alto Alentejo,312,2025-03-21T16:47:00Z,25128824,Em curso,3311,Queda de elementos de estruturas edificados,0,2,0,4,2025-03-21T16:47:00Z,Elvas,Portalegre,Alentejo,-7.164494,38.878901
25128835,Arrifana,Região de Coimbra,310,2025-03-21T16:41:00Z,25128835,Em despacho,3301,Queda de árvore,0,1,0,2,2025-03-21T16:41:00Z,Vila Nova De Poiares,Coimbra,Centro,-8.27412,40.232859
25128849,Marmelete,Algarve,313,2025-03-21T16:30:00Z,25128849,Em despacho,3301,Queda de árvore,0,1,0,3,2025-03-21T16:30:00Z,Monchique,Faro,Algarve,-8.666635,37.311336
25128860,Ulme,Lezíria do Tejo,311,2025-03-21T17:00:00Z,25128860,Em despacho,3301,Queda de árvore,0,1,0,2,2025-03-21T17:00:00Z,Chamusca,Santarém,Alentejo,-8.378025,39.321632
25128899,Anta e Guetim,Area M. Porto,309,2025-03-21T17:03:00Z,25128899,Em curso,3321,Dano na rede de fornecimento de eletricidade ,0,1,0,3,2025-03-21T17:03:00Z,Espinho,Aveiro,Norte,-8.624054,41.007239
25128802,Quinta do Conde,Península de Setúbal,311,2025-03-21T16:43:00Z,25128802,Em despacho,3301,Queda de árvore,0,2,0,6,2025-03-21T16:43:00Z,Sesimbra,Setúbal,Área Metropolitana De Lisboa,-9.03613,38.570355
25128816,Igreja Nova do Sobral,Médio Tejo,311,2025-03-21T16:51:00Z,25128816,Em despacho,3313,Deslizamento de terras,0,1,0,2,2025-03-21T16:51:00Z,Ferreira Do Zêzere,Santarém,Centro,-8.334746,39.676186
25128834,"S.maria, S.miguel, S.martinho, S.pedro Penaferrim",Grande Lisboa,311,2025-03-21T16:49:00Z,25128834,Em despacho,3301,Queda de árvore,0,1,0,4,2025-03-21T16:49:00Z,Sintra,Lisboa,Área Metropolitana De Lisboa,-9.372641,38.788861
25128850,"Marvila, Ribeira Santarém, S.salvador, S.nicolau",Lezíria do Tejo,311,2025-03-21T16:59:00Z,25128850,Em curso,3309,Desabamento de estruturas edificadas,0,1,0,2,2025-03-21T16:59:00Z,Santarém,Santarém,Alentejo,-8.682443,39.236235
25128868,Cedrim e Paradela,Região de Aveiro,310,2025-03-21T17:03:00Z,25128868,Em despacho,3313,Deslizamento de terras,0,1,0,2,2025-03-21T17:03:00Z,Sever Do Vouga,Aveiro,Centro,-8.35308,40.70877
25128884,Colares,Grande Lisboa,311,2025-03-21T16:51:00Z,25128884,Em despacho,3301,Queda de árvore,0,1,0,2,2025-03-21T16:51:00Z,Sintra,Lisboa,Área Metropolitana De Lisboa,-9.432326,38.780106
25128893,"Amarante (São Gonçalo), Madalena, Cepelos e Gatão",Tâmega e Sousa,309,2025-03-21T17:05:00Z,25128893,Em despacho,3301,Queda de árvore,0,1,0,1,2025-03-21T17:05:00Z,Amarante,Porto,Norte,-8.085395,41.273908
25128902,Alvor,Algarve,313,2025-03-21T16:59:00Z,25128902,Em despacho,3301,Queda de árvore,0,1,0,2,2025-03-21T16:59:00Z,Portimão,Faro,Algarve,-8.5944680000000009,37.131433
25128911,Cacém e São Marcos,Grande Lisboa,311,2025-03-21T16:58:00Z,25128911,Em despacho,3315,Inundação de estruturas por precipitação intensa,0,1,0,5,2025-03-21T16:58:00Z,Sintra,Lisboa,Área Metropolitana De Lisboa,-9.296125,38.754519
