id,address,subregion,neighborhood,date,id.1,state,nature,nature_description,aerial_means,terrestrial_means,aquatic_means,operational,date.1,Concelho,Distrito,NUTII_DSG,longitude,latitude
24851780,"São Miguel, Santa Eufémia e Rabaçal",Região de Coimbra,310,2025-01-21T23:25:00Z,24851780,Em curso,3315,Inundação de estruturas por precipitação intensa,0,0,0,0,2025-01-21T23:25:00Z,Penela,Coimbra,Centro,-8.399036,40.025502
24850991,"Santa Maria da Feira, Travanca, Sanfins e Espargo",Area M. Porto,309,2025-01-21T19:32:00Z,24850991,Em despacho,3315,Inundação de estruturas por precipitação intensa,0,1,0,2,2025-01-21T19:32:00Z,Santa Maria Da Feira,Aveiro,Norte,-8.53693,40.93173
24852361,Loulé (São Clemente),Algarve,313,2025-01-22T06:08:00Z,24852361,Em despacho,3315,Inundação de estruturas por precipitação intensa,0,1,0,1,2025-01-22T06:08:00Z,Loulé,Faro,Algarve,-7.987478,37.12554
24852411,Fronteira,Alto Alentejo,312,2025-01-22T06:12:00Z,24852411,Em curso,3301,Queda de árvore,0,2,0,6,2025-01-22T06:12:00Z,Fronteira,Portalegre,Alentejo,-7.64399,39.041888
24852450,São Brás de Alportel,Algarve,313,2025-01-22T06:59:00Z,24852450,Em despacho,3315,Inundação de estruturas por precipitação intensa,0,1,0,3,2025-01-22T06:59:00Z,São Brás De Alportel,Faro,Algarve,-7.906798,37.153747
24852534,Turiz,Cávado,309,2025-01-22T07:39:00Z,24852534,Em despacho,3301,Queda de árvore,0,1,0,2,2025-01-22T07:39:00Z,Vila Verde,Braga,Norte,-8.450645,41.632564
24851821,Santa Maria do Castelo e Santiago e Santa Susana,Alentejo Litoral,312,2025-01-21T23:41:00Z,24851821,Em resolução,1103,Vento forte,0,11,0,21,2025-01-21T23:41:00Z,Alcácer Do Sal,Setúbal,Alentejo,-8.598678,38.397168
24852406,Colmeias e Memória,Região de Leiria,310,2025-01-22T06:36:00Z,24852406,Em despacho,3321,Dano na rede de fornecimento de eletricidade ,0,3,0,5,2025-01-22T06:36:00Z,Leiria,Leiria,Centro,-8.683668,39.78304
24852487,São Brás de Alportel,Algarve,313,2025-01-22T07:13:00Z,24852487,Em despacho,3315,Inundação de estruturas por precipitação intensa,0,1,0,3,2025-01-22T07:13:00Z,São Brás De Alportel,Faro,Algarve,-7.897745,37.169047
24852490,"Assunção, Ajuda, Salvador e Santo Ildefonso",Alto Alentejo,312,2025-01-22T06:58:00Z,24852490,Em conclusão,3315,Inundação de estruturas por precipitação intensa,0,1,0,2,2025-01-22T06:58:00Z,Elvas,Portalegre,Alentejo,-7.162478,38.869312
24852504,Freixial e Juncal do Campo,Beira Baixa,310,2025-01-22T07:29:00Z,24852504,Em despacho,3313,Deslizamento de terras,0,3,0,6,2025-01-22T07:29:00Z,Castelo Branco,Castelo Branco,Centro,-7.60584,39.91218
24852505,Sousel,Alto Alentejo,312,2025-01-22T07:27:00Z,24852505,Em conclusão,3301,Queda de árvore,0,2,0,5,2025-01-22T07:27:00Z,Sousel,Portalegre,Alentejo,-7.739317,38.98665
24852523,São Brás de Alportel,Algarve,313,2025-01-22T07:34:00Z,24852523,Em despacho,3315,Inundação de estruturas por precipitação intensa,0,0,0,0,2025-01-22T07:34:00Z,São Brás De Alportel,Faro,Algarve,-7.89716,37.17049
