id,address,subregion,neighborhood,date,id.1,state,nature,nature_description,aerial_means,terrestrial_means,aquatic_means,operational,date.1,Concelho,Distrito,NUTII_DSG,longitude,latitude
25321942,Alcobaça e Vestiaria,Oeste,311,2025-05-03T08:46:00Z,25321942,Em conclusão,3301,Queda de árvore,0,2,0,4,2025-05-03T08:46:00Z,Alcobaça,Leiria,Centro,-8.984743,39.566315
25322178,Condeixa-a-Velha e Condeixa-a-Nova,Região de Coimbra,310,2025-05-03T09:35:00Z,25322178,Em despacho,3301,Queda de árvore,0,1,0,2,2025-05-03T09:35:00Z,Condeixa-a-Nova,Coimbra,Centro,-8.508357,40.093644
25322210,"S.julião, N.s. da Anunciada e S. Maria da Graça",Península de Setúbal,311,2025-05-03T09:40:00Z,25322210,Em despacho,3329,Queda de estruturas temporárias ou móveis,0,1,0,5,2025-05-03T09:40:00Z,Setúbal,Setúbal,Área Metropolitana De Lisboa,-8.889983,38.529955
25316776,Guarda,Beiras e Serra da Estrela,310,2025-05-02T07:17:00Z,25316776,Em conclusão,3311,Queda de elementos de estruturas edificados,0,9,0,18,2025-05-02T07:17:00Z,Guarda,Guarda,Centro,-7.269039,40.539292
25321995,Vila do Bispo e Raposeira,Algarve,313,2025-05-03T08:20:00Z,25321995,Em curso,3301,Queda de árvore,0,1,0,5,2025-05-03T08:20:00Z,Vila Do Bispo,Faro,Algarve,-8.865778,37.141777
25322020,Gâmbia-Pontes-Alto da Guerra,Península de Setúbal,311,2025-05-03T08:59:00Z,25322020,Em despacho,3311,Queda de elementos de estruturas edificados,0,2,0,7,2025-05-03T08:59:00Z,Setúbal,Setúbal,Área Metropolitana De Lisboa,-8.848808,38.541024
25071496,São Manços e São Vicente do Pigeiro,Alentejo Central,312,2025-03-11T13:18:00Z,25071496,Em conclusão,1101,Cheia,0,0,0,0,2025-03-11T13:18:00Z,Évora,Évora,Alentejo,-7.713313,38.513673
25318424,Nossa Senhora da Graça Dos Degolados,Alto Alentejo,312,2025-05-02T13:10:00Z,25318424,Em conclusão,1103,Vento forte,0,0,0,0,2025-05-02T13:10:00Z,Campo Maior,Portalegre,Alentejo,-7.12147,39.062622
25321932,Moita,Península de Setúbal,311,2025-05-03T08:36:00Z,25321932,Em curso,3321,Dano na rede de fornecimento de eletricidade ,0,1,0,4,2025-05-03T08:36:00Z,Moita,Setúbal,Área Metropolitana De Lisboa,-8.985364,38.643702
25322067,Bacelo e Senhora da Saúde,Alentejo Central,312,2025-05-03T09:02:00Z,25322067,Em resolução,3321,Dano na rede de fornecimento de eletricidade ,0,3,0,6,2025-05-03T09:02:00Z,Évora,Évora,Alentejo,-7.895093,38.570575
