id,address,subregion,neighborhood,date,id.1,state,nature,nature_description,aerial_means,terrestrial_means,aquatic_means,operational,date.1,Concelho,Distrito,NUTII_DSG,longitude,latitude,state_2
25774883,Arnóia,Tâmega e Sousa,309,2025-08-02T18:20:00Z,25774883,Em Resolução/Conclusão,3103,Incêndio rural,0,2,0,6,2025-08-02T18:20:00Z,Celorico De Basto,Braga,Norte,-7.998983,41.348727,Resolução/Conclusão
25818455,Sobral de São Miguel,Beiras e Serra da Estrela,310,2025-08-10T15:02:00Z,25818455,Em Resolução/Conclusão,3103,Incêndio rural,0,19,0,61,2025-08-10T15:02:00Z,Covilhã,Castelo Branco,Centro,-7.77307,40.200173,Resolução/Conclusão
25834631,Paços,Douro,309,2025-08-13T12:57:00Z,25834631,Em Resolução/Conclusão,3103,Incêndio rural,0,1,0,5,2025-08-13T12:57:00Z,Sabrosa,Vila Real,Norte,-7.620647,41.233283,Resolução/Conclusão
25837154,"Tavares (Chãs, Várzea e Travanca)",Viseu Dão Lafões,310,2025-08-13T21:27:00Z,25837154,Em Resolução/Conclusão,3103,Incêndio rural,0,0,0,0,2025-08-13T21:27:00Z,Mangualde,Viseu,Centro,-7.647492,40.608359,Resolução/Conclusão
25841466,São Miguel do Mato,Viseu Dão Lafões,310,2025-08-14T16:48:00Z,25841466,Em Resolução/Conclusão,3103,Incêndio rural,0,2,0,9,2025-08-14T16:48:00Z,Vouzela,Viseu,Centro,-8.0267,40.71845,Resolução/Conclusão
25842553,Vilar de Perdizes e Meixide,Alto Tâmega e Barroso,309,2025-08-14T20:05:00Z,25842553,Em Resolução/Conclusão,3103,Incêndio rural,0,2,0,6,2025-08-14T20:05:00Z,NA,NA,NA,-7.586628,41.88778,Resolução/Conclusão
25845863,Vascoveiro,Beiras e Serra da Estrela,310,2025-08-15T12:47:00Z,25845863,Em Resolução/Conclusão,3103,Incêndio rural,0,2,0,8,2025-08-15T12:47:00Z,Pinhel,Guarda,Centro,-7.070714,40.73566,Resolução/Conclusão
25845878,Portela e Extremo,Alto Minho,309,2025-08-15T12:48:00Z,25845878,Em Resolução/Conclusão,3103,Incêndio rural,0,2,0,9,2025-08-15T12:48:00Z,Arcos De Valdevez,Viana Do Castelo,Norte,-8.44508,41.95458,Resolução/Conclusão
25846297,"Mortágua, Vale de Remígio, Cortegaça e Almaça",Região de Coimbra,310,2025-08-15T14:08:00Z,25846297,Em Resolução/Conclusão,3101,Incêndio rural,0,8,0,28,2025-08-15T14:08:00Z,Mortágua,Viseu,Centro,-8.18667,40.35778,Resolução/Conclusão
25846414,Eiras e Mei,Alto Minho,309,2025-08-15T14:27:00Z,25846414,Em Curso,3103,Incêndio rural,1,3,0,17,2025-08-15T14:27:00Z,Arcos De Valdevez,Viana Do Castelo,Norte,-8.470542,41.92735,Curso
25775263,Torgueda,Douro,309,2025-08-02T19:49:00Z,25775263,Em Resolução/Conclusão,3101,Incêndio rural,0,4,0,15,2025-08-02T19:49:00Z,Vila Real,Vila Real,Norte,-7.785983,41.274952,Resolução/Conclusão
25807426,Alvite,Douro,309,2025-08-08T14:31:00Z,25807426,Em Resolução/Conclusão,3103,Incêndio rural,0,9,0,41,2025-08-08T14:31:00Z,Moimenta Da Beira,Viseu,Norte,-7.688727,40.96613,Resolução/Conclusão
25841363,Santar e Moreira,Viseu Dão Lafões,310,2025-08-14T16:28:00Z,25841363,Em Resolução/Conclusão,3103,Incêndio rural,0,0,0,0,2025-08-14T16:28:00Z,Nelas,Viseu,Centro,-7.883308,40.563075,Resolução/Conclusão
25845171,Pêra do Moço,Beiras e Serra da Estrela,310,2025-08-15T10:44:00Z,25845171,Em Curso,3103,Incêndio rural,1,46,0,158,2025-08-15T10:44:00Z,Guarda,Guarda,Centro,-7.20956,40.61267,Curso
25846016,Poiares,Douro,309,2025-08-15T13:17:00Z,25846016,Em Curso,3105,Incêndio rural,1,31,0,104,2025-08-15T13:17:00Z,Freixo De Espada à Cinta,Bragança,Norte,-6.843393,41.075787,Curso
25846143,Eiras e Mei,Alto Minho,309,2025-08-15T13:37:00Z,25846143,Em Resolução/Conclusão,3103,Incêndio rural,0,3,0,13,2025-08-15T13:37:00Z,Arcos De Valdevez,Viana Do Castelo,Norte,-8.480628,41.91814,Resolução/Conclusão
25846516,Fratel,Beira Baixa,310,2025-08-15T14:47:00Z,25846516,Em Resolução/Conclusão,3101,Incêndio rural,5,25,0,98,2025-08-15T14:47:00Z,Vila Velha De Ródão,Castelo Branco,Centro,-7.739929,39.677943,Resolução/Conclusão
25846431,Rans,Tâmega e Sousa,309,2025-08-15T14:30:00Z,25846431,Em Curso,3103,Incêndio rural,0,5,0,20,2025-08-15T14:30:00Z,Penafiel,Porto,Norte,-8.313492,41.173853,Curso
25846448,Torres do Mondego,Região de Coimbra,310,2025-08-15T14:34:00Z,25846448,Em Resolução/Conclusão,3103,Incêndio rural,1,4,0,17,2025-08-15T14:34:00Z,Coimbra,Coimbra,Centro,-8.367759,40.20326,Resolução/Conclusão
25846480,Sabugal e Aldeia de Santo António,Beiras e Serra da Estrela,310,2025-08-15T14:41:00Z,25846480,Em Curso,3103,Incêndio rural,5,15,0,71,2025-08-15T14:41:00Z,Sabugal,Guarda,Centro,-7.125037,40.34023,Curso
25846646,Sedielos,Douro,309,2025-08-15T15:08:00Z,25846646,Em Resolução/Conclusão,3103,Incêndio rural,0,2,0,10,2025-08-15T15:08:00Z,Peso Da Régua,Vila Real,Norte,-7.873279,41.190788,Resolução/Conclusão
25846798,Vilela,Area M. Porto,309,2025-08-15T15:35:00Z,25846798,Em Despacho,3103,Incêndio rural,0,1,0,5,2025-08-15T15:35:00Z,Paredes,Porto,Norte,-8.381106,41.242851,Despacho
25846813,Moreira,Area M. Porto,309,2025-08-15T15:40:00Z,25846813,Em Despacho,3103,Incêndio rural,0,1,0,4,2025-08-15T15:40:00Z,Maia,Porto,Norte,-8.659142,41.233092,Despacho
25776263,"Pena, Quintã e Vila Cova",Douro,309,2025-08-02T23:45:00Z,25776263,Em Resolução/Conclusão,3103,Incêndio rural,0,61,0,196,2025-08-02T23:45:00Z,Vila Real,Vila Real,Norte,-7.811902,41.317355,Resolução/Conclusão
25813482,Freches e Torres,Beiras e Serra da Estrela,310,2025-08-09T16:21:00Z,25813482,Em Curso,3103,Incêndio rural,0,168,0,479,2025-08-09T16:21:00Z,Trancoso,Guarda,Centro,-7.363745,40.709022,Curso
25830378,Ermidas-Sado,Alentejo Litoral,312,2025-08-12T16:42:00Z,25830378,Em Resolução/Conclusão,3101,Incêndio rural,0,0,0,0,2025-08-12T16:42:00Z,Santiago Do Cacém,Setúbal,Alentejo,-8.407646,38.059897,Resolução/Conclusão
25832250,Ferreira de Aves,Viseu Dão Lafões,310,2025-08-13T00:03:00Z,25832250,Em Curso,3103,Incêndio rural,8,324,0,1004,2025-08-13T00:03:00Z,Sátão,Viseu,Centro,-7.647793,40.79568,Curso
25835457,Quirás e Pinheiro Novo,Terras de Trás-os-Montes,309,2025-08-13T15:25:00Z,25835457,Em Resolução/Conclusão,3103,Incêndio rural,0,7,0,12,2025-08-13T15:25:00Z,Vinhais,Bragança,Norte,-7.170375,41.939618,Resolução/Conclusão
25836309,Cinfães,Tâmega e Sousa,309,2025-08-13T18:17:00Z,25836309,Em Curso,3103,Incêndio rural,1,38,0,137,2025-08-13T18:17:00Z,Cinfães,Viseu,Norte,-8.071502,41.049757,Curso
25840505,Ribeira de Nisa e Carreiras,Alto Alentejo,312,2025-08-14T14:01:00Z,25840505,Em Resolução/Conclusão,3101,Incêndio rural,0,77,0,235,2025-08-14T14:01:00Z,Portalegre,Portalegre,Alentejo,-7.47009,39.374707,Resolução/Conclusão
25840858,Moreira de Rei,Beiras e Serra da Estrela,310,2025-08-14T14:53:00Z,25840858,Em Curso,3103,Incêndio rural,0,9,0,31,2025-08-14T14:53:00Z,Trancoso,Guarda,Centro,-7.31259,40.870748,Curso
25844050,"Pena, Quintã e Vila Cova",Douro,309,2025-08-15T04:16:00Z,25844050,Em Resolução/Conclusão,3103,Incêndio rural,0,5,0,17,2025-08-15T04:16:00Z,Vila Real,Vila Real,Norte,-7.861022,41.318705,Resolução/Conclusão
25844080,Vale de Espinho,Beiras e Serra da Estrela,310,2025-08-15T04:35:00Z,25844080,Em Resolução/Conclusão,3103,Incêndio rural,0,2,0,4,2025-08-15T04:35:00Z,Sabugal,Guarda,Centro,-6.937728,40.270523,Resolução/Conclusão
25846786,Negrelos (São Tomé),Area M. Porto,309,2025-08-15T15:25:00Z,25846786,Em Curso,3103,Incêndio rural,0,1,0,5,2025-08-15T15:25:00Z,Santo Tirso,Porto,Norte,-8.403205,41.346137,Curso
25845736,Travancas e Roriz,Alto Tâmega e Barroso,309,2025-08-15T12:20:00Z,25845736,Em Curso,3103,Incêndio rural,2,30,0,115,2025-08-15T12:20:00Z,Chaves,Vila Real,Norte,-7.316357,41.775985,Curso
25846020,Albufeira e Olhos de Água,Algarve,313,2025-08-15T13:17:00Z,25846020,Em Resolução/Conclusão,3103,Incêndio rural,0,8,0,24,2025-08-15T13:17:00Z,Albufeira,Faro,Algarve,-8.24306,37.10472,Resolução/Conclusão
25846389,Monte e Queimadela,Ave,309,2025-08-15T14:22:00Z,25846389,Em Resolução/Conclusão,3103,Incêndio rural,0,9,0,26,2025-08-15T14:22:00Z,Fafe,Braga,Norte,-8.151799,41.526032,Resolução/Conclusão
25846421,Tavira (Santa Maria e Santiago),Algarve,313,2025-08-15T14:28:00Z,25846421,Em Resolução/Conclusão,3103,Incêndio rural,0,4,0,11,2025-08-15T14:28:00Z,Tavira,Faro,Algarve,-7.65472,37.12528,Resolução/Conclusão
25846440,Pedrógão Grande,Região de Leiria,310,2025-08-15T14:33:00Z,25846440,Em Resolução/Conclusão,3105,Incêndio rural,0,1,0,2,2025-08-15T14:33:00Z,Pedrógão Grande,Leiria,Centro,-8.145248,39.917967,Resolução/Conclusão
25846623,Muge,Lezíria do Tejo,311,2025-08-15T15:05:00Z,25846623,Em Curso,3101,Incêndio rural,1,25,0,101,2025-08-15T15:05:00Z,Salvaterra De Magos,Santarém,Alentejo,-8.61485,39.121482,Curso
25846689,Nevogilde,Tâmega e Sousa,309,2025-08-15T15:15:00Z,25846689,Em Curso,3103,Incêndio rural,0,9,0,35,2025-08-15T15:15:00Z,Lousada,Porto,Norte,-8.319273,41.256657,Curso
25846857,Moimenta e Montouto,Terras de Trás-os-Montes,309,2025-08-15T15:48:00Z,25846857,Em Despacho,3103,Incêndio rural,1,0,0,7,2025-08-15T15:48:00Z,Vinhais,Bragança,Norte,-6.990231,41.928205,Despacho
25785983,Caçarilhe e Infesta,Tâmega e Sousa,309,2025-08-04T18:22:00Z,25785983,Em Resolução/Conclusão,3103,Incêndio rural,0,3,0,11,2025-08-04T18:22:00Z,Celorico De Basto,Braga,Norte,-8.04611,41.419858,Resolução/Conclusão
25792058,Cibões e Brufe,Cávado,309,2025-08-05T19:10:00Z,25792058,Em Resolução/Conclusão,3103,Incêndio rural,0,1,0,5,2025-08-05T19:10:00Z,Terras De Bouro,Braga,Norte,-8.293932,41.764918,Resolução/Conclusão
25820422,Távora e Pereiro,Douro,309,2025-08-10T22:27:00Z,25820422,Em Resolução/Conclusão,3103,Incêndio rural,0,52,0,162,2025-08-10T22:27:00Z,Tabuaço,Viseu,Norte,-7.55556,41.097602,Resolução/Conclusão
25832672,Piódão,Região de Coimbra,310,2025-08-13T05:08:00Z,25832672,Em Curso,3103,Incêndio rural,5,338,0,1036,2025-08-13T05:08:00Z,Arganil,Coimbra,Centro,-7.81972,40.23083,Curso
25835176,Faíl e Vila Chã de Sá,Viseu Dão Lafões,310,2025-08-13T14:35:00Z,25835176,Em Resolução/Conclusão,3103,Incêndio rural,0,6,0,23,2025-08-13T14:35:00Z,Viseu,Viseu,Centro,-7.951177,40.594167,Resolução/Conclusão
25840417,Lousã e Vilarinho,Região de Coimbra,310,2025-08-14T13:46:00Z,25840417,Em Curso,3101,Incêndio rural,2,103,0,347,2025-08-14T13:46:00Z,Lousã,Coimbra,Centro,-8.201561,40.080016,Curso
25841546,São João de Lourosa,Viseu Dão Lafões,310,2025-08-14T16:55:00Z,25841546,Em Resolução/Conclusão,3103,Incêndio rural,0,0,0,0,2025-08-14T16:55:00Z,Viseu,Viseu,Centro,-7.9337,40.6126,Resolução/Conclusão
25843752,Samões,Terras de Trás-os-Montes,309,2025-08-15T01:27:00Z,25843752,Em Resolução/Conclusão,3103,Incêndio rural,0,11,0,38,2025-08-15T01:27:00Z,Vila Flor,Bragança,Norte,-7.201532,41.29735,Resolução/Conclusão
25844195,Moimenta e Montouto,Terras de Trás-os-Montes,309,2025-08-15T06:13:00Z,25844195,Em Resolução/Conclusão,3103,Incêndio rural,0,3,0,8,2025-08-15T06:13:00Z,Vinhais,Bragança,Norte,-6.972763,41.943523,Resolução/Conclusão
25845549,Padreiro (Salvador e Santa Cristina),Alto Minho,309,2025-08-15T11:49:00Z,25845549,Em Resolução/Conclusão,3103,Incêndio rural,0,5,0,16,2025-08-15T11:49:00Z,Arcos De Valdevez,Viana Do Castelo,Norte,-8.488153,41.821968,Resolução/Conclusão
25846778,Aguiar de Sousa,Area M. Porto,309,2025-08-15T15:30:00Z,25846778,Em Despacho,3103,Incêndio rural,0,1,0,5,2025-08-15T15:30:00Z,Paredes,Porto,Norte,-8.438765,41.120548,Despacho
25846817,Paços de Ferreira,Tâmega e Sousa,309,2025-08-15T15:44:00Z,25846817,Em Despacho,3103,Incêndio rural,1,1,0,11,2025-08-15T15:44:00Z,Paços De Ferreira,Porto,Norte,-8.38584,41.25185,Despacho
