id,address,subregion,neighborhood,date,id.1,state,nature,nature_description,aerial_means,terrestrial_means,aquatic_means,operational,date.1,Concelho,Distrito,NUTII_DSG,longitude,latitude,state_2
26198467,Sabóia,Alentejo Litoral,312,2025-10-27T17:32:00Z,26198467,Em Resolução/Conclusão,3103,Incêndio rural,0,9,0,23,2025-10-27T17:32:00Z,Odemira,Beja,Alentejo,-8.558232,37.478268,Resolução/Conclusão
26199040,"Camarate, Unhos e Apelação",Grande Lisboa,311,2025-10-27T20:09:00Z,26199040,Em Resolução/Conclusão,3103,Incêndio rural,0,3,0,12,2025-10-27T20:09:00Z,Loures,Lisboa,Área Metropolitana De Lisboa,-9.111853,38.807065,Resolução/Conclusão
26199160,Martim,Cávado,309,2025-10-27T20:46:00Z,26199160,Em Curso,3103,Incêndio rural,0,1,0,4,2025-10-27T20:46:00Z,Barcelos,Braga,Norte,-8.526372,41.53718,Curso
26199208,Setúbal (São Sebastião),Península de Setúbal,311,2025-10-27T21:00:00Z,26199208,Em Resolução/Conclusão,3103,Incêndio rural,0,2,0,9,2025-10-27T21:00:00Z,Setúbal,Setúbal,Área Metropolitana De Lisboa,-8.88085,38.53156,Resolução/Conclusão
26198503,Rio Meão,Area M. Porto,309,2025-10-27T17:47:00Z,26198503,Em Resolução/Conclusão,3111,Queima,0,2,0,6,2025-10-27T17:47:00Z,Santa Maria Da Feira,Aveiro,Norte,-8.586854,40.956066,Resolução/Conclusão
26198557,Ardãos e Bobadela,Alto Tâmega e Barroso,309,2025-10-27T18:00:00Z,26198557,Em Resolução/Conclusão,3103,Incêndio rural,0,2,0,6,2025-10-27T18:00:00Z,Boticas,Vila Real,Norte,-7.60698,41.775777,Resolução/Conclusão
26199084,Santa Catarina,Oeste,311,2025-10-27T20:11:00Z,26199084,Em Resolução/Conclusão,3105,Incêndio rural,0,4,0,13,2025-10-27T20:11:00Z,Caldas Da Rainha,Leiria,Centro,-9.006203,39.432937,Resolução/Conclusão
