id,address,subregion,neighborhood,date,id.1,state,nature,nature_description,aerial_means,terrestrial_means,aquatic_means,operational,date.1,Concelho,Distrito,NUTII_DSG,longitude,latitude
25474097,Odivelas,Grande Lisboa,311,2025-06-04T05:50:00Z,25474097,Em despacho,2301,Incêndio em transporte rodoviário,0,1,0,5,2025-06-04T05:50:00Z,Odivelas,Lisboa,Área Metropolitana De Lisboa,-9.178478,38.790448
25474104,Bougado (São Martinho e Santiago),Area M. Porto,309,2025-06-04T06:04:00Z,25474104,Em despacho,2117,Incêndio em edifícios comerciais e gares de transporte,0,0,0,0,2025-06-04T06:04:00Z,Trofa,Porto,Norte,-8.567566,41.336
25474116,"Requeixo, Nossa Senhora de Fátima e Nariz",Região de Aveiro,310,2025-06-04T06:05:00Z,25474116,Em despacho,3103,Incêndio rural,0,1,0,5,2025-06-04T06:05:00Z,Aveiro,Aveiro,Centro,-8.571568,40.568778
25466369,Melides,Alentejo Litoral,312,2025-06-02T13:27:00Z,25466369,Em conclusão,3103,Incêndio rural,0,1,0,2,2025-06-02T13:27:00Z,Grândola,Setúbal,Alentejo,-8.754243,38.19534
25467128,Monte Redondo e Carreira,Região de Leiria,310,2025-06-02T15:48:00Z,25467128,Em conclusão,3103,Incêndio rural,0,1,0,2,2025-06-02T15:48:00Z,Leiria,Leiria,Centro,-8.860783,39.89848
25473778,Bougado (São Martinho e Santiago),Area M. Porto,309,2025-06-04T00:23:00Z,25473778,Em conclusão,2127,"Incêndio em edifícios e recintos industriais, oficinas e armazéns",0,3,0,7,2025-06-04T00:23:00Z,Trofa,Porto,Norte,-8.561468,41.334938
