id,address,subregion,neighborhood,date,id.1,state,nature,nature_description,aerial_means,terrestrial_means,aquatic_means,operational,date.1,Concelho,Distrito,NUTII_DSG,longitude,latitude
24944111,"Provesende, Gouvães Douro, S.cristóvão Douro",Douro,309,2025-02-11T08:57:00Z,24944111,Em despacho,3321,Dano na rede de fornecimento de eletricidade ,0,2,0,5,2025-02-11T08:57:00Z,Sabrosa,Vila Real,Norte,-7.547938,41.203187
24944193,Cascais e Estoril,Grande Lisboa,311,2025-02-11T08:53:00Z,24944193,Em despacho,3315,Inundação de estruturas por precipitação intensa,0,1,0,3,2025-02-11T08:53:00Z,Cascais,Lisboa,Área Metropolitana De Lisboa,-9.38607,38.701344
24944007,Vila Nova de Tazem,Beiras e Serra da Estrela,310,2025-02-11T08:31:00Z,24944007,Em despacho,3301,Queda de árvore,0,2,0,5,2025-02-11T08:31:00Z,Gouveia,Guarda,Centro,-7.716662,40.505068
24944058,Alcabideche,Grande Lisboa,311,2025-02-11T08:36:00Z,24944058,Em despacho,3315,Inundação de estruturas por precipitação intensa,0,1,0,5,2025-02-11T08:36:00Z,Cascais,Lisboa,Área Metropolitana De Lisboa,-9.385597,38.740082
24944207,"Espadanedo, Edroso, Murçós e Soutelo Mourisco",Terras de Trás-os-Montes,309,2025-02-11T09:13:00Z,24944207,Em despacho,3311,Queda de elementos de estruturas edificados,0,1,0,3,2025-02-11T09:13:00Z,Macedo De Cavaleiros,Bragança,Norte,-6.988583,41.682405
24944273,Vialonga,Grande Lisboa,311,2025-02-11T09:20:00Z,24944273,Em despacho,3315,Inundação de estruturas por precipitação intensa,0,1,0,5,2025-02-11T09:20:00Z,Vila Franca De Xira,Lisboa,Área Metropolitana De Lisboa,-9.106591,38.858941
24877003,Malagueira e Horta Das Figueiras,Alentejo Central,312,2025-01-27T11:41:00Z,24877003,Em conclusão,3315,Inundação de estruturas por precipitação intensa,0,0,0,0,2025-01-27T11:41:00Z,Évora,Évora,Alentejo,-7.924277,38.57285
24944160,Cascais e Estoril,Grande Lisboa,311,2025-02-11T08:57:00Z,24944160,Em despacho,3315,Inundação de estruturas por precipitação intensa,0,2,0,4,2025-02-11T08:57:00Z,Cascais,Lisboa,Área Metropolitana De Lisboa,-9.398759,38.70391
24944266,Algueirão-Mem Martins,Grande Lisboa,311,2025-02-11T09:06:00Z,24944266,Em despacho,3315,Inundação de estruturas por precipitação intensa,0,1,0,2,2025-02-11T09:06:00Z,Sintra,Lisboa,Área Metropolitana De Lisboa,-9.345795,38.786998
