id,address,subregion,neighborhood,date,id.1,state,nature,nature_description,aerial_means,terrestrial_means,aquatic_means,operational,date.1,Concelho,Distrito,NUTII_DSG,longitude,latitude,state_2
26022995,Bordeira,Algarve,313,2025-09-21T12:21:00Z,26022995,Em Resolução/Conclusão,3103,Incêndio rural,0,6,0,17,2025-09-21T12:21:00Z,Aljezur,Faro,Algarve,-8.825374,37.23495,Resolução/Conclusão
26071163,"Oeiras e S. Julião da Barra, Paço de Arcos e Caxias",Grande Lisboa,311,2025-10-01T09:13:00Z,26071163,Em Resolução/Conclusão,3103,Incêndio rural,0,5,0,15,2025-10-01T09:13:00Z,Oeiras,Lisboa,Área Metropolitana De Lisboa,-9.26316,38.7002,Resolução/Conclusão
26071014,"Almada, Cova da Piedade, Pragal e Cacilhas",Península de Setúbal,311,2025-10-01T08:40:00Z,26071014,Em Resolução/Conclusão,3103,Incêndio rural,0,0,0,0,2025-10-01T08:40:00Z,Almada,Setúbal,Área Metropolitana De Lisboa,-9.14961,38.682883,Resolução/Conclusão
26071327,Ossela,Area M. Porto,309,2025-10-01T09:29:00Z,26071327,Em Resolução/Conclusão,3103,Incêndio rural,0,2,0,9,2025-10-01T09:29:00Z,Oliveira De Azeméis,Aveiro,Norte,-8.428963,40.827387,Resolução/Conclusão
26050704,Tortosendo,Beiras e Serra da Estrela,310,2025-09-26T23:04:00Z,26050704,Em Resolução/Conclusão,3103,Incêndio rural,0,1,0,4,2025-09-26T23:04:00Z,Covilhã,Castelo Branco,Centro,-7.521592,40.251592,Resolução/Conclusão
26070906,Nave de Haver,Beiras e Serra da Estrela,310,2025-10-01T08:15:00Z,26070906,Em Resolução/Conclusão,3103,Incêndio rural,0,5,0,19,2025-10-01T08:15:00Z,Almeida,Guarda,Centro,-6.836197,40.507088,Resolução/Conclusão
25951176,Sandomil,Beiras e Serra da Estrela,310,2025-09-06T10:29:00Z,25951176,Em Resolução/Conclusão,3103,Incêndio rural,0,2,0,10,2025-09-06T10:29:00Z,Seia,Guarda,Centro,-7.76001,40.351547,Resolução/Conclusão
