id,address,subregion,neighborhood,date,id.1,state,nature,nature_description,aerial_means,terrestrial_means,aquatic_means,operational,date.1,Concelho,Distrito,NUTII_DSG,longitude,latitude
25063232,Santa Maria do Castelo e Santiago e Santa Susana,Alentejo Litoral,312,2025-03-09T19:02:00Z,25063232,Em curso,1101,Cheia,0,1,0,1,2025-03-09T19:02:00Z,Alcácer Do Sal,Setúbal,Alentejo,-8.48167,38.29806
25064922,Arruda Dos Vinhos,Oeste,311,2025-03-10T09:03:00Z,25064922,Em curso,3315,Inundação de estruturas por precipitação intensa,0,1,0,1,2025-03-10T09:03:00Z,Arruda Dos Vinhos,Lisboa,Centro,-9.098654,39.001645
25065874,Maceira,Região de Leiria,310,2025-03-10T11:57:00Z,25065874,Em curso,3315,Inundação de estruturas por precipitação intensa,0,3,0,5,2025-03-10T11:57:00Z,Leiria,Leiria,Centro,-8.916737,39.710638
25066126,Sé e São Lourenço,Alto Alentejo,312,2025-03-10T12:30:00Z,25066126,Em conclusão,3301,Queda de árvore,0,0,0,0,2025-03-10T12:30:00Z,Portalegre,Portalegre,Alentejo,-7.421847,39.289553
25066273,Sé e São Lourenço,Alto Alentejo,312,2025-03-10T13:02:00Z,25066273,Em conclusão,3309,Desabamento de estruturas edificadas,0,0,0,0,2025-03-10T13:02:00Z,Portalegre,Portalegre,Alentejo,-7.417375,39.288735
25066293,São Salvador e Santa Maria,Alentejo Litoral,312,2025-03-10T13:26:00Z,25066293,Em despacho,3301,Queda de árvore,0,1,0,2,2025-03-10T13:26:00Z,Odemira,Beja,Alentejo,-8.650536,37.594321
25066357,Sé e São Lourenço,Alto Alentejo,312,2025-03-10T13:27:00Z,25066357,Em conclusão,3309,Desabamento de estruturas edificadas,0,0,0,0,2025-03-10T13:27:00Z,Portalegre,Portalegre,Alentejo,-7.405077,39.28866
25066393,Sé e São Lourenço,Alto Alentejo,312,2025-03-10T13:30:00Z,25066393,Em conclusão,3309,Desabamento de estruturas edificadas,0,0,0,0,2025-03-10T13:30:00Z,Portalegre,Portalegre,Alentejo,-7.40493,39.2887
25066660,Venda do Pinheiro e Santo Estêvão Das Galés,Grande Lisboa,311,2025-03-10T13:46:00Z,25066660,Em conclusão,3315,Inundação de estruturas por precipitação intensa,0,2,0,2,2025-03-10T13:46:00Z,Mafra,Lisboa,Área Metropolitana De Lisboa,-9.23127,38.875849
25066743,Peniche,Oeste,311,2025-03-10T14:52:00Z,25066743,Em curso,3311,Queda de elementos de estruturas edificados,0,1,0,2,2025-03-10T14:52:00Z,Peniche,Leiria,Centro,-9.376833,39.357166
25063971,Salir,Algarve,313,2025-03-09T23:45:00Z,25063971,Em conclusão,3313,Deslizamento de terras,0,4,0,6,2025-03-09T23:45:00Z,Loulé,Faro,Algarve,-7.945758,37.230723
25066004,Salvaterra de Magos e Foros de Salvaterra,Lezíria do Tejo,311,2025-03-10T12:31:00Z,25066004,Em curso,3315,Inundação de estruturas por precipitação intensa,0,2,0,3,2025-03-10T12:31:00Z,Salvaterra De Magos,Santarém,Alentejo,-8.790194,39.028695
25066213,Venda do Pinheiro e Santo Estêvão Das Galés,Grande Lisboa,311,2025-03-10T13:02:00Z,25066213,Em conclusão,3311,Queda de elementos de estruturas edificados,0,1,0,1,2025-03-10T13:02:00Z,Mafra,Lisboa,Área Metropolitana De Lisboa,-9.208921,38.921996
25066245,São Salvador e Santa Maria,Alentejo Litoral,312,2025-03-10T12:29:00Z,25066245,Em despacho,3321,Dano na rede de fornecimento de eletricidade ,0,1,0,1,2025-03-10T12:29:00Z,Odemira,Beja,Alentejo,-8.650536,37.594321
25066488,Chamusca e Pinheiro Grande,Lezíria do Tejo,311,2025-03-10T14:12:00Z,25066488,Em despacho,3313,Deslizamento de terras,0,1,0,4,2025-03-10T14:12:00Z,Chamusca,Santarém,Alentejo,-8.451173,39.360068
25066522,Reguengo e São Julião,Alto Alentejo,312,2025-03-10T14:12:00Z,25066522,Em conclusão,3301,Queda de árvore,0,0,0,0,2025-03-10T14:12:00Z,Portalegre,Portalegre,Alentejo,-7.403278,39.298715
25066538,Famalicão,Beiras e Serra da Estrela,310,2025-03-10T14:21:00Z,25066538,Em despacho,3313,Deslizamento de terras,0,2,0,7,2025-03-10T14:21:00Z,Guarda,Guarda,Centro,-7.401354,40.425159
25067040,Sé e São Lourenço,Alto Alentejo,312,2025-03-10T15:45:00Z,25067040,Em conclusão,3301,Queda de árvore,0,1,0,2,2025-03-10T15:45:00Z,Portalegre,Portalegre,Alentejo,-7.407555,39.284165
25067063,Barreiro e Lavradio,Península de Setúbal,311,2025-03-10T15:59:00Z,25067063,Em curso,3317,Inundação de estruturas por água canalizada,0,2,0,6,2025-03-10T15:59:00Z,Barreiro,Setúbal,Área Metropolitana De Lisboa,-9.060271,38.662949
25067238,Cascais e Estoril,Grande Lisboa,311,2025-03-10T16:28:00Z,25067238,Em despacho,3317,Inundação de estruturas por água canalizada,0,1,0,2,2025-03-10T16:28:00Z,Cascais,Lisboa,Área Metropolitana De Lisboa,-9.408908,38.704814
25067247,Vila do Bispo e Raposeira,Algarve,313,2025-03-10T16:47:00Z,25067247,Em despacho,3301,Queda de árvore,0,1,0,4,2025-03-10T16:47:00Z,Vila Do Bispo,Faro,Algarve,-8.90916,37.10166
25067297,Monchique,Algarve,313,2025-03-10T16:00:00Z,25067297,Em despacho,3313,Deslizamento de terras,0,1,0,1,2025-03-10T16:00:00Z,Monchique,Faro,Algarve,-8.589832,37.29544
25066777,Benavente,Lezíria do Tejo,311,2025-03-10T15:03:00Z,25066777,Em despacho,3315,Inundação de estruturas por precipitação intensa,0,1,0,2,2025-03-10T15:03:00Z,Benavente,Santarém,Alentejo,-8.804753,38.980872
25066793,Sé e São Lourenço,Alto Alentejo,312,2025-03-10T15:06:00Z,25066793,Em conclusão,3301,Queda de árvore,0,5,0,15,2025-03-10T15:06:00Z,Portalegre,Portalegre,Alentejo,-7.404387,39.297978
25059714,Torrão,Alentejo Litoral,312,2025-03-08T22:10:00Z,25059714,Em curso,1101,Cheia,0,1,0,2,2025-03-08T22:10:00Z,Alcácer Do Sal,Setúbal,Alentejo,-8.359133,38.252053
25065700,São Salvador e Santa Maria,Alentejo Litoral,312,2025-03-10T09:00:00Z,25065700,Em curso,3313,Deslizamento de terras,0,2,0,3,2025-03-10T09:00:00Z,Odemira,Beja,Alentejo,-8.643495,37.596661
25066365,Reguengo e São Julião,Alto Alentejo,312,2025-03-10T13:47:00Z,25066365,Em conclusão,3301,Queda de árvore,0,0,0,0,2025-03-10T13:47:00Z,Portalegre,Portalegre,Alentejo,-7.40139,39.30139
25066467,Sé e São Lourenço,Alto Alentejo,312,2025-03-10T13:56:00Z,25066467,Em conclusão,3301,Queda de árvore,0,0,0,0,2025-03-10T13:56:00Z,Portalegre,Portalegre,Alentejo,-7.412372,39.282628
25066868,Alcáçovas,Alentejo Central,312,2025-03-10T15:21:00Z,25066868,Em despacho,3315,Inundação de estruturas por precipitação intensa,0,2,0,4,2025-03-10T15:21:00Z,Viana Do Alentejo,Évora,Alentejo,-8.183593,38.399879
25066950,Sé e São Lourenço,Alto Alentejo,312,2025-03-10T15:40:00Z,25066950,Em conclusão,3313,Deslizamento de terras,0,1,0,5,2025-03-10T15:40:00Z,Portalegre,Portalegre,Alentejo,-7.402905,39.288733
25067153,Figueira Dos Cavaleiros,Baixo Alentejo,312,2025-03-10T16:13:00Z,25067153,Em despacho,3301,Queda de árvore,0,1,0,1,2025-03-10T16:13:00Z,Ferreira Do Alentejo,Beja,Alentejo,-8.283967,38.107288
25067167,Marinhais,Lezíria do Tejo,311,2025-03-10T16:33:00Z,25067167,Em conclusão,3315,Inundação de estruturas por precipitação intensa,0,1,0,5,2025-03-10T16:33:00Z,Salvaterra De Magos,Santarém,Alentejo,-8.704343,39.034743
25064801,Mira,Região de Coimbra,310,2025-03-10T08:34:00Z,25064801,Em despacho,3315,Inundação de estruturas por precipitação intensa,0,1,0,1,2025-03-10T08:34:00Z,Mira,Coimbra,Centro,-8.734102,40.4268
25065928,Sé e São Lourenço,Alto Alentejo,312,2025-03-10T12:15:00Z,25065928,Em conclusão,3309,Desabamento de estruturas edificadas,0,1,0,1,2025-03-10T12:15:00Z,Portalegre,Portalegre,Alentejo,-7.4066090000000004,39.288378
25065953,Sé e São Lourenço,Alto Alentejo,312,2025-03-10T12:21:00Z,25065953,Em conclusão,3301,Queda de árvore,0,3,0,4,2025-03-10T12:21:00Z,Portalegre,Portalegre,Alentejo,-7.405434,39.281244
25066773,"Almargem do Bispo, Pêro Pinheiro e Montelavar",Grande Lisboa,311,2025-03-10T14:30:00Z,25066773,Em despacho,3315,Inundação de estruturas por precipitação intensa,0,2,0,6,2025-03-10T14:30:00Z,Sintra,Lisboa,Área Metropolitana De Lisboa,-9.304885,38.867927
25066930,Alverca do Ribatejo e Sobralinho,Grande Lisboa,311,2025-03-10T15:35:00Z,25066930,Em conclusão,3311,Queda de elementos de estruturas edificados,0,2,0,7,2025-03-10T15:35:00Z,Vila Franca De Xira,Lisboa,Área Metropolitana De Lisboa,-9.046012,38.896362
25067232,Castelo Branco,Beira Baixa,310,2025-03-10T16:30:00Z,25067232,Em despacho,3315,Inundação de estruturas por precipitação intensa,0,1,0,2,2025-03-10T16:30:00Z,Castelo Branco,Castelo Branco,Centro,-7.490756,39.816895
25067364,Paranhos,Area M. Porto,309,2025-03-10T17:12:00Z,25067364,Em despacho,3315,Inundação de estruturas por precipitação intensa,0,0,0,0,2025-03-10T17:12:00Z,Porto,Porto,Norte,-8.60156,41.16693
25067373,Malveira e São Miguel de Alcainça,Grande Lisboa,311,2025-03-10T16:48:00Z,25067373,Em despacho,3313,Deslizamento de terras,0,1,0,5,2025-03-10T16:48:00Z,Mafra,Lisboa,Área Metropolitana De Lisboa,-9.255419,38.945877
25067203,"Algés, Linda-a-Velha e Cruz Quebrada-Dafundo",Grande Lisboa,311,2025-03-10T16:39:00Z,25067203,Em despacho,3329,Queda de estruturas temporárias ou móveis,0,1,0,4,2025-03-10T16:39:00Z,Oeiras,Lisboa,Área Metropolitana De Lisboa,-9.259956,38.700743
25067270,Pedroso e Seixezelo,Area M. Porto,309,2025-03-10T16:44:00Z,25067270,Em despacho,3315,Inundação de estruturas por precipitação intensa,0,1,0,3,2025-03-10T16:44:00Z,Vila Nova De Gaia,Porto,Norte,-8.55785,41.06333
25067301,Tolosa,Alto Alentejo,312,2025-03-10T16:57:00Z,25067301,Em despacho,3315,Inundação de estruturas por precipitação intensa,0,1,0,5,2025-03-10T16:57:00Z,Nisa,Portalegre,Alentejo,-7.717087,39.425082
25067336,Sé e São Lourenço,Alto Alentejo,312,2025-03-10T17:03:00Z,25067336,Em despacho,3301,Queda de árvore,0,1,0,4,2025-03-10T17:03:00Z,Portalegre,Portalegre,Alentejo,-7.4259829999999996,39.295933
25067352,Santa Marinha e São Pedro da Afurada,Area M. Porto,309,2025-03-10T17:10:00Z,25067352,Em despacho,3315,Inundação de estruturas por precipitação intensa,0,0,0,0,2025-03-10T17:10:00Z,Vila Nova De Gaia,Porto,Norte,-8.648161,41.14226
25067354,Almeirim,Lezíria do Tejo,311,2025-03-10T17:10:00Z,25067354,Em despacho,3315,Inundação de estruturas por precipitação intensa,0,1,0,5,2025-03-10T17:10:00Z,Almeirim,Santarém,Alentejo,-8.588832,39.142251
25067368,Poceirão e Marateca,Península de Setúbal,311,2025-03-10T17:06:00Z,25067368,Em despacho,3301,Queda de árvore,0,1,0,3,2025-03-10T17:06:00Z,Palmela,Setúbal,Área Metropolitana De Lisboa,-8.714046,38.612937
