id,address,subregion,neighborhood,date,id.1,state,nature,nature_description,aerial_means,terrestrial_means,aquatic_means,operational,date.1,Concelho,Distrito,NUTII_DSG,longitude,latitude
25071496,São Manços e São Vicente do Pigeiro,Alentejo Central,312,2025-03-11T13:18:00Z,25071496,Em conclusão,1101,Cheia,0,0,0,0,2025-03-11T13:18:00Z,Évora,Évora,Alentejo,-7.713313,38.513673
25305972,Quinta do Anjo,Península de Setúbal,311,2025-04-29T17:13:00Z,25305972,Em despacho,3301,Queda de árvore,0,1,0,2,2025-04-29T17:13:00Z,Palmela,Setúbal,Área Metropolitana De Lisboa,-8.938536,38.564763
25306932,Castêlo da Maia,Area M. Porto,309,2025-04-29T21:23:00Z,25306932,Em curso,3321,Dano na rede de fornecimento de eletricidade ,0,4,0,10,2025-04-29T21:23:00Z,Maia,Porto,Norte,-8.6179,41.2525
25307001,Amora,Península de Setúbal,311,2025-04-29T21:40:00Z,25307001,Em despacho,3301,Queda de árvore,0,1,0,3,2025-04-29T21:40:00Z,Seixal,Setúbal,Área Metropolitana De Lisboa,-9.113679,38.61301
25306906,Moimenta da Serra e Vinhó,Beiras e Serra da Estrela,310,2025-04-29T21:17:00Z,25306906,Em despacho,3301,Queda de árvore,0,2,0,4,2025-04-29T21:17:00Z,Gouveia,Guarda,Centro,-7.64324,40.47397
