id,address,subregion,neighborhood,date,id.1,state,nature,nature_description,aerial_means,terrestrial_means,aquatic_means,operational,date.1,Concelho,Distrito,NUTII_DSG,longitude,latitude
24789466,"Santa Maria da Feira, Travanca, Sanfins e Espargo",Area M. Porto,309,2025-01-08T08:06:00Z,24789466,Em despacho,3301,Queda de árvore,0,1,0,2,2025-01-08T08:06:00Z,Santa Maria Da Feira,Aveiro,Norte,-8.541509,40.922018
24789499,Antas,Cávado,309,2025-01-08T08:11:00Z,24789499,Em despacho,3301,Queda de árvore,0,1,0,3,2025-01-08T08:11:00Z,Esposende,Braga,Norte,-8.771677,41.601324
24789501,Este (São Pedro e São Mamede),Cávado,309,2025-01-08T08:19:00Z,24789501,Em despacho,3301,Queda de árvore,0,1,0,2,2025-01-08T08:19:00Z,Braga,Braga,Norte,-8.356951,41.570113
24777071,Pedrógão Grande,Região de Leiria,310,2025-01-05T13:18:00Z,24777071,Em conclusão,3309,Desabamento de estruturas edificadas,0,1,0,1,2025-01-05T13:18:00Z,Pedrógão Grande,Leiria,Centro,-8.177567,39.933038
24789414,Moledo e Cristelo,Alto Minho,309,2025-01-08T08:03:00Z,24789414,Em despacho,3315,Inundação de estruturas por precipitação intensa,0,1,0,5,2025-01-08T08:03:00Z,Caminha,Viana Do Castelo,Norte,-8.864084,41.84776
24789444,Afife,Alto Minho,309,2025-01-08T08:10:00Z,24789444,Em despacho,3301,Queda de árvore,0,0,0,0,2025-01-08T08:10:00Z,Viana Do Castelo,Viana Do Castelo,Norte,-8.862576,41.77008
24789257,Labruja,Alto Minho,309,2025-01-08T06:47:00Z,24789257,Em conclusão,3301,Queda de árvore,0,2,0,7,2025-01-08T06:47:00Z,Ponte De Lima,Viana Do Castelo,Norte,-8.606853,41.828505
24789339,Mafamude e Vilar do Paraíso,Area M. Porto,309,2025-01-08T07:32:00Z,24789339,Em despacho,3311,Queda de elementos de estruturas edificados,0,2,0,5,2025-01-08T07:32:00Z,Vila Nova De Gaia,Porto,Norte,-8.611105,41.107184
24789474,Macieira da Lixa e Caramos,Tâmega e Sousa,309,2025-01-08T08:16:00Z,24789474,Em despacho,3321,Dano na rede de fornecimento de eletricidade ,0,1,0,5,2025-01-08T08:16:00Z,Felgueiras,Porto,Norte,-8.149387,41.34853
24789523,Canelas,Area M. Porto,309,2025-01-08T08:12:00Z,24789523,Em despacho,3301,Queda de árvore,0,1,0,4,2025-01-08T08:12:00Z,Vila Nova De Gaia,Porto,Norte,-8.599603,41.079376
24789524,Areosa,Alto Minho,309,2025-01-08T08:30:00Z,24789524,Em despacho,3315,Inundação de estruturas por precipitação intensa,0,0,0,0,2025-01-08T08:30:00Z,Viana Do Castelo,Viana Do Castelo,Norte,-8.843621,41.7015
24789427,Rebordosa,Area M. Porto,309,2025-01-08T07:49:00Z,24789427,Em despacho,3329,Queda de estruturas temporárias ou móveis,0,2,0,4,2025-01-08T07:49:00Z,Paredes,Porto,Norte,-8.436025,41.21769
24789522,"Braga (Maximinos, Sé e Cividade)",Cávado,309,2025-01-08T08:30:00Z,24789522,Em despacho,3301,Queda de árvore,0,0,0,0,2025-01-08T08:30:00Z,Braga,Braga,Norte,-8.44536,41.54902
