id,address,subregion,neighborhood,date,id.1,state,nature,nature_description,aerial_means,terrestrial_means,aquatic_means,operational,date.1,Concelho,Distrito,NUTII_DSG,longitude,latitude
24851780,"São Miguel, Santa Eufémia e Rabaçal",Região de Coimbra,310,2025-01-21T23:25:00Z,24851780,Em curso,3315,Inundação de estruturas por precipitação intensa,0,0,0,0,2025-01-21T23:25:00Z,Penela,Coimbra,Centro,-8.399036,40.025502
24901500,Cartaxo e Vale da Pinta,Lezíria do Tejo,311,2025-02-01T14:02:00Z,24901500,Em despacho,3301,Queda de árvore,0,2,0,6,2025-02-01T14:02:00Z,Cartaxo,Santarém,Alentejo,-8.765756,39.13692
24901311,"S.maria, S.miguel, S.martinho, S.pedro Penaferrim",Grande Lisboa,311,2025-02-01T13:03:00Z,24901311,Em conclusão,3301,Queda de árvore,0,1,0,5,2025-02-01T13:03:00Z,Sintra,Lisboa,Área Metropolitana De Lisboa,-9.40542,38.820035
24901486,Cascais e Estoril,Grande Lisboa,311,2025-02-01T13:50:00Z,24901486,Em despacho,3311,Queda de elementos de estruturas edificados,0,1,0,6,2025-02-01T13:50:00Z,Cascais,Lisboa,Área Metropolitana De Lisboa,-9.419397,38.700982
24877003,Malagueira e Horta Das Figueiras,Alentejo Central,312,2025-01-27T11:41:00Z,24877003,Em conclusão,3315,Inundação de estruturas por precipitação intensa,0,0,0,0,2025-01-27T11:41:00Z,Évora,Évora,Alentejo,-7.924277,38.57285
24901403,Grijó e Sermonde,Area M. Porto,309,2025-02-01T13:29:00Z,24901403,Em despacho,3301,Queda de árvore,0,1,0,3,2025-02-01T13:29:00Z,Vila Nova De Gaia,Porto,Norte,-8.579955,41.030201
