id,address,subregion,neighborhood,date,id.1,state,nature,nature_description,aerial_means,terrestrial_means,aquatic_means,operational,date.1,Concelho,Distrito,NUTII_DSG,longitude,latitude
25467776,Gouveia (São Simão),Tâmega e Sousa,309,2025-06-02T18:17:00Z,25467776,Em conclusão,3103,Incêndio rural,0,3,0,9,2025-06-02T18:17:00Z,Amarante,Porto,Norte,-8.064293,41.229668
25468461,"Sandim, Olival, Lever e Crestuma",Area M. Porto,309,2025-06-02T21:07:00Z,25468461,Em conclusão,3103,Incêndio rural,0,5,0,16,2025-06-02T21:07:00Z,Vila Nova De Gaia,Porto,Norte,-8.47851,41.03347
25466369,Melides,Alentejo Litoral,312,2025-06-02T13:27:00Z,25466369,Em conclusão,3103,Incêndio rural,0,32,0,83,2025-06-02T13:27:00Z,Grândola,Setúbal,Alentejo,-8.754243,38.19534
25467128,Monte Redondo e Carreira,Região de Leiria,310,2025-06-02T15:48:00Z,25467128,Em conclusão,3103,Incêndio rural,0,1,0,2,2025-06-02T15:48:00Z,Leiria,Leiria,Centro,-8.860783,39.89848
25468589,Campo e Sobrado,Area M. Porto,309,2025-06-02T21:46:00Z,25468589,Em despacho,2101,Incêndio em edifícios habitacionais,0,0,0,0,2025-06-02T21:46:00Z,Valongo,Porto,Norte,-8.47257,41.21651
25457724,Santo André,Alentejo Litoral,312,2025-05-31T18:30:00Z,25457724,Em conclusão,2127,"Incêndio em edifícios e recintos industriais, oficinas e armazéns",0,1,0,2,2025-05-31T18:30:00Z,Santiago Do Cacém,Setúbal,Alentejo,-8.784407,38.048083
