id,address,subregion,neighborhood,date,id.1,state,nature,nature_description,aerial_means,terrestrial_means,aquatic_means,operational,date.1,Concelho,Distrito,NUTII_DSG,longitude,latitude,state_2
25711397,Vale da Pedra,Lezíria do Tejo,311,2025-07-21T14:16:00Z,25711397,Em Resolução/Conclusão,3103,Incêndio rural,0,1,0,5,2025-07-21T14:16:00Z,Cartaxo,Santarém,Alentejo,-8.783137,39.110872,Resolução/Conclusão
25716118,Alvite,Douro,309,2025-07-22T13:18:00Z,25716118,Em Resolução/Conclusão,3101,Incêndio rural,0,0,0,0,2025-07-22T13:18:00Z,Moimenta Da Beira,Viseu,Norte,-7.71388,40.952273,Resolução/Conclusão
25718176,Caria,Beiras e Serra da Estrela,310,2025-07-22T20:43:00Z,25718176,Em Resolução/Conclusão,3103,Incêndio rural,0,8,0,29,2025-07-22T20:43:00Z,Belmonte,Castelo Branco,Centro,-7.36214,40.2956,Resolução/Conclusão
25716294,Canelas e Fermelã,Região de Aveiro,310,2025-07-22T13:52:00Z,25716294,Em Resolução/Conclusão,3103,Incêndio rural,0,2,0,4,2025-07-22T13:52:00Z,Estarreja,Aveiro,Centro,-8.543075,40.697923,Resolução/Conclusão
25718082,Monsanto e Idanha-a-Velha,Beira Baixa,310,2025-07-22T20:17:00Z,25718082,Em Resolução/Conclusão,3105,Incêndio rural,0,10,0,28,2025-07-22T20:17:00Z,Idanha-a-Nova,Castelo Branco,Centro,-7.048977,40.051923,Resolução/Conclusão
25716558,Alquerubim,Região de Aveiro,310,2025-07-22T14:38:00Z,25716558,Em Resolução/Conclusão,3101,Incêndio rural,0,3,0,8,2025-07-22T14:38:00Z,Albergaria-a-Velha,Aveiro,Centro,-8.51459,40.626095,Resolução/Conclusão
25718028,Montargil,Alto Alentejo,312,2025-07-22T19:58:00Z,25718028,Em Resolução/Conclusão,3103,Incêndio rural,0,9,0,35,2025-07-22T19:58:00Z,Ponte De Sor,Portalegre,Alentejo,-8.169745,39.069765,Resolução/Conclusão
25712338,Cercal,Alentejo Litoral,312,2025-07-21T17:38:00Z,25712338,Em Resolução/Conclusão,3103,Incêndio rural,0,13,0,43,2025-07-21T17:38:00Z,Santiago Do Cacém,Setúbal,Alentejo,-8.682272,37.791582,Resolução/Conclusão
25716617,Alquerubim,Região de Aveiro,310,2025-07-22T14:47:00Z,25716617,Em Resolução/Conclusão,3101,Incêndio rural,0,2,0,6,2025-07-22T14:47:00Z,Albergaria-a-Velha,Aveiro,Centro,-8.503263,40.635405,Resolução/Conclusão
25717167,Pinhel,Beiras e Serra da Estrela,310,2025-07-22T16:40:00Z,25717167,Em Resolução/Conclusão,3103,Incêndio rural,0,10,0,38,2025-07-22T16:40:00Z,Pinhel,Guarda,Centro,-7.060442,40.781598,Resolução/Conclusão
25717282,Faiões,Alto Tâmega e Barroso,309,2025-07-22T17:03:00Z,25717282,Em Resolução/Conclusão,3103,Incêndio rural,0,0,0,0,2025-07-22T17:03:00Z,Chaves,Vila Real,Norte,-7.435467,41.749257,Resolução/Conclusão
25717520,Castelo Branco,Beira Baixa,310,2025-07-22T17:59:00Z,25717520,Em Resolução/Conclusão,3103,Incêndio rural,0,40,0,126,2025-07-22T17:59:00Z,Castelo Branco,Castelo Branco,Centro,-7.464898,39.851129,Resolução/Conclusão
25718088,Santo Antão e São Julião do Tojal,Grande Lisboa,311,2025-07-22T20:18:00Z,25718088,Em Resolução/Conclusão,3103,Incêndio rural,0,1,0,5,2025-07-22T20:18:00Z,Loures,Lisboa,Área Metropolitana De Lisboa,-9.14372,38.86756,Resolução/Conclusão
25718254,"Coruche, Fajarda e Erra",Lezíria do Tejo,311,2025-07-22T21:01:00Z,25718254,Em Despacho,3103,Incêndio rural,0,6,0,21,2025-07-22T21:01:00Z,Coruche,Santarém,Alentejo,-8.520119,38.845248,Despacho
25718270,"Bigorne, Magueija e Pretarouca",Douro,309,2025-07-22T21:05:00Z,25718270,Em Despacho,3103,Incêndio rural,0,3,0,15,2025-07-22T21:05:00Z,Lamego,Viseu,Norte,-7.871525,41.02638,Despacho
