id,address,subregion,neighborhood,date,id.1,state,nature,nature_description,aerial_means,terrestrial_means,aquatic_means,operational,date.1,Concelho,Distrito,NUTII_DSG,longitude,latitude,state_2
26078127,Lazarim,Douro,309,2025-10-02T15:17:00Z,26078127,Em Despacho,3103,Incêndio rural,0,0,0,0,2025-10-02T15:17:00Z,Lamego,Viseu,Norte,-7.83511,41.03349,Despacho
26022995,Bordeira,Algarve,313,2025-09-21T12:21:00Z,26022995,Em Resolução/Conclusão,3103,Incêndio rural,0,5,0,15,2025-09-21T12:21:00Z,Aljezur,Faro,Algarve,-8.825374,37.23495,Resolução/Conclusão
26077730,Meixedo e Padornelos,Alto Tâmega e Barroso,309,2025-10-02T14:00:00Z,26077730,Em Despacho,3103,Incêndio rural,0,3,0,15,2025-10-02T14:00:00Z,Montalegre,Vila Real,Norte,-7.732032,41.871064,Despacho
25951176,Sandomil,Beiras e Serra da Estrela,310,2025-09-06T10:29:00Z,25951176,Em Resolução/Conclusão,3103,Incêndio rural,0,3,0,15,2025-09-06T10:29:00Z,Seia,Guarda,Centro,-7.76001,40.351547,Resolução/Conclusão
26077823,São Cipriano e Vil de Souto,Viseu Dão Lafões,310,2025-10-02T14:18:00Z,26077823,Em Resolução/Conclusão,3103,Incêndio rural,2,12,0,59,2025-10-02T14:18:00Z,Viseu,Viseu,Centro,-7.953868,40.632302,Resolução/Conclusão
26078005,São Cipriano e Vil de Souto,Viseu Dão Lafões,310,2025-10-02T14:50:00Z,26078005,Em Resolução/Conclusão,3103,Incêndio rural,0,1,0,5,2025-10-02T14:50:00Z,Viseu,Viseu,Centro,-7.953403,40.629838,Resolução/Conclusão
26050704,Tortosendo,Beiras e Serra da Estrela,310,2025-09-26T23:04:00Z,26050704,Em Resolução/Conclusão,3103,Incêndio rural,0,1,0,4,2025-09-26T23:04:00Z,Covilhã,Castelo Branco,Centro,-7.521592,40.251592,Resolução/Conclusão
26073480,Alcanede,Lezíria do Tejo,311,2025-10-01T16:15:00Z,26073480,Em Resolução/Conclusão,3103,Incêndio rural,0,4,0,17,2025-10-01T16:15:00Z,Santarém,Santarém,Alentejo,-8.787427,39.400588,Resolução/Conclusão
26076481,Dornelas,Alto Tâmega e Barroso,309,2025-10-02T10:10:00Z,26076481,Em Resolução/Conclusão,3103,Incêndio rural,0,6,0,28,2025-10-02T10:10:00Z,Boticas,Vila Real,Norte,-7.843733,41.66854,Resolução/Conclusão
26078085,Mafra,Grande Lisboa,311,2025-10-02T15:01:00Z,26078085,Em Despacho,3103,Incêndio rural,0,1,0,5,2025-10-02T15:01:00Z,Mafra,Lisboa,Área Metropolitana De Lisboa,-9.337252,38.942359,Despacho
26078112,Cabril,Alto Tâmega e Barroso,309,2025-10-02T15:15:00Z,26078112,Em Despacho,3103,Incêndio rural,1,0,0,6,2025-10-02T15:15:00Z,Montalegre,Vila Real,Norte,-8.03307,41.71734,Despacho
