id,address,subregion,neighborhood,date,id.1,state,nature,nature_description,aerial_means,terrestrial_means,aquatic_means,operational,date.1,Concelho,Distrito,NUTII_DSG,longitude,latitude
24885467,Bonfim,Area M. Porto,309,2025-01-29T07:17:00Z,24885467,Em despacho,3315,Inundação de estruturas por precipitação intensa,0,1,0,4,2025-01-29T07:17:00Z,Porto,Porto,Norte,-8.596119,41.151713
24885494,Vila Cova e Feitos,Cávado,309,2025-01-29T07:44:00Z,24885494,Em curso,3301,Queda de árvore,0,1,0,2,2025-01-29T07:44:00Z,Barcelos,Braga,Norte,-8.688002,41.573305
24885649,Vilar de Andorinho,Area M. Porto,309,2025-01-29T08:19:00Z,24885649,Em despacho,3301,Queda de árvore,0,1,0,3,2025-01-29T08:19:00Z,Vila Nova De Gaia,Porto,Norte,-8.57418,41.09994
24885769,Gulpilhares e Valadares,Area M. Porto,309,2025-01-29T08:29:00Z,24885769,Em despacho,3315,Inundação de estruturas por precipitação intensa,0,1,0,2,2025-01-29T08:29:00Z,Vila Nova De Gaia,Porto,Norte,-8.637978,41.084091
24885778,"St.tirso, Couto (S.cristina e S.miguel) e Burgães",Area M. Porto,309,2025-01-29T08:57:00Z,24885778,Em curso,3301,Queda de árvore,0,4,0,8,2025-01-29T08:57:00Z,Santo Tirso,Porto,Norte,-8.46516,41.35088
24885783,São Félix da Marinha,Area M. Porto,309,2025-01-29T08:42:00Z,24885783,Em despacho,3301,Queda de árvore,0,1,0,3,2025-01-29T08:42:00Z,Vila Nova De Gaia,Porto,Norte,-8.629189,41.030125
24885810,Mozelos,Area M. Porto,309,2025-01-29T08:54:00Z,24885810,Em resolução,3301,Queda de árvore,0,2,0,7,2025-01-29T08:54:00Z,Santa Maria Da Feira,Aveiro,Norte,-8.56526,40.997101
24851780,"São Miguel, Santa Eufémia e Rabaçal",Região de Coimbra,310,2025-01-21T23:25:00Z,24851780,Em curso,3315,Inundação de estruturas por precipitação intensa,0,0,0,0,2025-01-21T23:25:00Z,Penela,Coimbra,Centro,-8.399036,40.025502
24885423,"Cedofeita, Ildefonso, Sé, Miragaia, Nicolau e Vitória",Area M. Porto,309,2025-01-29T07:20:00Z,24885423,Em despacho,3321,Dano na rede de fornecimento de eletricidade ,0,0,0,0,2025-01-29T07:20:00Z,Porto,Porto,Norte,-8.61864,41.15619
24885621,"Nogueira, Fraião e Lamaçães",Cávado,309,2025-01-29T08:12:00Z,24885621,Em despacho,3311,Queda de elementos de estruturas edificados,0,2,0,4,2025-01-29T08:12:00Z,Braga,Braga,Norte,-8.399912,41.531469
24885722,"Aldoar, Foz do Douro e Nevogilde",Area M. Porto,309,2025-01-29T08:47:00Z,24885722,Em despacho,3311,Queda de elementos de estruturas edificados,0,0,0,0,2025-01-29T08:47:00Z,Porto,Porto,Norte,-8.66587,41.16295
24885737,Matosinhos e Leça da Palmeira,Area M. Porto,309,2025-01-29T08:29:00Z,24885737,Em curso,3301,Queda de árvore,0,1,0,2,2025-01-29T08:29:00Z,Matosinhos,Porto,Norte,-8.692583,41.193749
24886005,Serzedo e Perosinho,Area M. Porto,309,2025-01-29T09:24:00Z,24886005,Em despacho,3313,Deslizamento de terras,0,1,0,5,2025-01-29T09:24:00Z,Vila Nova De Gaia,Porto,Norte,-8.594742,41.064989
24886021,Lamas e Cercal,Oeste,311,2025-01-29T09:39:00Z,24886021,Em curso,3321,Dano na rede de fornecimento de eletricidade ,0,2,0,4,2025-01-29T09:39:00Z,Cadaval,Lisboa,Centro,-8.99533,39.21899
24886038,Paranhos,Area M. Porto,309,2025-01-29T09:36:00Z,24886038,Em despacho,3311,Queda de elementos de estruturas edificados,0,1,0,3,2025-01-29T09:36:00Z,Porto,Porto,Norte,-8.607437,41.17569
24886058,Palmeira,Cávado,309,2025-01-29T09:42:00Z,24886058,Em despacho,3329,Queda de estruturas temporárias ou móveis,0,1,0,2,2025-01-29T09:42:00Z,Braga,Braga,Norte,-8.434231,41.59113
24877003,Malagueira e Horta Das Figueiras,Alentejo Central,312,2025-01-27T11:41:00Z,24877003,Em conclusão,3315,Inundação de estruturas por precipitação intensa,0,0,0,0,2025-01-27T11:41:00Z,Évora,Évora,Alentejo,-7.924277,38.57285
24885816,Paranhos,Area M. Porto,309,2025-01-29T08:54:00Z,24885816,Em despacho,3311,Queda de elementos de estruturas edificados,0,1,0,3,2025-01-29T08:54:00Z,Porto,Porto,Norte,-8.607437,41.17569
24885895,Travanca,Tâmega e Sousa,309,2025-01-29T09:10:00Z,24885895,Em conclusão,3301,Queda de árvore,0,1,0,2,2025-01-29T09:10:00Z,Cinfães,Viseu,Norte,-8.225891,41.037966
24886018,Serpins,Região de Coimbra,310,2025-01-29T09:36:00Z,24886018,Em despacho,3313,Deslizamento de terras,0,1,0,1,2025-01-29T09:36:00Z,Lousã,Coimbra,Centro,-8.194152,40.160883
24886059,Santo André,Alentejo Litoral,312,2025-01-29T09:39:00Z,24886059,Em curso,3301,Queda de árvore,0,2,0,5,2025-01-29T09:39:00Z,Santiago Do Cacém,Setúbal,Alentejo,-8.751748,38.054211
24886118,"St.tirso, Couto (S.cristina e S.miguel) e Burgães",Area M. Porto,309,2025-01-29T09:48:00Z,24886118,Em despacho,3301,Queda de árvore,0,3,0,6,2025-01-29T09:48:00Z,Santo Tirso,Porto,Norte,-8.47808,41.333693
24886129,Atouguia da Baleia,Oeste,311,2025-01-29T09:50:00Z,24886129,Em curso,3315,Inundação de estruturas por precipitação intensa,0,2,0,6,2025-01-29T09:50:00Z,Peniche,Leiria,Centro,-9.317393,39.325858
24886152,Campo e Sobrado,Area M. Porto,309,2025-01-29T09:32:00Z,24886152,Em despacho,3301,Queda de árvore,0,1,0,2,2025-01-29T09:32:00Z,Valongo,Porto,Norte,-8.468037,41.181584
24885928,Pombeiro da Beira,Região de Coimbra,310,2025-01-29T09:22:00Z,24885928,Em despacho,3301,Queda de árvore,0,1,0,5,2025-01-29T09:22:00Z,Arganil,Coimbra,Centro,-8.149563,40.218536
24885953,Lousã e Vilarinho,Região de Coimbra,310,2025-01-29T09:15:00Z,24885953,Em despacho,3301,Queda de árvore,0,1,0,2,2025-01-29T09:15:00Z,Lousã,Coimbra,Centro,-8.280879,40.099564
24886062,Alhadas,Região de Coimbra,310,2025-01-29T09:40:00Z,24886062,Em despacho,3315,Inundação de estruturas por precipitação intensa,0,1,0,3,2025-01-29T09:40:00Z,Figueira Da Foz,Coimbra,Centro,-8.808093,40.16613
24886201,Lourinhã e Atalaia,Oeste,311,2025-01-29T09:30:00Z,24886201,Em conclusão,3315,Inundação de estruturas por precipitação intensa,0,2,0,6,2025-01-29T09:30:00Z,Lourinhã,Lisboa,Centro,-9.302808,39.25289
24886262,Tavarede,Região de Coimbra,310,2025-01-29T10:00:00Z,24886262,Em despacho,3315,Inundação de estruturas por precipitação intensa,0,1,0,2,2025-01-29T10:00:00Z,Figueira Da Foz,Coimbra,Centro,-8.853871,40.165854
24886287,Cardigos,Médio Tejo,311,2025-01-29T10:21:00Z,24886287,Em despacho,3301,Queda de árvore,0,2,0,3,2025-01-29T10:21:00Z,Mação,Santarém,Centro,-7.976818,39.723094
24885665,Campo e Sobrado,Area M. Porto,309,2025-01-29T08:33:00Z,24885665,Em despacho,3301,Queda de árvore,0,1,0,2,2025-01-29T08:33:00Z,Valongo,Porto,Norte,-8.463052,41.18263
24885762,Vila Nova de Famalicão e Calendário,Ave,309,2025-01-29T08:48:00Z,24885762,Em curso,3301,Queda de árvore,0,2,0,4,2025-01-29T08:48:00Z,Vila Nova De Famalicão,Braga,Norte,-8.530915,41.39878
24885863,"Margaride (Santa Eulália), Várzea, Lagares, Varziela e Moure",Tâmega e Sousa,309,2025-01-29T09:02:00Z,24885863,Em conclusão,3315,Inundação de estruturas por precipitação intensa,0,3,0,6,2025-01-29T09:02:00Z,Felgueiras,Porto,Norte,-8.183327,41.355843
24885965,Caldas da Rainha - Santo Onofre e Serra do Bouro,Oeste,311,2025-01-29T09:28:00Z,24885965,Em curso,3321,Dano na rede de fornecimento de eletricidade ,0,3,0,6,2025-01-29T09:28:00Z,Caldas Da Rainha,Leiria,Centro,-9.148929,39.401713
24886030,Aljubarrota,Oeste,311,2025-01-29T09:36:00Z,24886030,Em conclusão,3301,Queda de árvore,0,1,0,2,2025-01-29T09:36:00Z,Alcobaça,Leiria,Centro,-8.889481,39.564013
24886064,Bonfim,Area M. Porto,309,2025-01-29T09:07:00Z,24886064,Em curso,3301,Queda de árvore,0,1,0,5,2025-01-29T09:07:00Z,Porto,Porto,Norte,-8.596119,41.151713
24886083,Eiras e São Paulo de Frades,Região de Coimbra,310,2025-01-29T09:46:00Z,24886083,Em despacho,3301,Queda de árvore,0,1,0,2,2025-01-29T09:46:00Z,Coimbra,Coimbra,Centro,-8.43153,40.222652
24886088,Matosinhos e Leça da Palmeira,Area M. Porto,309,2025-01-29T09:15:00Z,24886088,Em despacho,3311,Queda de elementos de estruturas edificados,0,1,0,3,2025-01-29T09:15:00Z,Matosinhos,Porto,Norte,-8.682603,41.186161
24886140,Castanheira de Pêra e Coentral,Região de Leiria,310,2025-01-29T09:54:00Z,24886140,Em despacho,3301,Queda de árvore,0,1,0,2,2025-01-29T09:54:00Z,Castanheira De Pêra,Leiria,Centro,-8.196364,40.017687
24886173,Vouzela e Paços de Vilharigues,Viseu Dão Lafões,310,2025-01-29T10:00:00Z,24886173,Em despacho,3315,Inundação de estruturas por precipitação intensa,0,1,0,5,2025-01-29T10:00:00Z,Vouzela,Viseu,Centro,-8.130758,40.70753
24886188,Peral,Oeste,311,2025-01-29T09:50:00Z,24886188,Em conclusão,3315,Inundação de estruturas por precipitação intensa,0,1,0,3,2025-01-29T09:50:00Z,Cadaval,Lisboa,Centro,-9.073829,39.255533
24886225,Atouguia da Baleia,Oeste,311,2025-01-29T10:10:00Z,24886225,Em despacho,3321,Dano na rede de fornecimento de eletricidade ,0,1,0,1,2025-01-29T10:10:00Z,Peniche,Leiria,Centro,-9.312128,39.3038
24886258,Barcarena,Grande Lisboa,311,2025-01-29T10:13:00Z,24886258,Em curso,3311,Queda de elementos de estruturas edificados,0,5,0,12,2025-01-29T10:13:00Z,Oeiras,Lisboa,Área Metropolitana De Lisboa,-9.277392,38.733987
24886275,Canidelo,Area M. Porto,309,2025-01-29T10:00:00Z,24886275,Em despacho,3301,Queda de árvore,0,1,0,5,2025-01-29T10:00:00Z,Vila Nova De Gaia,Porto,Norte,-8.647622,41.133197
24886168,"Sé Nova, Santa Cruz, Almedina e São Bartolomeu",Região de Coimbra,310,2025-01-29T09:57:00Z,24886168,Em despacho,3315,Inundação de estruturas por precipitação intensa,0,1,0,2,2025-01-29T09:57:00Z,Coimbra,Coimbra,Centro,-8.425582,40.205556
24886261,Rio Tinto,Area M. Porto,309,2025-01-29T10:17:00Z,24886261,Em despacho,3321,Dano na rede de fornecimento de eletricidade ,0,1,0,1,2025-01-29T10:17:00Z,Gondomar,Porto,Norte,-8.55251,41.17102
24886270,Miranda do Corvo,Região de Coimbra,310,2025-01-29T10:00:00Z,24886270,Em despacho,3315,Inundação de estruturas por precipitação intensa,0,1,0,2,2025-01-29T10:00:00Z,Miranda Do Corvo,Coimbra,Centro,-8.339499,40.09407
24886309,Almeirim,Lezíria do Tejo,311,2025-01-29T10:22:00Z,24886309,Em curso,3315,Inundação de estruturas por precipitação intensa,0,2,0,5,2025-01-29T10:22:00Z,Almeirim,Santarém,Alentejo,-8.588832,39.142251
24886099,Santo António Dos Olivais,Região de Coimbra,310,2025-01-29T09:49:00Z,24886099,Em despacho,3315,Inundação de estruturas por precipitação intensa,0,1,0,2,2025-01-29T09:49:00Z,Coimbra,Coimbra,Centro,-8.426807,40.217261
24886181,Rendufinho,Ave,309,2025-01-29T09:55:00Z,24886181,Em despacho,3315,Inundação de estruturas por precipitação intensa,0,1,0,2,2025-01-29T09:55:00Z,Póvoa De Lanhoso,Braga,Norte,-8.264356,41.616025
24886183,Buarcos,Região de Coimbra,310,2025-01-29T09:58:00Z,24886183,Em despacho,3315,Inundação de estruturas por precipitação intensa,0,1,0,2,2025-01-29T09:58:00Z,Figueira Da Foz,Coimbra,Centro,-8.880897,40.168384
24886197,Carvalhal,Oeste,311,2025-01-29T10:04:00Z,24886197,Em despacho,3315,Inundação de estruturas por precipitação intensa,0,2,0,4,2025-01-29T10:04:00Z,Bombarral,Leiria,Centro,-9.134089,39.256831
24886216,"Caldelas, Sequeiros e Paranhos",Cávado,309,2025-01-29T10:10:00Z,24886216,Em despacho,3315,Inundação de estruturas por precipitação intensa,0,1,0,2,2025-01-29T10:10:00Z,Amares,Braga,Norte,-8.358872,41.673712
24886263,"O. Azeméis, Riba-Ul, Ul, Macinhata Seixa, Madail",Area M. Porto,309,2025-01-29T10:17:00Z,24886263,Em despacho,3329,Queda de estruturas temporárias ou móveis,0,0,0,0,2025-01-29T10:17:00Z,Oliveira De Azeméis,Aveiro,Norte,-8.481537,40.83287
24886266,São Pedro da Cadeira,Oeste,311,2025-01-29T10:18:00Z,24886266,Em despacho,3315,Inundação de estruturas por precipitação intensa,0,2,0,4,2025-01-29T10:18:00Z,Torres Vedras,Lisboa,Centro,-9.372278,39.07254
24886341,Buarcos,Região de Coimbra,310,2025-01-29T10:20:00Z,24886341,Em despacho,3315,Inundação de estruturas por precipitação intensa,0,1,0,5,2025-01-29T10:20:00Z,Figueira Da Foz,Coimbra,Centro,-8.880897,40.168384
24886280,São Martinho do Bispo e Ribeira de Frades,Região de Coimbra,310,2025-01-29T10:14:00Z,24886280,Em despacho,3315,Inundação de estruturas por precipitação intensa,0,1,0,2,2025-01-29T10:14:00Z,Coimbra,Coimbra,Centro,-8.483143,40.207197
24886298,Almeirim,Lezíria do Tejo,311,2025-01-29T10:21:00Z,24886298,Em conclusão,3315,Inundação de estruturas por precipitação intensa,0,0,0,0,2025-01-29T10:21:00Z,Almeirim,Santarém,Alentejo,-8.628953,39.209368
24886300,"Sé, Santa Maria e Meixedo",Terras de Trás-os-Montes,309,2025-01-29T10:22:00Z,24886300,Em despacho,3315,Inundação de estruturas por precipitação intensa,0,0,0,0,2025-01-29T10:22:00Z,Bragança,Bragança,Norte,-6.76349,41.81617
24886316,Buarcos,Região de Coimbra,310,2025-01-29T10:26:00Z,24886316,Em despacho,3315,Inundação de estruturas por precipitação intensa,0,1,0,3,2025-01-29T10:26:00Z,Figueira Da Foz,Coimbra,Centro,-8.880897,40.168384
24886350,Junqueira,Area M. Porto,309,2025-01-29T10:20:00Z,24886350,Em despacho,3301,Queda de árvore,0,1,0,2,2025-01-29T10:20:00Z,Vale De Cambra,Aveiro,Norte,-8.335001,40.802871
