id,address,subregion,neighborhood,date,id.1,state,nature,nature_description,aerial_means,terrestrial_means,aquatic_means,operational,date.1,Concelho,Distrito,NUTII_DSG,longitude,latitude
25493327,Garvão e Santa Luzia,Baixo Alentejo,312,2025-06-07T23:02:00Z,25493327,Em conclusão,3105,Incêndio rural,0,1,0,5,2025-06-07T23:02:00Z,Ourique,Beja,Alentejo,-8.394977,37.741793
25494748,Tavarede,Região de Coimbra,310,2025-06-08T09:37:00Z,25494748,Em conclusão,2301,Incêndio em transporte rodoviário,0,1,0,2,2025-06-08T09:37:00Z,Figueira Da Foz,Coimbra,Centro,-8.828472,40.18054
25494781,Grijó e Sermonde,Area M. Porto,309,2025-06-08T09:45:00Z,25494781,Em conclusão,2301,Incêndio em transporte rodoviário,0,1,0,5,2025-06-08T09:45:00Z,Vila Nova De Gaia,Porto,Norte,-8.56394,41.03796
25494754,Alvarelhos e Guidões,Area M. Porto,309,2025-06-08T09:34:00Z,25494754,Em despacho,3111,Queima,0,5,0,26,2025-06-08T09:34:00Z,Trofa,Porto,Norte,-8.609605,41.309843
25493974,Costa da Caparica,Península de Setúbal,311,2025-06-08T05:32:00Z,25493974,Em resolução,3107,Consolidação de rescaldo de incêndio rural,0,6,0,17,2025-06-08T05:32:00Z,Almada,Setúbal,Área Metropolitana De Lisboa,-9.20088,38.58186
25494974,Santo Agostinho e São João Baptista e Santo Amador,Baixo Alentejo,312,2025-06-08T10:29:00Z,25494974,Em despacho,3105,Incêndio rural,0,0,0,0,2025-06-08T10:29:00Z,Moura,Beja,Alentejo,-7.44316,38.13033
