id,address,subregion,neighborhood,date,id.1,state,nature,nature_description,aerial_means,terrestrial_means,aquatic_means,operational,date.1,Concelho,Distrito,NUTII_DSG,longitude,latitude
25068300,Almeirim,Lezíria do Tejo,311,2025-03-10T20:52:00Z,25068300,Em curso,1101,Cheia,0,0,0,0,2025-03-10T20:52:00Z,Almeirim,Santarém,Alentejo,-8.635002,39.187436
25244811,Porto Salvo,Grande Lisboa,311,2025-04-15T15:31:00Z,25244811,Em resolução,3317,Inundação de estruturas por água canalizada,0,1,0,5,2025-04-15T15:31:00Z,Oeiras,Lisboa,Área Metropolitana De Lisboa,-9.305901,38.719291
25244843,Moledo e Cristelo,Alto Minho,309,2025-04-15T15:50:00Z,25244843,Em curso,3301,Queda de árvore,0,0,0,0,2025-04-15T15:50:00Z,Caminha,Viana Do Castelo,Norte,-8.855489,41.84725
25244959,Alcáçovas,Alentejo Central,312,2025-04-15T16:20:00Z,25244959,Em despacho,3301,Queda de árvore,0,1,0,5,2025-04-15T16:20:00Z,Viana Do Alentejo,Évora,Alentejo,-8.090888,38.393392
25245011,Faro (Sé e São Pedro),Algarve,313,2025-04-15T16:27:00Z,25245011,Em despacho,3321,Dano na rede de fornecimento de eletricidade ,0,1,0,3,2025-04-15T16:27:00Z,Faro,Faro,Algarve,-7.942032,37.01865
25070044,Praia do Ribatejo,Médio Tejo,311,2025-03-10T19:30:00Z,25070044,Em curso,1101,Cheia,0,0,0,0,2025-03-10T19:30:00Z,Vila Nova Da Barquinha,Santarém,Centro,-8.357309,39.485638
25071496,São Manços e São Vicente do Pigeiro,Alentejo Central,312,2025-03-11T13:18:00Z,25071496,Em conclusão,1101,Cheia,0,0,0,0,2025-03-11T13:18:00Z,Évora,Évora,Alentejo,-7.713313,38.513673
25202441,Serpa (Salvador e Santa Maria),Baixo Alentejo,312,2025-04-06T10:25:00Z,25202441,Em conclusão,1101,Cheia,0,0,0,0,2025-04-06T10:25:00Z,Serpa,Beja,Alentejo,-7.555783,37.88592
25244962,Fernão Ferro,Península de Setúbal,311,2025-04-15T16:17:00Z,25244962,Em despacho,3311,Queda de elementos de estruturas edificados,0,1,0,3,2025-04-15T16:17:00Z,Seixal,Setúbal,Área Metropolitana De Lisboa,-9.094846,38.5852
