id,address,subregion,neighborhood,date,id.1,state,nature,nature_description,aerial_means,terrestrial_means,aquatic_means,operational,date.1,Concelho,Distrito,NUTII_DSG,longitude,latitude,state_2
26003298,Barreiros e Cepões,Viseu Dão Lafões,310,2025-09-17T12:05:00Z,26003298,Em Resolução/Conclusão,3101,Incêndio rural,0,1,0,2,2025-09-17T12:05:00Z,Viseu,Viseu,Centro,-7.825281,40.745844,Resolução/Conclusão
26007994,Santo André,Alto Tâmega e Barroso,309,2025-09-18T11:24:00Z,26007994,Em Resolução/Conclusão,3103,Incêndio rural,0,3,0,7,2025-09-18T11:24:00Z,Montalegre,Vila Real,Norte,-7.694427,41.872722,Resolução/Conclusão
26009982,Cabril,Alto Tâmega e Barroso,309,2025-09-18T17:37:00Z,26009982,Em Resolução/Conclusão,3103,Incêndio rural,0,4,0,16,2025-09-18T17:37:00Z,Montalegre,Vila Real,Norte,-8.066385,41.701862,Resolução/Conclusão
25951176,Sandomil,Beiras e Serra da Estrela,310,2025-09-06T10:29:00Z,25951176,Em Resolução/Conclusão,3103,Incêndio rural,0,2,0,10,2025-09-06T10:29:00Z,Seia,Guarda,Centro,-7.76001,40.351547,Resolução/Conclusão
26001447,Pelmá,Região de Leiria,310,2025-09-17T02:13:00Z,26001447,Em Resolução/Conclusão,3101,Incêndio rural,0,1,0,2,2025-09-17T02:13:00Z,Alvaiázere,Leiria,Centro,-8.425235,39.797637,Resolução/Conclusão
26003954,Repeses e São Salvador,Viseu Dão Lafões,310,2025-09-17T14:20:00Z,26003954,Em Resolução/Conclusão,3103,Incêndio rural,0,1,0,5,2025-09-17T14:20:00Z,Viseu,Viseu,Centro,-7.95257,40.644483,Resolução/Conclusão
26008365,Vreia de Jales,Alto Tâmega e Barroso,309,2025-09-18T12:31:00Z,26008365,Em Resolução/Conclusão,3101,Incêndio rural,0,2,0,8,2025-09-18T12:31:00Z,Vila Pouca De Aguiar,Vila Real,Norte,-7.619643,41.430498,Resolução/Conclusão
26009919,Jou,Douro,309,2025-09-18T17:24:00Z,26009919,Em Resolução/Conclusão,3103,Incêndio rural,0,4,0,15,2025-09-18T17:24:00Z,Murça,Vila Real,Norte,-7.408423,41.459265,Resolução/Conclusão
26009920,Seda,Alto Alentejo,312,2025-09-18T17:23:00Z,26009920,Em Resolução/Conclusão,3101,Incêndio rural,0,10,0,34,2025-09-18T17:23:00Z,Alter Do Chão,Portalegre,Alentejo,-7.77684,39.211713,Resolução/Conclusão
25832672,Piódão,Região de Coimbra,310,2025-08-13T05:08:00Z,25832672,Em Resolução/Conclusão,3103,Incêndio rural,0,0,0,0,2025-08-13T05:08:00Z,Arganil,Coimbra,Centro,-7.81972,40.23083,Resolução/Conclusão
26010142,"Sandim, Olival, Lever e Crestuma",Area M. Porto,309,2025-09-18T18:10:00Z,26010142,Em Resolução/Conclusão,3103,Incêndio rural,0,3,0,9,2025-09-18T18:10:00Z,Vila Nova De Gaia,Porto,Norte,-8.498367,41.063535,Resolução/Conclusão
26010201,Aguiar da Beira e Coruche,Viseu Dão Lafões,310,2025-09-18T18:28:00Z,26010201,Em Resolução/Conclusão,3103,Incêndio rural,0,2,0,7,2025-09-18T18:28:00Z,Aguiar Da Beira,Guarda,Centro,-7.564872,40.861853,Resolução/Conclusão
26010256,Sousela,Tâmega e Sousa,309,2025-09-18T18:44:00Z,26010256,Em Despacho,3103,Incêndio rural,0,1,0,5,2025-09-18T18:44:00Z,Lousada,Porto,Norte,-8.31062,41.29308,Despacho
25980131,Carva e Vilares,Douro,309,2025-09-12T14:27:00Z,25980131,Em Resolução/Conclusão,3103,Incêndio rural,0,13,0,45,2025-09-12T14:27:00Z,Murça,Vila Real,Norte,-7.55901,41.401343,Resolução/Conclusão
26008926,Borbela e Lamas de Olo,Douro,309,2025-09-18T14:21:00Z,26008926,Em Resolução/Conclusão,3103,Incêndio rural,0,3,0,7,2025-09-18T14:21:00Z,Vila Real,Vila Real,Norte,-7.73497,41.325622,Resolução/Conclusão
26009912,Ladoeiro,Beira Baixa,310,2025-09-18T17:22:00Z,26009912,Em Resolução/Conclusão,3105,Incêndio rural,0,6,0,18,2025-09-18T17:22:00Z,Idanha-a-Nova,Castelo Branco,Centro,-7.235352,39.861517,Resolução/Conclusão
26010177,Bem Viver,Tâmega e Sousa,309,2025-09-18T18:19:00Z,26010177,Em Resolução/Conclusão,3103,Incêndio rural,0,1,0,5,2025-09-18T18:19:00Z,Marco De Canaveses,Porto,Norte,-8.2352,41.116295,Resolução/Conclusão
