id,address,subregion,neighborhood,date,id.1,state,nature,nature_description,aerial_means,terrestrial_means,aquatic_means,operational,date.1,Concelho,Distrito,NUTII_DSG,longitude,latitude
25263480,Penalva de Alva e São Sebastião da Feira,Região de Coimbra,310,2025-04-20T13:15:00Z,25263480,Em resolução,3313,Deslizamento de terras,0,1,0,2,2025-04-20T13:15:00Z,Oliveira Do Hospital,Coimbra,Centro,-7.838908,40.337041
25263549,Salvaterra de Magos e Foros de Salvaterra,Lezíria do Tejo,311,2025-04-20T13:37:00Z,25263549,Em conclusão,3301,Queda de árvore,0,1,0,5,2025-04-20T13:37:00Z,Salvaterra De Magos,Santarém,Alentejo,-8.779968,39.015365
25263361,Monchique,Algarve,313,2025-04-20T12:29:00Z,25263361,Em curso,3301,Queda de árvore,0,1,0,4,2025-04-20T12:29:00Z,Monchique,Faro,Algarve,-8.532382,37.308262
25263379,Águeda e Borralha,Região de Aveiro,310,2025-04-20T09:30:00Z,25263379,Em despacho,1101,Cheia,0,0,0,0,2025-04-20T09:30:00Z,Águeda,Aveiro,Centro,-8.416662,40.574294
25071496,São Manços e São Vicente do Pigeiro,Alentejo Central,312,2025-03-11T13:18:00Z,25071496,Em conclusão,1101,Cheia,0,0,0,0,2025-03-11T13:18:00Z,Évora,Évora,Alentejo,-7.713313,38.513673
25202441,Serpa (Salvador e Santa Maria),Baixo Alentejo,312,2025-04-06T10:25:00Z,25202441,Em conclusão,1101,Cheia,0,0,0,0,2025-04-06T10:25:00Z,Serpa,Beja,Alentejo,-7.555783,37.88592
25263541,Nossa Senhora Das Misericórdias,Médio Tejo,311,2025-04-20T13:35:00Z,25263541,Em despacho,3301,Queda de árvore,0,1,0,3,2025-04-20T13:35:00Z,Ourém,Santarém,Centro,-8.5991,39.643
25263590,Arazede,Região de Coimbra,310,2025-04-20T13:48:00Z,25263590,Em despacho,3315,Inundação de estruturas por precipitação intensa,0,0,0,0,2025-04-20T13:48:00Z,Montemor-o-Velho,Coimbra,Centro,-8.737742,40.307008
