id,address,subregion,neighborhood,date,id.1,state,nature,nature_description,aerial_means,terrestrial_means,aquatic_means,operational,date.1,Concelho,Distrito,NUTII_DSG,longitude,latitude
24877003,Malagueira e Horta Das Figueiras,Alentejo Central,312,2025-01-27T11:41:00Z,24877003,Em conclusão,3315,Inundação de estruturas por precipitação intensa,0,0,0,0,2025-01-27T11:41:00Z,Évora,Évora,Alentejo,-7.924277,38.57285
24886261,Rio Tinto,Area M. Porto,309,2025-01-29T10:17:00Z,24886261,Em despacho,3321,Dano na rede de fornecimento de eletricidade ,0,1,0,1,2025-01-29T10:17:00Z,Gondomar,Porto,Norte,-8.55251,41.17102
24887086,"Marvila, Ribeira Santarém, S.salvador, S.nicolau",Lezíria do Tejo,311,2025-01-29T12:43:00Z,24887086,Em conclusão,3313,Deslizamento de terras,0,1,0,1,2025-01-29T12:43:00Z,Santarém,Santarém,Alentejo,-8.72694,39.336959
24887324,"Sandim, Olival, Lever e Crestuma",Area M. Porto,309,2025-01-29T13:24:00Z,24887324,Em despacho,3315,Inundação de estruturas por precipitação intensa,0,2,0,4,2025-01-29T13:24:00Z,Vila Nova De Gaia,Porto,Norte,-8.502382,41.048753
24887738,"Sé, Santa Maria e Meixedo",Terras de Trás-os-Montes,309,2025-01-29T14:48:00Z,24887738,Em despacho,3315,Inundação de estruturas por precipitação intensa,0,1,0,2,2025-01-29T14:48:00Z,Bragança,Bragança,Norte,-6.761223,41.813164
24887792,Baião (Santa Leocádia) e Mesquinhata,Tâmega e Sousa,309,2025-01-29T15:00:00Z,24887792,Em despacho,3313,Deslizamento de terras,0,0,0,0,2025-01-29T15:00:00Z,Baião,Porto,Norte,-8.08635,41.12016
24887817,Esmoriz,Região de Aveiro,310,2025-01-29T14:59:00Z,24887817,Em despacho,1115,Galgamento costeiro,0,2,0,5,2025-01-29T14:59:00Z,Ovar,Aveiro,Centro,-8.656778,40.948842
24887847,Matosinhos e Leça da Palmeira,Area M. Porto,309,2025-01-29T15:11:00Z,24887847,Em despacho,3311,Queda de elementos de estruturas edificados,0,1,0,2,2025-01-29T15:11:00Z,Matosinhos,Porto,Norte,-8.676712,41.17916
24887865,São Martinho Das Moitas e Covas do Rio,Viseu Dão Lafões,310,2025-01-29T15:10:00Z,24887865,Em curso,3313,Deslizamento de terras,0,2,0,6,2025-01-29T15:10:00Z,São Pedro Do Sul,Viseu,Centro,-8.08089,40.891495
24887899,Alcórrego e Maranhão,Alto Alentejo,312,2025-01-29T15:15:00Z,24887899,Em despacho,3313,Deslizamento de terras,0,2,0,7,2025-01-29T15:15:00Z,Avis,Portalegre,Alentejo,-7.969935,39.004113
24851780,"São Miguel, Santa Eufémia e Rabaçal",Região de Coimbra,310,2025-01-21T23:25:00Z,24851780,Em curso,3315,Inundação de estruturas por precipitação intensa,0,0,0,0,2025-01-21T23:25:00Z,Penela,Coimbra,Centro,-8.399036,40.025502
24886074,Boivães,Alto Minho,309,2025-01-29T09:45:00Z,24886074,Em curso,3313,Deslizamento de terras,0,2,0,6,2025-01-29T09:45:00Z,Ponte Da Barca,Viana Do Castelo,Norte,-8.450591,41.766096
24886793,Miranda do Corvo,Região de Coimbra,310,2025-01-29T11:35:00Z,24886793,Em curso,3315,Inundação de estruturas por precipitação intensa,0,0,0,0,2025-01-29T11:35:00Z,Miranda Do Corvo,Coimbra,Centro,-8.339499,40.09407
24887728,Campos e Louredo,Ave,309,2025-01-29T14:37:00Z,24887728,Em despacho,3321,Dano na rede de fornecimento de eletricidade ,0,2,0,5,2025-01-29T14:37:00Z,Póvoa De Lanhoso,Braga,Norte,-8.27662,41.547515
24886300,"Sé, Santa Maria e Meixedo",Terras de Trás-os-Montes,309,2025-01-29T10:22:00Z,24886300,Em curso,3315,Inundação de estruturas por precipitação intensa,0,2,0,3,2025-01-29T10:22:00Z,Bragança,Bragança,Norte,-6.76349,41.81617
24886364,Peso da Régua e Godim,Douro,309,2025-01-29T10:27:00Z,24886364,Em despacho,3315,Inundação de estruturas por precipitação intensa,0,1,0,2,2025-01-29T10:27:00Z,Peso Da Régua,Vila Real,Norte,-7.799499,41.166288
24887383,Carcavelos e Parede,Grande Lisboa,311,2025-01-29T13:42:00Z,24887383,Em conclusão,3321,Dano na rede de fornecimento de eletricidade ,0,2,0,4,2025-01-29T13:42:00Z,Cascais,Lisboa,Área Metropolitana De Lisboa,-9.36719,38.70205
24887436,Canelas e Espiunca,Area M. Porto,309,2025-01-29T13:48:00Z,24887436,Em despacho,3301,Queda de árvore,0,1,0,2,2025-01-29T13:48:00Z,Arouca,Aveiro,Norte,-8.212231,40.969918
24887752,Chamusca e Pinheiro Grande,Lezíria do Tejo,311,2025-01-29T14:52:00Z,24887752,Em resolução,3301,Queda de árvore,0,1,0,5,2025-01-29T14:52:00Z,Chamusca,Santarém,Alentejo,-8.428554,39.403996
24887838,"Marvila, Ribeira Santarém, S.salvador, S.nicolau",Lezíria do Tejo,311,2025-01-29T15:07:00Z,24887838,Em conclusão,3311,Queda de elementos de estruturas edificados,0,1,0,5,2025-01-29T15:07:00Z,Santarém,Santarém,Alentejo,-8.68773,39.241292
24887871,"Nogueira, Fraião e Lamaçães",Cávado,309,2025-01-29T15:15:00Z,24887871,Em despacho,3315,Inundação de estruturas por precipitação intensa,0,1,0,4,2025-01-29T15:15:00Z,Braga,Braga,Norte,-8.41086,41.53137
24885769,Gulpilhares e Valadares,Area M. Porto,309,2025-01-29T08:29:00Z,24885769,Em curso,3315,Inundação de estruturas por precipitação intensa,0,1,0,2,2025-01-29T08:29:00Z,Vila Nova De Gaia,Porto,Norte,-8.637978,41.084091
24887223,"Cedofeita, Ildefonso, Sé, Miragaia, Nicolau e Vitória",Area M. Porto,309,2025-01-29T13:11:00Z,24887223,Em despacho,3329,Queda de estruturas temporárias ou móveis,0,0,0,0,2025-01-29T13:11:00Z,Porto,Porto,Norte,-8.61101,41.16293
24887398,Sines,Alentejo Litoral,312,2025-01-29T13:40:00Z,24887398,Em conclusão,3315,Inundação de estruturas por precipitação intensa,0,2,0,3,2025-01-29T13:40:00Z,Sines,Setúbal,Alentejo,-8.830877,37.967532
24887605,Ladoeiro,Beira Baixa,310,2025-01-29T14:18:00Z,24887605,Em curso,3315,Inundação de estruturas por precipitação intensa,0,1,0,2,2025-01-29T14:18:00Z,Idanha-a-Nova,Castelo Branco,Centro,-7.262052,39.837795
24887657,Costa da Caparica,Península de Setúbal,311,2025-01-29T14:29:00Z,24887657,Em despacho,3301,Queda de árvore,0,1,0,6,2025-01-29T14:29:00Z,Almada,Setúbal,Área Metropolitana De Lisboa,-9.227696,38.642583
24887896,Moita Dos Ferreiros,Oeste,311,2025-01-29T15:15:00Z,24887896,Em despacho,3313,Deslizamento de terras,0,3,0,6,2025-01-29T15:15:00Z,Lourinhã,Lisboa,Centro,-9.227775,39.24698
24887945,Abrantes (São Vicente e São João) e Alferrarede,Médio Tejo,311,2025-01-29T15:29:00Z,24887945,Em despacho,3301,Queda de árvore,0,1,0,1,2025-01-29T15:29:00Z,Abrantes,Santarém,Centro,-8.193526,39.462886
24887920,"Mangualde, Mesquitela e Cunha Alta",Viseu Dão Lafões,310,2025-01-29T14:44:00Z,24887920,Em curso,3311,Queda de elementos de estruturas edificados,0,0,0,1,2025-01-29T14:44:00Z,Mangualde,Viseu,Centro,-7.73026,40.598771
24887938,Fernão Ferro,Península de Setúbal,311,2025-01-29T15:27:00Z,24887938,Em despacho,3301,Queda de árvore,0,1,0,3,2025-01-29T15:27:00Z,Seixal,Setúbal,Área Metropolitana De Lisboa,-9.087621,38.571409
24887798,Odeceixe,Algarve,313,2025-01-29T14:57:00Z,24887798,Em despacho,3301,Queda de árvore,0,1,0,2,2025-01-29T14:57:00Z,Aljezur,Faro,Algarve,-8.773577,37.418024
24887923,"Caia, São Pedro e Alcáçova",Alto Alentejo,312,2025-01-29T15:15:00Z,24887923,Em despacho,3313,Deslizamento de terras,0,2,0,6,2025-01-29T15:15:00Z,Elvas,Portalegre,Alentejo,-7.169645,38.882464
