id,address,subregion,neighborhood,date,id.1,state,nature,nature_description,aerial_means,terrestrial_means,aquatic_means,operational,date.1,Concelho,Distrito,NUTII_DSG,longitude,latitude
25242956,Alcobaça e Vestiaria,Oeste,311,2025-04-15T08:49:00Z,25242956,Em despacho,3301,Queda de árvore,0,1,0,1,2025-04-15T08:49:00Z,Alcobaça,Leiria,Centro,-8.970766,39.549944000000004
25070044,Praia do Ribatejo,Médio Tejo,311,2025-03-10T19:30:00Z,25070044,Em curso,1101,Cheia,0,0,0,0,2025-03-10T19:30:00Z,Vila Nova Da Barquinha,Santarém,Centro,-8.357309,39.485638
25071496,São Manços e São Vicente do Pigeiro,Alentejo Central,312,2025-03-11T13:18:00Z,25071496,Em conclusão,1101,Cheia,0,0,0,0,2025-03-11T13:18:00Z,Évora,Évora,Alentejo,-7.713313,38.513673
25202441,Serpa (Salvador e Santa Maria),Baixo Alentejo,312,2025-04-06T10:25:00Z,25202441,Em conclusão,1101,Cheia,0,0,0,0,2025-04-06T10:25:00Z,Serpa,Beja,Alentejo,-7.555783,37.88592
25243651,Alverca do Ribatejo e Sobralinho,Grande Lisboa,311,2025-04-15T11:08:00Z,25243651,Em despacho,3301,Queda de árvore,0,1,0,3,2025-04-15T11:08:00Z,Vila Franca De Xira,Lisboa,Área Metropolitana De Lisboa,-9.064747,38.918733
25068300,Almeirim,Lezíria do Tejo,311,2025-03-10T20:52:00Z,25068300,Em curso,1101,Cheia,0,0,0,0,2025-03-10T20:52:00Z,Almeirim,Santarém,Alentejo,-8.635002,39.187436
25243216,Santo António Dos Olivais,Região de Coimbra,310,2025-04-15T09:49:00Z,25243216,Em despacho,3301,Queda de árvore,0,1,0,3,2025-04-15T09:49:00Z,Coimbra,Coimbra,Centro,-8.408011,40.217307
25243703,Bonfim,Area M. Porto,309,2025-04-15T10:57:00Z,25243703,Em curso,3311,Queda de elementos de estruturas edificados,0,1,0,5,2025-04-15T10:57:00Z,Porto,Porto,Norte,-8.596119,41.151713
