id,address,subregion,neighborhood,date,id.1,state,nature,nature_description,aerial_means,terrestrial_means,aquatic_means,operational,date.1,Concelho,Distrito,NUTII_DSG,longitude,latitude,state_2
25832672,Piódão,Região de Coimbra,310,2025-08-13T05:08:00Z,25832672,Em Resolução/Conclusão,3103,Incêndio rural,0,0,0,0,2025-08-13T05:08:00Z,Arganil,Coimbra,Centro,-7.81972,40.23083,Resolução/Conclusão
25984495,São Salvador da Aramenha,Alto Alentejo,312,2025-09-13T13:28:00Z,25984495,Em Resolução/Conclusão,3101,Incêndio rural,0,5,0,19,2025-09-13T13:28:00Z,Marvão,Portalegre,Alentejo,-7.39094,39.36988,Resolução/Conclusão
25951176,Sandomil,Beiras e Serra da Estrela,310,2025-09-06T10:29:00Z,25951176,Em Resolução/Conclusão,3103,Incêndio rural,0,15,0,52,2025-09-06T10:29:00Z,Seia,Guarda,Centro,-7.76001,40.351547,Resolução/Conclusão
25981808,"Avidagos, Navalho e Pereira",Terras de Trás-os-Montes,309,2025-09-12T20:38:00Z,25981808,Em Resolução/Conclusão,3103,Incêndio rural,0,2,0,7,2025-09-12T20:38:00Z,Mirandela,Bragança,Norte,-7.264448,41.359912,Resolução/Conclusão
25980131,Carva e Vilares,Douro,309,2025-09-12T14:27:00Z,25980131,Em Curso,3103,Incêndio rural,0,113,0,347,2025-09-12T14:27:00Z,Murça,Vila Real,Norte,-7.55901,41.401343,Curso
25980930,Santo André Das Tojeiras,Beira Baixa,310,2025-09-12T17:08:00Z,25980930,Em Resolução/Conclusão,3101,Incêndio rural,0,21,0,67,2025-09-12T17:08:00Z,Castelo Branco,Castelo Branco,Centro,-7.72701,39.809058,Resolução/Conclusão
25984607,Vascoveiro,Beiras e Serra da Estrela,310,2025-09-13T13:54:00Z,25984607,Em Resolução/Conclusão,3103,Incêndio rural,0,1,0,4,2025-09-13T13:54:00Z,Pinhel,Guarda,Centro,-7.080513,40.72261,Resolução/Conclusão
25985594,Morreira e Trandeiras,Cávado,309,2025-09-13T17:45:00Z,25985594,Em Resolução/Conclusão,3103,Incêndio rural,0,3,0,12,2025-09-13T17:45:00Z,Braga,Braga,Norte,-8.409417,41.48872,Resolução/Conclusão
25986047,Montijo e Afonsoeiro,Península de Setúbal,311,2025-09-13T19:30:00Z,25986047,Em Resolução/Conclusão,3103,Incêndio rural,0,3,0,12,2025-09-13T19:30:00Z,Montijo,Setúbal,Área Metropolitana De Lisboa,-8.975715,38.702323,Resolução/Conclusão
25986080,"St.tirso, Couto (S.cristina e S.miguel) e Burgães",Area M. Porto,309,2025-09-13T19:39:00Z,25986080,Em Despacho,3103,Incêndio rural,0,2,0,7,2025-09-13T19:39:00Z,Santo Tirso,Porto,Norte,-8.498057,41.350842,Despacho
