id,address,subregion,neighborhood,date,id.1,state,nature,nature_description,aerial_means,terrestrial_means,aquatic_means,operational,date.1,Concelho,Distrito,NUTII_DSG,longitude,latitude,state_2
26129471,Retorta e Tougues,Area M. Porto,309,2025-10-13T10:21:00Z,26129471,Em Despacho,3103,Incêndio rural,0,1,0,5,2025-10-13T10:21:00Z,Vila Do Conde,Porto,Norte,-8.71662,41.35946,Despacho
26129556,Mezio e Moura Morta,Viseu Dão Lafões,310,2025-10-13T10:35:00Z,26129556,Em Despacho,3103,Incêndio rural,1,3,0,18,2025-10-13T10:35:00Z,Castro Daire,Viseu,Centro,-7.86739,40.97968,Despacho
26129394,Santo Antão e São Julião do Tojal,Grande Lisboa,311,2025-10-13T10:10:00Z,26129394,Em Resolução/Conclusão,3103,Incêndio rural,0,2,0,6,2025-10-13T10:10:00Z,Loures,Lisboa,Área Metropolitana De Lisboa,-9.130692,38.852432,Resolução/Conclusão
26126383,Mouriscas,Médio Tejo,311,2025-10-12T15:59:00Z,26126383,Em Resolução/Conclusão,3103,Incêndio rural,0,4,0,15,2025-10-12T15:59:00Z,Abrantes,Santarém,Centro,-8.11638,39.518325,Resolução/Conclusão
26128884,"Vilela, São Cosme e São Damião e Sá",Alto Minho,309,2025-10-13T08:30:00Z,26128884,Em Resolução/Conclusão,3103,Incêndio rural,0,4,0,12,2025-10-13T08:30:00Z,Arcos De Valdevez,Viana Do Castelo,Norte,-8.42571,41.916205,Resolução/Conclusão
