id,address,subregion,neighborhood,date,id.1,state,nature,nature_description,aerial_means,terrestrial_means,aquatic_means,operational,date.1,Concelho,Distrito,NUTII_DSG,longitude,latitude
24845771,Degracias e Pombalinho,Região de Coimbra,310,2025-01-20T17:30:00Z,24845771,Em despacho,3301,Queda de árvore,0,1,0,2,2025-01-20T17:30:00Z,Soure,Coimbra,Centro,-8.527811,40.010724
24846056,Monchique,Algarve,313,2025-01-20T18:36:00Z,24846056,Em curso,3301,Queda de árvore,0,1,0,4,2025-01-20T18:36:00Z,Monchique,Faro,Algarve,-8.567422,37.320753
24845864,Ferreiras,Algarve,313,2025-01-20T17:56:00Z,24845864,Em despacho,3315,Inundação de estruturas por precipitação intensa,0,1,0,2,2025-01-20T17:56:00Z,Albufeira,Faro,Algarve,-8.236596,37.128685
24845997,Almancil,Algarve,313,2025-01-20T18:22:00Z,24845997,Em despacho,3301,Queda de árvore,0,1,0,2,2025-01-20T18:22:00Z,Loulé,Faro,Algarve,-8.028466,37.086336
24845616,Vermoil,Região de Leiria,310,2025-01-20T17:00:00Z,24845616,Em conclusão,3321,Dano na rede de fornecimento de eletricidade ,0,3,0,9,2025-01-20T17:00:00Z,Pombal,Leiria,Centro,-8.688137,39.873992
24846059,São Brás de Alportel,Algarve,313,2025-01-20T18:46:00Z,24846059,Em despacho,3315,Inundação de estruturas por precipitação intensa,0,1,0,5,2025-01-20T18:46:00Z,São Brás De Alportel,Faro,Algarve,-7.870754,37.15998
