id,address,subregion,neighborhood,date,id.1,state,nature,nature_description,aerial_means,terrestrial_means,aquatic_means,operational,date.1,Concelho,Distrito,NUTII_DSG,longitude,latitude,state_2
25699656,Barrô,Tâmega e Sousa,309,2025-07-19T00:43:00Z,25699656,Em Resolução/Conclusão,3103,Incêndio rural,0,5,0,22,2025-07-19T00:43:00Z,Resende,Viseu,Norte,-7.87287,41.118713,Resolução/Conclusão
25696955,"Vilela, Seramil e Paredes Secas",Cávado,309,2025-07-18T13:36:00Z,25696955,Em Resolução/Conclusão,3101,Incêndio rural,0,2,0,10,2025-07-18T13:36:00Z,Amares,Braga,Norte,-8.309448,41.67517,Resolução/Conclusão
25692814,Tolosa,Alto Alentejo,312,2025-07-17T16:23:00Z,25692814,Em Resolução/Conclusão,3103,Incêndio rural,0,1,0,5,2025-07-17T16:23:00Z,Nisa,Portalegre,Alentejo,-7.635642,39.486993,Resolução/Conclusão
25699739,Aborim,Cávado,309,2025-07-19T01:24:00Z,25699739,Em Resolução/Conclusão,3103,Incêndio rural,0,2,0,7,2025-07-19T01:24:00Z,Barcelos,Braga,Norte,-8.610763,41.625318,Resolução/Conclusão
25686799,Souto Maior,Douro,309,2025-07-16T13:19:00Z,25686799,Em Resolução/Conclusão,3101,Incêndio rural,0,14,0,44,2025-07-16T13:19:00Z,Sabrosa,Vila Real,Norte,-7.57839,41.287518,Resolução/Conclusão
25699887,Souto da Carpalhosa e Ortigosa,Região de Leiria,310,2025-07-19T03:12:00Z,25699887,Em Curso,3101,Incêndio rural,0,6,0,24,2025-07-19T03:12:00Z,Leiria,Leiria,Centro,-8.77135,39.85858,Curso
