id,address,subregion,neighborhood,date,id.1,state,nature,nature_description,aerial_means,terrestrial_means,aquatic_means,operational,date.1,Concelho,Distrito,NUTII_DSG,longitude,latitude
25591299,Santa Maria do Castelo e Santiago e Santa Susana,Alentejo Litoral,312,2025-06-28T04:22:00Z,25591299,Em resolução,3103,Incêndio rural,0,4,0,11,2025-06-28T04:22:00Z,Alcácer Do Sal,Setúbal,Alentejo,-8.488497,38.305077
25591349,Paçô,Alto Minho,309,2025-06-28T05:36:00Z,25591349,Em conclusão,2101,Incêndio em edifícios habitacionais,0,3,0,9,2025-06-28T05:36:00Z,Arcos De Valdevez,Viana Do Castelo,Norte,-8.416512,41.833352
25591316,"Querença, Tôr e Benafim",Algarve,313,2025-06-28T05:03:00Z,25591316,Em conclusão,3203,Detritos confinados,0,3,0,9,2025-06-28T05:03:00Z,Loulé,Faro,Algarve,-7.994519,37.199835
25591359,Labruja,Alto Minho,309,2025-06-28T05:31:00Z,25591359,Em curso,3103,Incêndio rural,0,2,0,6,2025-06-28T05:31:00Z,Ponte De Lima,Viana Do Castelo,Norte,-8.591233,41.835535
25591375,Penacova,Tâmega e Sousa,309,2025-06-28T06:01:00Z,25591375,Em despacho,3103,Incêndio rural,0,1,0,5,2025-06-28T06:01:00Z,Felgueiras,Porto,Norte,-8.257942,41.3727
25588493,Ribeirão,Ave,309,2025-06-27T14:58:00Z,25588493,Em conclusão,3103,Incêndio rural,0,1,0,5,2025-06-27T14:58:00Z,Vila Nova De Famalicão,Braga,Norte,-8.558043,41.368877
25591403,Portimão,Algarve,313,2025-06-28T06:24:00Z,25591403,Em curso,2111,Incêndio em edifícios hospitalares e lares de idosos,0,3,0,11,2025-06-28T06:24:00Z,Portimão,Faro,Algarve,-8.532608,37.137966
25591408,Campanhã,Area M. Porto,309,2025-06-28T06:22:00Z,25591408,Em despacho,2201,Incêndio em equipamentos ou produtos,0,1,0,5,2025-06-28T06:22:00Z,Porto,Porto,Norte,-8.571543,41.154223
