id,address,subregion,neighborhood,date,id.1,state,nature,nature_description,aerial_means,terrestrial_means,aquatic_means,operational,date.1,Concelho,Distrito,NUTII_DSG,longitude,latitude,state_2
25887019,Pedrógão Grande,Região de Leiria,310,2025-08-23T14:27:00Z,25887019,Em Resolução/Conclusão,3101,Incêndio rural,0,4,0,14,2025-08-23T14:27:00Z,Pedrógão Grande,Leiria,Centro,-8.15364,39.9136,Resolução/Conclusão
25924405,Areias e Pias,Médio Tejo,311,2025-08-31T13:45:00Z,25924405,Em Resolução/Conclusão,3101,Incêndio rural,0,1,0,2,2025-08-31T13:45:00Z,Ferreira Do Zêzere,Santarém,Centro,-8.375693,39.744392,Resolução/Conclusão
25924564,Beja (Salvador e Santa Maria da Feira),Baixo Alentejo,312,2025-08-31T14:25:00Z,25924564,Em Resolução/Conclusão,3105,Incêndio rural,0,0,0,0,2025-08-31T14:25:00Z,Beja,Beja,Alentejo,-7.865047,38.029823,Resolução/Conclusão
25836309,Cinfães,Tâmega e Sousa,309,2025-08-13T18:17:00Z,25836309,Em Resolução/Conclusão,3103,Incêndio rural,0,1,0,2,2025-08-13T18:17:00Z,Cinfães,Viseu,Norte,-8.071502,41.049757,Resolução/Conclusão
25917734,São João da Pesqueira e Várzea de Trevões,Douro,309,2025-08-29T22:20:00Z,25917734,Em Resolução/Conclusão,3103,Incêndio rural,0,0,0,0,2025-08-29T22:20:00Z,São João Da Pesqueira,Viseu,Norte,-7.500588,41.084698,Resolução/Conclusão
25925254,"Sandim, Olival, Lever e Crestuma",Area M. Porto,309,2025-08-31T17:30:00Z,25925254,Em Despacho,3111,Queima,0,1,0,5,2025-08-31T17:30:00Z,Vila Nova De Gaia,Porto,Norte,-8.507685,41.028387,Despacho
25846480,Sabugal e Aldeia de Santo António,Beiras e Serra da Estrela,310,2025-08-15T14:41:00Z,25846480,Em Resolução/Conclusão,3103,Incêndio rural,0,4,0,15,2025-08-15T14:41:00Z,Sabugal,Guarda,Centro,-7.125037,40.34023,Resolução/Conclusão
25851895,Sortelha,Beiras e Serra da Estrela,310,2025-08-16T14:53:00Z,25851895,Em Resolução/Conclusão,3103,Incêndio rural,0,2,0,10,2025-08-16T14:53:00Z,Sabugal,Guarda,Centro,-7.254367,40.318488,Resolução/Conclusão
25910055,Rebordelo,Terras de Trás-os-Montes,309,2025-08-28T11:08:00Z,25910055,Em Resolução/Conclusão,3103,Incêndio rural,0,26,0,72,2025-08-28T11:08:00Z,Vinhais,Bragança,Norte,-7.134773,41.765422,Resolução/Conclusão
25832672,Piódão,Região de Coimbra,310,2025-08-13T05:08:00Z,25832672,Em Resolução/Conclusão,3103,Incêndio rural,0,18,0,52,2025-08-13T05:08:00Z,Arganil,Coimbra,Centro,-7.81972,40.23083,Resolução/Conclusão
25840417,Lousã e Vilarinho,Região de Coimbra,310,2025-08-14T13:46:00Z,25840417,Em Resolução/Conclusão,3101,Incêndio rural,0,1,0,1,2025-08-14T13:46:00Z,Lousã,Coimbra,Centro,-8.201561,40.080016,Resolução/Conclusão
25924958,Figueiras e Covas,Tâmega e Sousa,309,2025-08-31T15:51:00Z,25924958,Em Resolução/Conclusão,3103,Incêndio rural,0,0,0,0,2025-08-31T15:51:00Z,Lousada,Porto,Norte,-8.32884,41.286243,Resolução/Conclusão
