id,address,subregion,neighborhood,date,id.1,state,nature,nature_description,aerial_means,terrestrial_means,aquatic_means,operational,date.1,Concelho,Distrito,NUTII_DSG,longitude,latitude,state_2
25748118,Canelas e Espiunca,Area M. Porto,309,2025-07-28T17:16:00Z,25748118,Em Resolução/Conclusão,3101,Incêndio rural,0,48,0,129,2025-07-28T17:16:00Z,Arouca,Aveiro,Norte,-8.212231,40.969918,Resolução/Conclusão
25749320,Rebordões (Santa Maria),Alto Minho,309,2025-07-28T22:47:00Z,25749320,Em Resolução/Conclusão,3103,Incêndio rural,0,5,0,11,2025-07-28T22:47:00Z,Ponte De Lima,Viana Do Castelo,Norte,-8.588365,41.729993,Resolução/Conclusão
25749641,Silva Escura e Dornelas,Região de Aveiro,310,2025-07-29T01:02:00Z,25749641,Em Resolução/Conclusão,3101,Incêndio rural,0,4,0,17,2025-07-29T01:02:00Z,Sever Do Vouga,Aveiro,Centro,-8.399623,40.769354,Resolução/Conclusão
25756006,Pinhanços,Beiras e Serra da Estrela,310,2025-07-30T09:07:00Z,25756006,Em Resolução/Conclusão,3103,Incêndio rural,0,1,0,5,2025-07-30T09:07:00Z,Seia,Guarda,Centro,-7.708132,40.473517,Resolução/Conclusão
25756459,Nespereira,Tâmega e Sousa,309,2025-07-30T10:20:00Z,25756459,Em Resolução/Conclusão,3103,Incêndio rural,0,1,0,5,2025-07-30T10:20:00Z,Cinfães,Viseu,Norte,-8.130378,41.039695,Resolução/Conclusão
25763964,Pêro Viseu,Beiras e Serra da Estrela,310,2025-07-31T16:58:00Z,25763964,Em Resolução/Conclusão,3103,Incêndio rural,0,1,0,5,2025-07-31T16:58:00Z,Fundão,Castelo Branco,Centro,-7.457652,40.199215,Resolução/Conclusão
25776263,"Pena, Quintã e Vila Cova",Douro,309,2025-08-02T23:45:00Z,25776263,Em Curso,3103,Incêndio rural,13,40,0,143,2025-08-02T23:45:00Z,Vila Real,Vila Real,Norte,-7.811902,41.317355,Curso
25738747,Lindoso,Alto Minho,309,2025-07-26T21:47:00Z,25738747,Em Resolução/Conclusão,3103,Incêndio rural,4,170,0,548,2025-07-26T21:47:00Z,Ponte Da Barca,Viana Do Castelo,Norte,-8.220528,41.865272,Resolução/Conclusão
25747773,Aranhas,Beira Baixa,310,2025-07-28T16:36:00Z,25747773,Em Resolução/Conclusão,3103,Incêndio rural,0,7,0,20,2025-07-28T16:36:00Z,Penamacor,Castelo Branco,Centro,-7.14438,40.117542,Resolução/Conclusão
25752083,Alcanede,Lezíria do Tejo,311,2025-07-29T13:12:00Z,25752083,Em Resolução/Conclusão,3103,Incêndio rural,0,3,0,12,2025-07-29T13:12:00Z,Santarém,Santarém,Alentejo,-8.802682,39.405543,Resolução/Conclusão
25756620,Recarei,Area M. Porto,309,2025-07-30T10:47:00Z,25756620,Em Resolução/Conclusão,3103,Incêndio rural,0,3,0,11,2025-07-30T10:47:00Z,Paredes,Porto,Norte,-8.416721,41.151,Resolução/Conclusão
25775263,Torgueda,Douro,309,2025-08-02T19:49:00Z,25775263,Em Curso,3101,Incêndio rural,1,25,0,85,2025-08-02T19:49:00Z,Vila Real,Vila Real,Norte,-7.785983,41.274952,Curso
25777219,Paradinha e Nagosa,Douro,309,2025-08-03T07:29:00Z,25777219,Em Resolução/Conclusão,3103,Incêndio rural,0,2,0,10,2025-08-03T07:29:00Z,Moimenta Da Beira,Viseu,Norte,-7.597035,41.017483,Resolução/Conclusão
25777412,"Sande, Vilarinho, Barros e Gomide",Cávado,309,2025-08-03T08:58:00Z,25777412,Em Resolução/Conclusão,3103,Incêndio rural,0,11,0,36,2025-08-03T08:58:00Z,Vila Verde,Braga,Norte,-8.37545,41.723723,Resolução/Conclusão
25777469,"Ardegão, Arnozela e Seidões",Ave,309,2025-08-03T09:10:00Z,25777469,Em Resolução/Conclusão,3103,Incêndio rural,0,4,0,12,2025-08-03T09:10:00Z,Fafe,Braga,Norte,-8.129448,41.397608,Resolução/Conclusão
25777569,Lustosa e Barrosas (Santo Estêvão),Tâmega e Sousa,309,2025-08-03T09:27:00Z,25777569,Em Resolução/Conclusão,3103,Incêndio rural,0,1,0,5,2025-08-03T09:27:00Z,Lousada,Porto,Norte,-8.307218,41.332097,Resolução/Conclusão
25778219,Vila Nova de Famalicão e Calendário,Ave,309,2025-08-03T11:37:00Z,25778219,Em Resolução/Conclusão,3105,Incêndio rural,0,1,0,2,2025-08-03T11:37:00Z,Vila Nova De Famalicão,Braga,Norte,-8.53899,41.385218,Resolução/Conclusão
25778418,"Campo, S.salvador Campo, Negrelos",Area M. Porto,309,2025-08-03T12:10:00Z,25778418,Em Resolução/Conclusão,3103,Incêndio rural,0,1,0,5,2025-08-03T12:10:00Z,Santo Tirso,Porto,Norte,-8.364979,41.35922,Resolução/Conclusão
25778487,Salvaterra de Magos e Foros de Salvaterra,Lezíria do Tejo,311,2025-08-03T12:31:00Z,25778487,Em Resolução/Conclusão,3103,Incêndio rural,0,4,0,9,2025-08-03T12:31:00Z,Salvaterra De Magos,Santarém,Alentejo,-8.779735,39.028145,Resolução/Conclusão
25778687,Rebordelo,Tâmega e Sousa,309,2025-08-03T13:16:00Z,25778687,Em Despacho,3103,Incêndio rural,1,3,0,21,2025-08-03T13:16:00Z,Amarante,Porto,Norte,-7.983792,41.342253,Despacho
25778752,Alcanede,Lezíria do Tejo,311,2025-08-03T13:30:00Z,25778752,Em Resolução/Conclusão,3103,Incêndio rural,0,3,0,10,2025-08-03T13:30:00Z,Santarém,Santarém,Alentejo,-8.806058,39.387255,Resolução/Conclusão
25749937,Moimenta,Tâmega e Sousa,309,2025-07-29T04:11:00Z,25749937,Em Resolução/Conclusão,3103,Incêndio rural,0,1,0,5,2025-07-29T04:11:00Z,Cinfães,Viseu,Norte,-8.173308,41.072792,Resolução/Conclusão
25751893,"Espírito Santo, Nossa Senhora da Graça e São Simão",Alto Alentejo,312,2025-07-29T12:32:00Z,25751893,Em Resolução/Conclusão,3101,Incêndio rural,0,2,0,6,2025-07-29T12:32:00Z,Nisa,Portalegre,Alentejo,-7.634827,39.571162,Resolução/Conclusão
25763650,Milagres,Região de Leiria,310,2025-07-31T15:58:00Z,25763650,Em Resolução/Conclusão,3101,Incêndio rural,0,1,0,2,2025-07-31T15:58:00Z,Leiria,Leiria,Centro,-8.792217,39.793427,Resolução/Conclusão
25770852,Gondar,Tâmega e Sousa,309,2025-08-01T22:29:00Z,25770852,Em Resolução/Conclusão,3103,Incêndio rural,0,1,0,5,2025-08-01T22:29:00Z,Amarante,Porto,Norte,-8.02366,41.27024,Resolução/Conclusão
25778229,Poiares e Canelas,Douro,309,2025-08-03T11:40:00Z,25778229,Em Resolução/Conclusão,3103,Incêndio rural,0,1,0,5,2025-08-03T11:40:00Z,Peso Da Régua,Vila Real,Norte,-7.73384,41.186789,Resolução/Conclusão
25778212,Beduído e Veiros,Região de Aveiro,310,2025-08-03T11:36:00Z,25778212,Em Resolução/Conclusão,3101,Incêndio rural,0,2,0,10,2025-08-03T11:36:00Z,Estarreja,Aveiro,Centro,-8.534175,40.763223000000004,Resolução/Conclusão
25778337,Senhorim,Viseu Dão Lafões,310,2025-08-03T11:59:00Z,25778337,Em Resolução/Conclusão,3103,Incêndio rural,0,10,0,36,2025-08-03T11:59:00Z,Nelas,Viseu,Centro,-7.825723,40.54384,Resolução/Conclusão
25778398,Vilar de Andorinho,Area M. Porto,309,2025-08-03T12:10:00Z,25778398,Em Resolução/Conclusão,3103,Incêndio rural,0,1,0,5,2025-08-03T12:10:00Z,Vila Nova De Gaia,Porto,Norte,-8.58404,41.09856,Resolução/Conclusão
25778496,Ruivães e Novais,Ave,309,2025-08-03T12:33:00Z,25778496,Em Resolução/Conclusão,3101,Incêndio rural,1,9,0,32,2025-08-03T12:33:00Z,Vila Nova De Famalicão,Braga,Norte,-8.436758,41.397085,Resolução/Conclusão
25778582,Paredes,Area M. Porto,309,2025-08-03T12:50:00Z,25778582,Em Resolução/Conclusão,3103,Incêndio rural,0,1,0,5,2025-08-03T12:50:00Z,Paredes,Porto,Norte,-8.339471,41.22961,Resolução/Conclusão
25778733,Melres e Medas,Area M. Porto,309,2025-08-03T13:23:00Z,25778733,Em Despacho,3103,Incêndio rural,1,3,0,19,2025-08-03T13:23:00Z,Gondomar,Porto,Norte,-8.417228,41.06875,Despacho
25750701,Capela,Tâmega e Sousa,309,2025-07-29T09:26:00Z,25750701,Em Resolução/Conclusão,3103,Incêndio rural,0,19,0,66,2025-07-29T09:26:00Z,Penafiel,Porto,Norte,-8.345202,41.09353,Resolução/Conclusão
25771657,Caria,Douro,309,2025-08-02T05:01:00Z,25771657,Em Resolução/Conclusão,3101,Incêndio rural,0,1,0,5,2025-08-02T05:01:00Z,Moimenta Da Beira,Viseu,Norte,-7.591073,40.94778,Resolução/Conclusão
25773830,Andrães,Douro,309,2025-08-02T14:23:00Z,25773830,Em Curso,3103,Incêndio rural,1,98,0,288,2025-08-02T14:23:00Z,Vila Real,Vila Real,Norte,-7.671293,41.267593,Curso
25774883,Arnóia,Tâmega e Sousa,309,2025-08-02T18:20:00Z,25774883,Em Curso,3103,Incêndio rural,2,17,0,56,2025-08-02T18:20:00Z,Celorico De Basto,Braga,Norte,-7.998983,41.348727,Curso
25775734,Sequeiros e Gradiz,Viseu Dão Lafões,310,2025-08-02T21:35:00Z,25775734,Em Resolução/Conclusão,3103,Incêndio rural,0,1,0,5,2025-08-02T21:35:00Z,Aguiar Da Beira,Guarda,Centro,-7.564515,40.858278,Resolução/Conclusão
25778360,Praia do Ribatejo,Médio Tejo,311,2025-08-03T12:04:00Z,25778360,Em Resolução/Conclusão,3103,Incêndio rural,0,2,0,10,2025-08-03T12:04:00Z,Vila Nova Da Barquinha,Santarém,Centro,-8.364947,39.460365,Resolução/Conclusão
25778579,Laundos,Area M. Porto,309,2025-08-03T12:51:00Z,25778579,Em Resolução/Conclusão,3103,Incêndio rural,0,1,0,6,2025-08-03T12:51:00Z,Póvoa De Varzim,Porto,Norte,-8.710373,41.431005,Resolução/Conclusão
25778678,Montijo e Afonsoeiro,Península de Setúbal,311,2025-08-03T13:05:00Z,25778678,Em Resolução/Conclusão,3103,Incêndio rural,0,1,0,2,2025-08-03T13:05:00Z,Montijo,Setúbal,Área Metropolitana De Lisboa,-8.975715,38.702323,Resolução/Conclusão
