id,address,subregion,neighborhood,date,id.1,state,nature,nature_description,aerial_means,terrestrial_means,aquatic_means,operational,date.1,Concelho,Distrito,NUTII_DSG,longitude,latitude
25498921,Carriço,Região de Leiria,310,2025-06-09T08:42:00Z,25498921,Em curso,3101,Incêndio rural,0,4,0,17,2025-06-09T08:42:00Z,Pombal,Leiria,Centro,-8.805055,39.977024
25498970,Azias,Alto Minho,309,2025-06-09T08:52:00Z,25498970,Em curso,3103,Incêndio rural,1,1,0,11,2025-06-09T08:52:00Z,Ponte Da Barca,Viana Do Castelo,Norte,-8.352492,41.781112
25499086,Trouxemil e Torre de Vilela,Região de Coimbra,310,2025-06-09T09:15:00Z,25499086,Em despacho,3105,Incêndio rural,0,4,0,16,2025-06-09T09:15:00Z,Coimbra,Coimbra,Centro,-8.442891,40.25135
25498746,"Leiria, Pousos, Barreira e Cortes",Região de Leiria,310,2025-06-09T08:03:00Z,25498746,Em despacho,3203,Detritos confinados,0,1,0,2,2025-06-09T08:03:00Z,Leiria,Leiria,Centro,-8.794773,39.732603
25499048,"S.julião, N.s. da Anunciada e S. Maria da Graça",Península de Setúbal,311,2025-06-09T08:58:00Z,25499048,Em despacho,3103,Incêndio rural,0,3,0,12,2025-06-09T08:58:00Z,Setúbal,Setúbal,Área Metropolitana De Lisboa,-8.889983,38.529955
25498388,Ceira,Região de Coimbra,310,2025-06-09T03:57:00Z,25498388,Em conclusão,2127,"Incêndio em edifícios e recintos industriais, oficinas e armazéns",0,7,0,20,2025-06-09T03:57:00Z,Coimbra,Coimbra,Centro,-8.39222,40.18194
