id,address,subregion,neighborhood,date,id.1,state,nature,nature_description,aerial_means,terrestrial_means,aquatic_means,operational,date.1,Concelho,Distrito,NUTII_DSG,longitude,latitude,state_2
25773830,Andrães,Douro,309,2025-08-02T14:23:00Z,25773830,Em Resolução/Conclusão,3103,Incêndio rural,0,2,0,10,2025-08-02T14:23:00Z,Vila Real,Vila Real,Norte,-7.671293,41.267593,Resolução/Conclusão
25774883,Arnóia,Tâmega e Sousa,309,2025-08-02T18:20:00Z,25774883,Em Resolução/Conclusão,3103,Incêndio rural,0,4,0,10,2025-08-02T18:20:00Z,Celorico De Basto,Braga,Norte,-7.998983,41.348727,Resolução/Conclusão
25804968,Alvadia,Alto Tâmega e Barroso,309,2025-08-08T07:21:00Z,25804968,Em Resolução/Conclusão,3103,Incêndio rural,0,52,0,144,2025-08-08T07:21:00Z,Ribeira De Pena,Vila Real,Norte,-7.782872,41.457452,Resolução/Conclusão
25812987,Este (São Pedro e São Mamede),Cávado,309,2025-08-09T14:43:00Z,25812987,Em Resolução/Conclusão,3103,Incêndio rural,0,4,0,12,2025-08-09T14:43:00Z,Braga,Braga,Norte,-8.36528,41.55472,Resolução/Conclusão
25813674,Vila Cova da Lixa e Borba de Godim,Tâmega e Sousa,309,2025-08-09T17:05:00Z,25813674,Em Resolução/Conclusão,3103,Incêndio rural,0,1,0,1,2025-08-09T17:05:00Z,Felgueiras,Porto,Norte,-8.135038,41.319765,Resolução/Conclusão
25813708,São Miguel do Rio Torto e Rossio Ao Sul do Tejo,Médio Tejo,311,2025-08-09T17:12:00Z,25813708,Em Resolução/Conclusão,3103,Incêndio rural,0,6,0,17,2025-08-09T17:12:00Z,Abrantes,Santarém,Centro,-8.22943,39.379096,Resolução/Conclusão
25814174,Caldas de São Jorge e Pigeiros,Area M. Porto,309,2025-08-09T19:00:00Z,25814174,Em Resolução/Conclusão,3105,Incêndio rural,0,1,0,5,2025-08-09T19:00:00Z,Santa Maria Da Feira,Aveiro,Norte,-8.50167,40.95603,Resolução/Conclusão
25814243,Malagueira e Horta Das Figueiras,Alentejo Central,312,2025-08-09T19:10:00Z,25814243,Em Resolução/Conclusão,3103,Incêndio rural,0,4,0,9,2025-08-09T19:10:00Z,Évora,Évora,Alentejo,-7.929227,38.57541,Resolução/Conclusão
25814293,Monte e Queimadela,Ave,309,2025-08-09T19:25:00Z,25814293,Em Despacho,3103,Incêndio rural,2,3,0,28,2025-08-09T19:25:00Z,Fafe,Braga,Norte,-8.14997,41.51774,Despacho
25814409,Mosteiros,Alto Alentejo,312,2025-08-09T19:52:00Z,25814409,Em Despacho,3103,Incêndio rural,0,0,0,0,2025-08-09T19:52:00Z,Arronches,Portalegre,Alentejo,-7.28553,39.1894,Despacho
25785983,Caçarilhe e Infesta,Tâmega e Sousa,309,2025-08-04T18:22:00Z,25785983,Em Resolução/Conclusão,3103,Incêndio rural,0,9,0,27,2025-08-04T18:22:00Z,Celorico De Basto,Braga,Norte,-8.04611,41.419858,Resolução/Conclusão
25792058,Cibões e Brufe,Cávado,309,2025-08-05T19:10:00Z,25792058,Em Resolução/Conclusão,3103,Incêndio rural,0,1,0,5,2025-08-05T19:10:00Z,Terras De Bouro,Braga,Norte,-8.293932,41.764918,Resolução/Conclusão
25807250,Nave de Haver,Beiras e Serra da Estrela,310,2025-08-08T14:05:00Z,25807250,Em Resolução/Conclusão,3103,Incêndio rural,0,2,0,7,2025-08-08T14:05:00Z,Almeida,Guarda,Centro,-6.839848,40.52156,Resolução/Conclusão
25812718,São Jorge e Ermelo,Alto Minho,309,2025-08-09T13:56:00Z,25812718,Em Resolução/Conclusão,3103,Incêndio rural,0,1,0,4,2025-08-09T13:56:00Z,Arcos De Valdevez,Viana Do Castelo,Norte,-8.37006,41.818575,Resolução/Conclusão
25812848,Valdreu,Cávado,309,2025-08-09T14:21:00Z,25812848,Em Resolução/Conclusão,3103,Incêndio rural,0,11,0,39,2025-08-09T14:21:00Z,Vila Verde,Braga,Norte,-8.333892,41.725233,Resolução/Conclusão
25813936,Cavez,Ave,309,2025-08-09T18:08:00Z,25813936,Em Resolução/Conclusão,3103,Incêndio rural,0,3,0,11,2025-08-09T18:08:00Z,Cabeceiras De Basto,Braga,Norte,-7.90959,41.50459,Resolução/Conclusão
25776263,"Pena, Quintã e Vila Cova",Douro,309,2025-08-02T23:45:00Z,25776263,Em Resolução/Conclusão,3103,Incêndio rural,0,33,0,119,2025-08-02T23:45:00Z,Vila Real,Vila Real,Norte,-7.811902,41.317355,Resolução/Conclusão
25783717,Cunha Baixa,Viseu Dão Lafões,310,2025-08-04T11:48:00Z,25783717,Em Resolução/Conclusão,3101,Incêndio rural,0,1,0,2,2025-08-04T11:48:00Z,Mangualde,Viseu,Centro,-7.764411,40.559738,Resolução/Conclusão
25785204,Ribas,Tâmega e Sousa,309,2025-08-04T16:03:00Z,25785204,Em Resolução/Conclusão,3103,Incêndio rural,0,0,0,0,2025-08-04T16:03:00Z,Celorico De Basto,Braga,Norte,-8.022547,41.449583,Resolução/Conclusão
25787860,Faíl e Vila Chã de Sá,Viseu Dão Lafões,310,2025-08-05T05:55:00Z,25787860,Em Resolução/Conclusão,3103,Incêndio rural,0,0,0,0,2025-08-05T05:55:00Z,Viseu,Viseu,Centro,-7.987877,40.601342,Resolução/Conclusão
25802450,Canas de Santa Maria,Viseu Dão Lafões,310,2025-08-07T16:14:00Z,25802450,Em Resolução/Conclusão,3103,Incêndio rural,0,2,0,7,2025-08-07T16:14:00Z,Tondela,Viseu,Centro,-8.032777,40.56017,Resolução/Conclusão
25808770,Pindo,Viseu Dão Lafões,310,2025-08-08T18:52:00Z,25808770,Em Resolução/Conclusão,3103,Incêndio rural,0,0,0,0,2025-08-08T18:52:00Z,Penalva Do Castelo,Viseu,Centro,-7.763725,40.674402,Resolução/Conclusão
25808937,Abrunhosa-a-Velha,Viseu Dão Lafões,310,2025-08-08T19:26:00Z,25808937,Em Resolução/Conclusão,3103,Incêndio rural,0,0,0,0,2025-08-08T19:26:00Z,Mangualde,Viseu,Centro,-7.647667,40.572515,Resolução/Conclusão
25813128,Anjos e Vilar do Chão,Ave,309,2025-08-09T15:15:00Z,25813128,Em Resolução/Conclusão,3103,Incêndio rural,0,15,0,56,2025-08-09T15:15:00Z,Vieira Do Minho,Braga,Norte,-8.07774,41.611368,Resolução/Conclusão
25813482,Freches e Torres,Beiras e Serra da Estrela,310,2025-08-09T16:21:00Z,25813482,Em Curso,3103,Incêndio rural,6,74,0,258,2025-08-09T16:21:00Z,Trancoso,Guarda,Centro,-7.363745,40.709022,Curso
25813531,Friande,Tâmega e Sousa,309,2025-08-09T16:32:00Z,25813531,Em Resolução/Conclusão,3103,Incêndio rural,0,3,0,12,2025-08-09T16:32:00Z,Felgueiras,Porto,Norte,-8.17736,41.36665,Resolução/Conclusão
25814104,Queluz e Belas,Grande Lisboa,311,2025-08-09T18:44:00Z,25814104,Em Resolução/Conclusão,3105,Incêndio rural,0,4,0,14,2025-08-09T18:44:00Z,Sintra,Lisboa,Área Metropolitana De Lisboa,-9.254028,38.769478,Resolução/Conclusão
25814186,Eixo e Eirol,Região de Aveiro,310,2025-08-09T19:04:00Z,25814186,Em Resolução/Conclusão,3101,Incêndio rural,0,4,0,17,2025-08-09T19:04:00Z,Aveiro,Aveiro,Centro,-8.56168,40.62087,Resolução/Conclusão
25775263,Torgueda,Douro,309,2025-08-02T19:49:00Z,25775263,Em Resolução/Conclusão,3101,Incêndio rural,0,6,0,19,2025-08-02T19:49:00Z,Vila Real,Vila Real,Norte,-7.785983,41.274952,Resolução/Conclusão
25785466,Caçarilhe e Infesta,Tâmega e Sousa,309,2025-08-04T16:48:00Z,25785466,Em Resolução/Conclusão,3103,Incêndio rural,0,0,0,0,2025-08-04T16:48:00Z,Celorico De Basto,Braga,Norte,-8.035342,41.42903,Resolução/Conclusão
25800301,Alvão,Alto Tâmega e Barroso,309,2025-08-07T10:03:00Z,25800301,Em Resolução/Conclusão,3103,Incêndio rural,0,8,0,27,2025-08-07T10:03:00Z,Vila Pouca De Aguiar,Vila Real,Norte,-7.74157,41.466742000000004,Resolução/Conclusão
25802248,Graça,Região de Leiria,310,2025-08-07T15:30:00Z,25802248,Em Resolução/Conclusão,3101,Incêndio rural,0,1,0,2,2025-08-07T15:30:00Z,Pedrógão Grande,Leiria,Centro,-8.217915,39.911242,Resolução/Conclusão
25803707,Almofala e Escarigo,Beiras e Serra da Estrela,310,2025-08-07T20:50:00Z,25803707,Em Resolução/Conclusão,3103,Incêndio rural,1,24,0,79,2025-08-07T20:50:00Z,Figueira De Castelo Rodrigo,Guarda,Centro,-6.847203,40.887165,Resolução/Conclusão
25807426,Alvite,Douro,309,2025-08-08T14:31:00Z,25807426,Em Curso,3103,Incêndio rural,5,123,0,386,2025-08-08T14:31:00Z,Moimenta Da Beira,Viseu,Norte,-7.688727,40.96613,Curso
25812717,Abrunhosa-a-Velha,Viseu Dão Lafões,310,2025-08-09T12:50:00Z,25812717,Em Resolução/Conclusão,3103,Incêndio rural,0,2,0,7,2025-08-09T12:50:00Z,Mangualde,Viseu,Centro,-7.63944,40.578608,Resolução/Conclusão
25813069,Alcaide,Beiras e Serra da Estrela,310,2025-08-09T15:04:00Z,25813069,Em Resolução/Conclusão,3103,Incêndio rural,0,4,0,11,2025-08-09T15:04:00Z,Fundão,Castelo Branco,Centro,-7.436153,40.133788,Resolução/Conclusão
25813803,Friande,Tâmega e Sousa,309,2025-08-09T17:00:00Z,25813803,Em Resolução/Conclusão,3103,Incêndio rural,0,1,0,3,2025-08-09T17:00:00Z,Felgueiras,Porto,Norte,-8.164957,41.362452,Resolução/Conclusão
25814015,Espite,Médio Tejo,311,2025-08-09T18:25:00Z,25814015,Em Resolução/Conclusão,3103,Incêndio rural,0,5,0,19,2025-08-09T18:25:00Z,Ourém,Santarém,Centro,-8.650897,39.756883,Resolução/Conclusão
25814201,Vila Cova da Lixa e Borba de Godim,Tâmega e Sousa,309,2025-08-09T19:06:00Z,25814201,Em Resolução/Conclusão,3103,Incêndio rural,0,2,0,5,2025-08-09T19:06:00Z,Felgueiras,Porto,Norte,-8.149198,41.332072,Resolução/Conclusão
25814185,"Messegães, Valadares e Sá",Alto Minho,309,2025-08-09T18:55:00Z,25814185,Em Resolução/Conclusão,3105,Incêndio rural,0,3,0,7,2025-08-09T18:55:00Z,Monção,Viana Do Castelo,Norte,-8.372705,42.075073,Resolução/Conclusão
25814196,Rego,Tâmega e Sousa,309,2025-08-09T19:01:00Z,25814196,Em Resolução/Conclusão,3103,Incêndio rural,0,1,0,5,2025-08-09T19:01:00Z,Celorico De Basto,Braga,Norte,-8.093987,41.439548,Resolução/Conclusão
25814264,Alpiarça,Lezíria do Tejo,311,2025-08-09T19:21:00Z,25814264,Em Resolução/Conclusão,3105,Incêndio rural,1,3,0,14,2025-08-09T19:21:00Z,Alpiarça,Santarém,Alentejo,-8.564562,39.256403,Resolução/Conclusão
25814364,Paredes,Area M. Porto,309,2025-08-09T19:35:00Z,25814364,Em Despacho,3103,Incêndio rural,0,1,0,5,2025-08-09T19:35:00Z,Paredes,Porto,Norte,-8.32628,41.205322,Despacho
25814419,Prazins (Santa Eufémia),Ave,309,2025-08-09T19:53:00Z,25814419,Em Resolução/Conclusão,3103,Incêndio rural,0,1,0,5,2025-08-09T19:53:00Z,Guimarães,Braga,Norte,-8.320433,41.488719,Resolução/Conclusão
