id,address,subregion,neighborhood,date,id.1,state,nature,nature_description,aerial_means,terrestrial_means,aquatic_means,operational,date.1,Concelho,Distrito,NUTII_DSG,longitude,latitude
25043601,Orvalho,Beira Baixa,310,2025-03-05T11:56:00Z,25043601,Em despacho,3313,Deslizamento de terras,0,3,0,4,2025-03-05T11:56:00Z,Oleiros,Castelo Branco,Centro,-7.791058,40.022607
25043683,"O. Azeméis, Riba-Ul, Ul, Macinhata Seixa, Madail",Area M. Porto,309,2025-03-05T12:10:00Z,25043683,Em despacho,3301,Queda de árvore,0,1,0,2,2025-03-05T12:10:00Z,Oliveira De Azeméis,Aveiro,Norte,-8.482939,40.836334
25042959,Idanha-a-Nova e Alcafozes,Beira Baixa,310,2025-03-05T09:30:00Z,25042959,Em despacho,3333,Rutura de barragem,0,3,0,7,2025-03-05T09:30:00Z,Idanha-a-Nova,Castelo Branco,Centro,-7.209571,39.970806
25043497,Rogil,Algarve,313,2025-03-05T11:38:00Z,25043497,Em despacho,3313,Deslizamento de terras,0,1,0,3,2025-03-05T11:38:00Z,Aljezur,Faro,Algarve,-8.761912,37.373938
25043581,"Torres Novas (São Pedro), Lapas e Ribeira Branca",Médio Tejo,311,2025-03-05T11:57:00Z,25043581,Em despacho,3313,Deslizamento de terras,0,1,0,2,2025-03-05T11:57:00Z,Torres Novas,Santarém,Centro,-8.57482,39.48908
25043403,Aveiras de Cima,Lezíria do Tejo,311,2025-03-05T11:21:00Z,25043403,Em despacho,3301,Queda de árvore,0,2,0,4,2025-03-05T11:21:00Z,Azambuja,Lisboa,Alentejo,-8.897636,39.139731
