id,address,subregion,neighborhood,date,id.1,state,nature,nature_description,aerial_means,terrestrial_means,aquatic_means,operational,date.1,Concelho,Distrito,NUTII_DSG,longitude,latitude,state_2
26198539,Luso,Região de Coimbra,310,2025-10-27T18:01:00Z,26198539,Em Resolução/Conclusão,3111,Queima,0,2,0,5,2025-10-27T18:01:00Z,Mealhada,Aveiro,Centro,-8.37952,40.38731,Resolução/Conclusão
26198557,Ardãos e Bobadela,Alto Tâmega e Barroso,309,2025-10-27T18:00:00Z,26198557,Em Resolução/Conclusão,3103,Incêndio rural,0,2,0,6,2025-10-27T18:00:00Z,Boticas,Vila Real,Norte,-7.60698,41.775777,Resolução/Conclusão
26198891,Muge,Lezíria do Tejo,311,2025-10-27T19:31:00Z,26198891,Em Curso,3103,Incêndio rural,0,4,0,10,2025-10-27T19:31:00Z,Salvaterra De Magos,Santarém,Alentejo,-8.725027,39.085727,Curso
26198957,Nossa Senhora da Expectação,Alto Alentejo,312,2025-10-27T19:40:00Z,26198957,Em Despacho,3105,Incêndio rural,0,2,0,7,2025-10-27T19:40:00Z,Campo Maior,Portalegre,Alentejo,-6.997508,38.981801,Despacho
26198512,Covas do Douro,Douro,309,2025-10-27T17:56:00Z,26198512,Em Resolução/Conclusão,3103,Incêndio rural,0,3,0,11,2025-10-27T17:56:00Z,Sabrosa,Vila Real,Norte,-7.60088,41.165415,Resolução/Conclusão
26198613,São João Das Lampas e Terrugem,Grande Lisboa,311,2025-10-27T18:18:00Z,26198613,Em Resolução/Conclusão,3111,Queima,0,1,0,3,2025-10-27T18:18:00Z,Sintra,Lisboa,Área Metropolitana De Lisboa,-9.35027,38.890860000000004,Resolução/Conclusão
26198467,Sabóia,Alentejo Litoral,312,2025-10-27T17:32:00Z,26198467,Em Resolução/Conclusão,3103,Incêndio rural,0,9,0,23,2025-10-27T17:32:00Z,Odemira,Beja,Alentejo,-8.558232,37.478268,Resolução/Conclusão
26198503,Rio Meão,Area M. Porto,309,2025-10-27T17:47:00Z,26198503,Em Resolução/Conclusão,3111,Queima,0,2,0,6,2025-10-27T17:47:00Z,Santa Maria Da Feira,Aveiro,Norte,-8.586854,40.956066,Resolução/Conclusão
26198718,Azambuja,Lezíria do Tejo,311,2025-10-27T18:46:00Z,26198718,Em Resolução/Conclusão,3103,Incêndio rural,0,3,0,9,2025-10-27T18:46:00Z,Azambuja,Lisboa,Alentejo,-8.90955,39.118133,Resolução/Conclusão
