id,address,subregion,neighborhood,date,id.1,state,nature,nature_description,aerial_means,terrestrial_means,aquatic_means,operational,date.1,Concelho,Distrito,NUTII_DSG,longitude,latitude
25516624,Moncarapacho e Fuseta,Algarve,313,2025-06-12T19:10:00Z,25516624,Em curso,3103,Incêndio rural,0,1,0,5,2025-06-12T19:10:00Z,Olhão,Faro,Algarve,-7.753077,37.053338
25516837,Monte Real e Carvide,Região de Leiria,310,2025-06-12T19:57:00Z,25516837,Em despacho,3111,Queima,0,0,0,0,2025-06-12T19:57:00Z,Leiria,Leiria,Centro,-8.87895,39.82048
25516864,Carregado e Cadafais,Oeste,311,2025-06-12T20:05:00Z,25516864,Em despacho,2101,Incêndio em edifícios habitacionais,0,0,0,0,2025-06-12T20:05:00Z,Alenquer,Lisboa,Centro,-8.97474,39.02305
25516866,"O. Azeméis, Riba-Ul, Ul, Macinhata Seixa, Madail",Area M. Porto,309,2025-06-12T19:56:00Z,25516866,Em despacho,3201,Detritos não confinados,0,1,0,5,2025-06-12T19:56:00Z,Oliveira De Azeméis,Aveiro,Norte,-8.487606,40.83215
25516786,Charneca de Caparica e Sobreda,Península de Setúbal,311,2025-06-12T19:40:00Z,25516786,Em despacho,2111,Incêndio em edifícios hospitalares e lares de idosos,0,1,0,3,2025-06-12T19:40:00Z,Almada,Setúbal,Área Metropolitana De Lisboa,-9.206824,38.629265
25515629,Baguim do Monte (Rio Tinto),Area M. Porto,309,2025-06-12T15:15:00Z,25515629,Em conclusão,2101,Incêndio em edifícios habitacionais,0,1,0,3,2025-06-12T15:15:00Z,Gondomar,Porto,Norte,-8.526893,41.18999
25515902,Alcaria Ruiva,Baixo Alentejo,312,2025-06-12T16:13:00Z,25515902,Em conclusão,3105,Incêndio rural,0,2,0,10,2025-06-12T16:13:00Z,Mértola,Beja,Alentejo,-7.844582,37.786912
25516438,Repeses e São Salvador,Viseu Dão Lafões,310,2025-06-12T18:23:00Z,25516438,Em conclusão,3103,Incêndio rural,0,2,0,4,2025-06-12T18:23:00Z,Viseu,Viseu,Centro,-7.934525,40.64851
25516538,Campo e Sobrado,Area M. Porto,309,2025-06-12T18:41:00Z,25516538,Em conclusão,2101,Incêndio em edifícios habitacionais,0,4,0,10,2025-06-12T18:41:00Z,Valongo,Porto,Norte,-8.472238,41.20935
25516547,Tornada e Salir do Porto,Oeste,311,2025-06-12T18:51:00Z,25516547,Em conclusão,2301,Incêndio em transporte rodoviário,0,3,0,9,2025-06-12T18:51:00Z,Caldas Da Rainha,Leiria,Centro,-9.1381,39.46814
25516763,"Enxara do Bispo, Gradil e Vila Franca do Rosário",Grande Lisboa,311,2025-06-12T19:38:00Z,25516763,Em resolução,3103,Incêndio rural,0,3,0,12,2025-06-12T19:38:00Z,Mafra,Lisboa,Área Metropolitana De Lisboa,-9.256159,38.992708
25516797,Odivelas,Grande Lisboa,311,2025-06-12T19:47:00Z,25516797,Em conclusão,2101,Incêndio em edifícios habitacionais,0,4,0,11,2025-06-12T19:47:00Z,Odivelas,Lisboa,Área Metropolitana De Lisboa,-9.19258,38.79766
25516865,São João da Madeira,Area M. Porto,309,2025-06-12T19:58:00Z,25516865,Em despacho,2115,Incêndio em edifícios hoteleiros e de restauração,0,2,0,8,2025-06-12T19:58:00Z,São João Da Madeira,Aveiro,Norte,-8.490365,40.895632
