id,address,subregion,neighborhood,date,id.1,state,nature,nature_description,aerial_means,terrestrial_means,aquatic_means,operational,date.1,Concelho,Distrito,NUTII_DSG,longitude,latitude,state_2
25785983,Caçarilhe e Infesta,Tâmega e Sousa,309,2025-08-04T18:22:00Z,25785983,Em Resolução/Conclusão,3103,Incêndio rural,0,11,0,33,2025-08-04T18:22:00Z,Celorico De Basto,Braga,Norte,-8.04611,41.419858,Resolução/Conclusão
25792058,Cibões e Brufe,Cávado,309,2025-08-05T19:10:00Z,25792058,Em Resolução/Conclusão,3103,Incêndio rural,0,1,0,5,2025-08-05T19:10:00Z,Terras De Bouro,Braga,Norte,-8.293932,41.764918,Resolução/Conclusão
25817921,Penacova,Região de Coimbra,310,2025-08-10T13:19:00Z,25817921,Em Resolução/Conclusão,3101,Incêndio rural,0,4,0,12,2025-08-10T13:19:00Z,Penacova,Coimbra,Centro,-8.27722,40.275,Resolução/Conclusão
25818375,Vila Boa de Quires e Maureles,Tâmega e Sousa,309,2025-08-10T14:48:00Z,25818375,Em Resolução/Conclusão,3103,Incêndio rural,0,5,0,24,2025-08-10T14:48:00Z,Marco De Canaveses,Porto,Norte,-8.205438,41.197593,Resolução/Conclusão
25818659,"Amarante (São Gonçalo), Madalena, Cepelos e Gatão",Tâmega e Sousa,309,2025-08-10T15:37:00Z,25818659,Em Resolução/Conclusão,3103,Incêndio rural,0,5,0,17,2025-08-10T15:37:00Z,Amarante,Porto,Norte,-8.091143,41.260022,Resolução/Conclusão
25819002,Mancelos,Tâmega e Sousa,309,2025-08-10T16:57:00Z,25819002,Em Resolução/Conclusão,3103,Incêndio rural,0,3,0,11,2025-08-10T16:57:00Z,Amarante,Porto,Norte,-8.170968,41.274135,Resolução/Conclusão
25819559,Portela e Extremo,Alto Minho,309,2025-08-10T19:12:00Z,25819559,Em Resolução/Conclusão,3103,Incêndio rural,0,3,0,12,2025-08-10T19:12:00Z,Arcos De Valdevez,Viana Do Castelo,Norte,-8.448442,41.953195,Resolução/Conclusão
25819818,Sobrado e Bairros,Tâmega e Sousa,309,2025-08-10T20:13:00Z,25819818,Em Resolução/Conclusão,3103,Incêndio rural,0,10,0,33,2025-08-10T20:13:00Z,Castelo De Paiva,Aveiro,Norte,-8.252268,41.018942,Resolução/Conclusão
25776263,"Pena, Quintã e Vila Cova",Douro,309,2025-08-02T23:45:00Z,25776263,Em Curso,3103,Incêndio rural,0,133,0,408,2025-08-02T23:45:00Z,Vila Real,Vila Real,Norte,-7.811902,41.317355,Curso
25783717,Cunha Baixa,Viseu Dão Lafões,310,2025-08-04T11:48:00Z,25783717,Em Resolução/Conclusão,3101,Incêndio rural,0,1,0,2,2025-08-04T11:48:00Z,Mangualde,Viseu,Centro,-7.764411,40.559738,Resolução/Conclusão
25787860,Faíl e Vila Chã de Sá,Viseu Dão Lafões,310,2025-08-05T05:55:00Z,25787860,Em Resolução/Conclusão,3103,Incêndio rural,0,0,0,0,2025-08-05T05:55:00Z,Viseu,Viseu,Centro,-7.987877,40.601342,Resolução/Conclusão
25802450,Canas de Santa Maria,Viseu Dão Lafões,310,2025-08-07T16:14:00Z,25802450,Em Resolução/Conclusão,3103,Incêndio rural,0,1,0,2,2025-08-07T16:14:00Z,Tondela,Viseu,Centro,-8.032777,40.56017,Resolução/Conclusão
25808937,Abrunhosa-a-Velha,Viseu Dão Lafões,310,2025-08-08T19:26:00Z,25808937,Em Resolução/Conclusão,3103,Incêndio rural,0,2,0,7,2025-08-08T19:26:00Z,Mangualde,Viseu,Centro,-7.647667,40.572515,Resolução/Conclusão
25813482,Freches e Torres,Beiras e Serra da Estrela,310,2025-08-09T16:21:00Z,25813482,Em Curso,3103,Incêndio rural,0,207,0,611,2025-08-09T16:21:00Z,Trancoso,Guarda,Centro,-7.363745,40.709022,Curso
25818610,Negrelos (São Tomé),Area M. Porto,309,2025-08-10T15:28:00Z,25818610,Em Resolução/Conclusão,3103,Incêndio rural,0,10,0,35,2025-08-10T15:28:00Z,Santo Tirso,Porto,Norte,-8.395752,41.353508,Resolução/Conclusão
25818948,Vila Boa de Quires e Maureles,Tâmega e Sousa,309,2025-08-10T16:22:00Z,25818948,Em Resolução/Conclusão,3103,Incêndio rural,0,6,0,23,2025-08-10T16:22:00Z,Marco De Canaveses,Porto,Norte,-8.204612,41.211897,Resolução/Conclusão
25819466,Cabanelas,Cávado,309,2025-08-10T18:44:00Z,25819466,Em Resolução/Conclusão,3105,Incêndio rural,0,0,0,0,2025-08-10T18:44:00Z,Vila Verde,Braga,Norte,-8.490007,41.597627,Resolução/Conclusão
25819682,Santa Comba Dão e Couto do Mosteiro,Viseu Dão Lafões,310,2025-08-10T19:38:00Z,25819682,Em Resolução/Conclusão,3105,Incêndio rural,0,1,0,5,2025-08-10T19:38:00Z,Santa Comba Dão,Viseu,Centro,-8.149167,40.409715,Resolução/Conclusão
25820150,Vilela,Area M. Porto,309,2025-08-10T21:16:00Z,25820150,Em Resolução/Conclusão,3103,Incêndio rural,0,1,0,5,2025-08-10T21:16:00Z,Paredes,Porto,Norte,-8.393056,41.2325,Resolução/Conclusão
25775263,Torgueda,Douro,309,2025-08-02T19:49:00Z,25775263,Em Resolução/Conclusão,3101,Incêndio rural,0,12,0,39,2025-08-02T19:49:00Z,Vila Real,Vila Real,Norte,-7.785983,41.274952,Resolução/Conclusão
25803707,Almofala e Escarigo,Beiras e Serra da Estrela,310,2025-08-07T20:50:00Z,25803707,Em Resolução/Conclusão,3103,Incêndio rural,0,4,0,14,2025-08-07T20:50:00Z,Figueira De Castelo Rodrigo,Guarda,Centro,-6.847203,40.887165,Resolução/Conclusão
25807426,Alvite,Douro,309,2025-08-08T14:31:00Z,25807426,Em Resolução/Conclusão,3103,Incêndio rural,0,73,0,248,2025-08-08T14:31:00Z,Moimenta Da Beira,Viseu,Norte,-7.688727,40.96613,Resolução/Conclusão
25812717,"Mangualde, Mesquitela e Cunha Alta",Viseu Dão Lafões,310,2025-08-09T12:50:00Z,25812717,Em Resolução/Conclusão,3103,Incêndio rural,0,4,0,14,2025-08-09T12:50:00Z,Mangualde,Viseu,Centro,-7.778468,40.59536,Resolução/Conclusão
25813069,Alcaide,Beiras e Serra da Estrela,310,2025-08-09T15:04:00Z,25813069,Em Resolução/Conclusão,3103,Incêndio rural,0,1,0,5,2025-08-09T15:04:00Z,Fundão,Castelo Branco,Centro,-7.436153,40.133788,Resolução/Conclusão
25815725,Bouro (Santa Marta),Cávado,309,2025-08-10T01:54:00Z,25815725,Em Resolução/Conclusão,3103,Incêndio rural,0,8,0,23,2025-08-10T01:54:00Z,Amares,Braga,Norte,-8.279715,41.69202,Resolução/Conclusão
25817277,Lorvão,Região de Coimbra,310,2025-08-10T11:09:00Z,25817277,Em Resolução/Conclusão,3101,Incêndio rural,0,12,0,38,2025-08-10T11:09:00Z,Penacova,Coimbra,Centro,-8.31417,40.23889,Resolução/Conclusão
25817913,Valpedre,Tâmega e Sousa,309,2025-08-10T13:18:00Z,25817913,Em Resolução/Conclusão,3103,Incêndio rural,0,7,0,24,2025-08-10T13:18:00Z,Penafiel,Porto,Norte,-8.30697,41.14208,Resolução/Conclusão
25818290,Ourique,Baixo Alentejo,312,2025-08-10T14:33:00Z,25818290,Em Resolução/Conclusão,3103,Incêndio rural,0,3,0,5,2025-08-10T14:33:00Z,Ourique,Beja,Alentejo,-8.157723,37.629212,Resolução/Conclusão
25819119,Póvoa de Penela,Douro,309,2025-08-10T17:23:00Z,25819119,Em Resolução/Conclusão,3103,Incêndio rural,0,15,0,60,2025-08-10T17:23:00Z,Penedono,Viseu,Norte,-7.389118,41.032508,Resolução/Conclusão
25819827,Agrela,Area M. Porto,309,2025-08-10T20:06:00Z,25819827,Em Resolução/Conclusão,3103,Incêndio rural,0,2,0,5,2025-08-10T20:06:00Z,Santo Tirso,Porto,Norte,-8.471982,41.263633,Resolução/Conclusão
25820220,Barqueiros,Cávado,309,2025-08-10T21:32:00Z,25820220,Em Despacho,3111,Queima,0,1,0,2,2025-08-10T21:32:00Z,Barcelos,Braga,Norte,-8.7303,41.48908,Despacho
25820222,"Almada, Cova da Piedade, Pragal e Cacilhas",Península de Setúbal,311,2025-08-10T21:32:00Z,25820222,Em Despacho,3103,Incêndio rural,0,5,0,22,2025-08-10T21:32:00Z,Almada,Setúbal,Área Metropolitana De Lisboa,-9.17214,38.6676,Despacho
25820279,Fornelos,Tâmega e Sousa,309,2025-08-10T21:41:00Z,25820279,Em Despacho,3103,Incêndio rural,0,2,0,7,2025-08-10T21:41:00Z,Cinfães,Viseu,Norte,-8.212805,41.034374,Despacho
25773830,Andrães,Douro,309,2025-08-02T14:23:00Z,25773830,Em Resolução/Conclusão,3103,Incêndio rural,0,0,0,0,2025-08-02T14:23:00Z,Vila Real,Vila Real,Norte,-7.671293,41.267593,Resolução/Conclusão
25774883,Arnóia,Tâmega e Sousa,309,2025-08-02T18:20:00Z,25774883,Em Resolução/Conclusão,3103,Incêndio rural,0,3,0,8,2025-08-02T18:20:00Z,Celorico De Basto,Braga,Norte,-7.998983,41.348727,Resolução/Conclusão
25804968,Alvadia,Alto Tâmega e Barroso,309,2025-08-08T07:21:00Z,25804968,Em Resolução/Conclusão,3103,Incêndio rural,0,68,0,193,2025-08-08T07:21:00Z,Ribeira De Pena,Vila Real,Norte,-7.782872,41.457452,Resolução/Conclusão
25814493,Cota,Viseu Dão Lafões,310,2025-08-09T20:08:00Z,25814493,Em Resolução/Conclusão,3101,Incêndio rural,0,1,0,5,2025-08-09T20:08:00Z,Viseu,Viseu,Centro,-7.80263,40.777299,Resolução/Conclusão
25816131,"Crasto, Ruivos e Grovelas",Alto Minho,309,2025-08-10T06:25:00Z,25816131,Em Resolução/Conclusão,3103,Incêndio rural,0,8,0,20,2025-08-10T06:25:00Z,Ponte Da Barca,Viana Do Castelo,Norte,-8.444038,41.763607,Resolução/Conclusão
25817967,Vila Boa de Quires e Maureles,Tâmega e Sousa,309,2025-08-10T13:27:00Z,25817967,Em Resolução/Conclusão,3103,Incêndio rural,0,6,0,22,2025-08-10T13:27:00Z,Marco De Canaveses,Porto,Norte,-8.195109,41.182057,Resolução/Conclusão
25818455,Sobral de São Miguel,Beiras e Serra da Estrela,310,2025-08-10T15:02:00Z,25818455,Em Curso,3103,Incêndio rural,0,130,0,420,2025-08-10T15:02:00Z,Covilhã,Castelo Branco,Centro,-7.77307,40.200173,Curso
25818518,"Canedo, Vale e Vila Maior",Area M. Porto,309,2025-08-10T15:11:00Z,25818518,Em Resolução/Conclusão,3103,Incêndio rural,0,1,0,5,2025-08-10T15:11:00Z,Santa Maria Da Feira,Aveiro,Norte,-8.491618,41.007257,Resolução/Conclusão
25818555,Bustelo,Tâmega e Sousa,309,2025-08-10T15:15:00Z,25818555,Em Resolução/Conclusão,3103,Incêndio rural,0,5,0,11,2025-08-10T15:15:00Z,Penafiel,Porto,Norte,-8.273328,41.21275,Resolução/Conclusão
25818920,Antas e Ourozinho,Douro,309,2025-08-10T16:35:00Z,25818920,Em Resolução/Conclusão,3103,Incêndio rural,0,0,0,0,2025-08-10T16:35:00Z,Penedono,Viseu,Norte,-7.359645,40.954012,Resolução/Conclusão
25819592,Almodôvar e Graça Dos Padrões,Baixo Alentejo,312,2025-08-10T19:18:00Z,25819592,Em Resolução/Conclusão,3105,Incêndio rural,0,9,0,23,2025-08-10T19:18:00Z,Almodôvar,Beja,Alentejo,-8.071722,37.50587,Resolução/Conclusão
25819687,Bem Viver,Tâmega e Sousa,309,2025-08-10T19:39:00Z,25819687,Em Resolução/Conclusão,3105,Incêndio rural,0,2,0,10,2025-08-10T19:39:00Z,Marco De Canaveses,Porto,Norte,-8.222998,41.110092,Resolução/Conclusão
25819876,Vilela,Area M. Porto,309,2025-08-10T20:20:00Z,25819876,Em Resolução/Conclusão,3103,Incêndio rural,0,0,0,0,2025-08-10T20:20:00Z,Paredes,Porto,Norte,-8.381106,41.242851,Resolução/Conclusão
25820244,Souselo,Tâmega e Sousa,309,2025-08-10T21:43:00Z,25820244,Em Despacho,3103,Incêndio rural,0,1,0,5,2025-08-10T21:43:00Z,Cinfães,Viseu,Norte,-8.23114,41.06998,Despacho
25820226,Fornos,Tâmega e Sousa,309,2025-08-10T21:34:00Z,25820226,Em Despacho,3103,Incêndio rural,0,4,0,12,2025-08-10T21:34:00Z,Castelo De Paiva,Aveiro,Norte,-8.244534,41.04986,Despacho
