id,address,subregion,neighborhood,date,id.1,state,nature,nature_description,aerial_means,terrestrial_means,aquatic_means,operational,date.1,Concelho,Distrito,NUTII_DSG,longitude,latitude,state_2
25696336,Alcaria Ruiva,Baixo Alentejo,312,2025-07-18T11:24:00Z,25696336,Em Resolução/Conclusão,3105,Incêndio rural,0,0,0,0,2025-07-18T11:24:00Z,Mértola,Beja,Alentejo,-7.78541,37.768223,Resolução/Conclusão
25696955,"Vilela, Seramil e Paredes Secas",Cávado,309,2025-07-18T13:36:00Z,25696955,Em Resolução/Conclusão,3101,Incêndio rural,0,14,0,46,2025-07-18T13:36:00Z,Amares,Braga,Norte,-8.309448,41.67517,Resolução/Conclusão
25698189,Fregim,Tâmega e Sousa,309,2025-07-18T17:53:00Z,25698189,Em Resolução/Conclusão,3103,Incêndio rural,0,1,0,5,2025-07-18T17:53:00Z,Amarante,Porto,Norte,-8.106882,41.26401,Resolução/Conclusão
25698842,Mozelos,Area M. Porto,309,2025-07-18T20:20:00Z,25698842,Em Resolução/Conclusão,3103,Incêndio rural,0,1,0,5,2025-07-18T20:20:00Z,Santa Maria Da Feira,Aveiro,Norte,-8.562222,41.00945,Resolução/Conclusão
25695378,Refóios do Lima,Alto Minho,309,2025-07-18T08:35:00Z,25695378,Em Resolução/Conclusão,3103,Incêndio rural,0,3,0,10,2025-07-18T08:35:00Z,Ponte De Lima,Viana Do Castelo,Norte,-8.52127,41.804412,Resolução/Conclusão
25697900,Pias,Baixo Alentejo,312,2025-07-18T16:52:00Z,25697900,Em Resolução/Conclusão,3105,Incêndio rural,0,0,0,0,2025-07-18T16:52:00Z,Serpa,Beja,Alentejo,-7.484853,38.020383,Resolução/Conclusão
25698811,Penacova,Região de Coimbra,310,2025-07-18T20:12:00Z,25698811,Em Resolução/Conclusão,3101,Incêndio rural,0,5,0,21,2025-07-18T20:12:00Z,Penacova,Coimbra,Centro,-8.258354,40.247219,Resolução/Conclusão
25699122,Castêlo da Maia,Area M. Porto,309,2025-07-18T21:25:00Z,25699122,Em Resolução/Conclusão,3103,Incêndio rural,0,1,0,5,2025-07-18T21:25:00Z,Maia,Porto,Norte,-8.611663,41.264814,Resolução/Conclusão
25699154,Laranjeiro e Feijó,Península de Setúbal,311,2025-07-18T21:30:00Z,25699154,Em Resolução/Conclusão,3103,Incêndio rural,0,4,0,21,2025-07-18T21:30:00Z,Almada,Setúbal,Área Metropolitana De Lisboa,-9.156624,38.652235,Resolução/Conclusão
25692562,Atouguia,Médio Tejo,311,2025-07-17T15:31:00Z,25692562,Em Resolução/Conclusão,3101,Incêndio rural,0,3,0,12,2025-07-17T15:31:00Z,Ourém,Santarém,Centro,-8.62029,39.654072,Resolução/Conclusão
25692814,Tolosa,Alto Alentejo,312,2025-07-17T16:23:00Z,25692814,Em Resolução/Conclusão,3103,Incêndio rural,0,2,0,7,2025-07-17T16:23:00Z,Nisa,Portalegre,Alentejo,-7.635642,39.486993,Resolução/Conclusão
25698385,Marinha Das Ondas,Região de Coimbra,310,2025-07-18T18:37:00Z,25698385,Em Resolução/Conclusão,3101,Incêndio rural,0,1,0,5,2025-07-18T18:37:00Z,Figueira Da Foz,Coimbra,Centro,-8.85194,40.03861,Resolução/Conclusão
25698687,Repeses e São Salvador,Viseu Dão Lafões,310,2025-07-18T19:44:00Z,25698687,Em Resolução/Conclusão,3103,Incêndio rural,0,10,0,42,2025-07-18T19:44:00Z,Viseu,Viseu,Centro,-7.922508,40.643612,Resolução/Conclusão
25698973,Minde,Médio Tejo,311,2025-07-18T20:52:00Z,25698973,Em Resolução/Conclusão,3103,Incêndio rural,0,6,0,24,2025-07-18T20:52:00Z,Alcanena,Santarém,Centro,-8.676105,39.531363,Resolução/Conclusão
25686799,Souto Maior,Douro,309,2025-07-16T13:19:00Z,25686799,Em Resolução/Conclusão,3101,Incêndio rural,0,31,0,95,2025-07-16T13:19:00Z,Sabrosa,Vila Real,Norte,-7.57839,41.287518,Resolução/Conclusão
25697095,Alfarelos,Região de Coimbra,310,2025-07-18T14:01:00Z,25697095,Em Resolução/Conclusão,3101,Incêndio rural,0,1,0,2,2025-07-18T14:01:00Z,Soure,Coimbra,Centro,-8.640182,40.154127,Resolução/Conclusão
25698400,Alcaria Ruiva,Baixo Alentejo,312,2025-07-18T18:37:00Z,25698400,Em Resolução/Conclusão,3105,Incêndio rural,0,16,0,36,2025-07-18T18:37:00Z,Mértola,Beja,Alentejo,-7.784537,37.770317,Resolução/Conclusão
25698451,Arnóia,Tâmega e Sousa,309,2025-07-18T18:50:00Z,25698451,Em Resolução/Conclusão,3101,Incêndio rural,0,6,0,19,2025-07-18T18:50:00Z,Celorico De Basto,Braga,Norte,-8.015378,41.373849,Resolução/Conclusão
