id,address,subregion,neighborhood,date,id.1,state,nature,nature_description,aerial_means,terrestrial_means,aquatic_means,operational,date.1,Concelho,Distrito,NUTII_DSG,longitude,latitude
25070044,Praia do Ribatejo,Médio Tejo,311,2025-03-10T19:30:00Z,25070044,Em curso,1101,Cheia,0,0,0,0,2025-03-10T19:30:00Z,Vila Nova Da Barquinha,Santarém,Centro,-8.357309,39.485638
25071496,São Manços e São Vicente do Pigeiro,Alentejo Central,312,2025-03-11T13:18:00Z,25071496,Em conclusão,1101,Cheia,0,0,0,0,2025-03-11T13:18:00Z,Évora,Évora,Alentejo,-7.713313,38.513673
25137544,Dois Portos e Runa,Oeste,311,2025-03-23T13:41:00Z,25137544,Em conclusão,3313,Deslizamento de terras,0,0,0,0,2025-03-23T13:41:00Z,Torres Vedras,Lisboa,Centro,-9.178343,39.036686
25192378,"Belazaima do Chão, Castanheira do Vouga e Agadão",Região de Aveiro,310,2025-04-04T04:49:00Z,25192378,Em resolução,3301,Queda de árvore,0,1,0,2,2025-04-04T04:49:00Z,Águeda,Aveiro,Centro,-8.325628,40.575893
25192379,Azurém,Ave,309,2025-04-04T04:50:00Z,25192379,Em despacho,3301,Queda de árvore,0,2,0,4,2025-04-04T04:50:00Z,Guimarães,Braga,Norte,-8.291869,41.454999
25192380,"S.julião, N.s. da Anunciada e S. Maria da Graça",Península de Setúbal,311,2025-04-04T04:47:00Z,25192380,Em despacho,3315,Inundação de estruturas por precipitação intensa,0,1,0,5,2025-04-04T04:47:00Z,Setúbal,Setúbal,Área Metropolitana De Lisboa,-8.889983,38.529955
25068300,Almeirim,Lezíria do Tejo,311,2025-03-10T20:52:00Z,25068300,Em curso,1101,Cheia,0,0,0,0,2025-03-10T20:52:00Z,Almeirim,Santarém,Alentejo,-8.635002,39.187436
25113184,Castanheira do Ribatejo e Cachoeiras,Grande Lisboa,311,2025-03-20T01:20:00Z,25113184,Em despacho,3301,Queda de árvore,0,0,0,0,2025-03-20T01:20:00Z,Vila Franca De Xira,Lisboa,Área Metropolitana De Lisboa,-8.979234,38.999552
25192400,"Seixal, Arrentela e Aldeia de Paio Pires",Península de Setúbal,311,2025-04-04T05:22:00Z,25192400,Em despacho,3315,Inundação de estruturas por precipitação intensa,0,1,0,3,2025-04-04T05:22:00Z,Seixal,Setúbal,Área Metropolitana De Lisboa,-9.09764,38.61751
