id,address,subregion,neighborhood,date,id.1,state,nature,nature_description,aerial_means,terrestrial_means,aquatic_means,operational,date.1,Concelho,Distrito,NUTII_DSG,longitude,latitude,state_2
25727257,Santiago de Piães,Tâmega e Sousa,309,2025-07-24T17:40:00Z,25727257,Em Resolução/Conclusão,3103,Incêndio rural,0,5,0,18,2025-07-24T17:40:00Z,Cinfães,Viseu,Norte,-8.173138,41.025392,Resolução/Conclusão
25734761,Rebordosa,Area M. Porto,309,2025-07-26T06:55:00Z,25734761,Em Curso,3103,Incêndio rural,0,1,0,5,2025-07-26T06:55:00Z,Paredes,Porto,Norte,-8.413867,41.217556,Curso
25734773,Santa Maria Maior e Monserrate e Meadela,Alto Minho,309,2025-07-26T07:03:00Z,25734773,Em Despacho,3105,Incêndio rural,0,1,0,5,2025-07-26T07:03:00Z,Viana Do Castelo,Viana Do Castelo,Norte,-8.81652,41.703882,Despacho
25734791,Baçal,Terras de Trás-os-Montes,309,2025-07-26T07:10:00Z,25734791,Em Despacho,3103,Incêndio rural,0,2,0,10,2025-07-26T07:10:00Z,Bragança,Bragança,Norte,-6.718205,41.854056,Despacho
25712338,Cercal,Alentejo Litoral,312,2025-07-21T17:38:00Z,25712338,Em Resolução/Conclusão,3103,Incêndio rural,0,0,0,0,2025-07-21T17:38:00Z,Santiago Do Cacém,Setúbal,Alentejo,-8.682272,37.791582,Resolução/Conclusão
25729082,São Jorge e Ermelo,Alto Minho,309,2025-07-25T04:45:00Z,25729082,Em Resolução/Conclusão,3101,Incêndio rural,0,15,0,50,2025-07-25T04:45:00Z,Arcos De Valdevez,Viana Do Castelo,Norte,-8.356835,41.818005,Resolução/Conclusão
25728646,Vila Fernando,Beiras e Serra da Estrela,310,2025-07-24T23:39:00Z,25728646,Em Resolução/Conclusão,3103,Incêndio rural,0,1,0,5,2025-07-24T23:39:00Z,Guarda,Guarda,Centro,-7.135077,40.484042,Resolução/Conclusão
25730832,Aveleda e Rio de Onor,Terras de Trás-os-Montes,309,2025-07-25T12:07:00Z,25730832,Em Resolução/Conclusão,3103,Incêndio rural,0,28,0,90,2025-07-25T12:07:00Z,Bragança,Bragança,Norte,-6.707873,41.891435,Resolução/Conclusão
25734678,Durrães e Tregosa,Cávado,309,2025-07-26T06:15:00Z,25734678,Em Curso,3103,Incêndio rural,0,7,0,26,2025-07-26T06:15:00Z,Barcelos,Braga,Norte,-8.669,41.63852,Curso
25734712,"Crasto, Ruivos e Grovelas",Alto Minho,309,2025-07-26T06:55:00Z,25734712,Em Despacho,3103,Incêndio rural,0,1,0,5,2025-07-26T06:55:00Z,Ponte Da Barca,Viana Do Castelo,Norte,-8.43752,41.75209,Despacho
25734803,Pedroso e Seixezelo,Area M. Porto,309,2025-07-26T07:14:00Z,25734803,Em Despacho,3111,Queima,0,1,0,5,2025-07-26T07:14:00Z,Vila Nova De Gaia,Porto,Norte,-8.55728,41.067659,Despacho
