id,address,subregion,neighborhood,date,id.1,state,nature,nature_description,aerial_means,terrestrial_means,aquatic_means,operational,date.1,Concelho,Distrito,NUTII_DSG,longitude,latitude
25565966,Benavente,Lezíria do Tejo,311,2025-06-23T06:44:00Z,25565966,Em resolução,3105,Incêndio rural,0,3,0,9,2025-06-23T06:44:00Z,Benavente,Santarém,Alentejo,-8.802135,38.952937
25566110,"Caia, São Pedro e Alcáçova",Alto Alentejo,312,2025-06-23T07:43:00Z,25566110,Em despacho,3201,Detritos não confinados,0,2,0,7,2025-06-23T07:43:00Z,Elvas,Portalegre,Alentejo,-7.169645,38.882464
25553154,Pedrógão,Baixo Alentejo,312,2025-06-20T12:23:00Z,25553154,Em conclusão,3103,Incêndio rural,0,0,0,0,2025-06-20T12:23:00Z,Vidigueira,Beja,Alentejo,-7.549947,38.179912
25565888,Faro (Sé e São Pedro),Algarve,313,2025-06-23T05:36:00Z,25565888,Em conclusão,2129,Incêndio em edifícios degradados ou devolutos,0,3,0,5,2025-06-23T05:36:00Z,Faro,Faro,Algarve,-7.942032,37.01865
25565890,Cervães,Cávado,309,2025-06-23T05:42:00Z,25565890,Em conclusão,3103,Incêndio rural,0,4,0,14,2025-06-23T05:42:00Z,Vila Verde,Braga,Norte,-8.512983,41.595232
