id,address,subregion,neighborhood,date,id.1,state,nature,nature_description,aerial_means,terrestrial_means,aquatic_means,operational,date.1,Concelho,Distrito,NUTII_DSG,longitude,latitude
25532434,Ermelo e Pardelhas,Ave,309,2025-06-16T09:30:00Z,25532434,Em resolução,3107,Consolidação de rescaldo de incêndio rural,0,4,0,15,2025-06-16T09:30:00Z,Mondim De Basto,Vila Real,Norte,-7.844007,41.359233
25532518,Almeida,Beiras e Serra da Estrela,310,2025-06-16T09:47:00Z,25532518,Em conclusão,2101,Incêndio em edifícios habitacionais,0,3,0,12,2025-06-16T09:47:00Z,Almeida,Guarda,Centro,-6.905285,40.730197
25532704,Anha,Alto Minho,309,2025-06-16T10:22:00Z,25532704,Em conclusão,3105,Incêndio rural,0,1,0,5,2025-06-16T10:22:00Z,Viana Do Castelo,Viana Do Castelo,Norte,-8.798785,41.66957
25533187,"Subportela, Deocriste e Portela Susã",Alto Minho,309,2025-06-16T11:38:00Z,25533187,Em despacho,3105,Incêndio rural,0,0,0,0,2025-06-16T11:38:00Z,Viana Do Castelo,Viana Do Castelo,Norte,-8.69682,41.67286
25532818,Penafiel,Tâmega e Sousa,309,2025-06-16T10:35:00Z,25532818,Em despacho,3107,Consolidação de rescaldo de incêndio rural,0,2,0,10,2025-06-16T10:35:00Z,Penafiel,Porto,Norte,-8.255315,41.231415
25533043,Miranda do Douro,Terras de Trás-os-Montes,309,2025-06-16T11:10:00Z,25533043,Em resolução,3103,Incêndio rural,0,6,0,16,2025-06-16T11:10:00Z,Miranda Do Douro,Bragança,Norte,-6.268542,41.527568
25525290,Selmes,Baixo Alentejo,312,2025-06-14T16:14:00Z,25525290,Em conclusão,3105,Incêndio rural,0,1,0,4,2025-06-14T16:14:00Z,Vidigueira,Beja,Alentejo,-7.724372,38.135682
25531624,Ceivães e Badim,Alto Minho,309,2025-06-16T05:00:00Z,25531624,Em conclusão,3103,Incêndio rural,0,8,0,23,2025-06-16T05:00:00Z,Monção,Viana Do Castelo,Norte,-8.375257,42.073545
25532678,Vau,Oeste,311,2025-06-16T10:10:00Z,25532678,Em despacho,3107,Consolidação de rescaldo de incêndio rural,0,1,0,5,2025-06-16T10:10:00Z,Óbidos,Leiria,Centro,-9.254195,39.378229
25532590,Aveleda,Tâmega e Sousa,309,2025-06-16T10:00:00Z,25532590,Em despacho,3107,Consolidação de rescaldo de incêndio rural,0,2,0,6,2025-06-16T10:00:00Z,Lousada,Porto,Norte,-8.237408,41.284248
25532985,Pedroso e Seixezelo,Area M. Porto,309,2025-06-16T10:55:00Z,25532985,Em conclusão,3107,Consolidação de rescaldo de incêndio rural,0,1,0,5,2025-06-16T10:55:00Z,Vila Nova De Gaia,Porto,Norte,-8.55785,41.06333
25533040,Castanheira do Ribatejo e Cachoeiras,Grande Lisboa,311,2025-06-16T11:08:00Z,25533040,Em despacho,3201,Detritos não confinados,0,1,0,5,2025-06-16T11:08:00Z,Vila Franca De Xira,Lisboa,Área Metropolitana De Lisboa,-8.979234,38.999552
