id,address,subregion,neighborhood,date,id.1,state,nature,nature_description,aerial_means,terrestrial_means,aquatic_means,operational,date.1,Concelho,Distrito,NUTII_DSG,longitude,latitude
25485173,Monchique,Algarve,313,2025-06-06T10:40:00Z,25485173,Em conclusão,2101,Incêndio em edifícios habitacionais,0,4,0,8,2025-06-06T10:40:00Z,Monchique,Faro,Algarve,-8.614574,37.284529
25484535,Jou,Douro,309,2025-06-06T08:55:00Z,25484535,Em despacho,3107,Consolidação de rescaldo de incêndio rural,0,1,0,5,2025-06-06T08:55:00Z,Murça,Vila Real,Norte,-7.415113,41.46365
25485271,Palmela,Península de Setúbal,311,2025-06-06T11:09:00Z,25485271,Em conclusão,2301,Incêndio em transporte rodoviário,0,2,0,6,2025-06-06T11:09:00Z,Palmela,Setúbal,Área Metropolitana De Lisboa,-8.92532,38.58571
25485312,Bacelo e Senhora da Saúde,Alentejo Central,312,2025-06-06T11:16:00Z,25485312,Em conclusão,3103,Incêndio rural,0,4,0,14,2025-06-06T11:16:00Z,Évora,Évora,Alentejo,-7.905323,38.590167
25484913,Muxagata,Douro,309,2025-06-06T09:20:00Z,25484913,Em curso,3109,Gestão de combustível,0,2,0,10,2025-06-06T09:20:00Z,Vila Nova De Foz Côa,Guarda,Norte,-7.162523,41.021165
25485098,Torre de Coelheiros,Alentejo Central,312,2025-06-06T10:37:00Z,25485098,Em conclusão,3103,Incêndio rural,0,1,0,2,2025-06-06T10:37:00Z,Évora,Évora,Alentejo,-7.949472,38.414978
