id,address,subregion,neighborhood,date,id.1,state,nature,nature_description,aerial_means,terrestrial_means,aquatic_means,operational,date.1,Concelho,Distrito,NUTII_DSG,longitude,latitude,state_2
25832672,Piódão,Região de Coimbra,310,2025-08-13T05:08:00Z,25832672,Em Resolução/Conclusão,3103,Incêndio rural,0,96,0,299,2025-08-13T05:08:00Z,Arganil,Coimbra,Centro,-7.81972,40.23083,Resolução/Conclusão
25840417,Lousã e Vilarinho,Região de Coimbra,310,2025-08-14T13:46:00Z,25840417,Em Resolução/Conclusão,3101,Incêndio rural,0,3,0,11,2025-08-14T13:46:00Z,Lousã,Coimbra,Centro,-8.201561,40.080016,Resolução/Conclusão
25897250,Viade de Baixo e Fervidelas,Alto Tâmega e Barroso,309,2025-08-25T17:20:00Z,25897250,Em Resolução/Conclusão,3103,Incêndio rural,0,8,0,30,2025-08-25T17:20:00Z,Montalegre,Vila Real,Norte,-7.860477,41.725298,Resolução/Conclusão
25898107,Mondrões,Douro,309,2025-08-25T20:46:00Z,25898107,Em Resolução/Conclusão,3103,Incêndio rural,0,4,0,19,2025-08-25T20:46:00Z,Vila Real,Vila Real,Norte,-7.804065,41.318255,Resolução/Conclusão
25901717,Vale,Alto Minho,309,2025-08-26T15:32:00Z,25901717,Em Resolução/Conclusão,3103,Incêndio rural,1,31,0,89,2025-08-26T15:32:00Z,Arcos De Valdevez,Viana Do Castelo,Norte,-8.345968,41.863728,Resolução/Conclusão
25813482,Freches e Torres,Beiras e Serra da Estrela,310,2025-08-09T16:21:00Z,25813482,Em Resolução/Conclusão,3103,Incêndio rural,0,1,0,5,2025-08-09T16:21:00Z,Trancoso,Guarda,Centro,-7.363745,40.709022,Resolução/Conclusão
25832250,Ferreira de Aves,Viseu Dão Lafões,310,2025-08-13T00:03:00Z,25832250,Em Resolução/Conclusão,3103,Incêndio rural,0,1,0,2,2025-08-13T00:03:00Z,Sátão,Viseu,Centro,-7.647793,40.79568,Resolução/Conclusão
25836309,Cinfães,Tâmega e Sousa,309,2025-08-13T18:17:00Z,25836309,Em Resolução/Conclusão,3103,Incêndio rural,0,1,0,2,2025-08-13T18:17:00Z,Cinfães,Viseu,Norte,-8.071502,41.049757,Resolução/Conclusão
25851721,Arnóia,Tâmega e Sousa,309,2025-08-16T14:24:00Z,25851721,Em Resolução/Conclusão,3103,Incêndio rural,0,1,0,5,2025-08-16T14:24:00Z,Celorico De Basto,Braga,Norte,-7.994469,41.369836,Resolução/Conclusão
25905699,Vila Boa de Quires e Maureles,Tâmega e Sousa,309,2025-08-27T12:53:00Z,25905699,Em Resolução/Conclusão,3103,Incêndio rural,0,3,0,15,2025-08-27T12:53:00Z,Marco De Canaveses,Porto,Norte,-8.21569,41.197735,Resolução/Conclusão
25905965,Ruivães e Campos,Ave,309,2025-08-27T13:44:00Z,25905965,Em Resolução/Conclusão,3103,Incêndio rural,1,6,0,30,2025-08-27T13:44:00Z,Vieira Do Minho,Braga,Norte,-8.05119,41.672205,Resolução/Conclusão
25906272,Paços,Douro,309,2025-08-27T14:33:00Z,25906272,Em Resolução/Conclusão,3103,Incêndio rural,0,2,0,7,2025-08-27T14:33:00Z,Sabrosa,Vila Real,Norte,-7.579553,41.25177,Resolução/Conclusão
25846480,Sabugal e Aldeia de Santo António,Beiras e Serra da Estrela,310,2025-08-15T14:41:00Z,25846480,Em Resolução/Conclusão,3103,Incêndio rural,0,11,0,33,2025-08-15T14:41:00Z,Sabugal,Guarda,Centro,-7.125037,40.34023,Resolução/Conclusão
25891770,São Martinho de Antas e Paradela de Guiães,Douro,309,2025-08-24T15:06:00Z,25891770,Em Resolução/Conclusão,3101,Incêndio rural,0,7,0,23,2025-08-24T15:06:00Z,Sabrosa,Vila Real,Norte,-7.640418,41.23664,Resolução/Conclusão
25905960,Figueira e Barros,Alto Alentejo,312,2025-08-27T13:43:00Z,25905960,Em Resolução/Conclusão,3105,Incêndio rural,0,0,0,0,2025-08-27T13:43:00Z,Avis,Portalegre,Alentejo,-7.759733,39.053935,Resolução/Conclusão
25906041,Brotas,Alentejo Central,312,2025-08-27T13:57:00Z,25906041,Em Resolução/Conclusão,3105,Incêndio rural,0,6,0,24,2025-08-27T13:57:00Z,Mora,Évora,Alentejo,-8.160986,38.857346,Resolução/Conclusão
25883011,Almofala,Viseu Dão Lafões,310,2025-08-22T17:00:00Z,25883011,Em Resolução/Conclusão,3103,Incêndio rural,0,1,0,2,2025-08-22T17:00:00Z,Castro Daire,Viseu,Centro,-7.767003,40.956183,Resolução/Conclusão
25887019,Pedrógão Grande,Região de Leiria,310,2025-08-23T14:27:00Z,25887019,Em Resolução/Conclusão,3101,Incêndio rural,0,31,0,100,2025-08-23T14:27:00Z,Pedrógão Grande,Leiria,Centro,-8.15364,39.9136,Resolução/Conclusão
25904703,Mexilhoeira Grande,Algarve,313,2025-08-27T09:44:00Z,25904703,Em Resolução/Conclusão,3103,Incêndio rural,0,10,0,28,2025-08-27T09:44:00Z,Portimão,Faro,Algarve,-8.610917,37.241295,Resolução/Conclusão
25905446,Parreira e Chouto,Lezíria do Tejo,311,2025-08-27T12:00:00Z,25905446,Em Resolução/Conclusão,3103,Incêndio rural,0,0,0,0,2025-08-27T12:00:00Z,Chamusca,Santarém,Alentejo,-8.437505,39.180522,Resolução/Conclusão
25906071,Briteiros São Salvador e Briteiros Santa Leocádia,Ave,309,2025-08-27T14:04:00Z,25906071,Em Resolução/Conclusão,3103,Incêndio rural,1,3,0,20,2025-08-27T14:04:00Z,Guimarães,Braga,Norte,-8.34049,41.52643,Resolução/Conclusão
25906276,Lourosa,Area M. Porto,309,2025-08-27T14:31:00Z,25906276,Em Despacho,3103,Incêndio rural,0,1,0,5,2025-08-27T14:31:00Z,Santa Maria Da Feira,Aveiro,Norte,-8.54384,40.98201,Despacho
25906360,Ferreira,Tâmega e Sousa,309,2025-08-27T14:45:00Z,25906360,Em Despacho,3103,Incêndio rural,0,1,0,5,2025-08-27T14:45:00Z,Paços De Ferreira,Porto,Norte,-8.350322,41.264706,Despacho
25906185,Mosteiro,Ave,309,2025-08-27T14:20:00Z,25906185,Em Curso,3103,Incêndio rural,2,4,0,32,2025-08-27T14:20:00Z,Vieira Do Minho,Braga,Norte,-8.137821,41.58572,Curso
25906157,Campelo e Ovil,Tâmega e Sousa,309,2025-08-27T14:16:00Z,25906157,Em Resolução/Conclusão,3103,Incêndio rural,0,1,0,5,2025-08-27T14:16:00Z,Baião,Porto,Norte,-8.049897,41.169292,Resolução/Conclusão
25906248,Monte Córdova,Area M. Porto,309,2025-08-27T14:32:00Z,25906248,Em Despacho,3103,Incêndio rural,0,1,0,5,2025-08-27T14:32:00Z,Santo Tirso,Porto,Norte,-8.4089,41.31843,Despacho
