id,address,subregion,neighborhood,date,id.1,state,nature,nature_description,aerial_means,terrestrial_means,aquatic_means,operational,date.1,Concelho,Distrito,NUTII_DSG,longitude,latitude
25473822,Canha,Península de Setúbal,311,2025-06-04T00:55:00Z,25473822,Em conclusão,3105,Incêndio rural,0,2,0,7,2025-06-04T00:55:00Z,Montijo,Setúbal,Área Metropolitana De Lisboa,-8.640513,38.768722
25473874,Grândola e Santa Margarida da Serra,Alentejo Litoral,312,2025-06-04T01:27:00Z,25473874,Em curso,3103,Incêndio rural,0,2,0,6,2025-06-04T01:27:00Z,Grândola,Setúbal,Alentejo,-8.49366,38.16711
25473891,Mozelos,Area M. Porto,309,2025-06-04T01:56:00Z,25473891,Em despacho,2113,Incêndio em recintos de espetáculos e reuniões públicas,0,1,0,5,2025-06-04T01:56:00Z,Santa Maria Da Feira,Aveiro,Norte,-8.555656,41.01062
25466369,Melides,Alentejo Litoral,312,2025-06-02T13:27:00Z,25466369,Em conclusão,3103,Incêndio rural,0,1,0,2,2025-06-02T13:27:00Z,Grândola,Setúbal,Alentejo,-8.754243,38.19534
25467128,Monte Redondo e Carreira,Região de Leiria,310,2025-06-02T15:48:00Z,25467128,Em conclusão,3103,Incêndio rural,0,1,0,2,2025-06-02T15:48:00Z,Leiria,Leiria,Centro,-8.860783,39.89848
25473778,Bougado (São Martinho e Santiago),Area M. Porto,309,2025-06-04T00:23:00Z,25473778,Em conclusão,2127,"Incêndio em edifícios e recintos industriais, oficinas e armazéns",0,16,0,45,2025-06-04T00:23:00Z,Trofa,Porto,Norte,-8.561468,41.334938
