id,address,subregion,neighborhood,date,id.1,state,nature,nature_description,aerial_means,terrestrial_means,aquatic_means,operational,date.1,Concelho,Distrito,NUTII_DSG,longitude,latitude
25533546,Capelins (Santo António),Alentejo Central,312,2025-06-16T12:49:00Z,25533546,Em conclusão,3103,Incêndio rural,0,29,0,84,2025-06-16T12:49:00Z,Alandroal,Évora,Alentejo,-7.336945,38.553132
25536824,"S.julião, N.s. da Anunciada e S. Maria da Graça",Península de Setúbal,311,2025-06-17T05:48:00Z,25536824,Em curso,2127,"Incêndio em edifícios e recintos industriais, oficinas e armazéns",0,4,0,14,2025-06-17T05:48:00Z,Setúbal,Setúbal,Área Metropolitana De Lisboa,-8.889983,38.529955
25536871,Fornelos,Tâmega e Sousa,309,2025-06-17T06:46:00Z,25536871,Em resolução,3103,Incêndio rural,0,4,0,17,2025-06-17T06:46:00Z,Cinfães,Viseu,Norte,-8.196822,41.043427
25534277,Caldas de São Jorge e Pigeiros,Area M. Porto,309,2025-06-16T15:11:00Z,25534277,Em conclusão,3101,Incêndio rural,0,3,0,11,2025-06-16T15:11:00Z,Santa Maria Da Feira,Aveiro,Norte,-8.486413,40.939453
25534804,Alvares,Região de Coimbra,310,2025-06-16T17:00:00Z,25534804,Em conclusão,3101,Incêndio rural,0,0,0,0,2025-06-16T17:00:00Z,Góis,Coimbra,Centro,-8.08667,40.05333
25535747,Alvares,Região de Coimbra,310,2025-06-16T20:38:00Z,25535747,Em conclusão,3103,Incêndio rural,0,2,0,5,2025-06-16T20:38:00Z,Góis,Coimbra,Centro,-8.07249,40.03204
25533960,Nossa Senhora da Tourega e Nossa Senhora de Guadalupe,Alentejo Central,312,2025-06-16T14:13:00Z,25533960,Em conclusão,3101,Incêndio rural,0,7,0,19,2025-06-16T14:13:00Z,Évora,Évora,Alentejo,-8.04123,38.527212
25537059,Laranjeiro e Feijó,Península de Setúbal,311,2025-06-17T07:54:00Z,25537059,Em curso,2101,Incêndio em edifícios habitacionais,0,2,0,8,2025-06-17T07:54:00Z,Almada,Setúbal,Área Metropolitana De Lisboa,-9.161283,38.656699
