id,address,subregion,neighborhood,date,id.1,state,nature,nature_description,aerial_means,terrestrial_means,aquatic_means,operational,date.1,Concelho,Distrito,NUTII_DSG,longitude,latitude,state_2
25646433,Poiares,Alto Minho,309,2025-07-08T12:15:00Z,25646433,Em Resolução/Conclusão,3103,Incêndio rural,0,1,0,4,2025-07-08T12:15:00Z,Ponte De Lima,Viana Do Castelo,Norte,-8.630928,41.664155,Resolução/Conclusão
25647385,Castelo Novo,Beiras e Serra da Estrela,310,2025-07-08T15:11:00Z,25647385,Em Resolução/Conclusão,3103,Incêndio rural,0,26,0,84,2025-07-08T15:11:00Z,Fundão,Castelo Branco,Centro,-7.447838,40.023465,Resolução/Conclusão
25647452,Fornelos,Tâmega e Sousa,309,2025-07-08T15:23:00Z,25647452,Em Resolução/Conclusão,3103,Incêndio rural,0,9,0,28,2025-07-08T15:23:00Z,Cinfães,Viseu,Norte,-8.198376,41.018675,Resolução/Conclusão
25647934,Travanca,Tâmega e Sousa,309,2025-07-08T16:50:00Z,25647934,Em Resolução/Conclusão,3101,Incêndio rural,0,5,0,19,2025-07-08T16:50:00Z,Cinfães,Viseu,Norte,-8.219345,41.044025,Resolução/Conclusão
25648353,"São Pedro do Sul, Várzea e Baiões",Viseu Dão Lafões,310,2025-07-08T18:21:00Z,25648353,Em Resolução/Conclusão,3103,Incêndio rural,0,12,0,39,2025-07-08T18:21:00Z,São Pedro Do Sul,Viseu,Centro,-8.068077,40.749942,Resolução/Conclusão
25649206,Guardizela,Ave,309,2025-07-08T21:44:00Z,25649206,Em Resolução/Conclusão,3103,Incêndio rural,0,2,0,10,2025-07-08T21:44:00Z,Guimarães,Braga,Norte,-8.36854,41.38981,Resolução/Conclusão
25642652,São Teotónio,Alentejo Litoral,312,2025-07-07T17:18:00Z,25642652,Em Resolução/Conclusão,3101,Incêndio rural,0,0,0,0,2025-07-07T17:18:00Z,Odemira,Beja,Alentejo,-8.590532,37.422208,Resolução/Conclusão
25646735,Campelo e Ovil,Tâmega e Sousa,309,2025-07-08T13:19:00Z,25646735,Em Resolução/Conclusão,3105,Incêndio rural,0,7,0,28,2025-07-08T13:19:00Z,Baião,Porto,Norte,-8.00404,41.193612,Resolução/Conclusão
25648309,Orvalho,Beira Baixa,310,2025-07-08T18:13:00Z,25648309,Em Resolução/Conclusão,3103,Incêndio rural,0,8,0,34,2025-07-08T18:13:00Z,Oleiros,Castelo Branco,Centro,-7.791498,40.018095,Resolução/Conclusão
25649018,Lustosa e Barrosas (Santo Estêvão),Tâmega e Sousa,309,2025-07-08T20:58:00Z,25649018,Em Resolução/Conclusão,3103,Incêndio rural,0,8,0,29,2025-07-08T20:58:00Z,Felgueiras,Porto,Norte,-8.27507,41.325073,Resolução/Conclusão
25649186,Sapataria,Oeste,311,2025-07-08T21:37:00Z,25649186,Em Resolução/Conclusão,3103,Incêndio rural,0,2,0,10,2025-07-08T21:37:00Z,Sobral De Monte Agraço,Lisboa,Centro,-9.227991,38.962351,Resolução/Conclusão
25646909,Nespereira,Tâmega e Sousa,309,2025-07-08T13:53:00Z,25646909,Em Curso,3103,Incêndio rural,0,39,0,135,2025-07-08T13:53:00Z,Cinfães,Viseu,Norte,-8.122663,40.996095,Curso
25648079,Revelhe,Ave,309,2025-07-08T17:24:00Z,25648079,Em Resolução/Conclusão,3103,Incêndio rural,0,2,0,10,2025-07-08T17:24:00Z,Fafe,Braga,Norte,-8.151317,41.491782,Resolução/Conclusão
25648177,Alfena,Area M. Porto,309,2025-07-08T17:44:00Z,25648177,Em Resolução/Conclusão,3103,Incêndio rural,0,4,0,17,2025-07-08T17:44:00Z,Valongo,Porto,Norte,-8.527253,41.226017,Resolução/Conclusão
25649249,Vilela,Area M. Porto,309,2025-07-08T21:53:00Z,25649249,Em Resolução/Conclusão,3105,Incêndio rural,0,1,0,5,2025-07-08T21:53:00Z,Paredes,Porto,Norte,-8.375603,41.242147,Resolução/Conclusão
25649320,São Miguel de Vila Boa,Viseu Dão Lafões,310,2025-07-08T22:07:00Z,25649320,Em Curso,3101,Incêndio rural,0,6,0,20,2025-07-08T22:07:00Z,Sátão,Viseu,Centro,-7.736668,40.71407,Curso
25644630,Recezinhos (São Mamede),Tâmega e Sousa,309,2025-07-08T04:33:00Z,25644630,Em Resolução/Conclusão,3103,Incêndio rural,0,5,0,16,2025-07-08T04:33:00Z,Penafiel,Porto,Norte,-8.216673,41.2387,Resolução/Conclusão
25645409,"N.s. Conceição, S. Brás Matos, Juromenha",Alentejo Central,312,2025-07-08T09:22:00Z,25645409,Em Curso,3103,Incêndio rural,0,138,0,401,2025-07-08T09:22:00Z,Alandroal,Évora,Alentejo,-7.4021,38.67416,Curso
25646352,São Marcos da Ataboeira,Baixo Alentejo,312,2025-07-08T11:56:00Z,25646352,Em Resolução/Conclusão,3105,Incêndio rural,0,1,0,1,2025-07-08T11:56:00Z,Castro Verde,Beja,Alentejo,-7.912954,37.747521,Resolução/Conclusão
25647106,Tortosendo,Beiras e Serra da Estrela,310,2025-07-08T14:25:00Z,25647106,Em Resolução/Conclusão,3103,Incêndio rural,0,12,0,38,2025-07-08T14:25:00Z,Covilhã,Castelo Branco,Centro,-7.508533,40.223705,Resolução/Conclusão
25648508,Mourão,Alentejo Central,312,2025-07-08T19:00:00Z,25648508,Em Resolução/Conclusão,3103,Incêndio rural,0,3,0,10,2025-07-08T19:00:00Z,Mourão,Évora,Alentejo,-7.350372,38.376535,Resolução/Conclusão
25648910,Bustelo,Tâmega e Sousa,309,2025-07-08T20:30:00Z,25648910,Em Resolução/Conclusão,3103,Incêndio rural,0,1,0,5,2025-07-08T20:30:00Z,Penafiel,Porto,Norte,-8.255067,41.231993,Resolução/Conclusão
25649069,Astromil,Area M. Porto,309,2025-07-08T21:08:00Z,25649069,Em Curso,3101,Incêndio rural,0,2,0,5,2025-07-08T21:08:00Z,Paredes,Porto,Norte,-8.413291,41.199739,Curso
25649133,Almancil,Algarve,313,2025-07-08T21:25:00Z,25649133,Em Resolução/Conclusão,3103,Incêndio rural,0,1,0,5,2025-07-08T21:25:00Z,Loulé,Faro,Algarve,-8.0649,37.07484,Resolução/Conclusão
25649328,Recezinhos (São Mamede),Tâmega e Sousa,309,2025-07-08T22:16:00Z,25649328,Em Resolução/Conclusão,3103,Incêndio rural,0,1,0,5,2025-07-08T22:16:00Z,Lousada,Porto,Norte,-8.220738,41.249595,Resolução/Conclusão
