id,address,subregion,neighborhood,date,id.1,state,nature,nature_description,aerial_means,terrestrial_means,aquatic_means,operational,date.1,Concelho,Distrito,NUTII_DSG,longitude,latitude
25068300,Almeirim,Lezíria do Tejo,311,2025-03-10T20:52:00Z,25068300,Em curso,1101,Cheia,0,0,0,0,2025-03-10T20:52:00Z,Almeirim,Santarém,Alentejo,-8.635002,39.187436
25111284,"Manique do Intendente, V. N. de São Pedro e Maçussa",Lezíria do Tejo,311,2025-03-19T20:22:00Z,25111284,Em conclusão,3329,Queda de estruturas temporárias ou móveis,0,1,0,2,2025-03-19T20:22:00Z,Azambuja,Lisboa,Alentejo,-8.889528,39.229128
25111888,Louriçal,Região de Leiria,310,2025-03-19T22:22:00Z,25111888,Em despacho,3321,Dano na rede de fornecimento de eletricidade ,0,1,0,1,2025-03-19T22:22:00Z,Pombal,Leiria,Centro,-8.773705,40.03828
25111913,Águas Santas,Area M. Porto,309,2025-03-19T22:26:00Z,25111913,Em conclusão,3329,Queda de estruturas temporárias ou móveis,0,1,0,5,2025-03-19T22:26:00Z,Maia,Porto,Norte,-8.561395,41.20415
25111936,Alfeizerão,Oeste,311,2025-03-19T22:29:00Z,25111936,Em despacho,3301,Queda de árvore,0,1,0,1,2025-03-19T22:29:00Z,Alcobaça,Leiria,Centro,-9.10212,39.50255
25112036,"São Miguel, Santa Eufémia e Rabaçal",Região de Coimbra,310,2025-03-19T22:40:00Z,25112036,Em despacho,3301,Queda de árvore,0,3,0,7,2025-03-19T22:40:00Z,Penela,Coimbra,Centro,-8.397812,40.011996
25112088,Azeitão (São Lourenço e São Simão),Península de Setúbal,311,2025-03-19T22:51:00Z,25112088,Em despacho,3301,Queda de árvore,0,1,0,5,2025-03-19T22:51:00Z,Setúbal,Setúbal,Área Metropolitana De Lisboa,-9.00001,38.524687
25112145,Marinha Das Ondas,Região de Coimbra,310,2025-03-19T23:10:00Z,25112145,Em despacho,3301,Queda de árvore,0,0,0,0,2025-03-19T23:10:00Z,Figueira Da Foz,Coimbra,Centro,-8.80992,40.01798
25112172,"Seixal, Arrentela e Aldeia de Paio Pires",Península de Setúbal,311,2025-03-19T23:13:00Z,25112172,Em curso,3329,Queda de estruturas temporárias ou móveis,0,1,0,4,2025-03-19T23:13:00Z,Seixal,Setúbal,Área Metropolitana De Lisboa,-9.090212,38.62184
25112238,Soure,Região de Coimbra,310,2025-03-19T23:10:00Z,25112238,Em despacho,3301,Queda de árvore,0,1,0,2,2025-03-19T23:10:00Z,Soure,Coimbra,Centro,-8.654421,40.026433
25112245,Montijo e Afonsoeiro,Península de Setúbal,311,2025-03-19T23:26:00Z,25112245,Em curso,3301,Queda de árvore,0,1,0,5,2025-03-19T23:26:00Z,Montijo,Setúbal,Área Metropolitana De Lisboa,-8.95166,38.70552
25112270,Marrazes e Barosa,Região de Leiria,310,2025-03-19T23:00:00Z,25112270,Em despacho,3301,Queda de árvore,0,1,0,2,2025-03-19T23:00:00Z,Leiria,Leiria,Centro,-8.794769,39.760033
25112324,Juncal,Região de Leiria,310,2025-03-19T23:30:00Z,25112324,Em curso,3301,Queda de árvore,0,4,0,9,2025-03-19T23:30:00Z,Porto De Mós,Leiria,Centro,-8.908329,39.584603
25112329,Agualva e Mira-Sintra,Grande Lisboa,311,2025-03-19T23:39:00Z,25112329,Em curso,3301,Queda de árvore,0,0,0,0,2025-03-19T23:39:00Z,Sintra,Lisboa,Área Metropolitana De Lisboa,-9.307006,38.78408
25112331,Ventosa,Oeste,311,2025-03-19T23:38:00Z,25112331,Em despacho,3311,Queda de elementos de estruturas edificados,0,1,0,5,2025-03-19T23:38:00Z,Torres Vedras,Lisboa,Centro,-9.319671,39.061725
25112354,Vila Verde Dos Francos,Oeste,311,2025-03-19T23:42:00Z,25112354,Em despacho,3301,Queda de árvore,0,3,0,9,2025-03-19T23:42:00Z,Alenquer,Lisboa,Centro,-9.13935,39.16664
25112356,Samora Correia,Lezíria do Tejo,311,2025-03-19T23:41:00Z,25112356,Em conclusão,3301,Queda de árvore,0,1,0,4,2025-03-19T23:41:00Z,Benavente,Santarém,Alentejo,-8.86968,38.910825
25112390,Midões,Região de Coimbra,310,2025-03-19T23:40:00Z,25112390,Em despacho,3301,Queda de árvore,0,1,0,2,2025-03-19T23:40:00Z,Tábua,Coimbra,Centro,-7.929414,40.374158
25112397,Lagos (São Sebastião e Santa Maria),Algarve,313,2025-03-19T23:30:00Z,25112397,Em curso,3301,Queda de árvore,0,2,0,4,2025-03-19T23:30:00Z,Lagos,Faro,Algarve,-8.667608,37.130224
25112399,Barcarena,Grande Lisboa,311,2025-03-19T23:42:00Z,25112399,Em curso,3301,Queda de árvore,0,2,0,7,2025-03-19T23:42:00Z,Oeiras,Lisboa,Área Metropolitana De Lisboa,-9.277392,38.733987
25112422,Pala,Região de Coimbra,310,2025-03-19T23:48:00Z,25112422,Em despacho,3301,Queda de árvore,0,1,0,4,2025-03-19T23:48:00Z,Mortágua,Viseu,Centro,-8.262736,40.422891
25112429,Vila do Bispo e Raposeira,Algarve,313,2025-03-19T23:47:00Z,25112429,Em despacho,3329,Queda de estruturas temporárias ou móveis,0,1,0,2,2025-03-19T23:47:00Z,Vila Do Bispo,Faro,Algarve,-8.90908,37.083835
25112447,Laranjeiro e Feijó,Península de Setúbal,311,2025-03-19T23:43:00Z,25112447,Em curso,3311,Queda de elementos de estruturas edificados,0,1,0,4,2025-03-19T23:43:00Z,Almada,Setúbal,Área Metropolitana De Lisboa,-9.156624,38.652235
25112449,Amoreira,Oeste,311,2025-03-19T23:53:00Z,25112449,Em despacho,3301,Queda de árvore,0,1,0,5,2025-03-19T23:53:00Z,Óbidos,Leiria,Centro,-9.22215,39.34561
25112472,Caparica e Trafaria,Península de Setúbal,311,2025-03-19T23:57:00Z,25112472,Em curso,3301,Queda de árvore,0,0,0,0,2025-03-19T23:57:00Z,Almada,Setúbal,Área Metropolitana De Lisboa,-9.242559,38.66221
25087162,Pedrógão,Baixo Alentejo,312,2025-03-14T17:00:00Z,25087162,Em curso,1101,Cheia,0,0,0,0,2025-03-14T17:00:00Z,Vidigueira,Beja,Alentejo,-7.630327,38.110775
25111421,Febres,Região de Coimbra,310,2025-03-19T20:53:00Z,25111421,Em despacho,3311,Queda de elementos de estruturas edificados,0,1,0,2,2025-03-19T20:53:00Z,Cantanhede,Coimbra,Centro,-8.637168,40.385839
25111596,Paião,Região de Coimbra,310,2025-03-19T21:30:00Z,25111596,Em despacho,3301,Queda de árvore,0,1,0,2,2025-03-19T21:30:00Z,Figueira Da Foz,Coimbra,Centro,-8.756598,40.054747
25111610,Marrazes e Barosa,Região de Leiria,310,2025-03-19T21:35:00Z,25111610,Em despacho,3301,Queda de árvore,0,0,0,0,2025-03-19T21:35:00Z,Leiria,Leiria,Centro,-8.81813,39.75452
25111669,Marinha Grande,Região de Leiria,310,2025-03-19T21:26:00Z,25111669,Em despacho,3311,Queda de elementos de estruturas edificados,0,1,0,2,2025-03-19T21:26:00Z,Marinha Grande,Leiria,Centro,-8.937219,39.767238
25111794,Santiago e S. Simão de Litém e Albergaria Dos Doze,Região de Leiria,310,2025-03-19T22:00:00Z,25111794,Em despacho,3311,Queda de elementos de estruturas edificados,0,2,0,7,2025-03-19T22:00:00Z,Pombal,Leiria,Centro,-8.58281,39.824995
25111812,Parceiros e Azoia,Região de Leiria,310,2025-03-19T22:08:00Z,25111812,Em despacho,3301,Queda de árvore,0,1,0,3,2025-03-19T22:08:00Z,Leiria,Leiria,Centro,-8.83613,39.70146
25111844,Cadafaz e Colmeal,Região de Coimbra,310,2025-03-19T22:11:00Z,25111844,Em despacho,3309,Desabamento de estruturas edificadas,0,2,0,3,2025-03-19T22:11:00Z,Góis,Coimbra,Centro,-8.013447,40.126617
25112481,"Mangualde, Mesquitela e Cunha Alta",Viseu Dão Lafões,310,2025-03-19T23:58:00Z,25112481,Em conclusão,3301,Queda de árvore,0,1,0,3,2025-03-19T23:58:00Z,Mangualde,Viseu,Centro,-7.737095,40.60743
25112488,Buarcos,Região de Coimbra,310,2025-03-19T23:59:00Z,25112488,Em despacho,3301,Queda de árvore,0,1,0,5,2025-03-19T23:59:00Z,Figueira Da Foz,Coimbra,Centro,-8.880897,40.168384
25112513,Caparica e Trafaria,Península de Setúbal,311,2025-03-19T23:58:00Z,25112513,Em despacho,3301,Queda de árvore,0,1,0,3,2025-03-19T23:58:00Z,Almada,Setúbal,Área Metropolitana De Lisboa,-9.205011,38.66171
25112524,Pereira,Região de Coimbra,310,2025-03-19T23:55:00Z,25112524,Em despacho,3301,Queda de árvore,0,0,0,0,2025-03-19T23:55:00Z,Montemor-o-Velho,Coimbra,Centro,-8.585186,40.185229
25112538,Lousã e Vilarinho,Região de Coimbra,310,2025-03-19T23:55:00Z,25112538,Em despacho,3301,Queda de árvore,0,1,0,2,2025-03-19T23:55:00Z,Lousã,Coimbra,Centro,-8.180017,40.090644
25112549,Valezim,Beiras e Serra da Estrela,310,2025-03-20T00:08:00Z,25112549,Em despacho,3301,Queda de árvore,0,1,0,3,2025-03-20T00:08:00Z,Seia,Guarda,Centro,-7.715215,40.357374
25112554,Charneca de Caparica e Sobreda,Península de Setúbal,311,2025-03-20T00:10:00Z,25112554,Em curso,3301,Queda de árvore,0,1,0,4,2025-03-20T00:10:00Z,Almada,Setúbal,Área Metropolitana De Lisboa,-9.181708,38.64791
25112556,Loriga,Beiras e Serra da Estrela,310,2025-03-19T23:30:00Z,25112556,Em despacho,3301,Queda de árvore,0,1,0,4,2025-03-19T23:30:00Z,Seia,Guarda,Centro,-7.717106,40.339454
25112565,Aldeias e Mangualde da Serra,Beiras e Serra da Estrela,310,2025-03-20T00:13:00Z,25112565,Em despacho,3301,Queda de árvore,0,1,0,3,2025-03-20T00:13:00Z,Gouveia,Guarda,Centro,-7.59625,40.42121
25112572,Algueirão-Mem Martins,Grande Lisboa,311,2025-03-20T00:14:00Z,25112572,Em despacho,3301,Queda de árvore,0,2,0,6,2025-03-20T00:14:00Z,Sintra,Lisboa,Área Metropolitana De Lisboa,-9.34312,38.79552
25059714,Torrão,Alentejo Litoral,312,2025-03-08T22:10:00Z,25059714,Em curso,1101,Cheia,0,2,0,3,2025-03-08T22:10:00Z,Alcácer Do Sal,Setúbal,Alentejo,-8.359133,38.252053
25070044,Praia do Ribatejo,Médio Tejo,311,2025-03-10T19:30:00Z,25070044,Em curso,1101,Cheia,0,0,0,0,2025-03-10T19:30:00Z,Vila Nova Da Barquinha,Santarém,Centro,-8.357309,39.485638
25071496,São Manços e São Vicente do Pigeiro,Alentejo Central,312,2025-03-11T13:18:00Z,25071496,Em curso,1101,Cheia,0,2,0,4,2025-03-11T13:18:00Z,Évora,Évora,Alentejo,-7.713313,38.513673
25111474,Bombarral e Vale Covo,Oeste,311,2025-03-19T21:07:00Z,25111474,Em resolução,3301,Queda de árvore,0,2,0,3,2025-03-19T21:07:00Z,Bombarral,Leiria,Centro,-9.16726,39.2754
25111623,Alqueidão,Região de Coimbra,310,2025-03-19T21:36:00Z,25111623,Em despacho,3301,Queda de árvore,0,0,0,0,2025-03-19T21:36:00Z,Figueira Da Foz,Coimbra,Centro,-8.76809,40.07898
25111860,Longueira/Almograve,Alentejo Litoral,312,2025-03-19T22:09:00Z,25111860,Em conclusão,3301,Queda de árvore,0,1,0,2,2025-03-19T22:09:00Z,Odemira,Beja,Alentejo,-8.71748,37.612027
25111891,"Seia, São Romão e Lapa Dos Dinheiros",Beiras e Serra da Estrela,310,2025-03-19T22:20:00Z,25111891,Em resolução,3301,Queda de árvore,0,4,0,7,2025-03-19T22:20:00Z,Seia,Guarda,Centro,-7.74354,40.393485
25063232,Santa Maria do Castelo e Santiago e Santa Susana,Alentejo Litoral,312,2025-03-09T19:02:00Z,25063232,Em curso,1101,Cheia,0,0,0,0,2025-03-09T19:02:00Z,Alcácer Do Sal,Setúbal,Alentejo,-8.48167,38.29806
25111898,Santo Isidoro,Grande Lisboa,311,2025-03-19T22:16:00Z,25111898,Em despacho,3301,Queda de árvore,0,1,0,5,2025-03-19T22:16:00Z,Mafra,Lisboa,Área Metropolitana De Lisboa,-9.368141,38.994278
25111915,Góis,Região de Coimbra,310,2025-03-19T22:23:00Z,25111915,Em despacho,3301,Queda de árvore,0,1,0,4,2025-03-19T22:23:00Z,Góis,Coimbra,Centro,-8.120659,40.134935
25111934,Monchique,Algarve,313,2025-03-19T22:18:00Z,25111934,Em curso,3301,Queda de árvore,0,2,0,5,2025-03-19T22:18:00Z,Monchique,Faro,Algarve,-8.614574,37.284529
25112000,Fernão Ferro,Península de Setúbal,311,2025-03-19T22:42:00Z,25112000,Em despacho,3301,Queda de árvore,0,1,0,2,2025-03-19T22:42:00Z,Seixal,Setúbal,Área Metropolitana De Lisboa,-9.09385,38.57806
25112066,Gafanha da Nazaré,Região de Aveiro,310,2025-03-19T22:51:00Z,25112066,Em resolução,3311,Queda de elementos de estruturas edificados,0,0,0,1,2025-03-19T22:51:00Z,Ílhavo,Aveiro,Centro,-8.714699,40.63582
25112068,Lagoa e Carvoeiro,Algarve,313,2025-03-19T22:54:00Z,25112068,Em curso,3301,Queda de árvore,0,2,0,5,2025-03-19T22:54:00Z,Lagoa,Faro,Algarve,-8.45971,37.09728
25112100,Sines,Alentejo Litoral,312,2025-03-19T22:56:00Z,25112100,Em conclusão,3301,Queda de árvore,0,1,0,2,2025-03-19T22:56:00Z,Sines,Setúbal,Alentejo,-8.817062,37.971866
25112574,Rebordosa,Area M. Porto,309,2025-03-20T00:05:00Z,25112574,Em conclusão,3311,Queda de elementos de estruturas edificados,0,1,0,2,2025-03-20T00:05:00Z,Paredes,Porto,Norte,-8.413867,41.217556
25112581,Messejana,Baixo Alentejo,312,2025-03-20T00:01:00Z,25112581,Em conclusão,3301,Queda de árvore,0,1,0,3,2025-03-20T00:01:00Z,Aljustrel,Beja,Alentejo,-8.25838,37.81834
25112597,Sobral de Monte Agraço,Oeste,311,2025-03-19T23:45:00Z,25112597,Em despacho,3309,Desabamento de estruturas edificadas,0,2,0,2,2025-03-19T23:45:00Z,Sobral De Monte Agraço,Lisboa,Centro,-9.169791,39.006119
25112608,Vila do Bispo e Raposeira,Algarve,313,2025-03-20T00:16:00Z,25112608,Em despacho,3329,Queda de estruturas temporárias ou móveis,0,1,0,5,2025-03-20T00:16:00Z,Vila Do Bispo,Faro,Algarve,-8.900536,37.096414
25112613,Sobral de Monte Agraço,Oeste,311,2025-03-20T00:05:00Z,25112613,Em despacho,3311,Queda de elementos de estruturas edificados,0,1,0,1,2025-03-20T00:05:00Z,Sobral De Monte Agraço,Lisboa,Centro,-9.151478,39.017089
25112622,"S.julião, N.s. da Anunciada e S. Maria da Graça",Península de Setúbal,311,2025-03-20T00:21:00Z,25112622,Em curso,3311,Queda de elementos de estruturas edificados,0,0,0,0,2025-03-20T00:21:00Z,Setúbal,Setúbal,Área Metropolitana De Lisboa,-8.90427,38.528
25112631,Agualva e Mira-Sintra,Grande Lisboa,311,2025-03-20T00:23:00Z,25112631,Em despacho,3301,Queda de árvore,0,0,0,0,2025-03-20T00:23:00Z,Sintra,Lisboa,Área Metropolitana De Lisboa,-9.28347,38.76878
25112638,Portimão,Algarve,313,2025-03-20T00:00:00Z,25112638,Em curso,3329,Queda de estruturas temporárias ou móveis,0,3,0,7,2025-03-20T00:00:00Z,Portimão,Faro,Algarve,-8.532608,37.137966
25111892,Marinha Das Ondas,Região de Coimbra,310,2025-03-19T22:22:00Z,25111892,Em despacho,3309,Desabamento de estruturas edificadas,0,0,0,0,2025-03-19T22:22:00Z,Figueira Da Foz,Coimbra,Centro,-8.832842,40.02937
25111976,Cascais e Estoril,Grande Lisboa,311,2025-03-19T22:25:00Z,25111976,Em conclusão,3301,Queda de árvore,0,2,0,7,2025-03-19T22:25:00Z,Cascais,Lisboa,Área Metropolitana De Lisboa,-9.419397,38.700982
25112008,Manteigas (Santa Maria),Beiras e Serra da Estrela,310,2025-03-19T22:44:00Z,25112008,Em curso,3301,Queda de árvore,0,1,0,1,2025-03-19T22:44:00Z,Manteigas,Guarda,Centro,-7.534834,40.40585
25112093,Palmela,Península de Setúbal,311,2025-03-19T22:58:00Z,25112093,Em despacho,3301,Queda de árvore,0,2,0,4,2025-03-19T22:58:00Z,Palmela,Setúbal,Área Metropolitana De Lisboa,-8.872455,38.582082
25112141,Alfarelos,Região de Coimbra,310,2025-03-19T22:57:00Z,25112141,Em despacho,3301,Queda de árvore,0,1,0,3,2025-03-19T22:57:00Z,Soure,Coimbra,Centro,-8.635329,40.138191
25112144,"S.julião, N.s. da Anunciada e S. Maria da Graça",Península de Setúbal,311,2025-03-19T23:01:00Z,25112144,Em curso,3311,Queda de elementos de estruturas edificados,0,1,0,5,2025-03-19T23:01:00Z,Setúbal,Setúbal,Área Metropolitana De Lisboa,-8.889983,38.529955
25112160,"Guia, Ilha e Mata Mourisca",Região de Leiria,310,2025-03-19T22:25:00Z,25112160,Em despacho,3301,Queda de árvore,0,1,0,3,2025-03-19T22:25:00Z,Pombal,Leiria,Centro,-8.753282,39.947593
25112193,Louriçal,Região de Leiria,310,2025-03-19T23:18:00Z,25112193,Em despacho,3301,Queda de árvore,0,1,0,3,2025-03-19T23:18:00Z,Pombal,Leiria,Centro,-8.711387,39.974828
25112210,Rio de Mouro,Grande Lisboa,311,2025-03-19T23:21:00Z,25112210,Em despacho,3301,Queda de árvore,0,1,0,3,2025-03-19T23:21:00Z,Sintra,Lisboa,Área Metropolitana De Lisboa,-9.318117,38.78921
25111894,São Martinho,Alentejo Litoral,312,2025-03-19T22:23:00Z,25111894,Em resolução,3301,Queda de árvore,0,5,0,9,2025-03-19T22:23:00Z,Alcácer Do Sal,Setúbal,Alentejo,-8.5474,38.44614
25111896,Rio Tinto,Area M. Porto,309,2025-03-19T22:23:00Z,25111896,Em resolução,3301,Queda de árvore,0,3,0,8,2025-03-19T22:23:00Z,Gondomar,Porto,Norte,-8.56816,41.18064
25111903,Pombal,Região de Leiria,310,2025-03-19T22:24:00Z,25111903,Em despacho,3311,Queda de elementos de estruturas edificados,0,1,0,4,2025-03-19T22:24:00Z,Pombal,Leiria,Centro,-8.67316,39.96158
25111939,Pombal,Região de Leiria,310,2025-03-19T22:30:00Z,25111939,Em despacho,3301,Queda de árvore,0,1,0,2,2025-03-19T22:30:00Z,Pombal,Leiria,Centro,-8.603159,39.896965
25111987,Paião,Região de Coimbra,310,2025-03-19T22:38:00Z,25111987,Em despacho,3301,Queda de árvore,0,0,0,0,2025-03-19T22:38:00Z,Figueira Da Foz,Coimbra,Centro,-8.81391,40.06369
25112030,Santa Bárbara de Nexe,Algarve,313,2025-03-19T22:47:00Z,25112030,Em despacho,3321,Dano na rede de fornecimento de eletricidade ,0,2,0,5,2025-03-19T22:47:00Z,Faro,Faro,Algarve,-7.93309,37.12767
25112073,Corroios,Península de Setúbal,311,2025-03-19T22:56:00Z,25112073,Em curso,3301,Queda de árvore,0,1,0,3,2025-03-19T22:56:00Z,Seixal,Setúbal,Área Metropolitana De Lisboa,-9.15214,38.58275
25112155,Portimão,Algarve,313,2025-03-19T23:04:00Z,25112155,Em curso,3315,Inundação de estruturas por precipitação intensa,0,0,0,0,2025-03-19T23:04:00Z,Portimão,Faro,Algarve,-8.532608,37.137966
25112214,Soure,Região de Coimbra,310,2025-03-19T23:21:00Z,25112214,Em despacho,3329,Queda de estruturas temporárias ou móveis,0,2,0,4,2025-03-19T23:21:00Z,Soure,Coimbra,Centro,-8.544145,40.05722
25112119,Góis,Região de Coimbra,310,2025-03-19T23:00:00Z,25112119,Em despacho,3301,Queda de árvore,0,1,0,3,2025-03-19T23:00:00Z,Góis,Coimbra,Centro,-8.101407,40.194217
25112132,Alfeizerão,Oeste,311,2025-03-19T23:05:00Z,25112132,Em curso,3301,Queda de árvore,0,2,0,6,2025-03-19T23:05:00Z,Alcobaça,Leiria,Centro,-9.074601,39.50577
25112199,Cascais e Estoril,Grande Lisboa,311,2025-03-19T23:12:00Z,25112199,Em despacho,3301,Queda de árvore,0,2,0,10,2025-03-19T23:12:00Z,Cascais,Lisboa,Área Metropolitana De Lisboa,-9.398759,38.70391
25112202,Sameiro,Beiras e Serra da Estrela,310,2025-03-19T23:10:00Z,25112202,Em despacho,3301,Queda de árvore,0,1,0,3,2025-03-19T23:10:00Z,Manteigas,Guarda,Centro,-7.495761,40.410408
25112249,Alte,Algarve,313,2025-03-19T23:24:00Z,25112249,Em despacho,3301,Queda de árvore,0,0,0,0,2025-03-19T23:24:00Z,Loulé,Faro,Algarve,-8.178145,37.237749
25112284,São Teotónio,Alentejo Litoral,312,2025-03-19T23:25:00Z,25112284,Em curso,3301,Queda de árvore,0,1,0,2,2025-03-19T23:25:00Z,Odemira,Beja,Alentejo,-8.70051,37.523962
25112286,Sebal e Belide,Região de Coimbra,310,2025-03-19T23:28:00Z,25112286,Em curso,3301,Queda de árvore,0,2,0,4,2025-03-19T23:28:00Z,Condeixa-a-Nova,Coimbra,Centro,-8.536649,40.118765
25112301,Pinhal Novo,Península de Setúbal,311,2025-03-19T23:28:00Z,25112301,Em curso,3301,Queda de árvore,0,6,0,14,2025-03-19T23:28:00Z,Palmela,Setúbal,Área Metropolitana De Lisboa,-8.91294,38.637902
25112335,Falagueira-Venda Nova,Grande Lisboa,311,2025-03-19T23:38:00Z,25112335,Em despacho,3321,Dano na rede de fornecimento de eletricidade ,0,0,0,0,2025-03-19T23:38:00Z,Amadora,Lisboa,Área Metropolitana De Lisboa,-9.223747,38.760622
25112350,Setúbal (São Sebastião),Península de Setúbal,311,2025-03-19T23:42:00Z,25112350,Em curso,3329,Queda de estruturas temporárias ou móveis,0,0,0,0,2025-03-19T23:42:00Z,Setúbal,Setúbal,Área Metropolitana De Lisboa,-8.87752,38.52253
25112368,Alcobaça e Vestiaria,Oeste,311,2025-03-19T23:35:00Z,25112368,Em despacho,3301,Queda de árvore,0,2,0,4,2025-03-19T23:35:00Z,Alcobaça,Leiria,Centro,-8.997577,39.554251
25112658,Quinta do Anjo,Península de Setúbal,311,2025-03-20T00:26:00Z,25112658,Em curso,3301,Queda de árvore,0,0,0,0,2025-03-20T00:26:00Z,Palmela,Setúbal,Área Metropolitana De Lisboa,-9.02329,38.58032
25112672,Alhos Vedros,Península de Setúbal,311,2025-03-20T00:28:00Z,25112672,Em curso,3311,Queda de elementos de estruturas edificados,0,0,0,0,2025-03-20T00:28:00Z,Moita,Setúbal,Área Metropolitana De Lisboa,-9.02548,38.65708
25112674,Venda do Pinheiro e Santo Estêvão Das Galés,Grande Lisboa,311,2025-03-20T00:28:00Z,25112674,Em despacho,3301,Queda de árvore,0,0,0,0,2025-03-20T00:28:00Z,Mafra,Lisboa,Área Metropolitana De Lisboa,-9.26038,38.90364
25112688,Albufeira e Olhos de Água,Algarve,313,2025-03-20T00:12:00Z,25112688,Em despacho,3301,Queda de árvore,0,1,0,3,2025-03-20T00:12:00Z,Albufeira,Faro,Algarve,-8.252292,37.091727
25112708,Castro Verde e Casével,Baixo Alentejo,312,2025-03-20T00:20:00Z,25112708,Em despacho,3301,Queda de árvore,0,2,0,6,2025-03-20T00:20:00Z,Castro Verde,Beja,Alentejo,-8.179615,37.779248
25112722,Azeitão (São Lourenço e São Simão),Península de Setúbal,311,2025-03-20T00:34:00Z,25112722,Em curso,3321,Dano na rede de fornecimento de eletricidade ,0,0,0,0,2025-03-20T00:34:00Z,Setúbal,Setúbal,Área Metropolitana De Lisboa,-9.01777,38.55323
25112724,"Oeiras e S. Julião da Barra, Paço de Arcos e Caxias",Grande Lisboa,311,2025-03-20T00:18:00Z,25112724,Em despacho,3301,Queda de árvore,0,1,0,3,2025-03-20T00:18:00Z,Oeiras,Lisboa,Área Metropolitana De Lisboa,-9.290593,38.696925
25112738,"Oeiras e S. Julião da Barra, Paço de Arcos e Caxias",Grande Lisboa,311,2025-03-20T00:20:00Z,25112738,Em despacho,3301,Queda de árvore,0,1,0,3,2025-03-20T00:20:00Z,Oeiras,Lisboa,Área Metropolitana De Lisboa,-9.275682,38.698873
25112740,Arganil,Região de Coimbra,310,2025-03-20T00:36:00Z,25112740,Em despacho,3301,Queda de árvore,0,0,0,0,2025-03-20T00:36:00Z,Arganil,Coimbra,Centro,-8.0518,40.21991
25112261,São João Das Lampas e Terrugem,Grande Lisboa,311,2025-03-19T23:27:00Z,25112261,Em despacho,3301,Queda de árvore,0,1,0,5,2025-03-19T23:27:00Z,Sintra,Lisboa,Área Metropolitana De Lisboa,-9.404642,38.905614
25112325,Manteigas (São Pedro),Beiras e Serra da Estrela,310,2025-03-19T23:30:00Z,25112325,Em despacho,3301,Queda de árvore,0,2,0,8,2025-03-19T23:30:00Z,Manteigas,Guarda,Centro,-7.537096,40.398921
25112341,Sabugueiro,Beiras e Serra da Estrela,310,2025-03-19T23:40:00Z,25112341,Em curso,3311,Queda de elementos de estruturas edificados,0,1,0,1,2025-03-19T23:40:00Z,Seia,Guarda,Centro,-7.63621,40.40352
25112342,Alvor,Algarve,313,2025-03-19T23:41:00Z,25112342,Em despacho,3301,Queda de árvore,0,0,0,0,2025-03-19T23:41:00Z,Portimão,Faro,Algarve,-8.580215,37.16216
25112361,"Almada, Cova da Piedade, Pragal e Cacilhas",Península de Setúbal,311,2025-03-19T23:43:00Z,25112361,Em curso,3301,Queda de árvore,0,1,0,4,2025-03-19T23:43:00Z,Almada,Setúbal,Área Metropolitana De Lisboa,-9.169937,38.67238
25112377,Pombal,Região de Leiria,310,2025-03-19T23:44:00Z,25112377,Em despacho,3321,Dano na rede de fornecimento de eletricidade ,0,1,0,1,2025-03-19T23:44:00Z,Pombal,Leiria,Centro,-8.67152,39.8958
25112378,Lagos da Beira e Lajeosa,Região de Coimbra,310,2025-03-19T23:45:00Z,25112378,Em despacho,3301,Queda de árvore,0,1,0,3,2025-03-19T23:45:00Z,Oliveira Do Hospital,Coimbra,Centro,-7.826974,40.373933
25112392,Lousã e Vilarinho,Região de Coimbra,310,2025-03-19T23:40:00Z,25112392,Em despacho,3301,Queda de árvore,0,1,0,2,2025-03-19T23:40:00Z,Lousã,Coimbra,Centro,-8.225749,40.091516
25112408,Santa Eufémia e Boa Vista,Região de Leiria,310,2025-03-19T23:48:00Z,25112408,Em despacho,3301,Queda de árvore,0,1,0,1,2025-03-19T23:48:00Z,Leiria,Leiria,Centro,-8.733611,39.79055
25112444,"S.maria, S.miguel, S.martinho, S.pedro Penaferrim",Grande Lisboa,311,2025-03-19T23:45:00Z,25112444,Em despacho,3301,Queda de árvore,0,2,0,9,2025-03-19T23:45:00Z,Sintra,Lisboa,Área Metropolitana De Lisboa,-9.414924,38.772191
25112262,Vermoil,Região de Leiria,310,2025-03-20T00:04:00Z,25112262,Em despacho,3301,Queda de árvore,0,1,0,4,2025-03-20T00:04:00Z,Pombal,Leiria,Centro,-8.694122,39.86774
25112280,Santo António da Charneca,Península de Setúbal,311,2025-03-19T22:54:00Z,25112280,Em curso,3301,Queda de árvore,0,1,0,5,2025-03-19T22:54:00Z,Barreiro,Setúbal,Área Metropolitana De Lisboa,-9.016979,38.599327
25112282,Lagoa e Carvoeiro,Algarve,313,2025-03-19T23:25:00Z,25112282,Em despacho,3329,Queda de estruturas temporárias ou móveis,0,1,0,3,2025-03-19T23:25:00Z,Lagoa,Faro,Algarve,-8.449309,37.134614
25112289,Alcabideche,Grande Lisboa,311,2025-03-19T23:23:00Z,25112289,Em despacho,3301,Queda de árvore,0,1,0,5,2025-03-19T23:23:00Z,Cascais,Lisboa,Área Metropolitana De Lisboa,-9.377282,38.724858
25112314,Santa Clara e Castelo Viegas,Região de Coimbra,310,2025-03-19T23:36:00Z,25112314,Em despacho,3309,Desabamento de estruturas edificadas,0,1,0,3,2025-03-19T23:36:00Z,Coimbra,Coimbra,Centro,-8.405437,40.161477
25112323,Lagoa e Carvoeiro,Algarve,313,2025-03-19T23:38:00Z,25112323,Em despacho,3301,Queda de árvore,0,1,0,2,2025-03-19T23:38:00Z,Lagoa,Faro,Algarve,-8.45553,37.0934
25112337,Pombal,Região de Leiria,310,2025-03-19T23:40:00Z,25112337,Em despacho,3301,Queda de árvore,0,1,0,3,2025-03-19T23:40:00Z,Pombal,Leiria,Centro,-8.64137,39.9113
25112355,Cascais e Estoril,Grande Lisboa,311,2025-03-19T23:42:00Z,25112355,Em despacho,3301,Queda de árvore,0,0,0,0,2025-03-19T23:42:00Z,Cascais,Lisboa,Área Metropolitana De Lisboa,-9.44891,38.69577
25112364,Canha,Península de Setúbal,311,2025-03-19T23:25:00Z,25112364,Em curso,3301,Queda de árvore,0,3,0,12,2025-03-19T23:25:00Z,Montijo,Setúbal,Área Metropolitana De Lisboa,-8.631311,38.768258
25112387,Barreiro e Lavradio,Península de Setúbal,311,2025-03-19T23:08:00Z,25112387,Em curso,3311,Queda de elementos de estruturas edificados,0,1,0,2,2025-03-19T23:08:00Z,Barreiro,Setúbal,Área Metropolitana De Lisboa,-9.060271,38.662949
25112747,Faro (Sé e São Pedro),Algarve,313,2025-03-20T00:37:00Z,25112747,Em despacho,3321,Dano na rede de fornecimento de eletricidade ,0,1,0,4,2025-03-20T00:37:00Z,Faro,Faro,Algarve,-7.925592,37.0113
25112756,Quarteira,Algarve,313,2025-03-20T00:25:00Z,25112756,Em despacho,3301,Queda de árvore,0,1,0,5,2025-03-20T00:25:00Z,Loulé,Faro,Algarve,-8.1072,37.074665
25112758,Poceirão e Marateca,Península de Setúbal,311,2025-03-20T00:39:00Z,25112758,Em curso,3311,Queda de elementos de estruturas edificados,0,1,0,3,2025-03-20T00:39:00Z,Palmela,Setúbal,Área Metropolitana De Lisboa,-8.781059,38.66537
25112763,Cascais e Estoril,Grande Lisboa,311,2025-03-20T00:38:00Z,25112763,Em despacho,3301,Queda de árvore,0,0,0,0,2025-03-20T00:38:00Z,Cascais,Lisboa,Área Metropolitana De Lisboa,-9.398759,38.70391
25112774,Azueira e Sobral da Abelheira,Grande Lisboa,311,2025-03-20T00:40:00Z,25112774,Em despacho,3301,Queda de árvore,0,0,0,0,2025-03-20T00:40:00Z,Mafra,Lisboa,Área Metropolitana De Lisboa,-9.28373,39.00416
25112781,Moita,Península de Setúbal,311,2025-03-20T00:35:00Z,25112781,Em curso,3301,Queda de árvore,0,1,0,5,2025-03-20T00:35:00Z,Moita,Setúbal,Área Metropolitana De Lisboa,-8.985364,38.643702
25112783,Alverca do Ribatejo e Sobralinho,Grande Lisboa,311,2025-03-20T00:41:00Z,25112783,Em despacho,3301,Queda de árvore,0,0,0,0,2025-03-20T00:41:00Z,Vila Franca De Xira,Lisboa,Área Metropolitana De Lisboa,-9.04675,38.8895
25112788,Santo André de Vagos,Região de Aveiro,310,2025-03-20T00:38:00Z,25112788,Em despacho,3311,Queda de elementos de estruturas edificados,0,1,0,1,2025-03-20T00:38:00Z,Vagos,Aveiro,Centro,-8.672314,40.509954
25112792,Monchique,Algarve,313,2025-03-19T23:26:00Z,25112792,Em despacho,3301,Queda de árvore,0,1,0,3,2025-03-19T23:26:00Z,Monchique,Faro,Algarve,-8.572931,37.298207
25112402,Golegã,Lezíria do Tejo,311,2025-03-19T23:46:00Z,25112402,Em conclusão,3301,Queda de árvore,0,1,0,2,2025-03-19T23:46:00Z,Golegã,Santarém,Alentejo,-8.483135,39.415012
25112436,Lagos (São Sebastião e Santa Maria),Algarve,313,2025-03-19T23:39:00Z,25112436,Em curso,3301,Queda de árvore,0,2,0,5,2025-03-19T23:39:00Z,Lagos,Faro,Algarve,-8.668524,37.100485
25112470,Quiaios,Região de Coimbra,310,2025-03-19T23:47:00Z,25112470,Em despacho,3311,Queda de elementos de estruturas edificados,0,1,0,3,2025-03-19T23:47:00Z,Figueira Da Foz,Coimbra,Centro,-8.86,40.190131
25112483,Vila do Bispo e Raposeira,Algarve,313,2025-03-19T23:52:00Z,25112483,Em curso,3301,Queda de árvore,0,1,0,5,2025-03-19T23:52:00Z,Vila Do Bispo,Faro,Algarve,-8.865778,37.141777
25112520,Portimão,Algarve,313,2025-03-20T00:05:00Z,25112520,Em despacho,3301,Queda de árvore,0,1,0,3,2025-03-20T00:05:00Z,Portimão,Faro,Algarve,-8.551797,37.13665
25112535,Alvalade,Alentejo Litoral,312,2025-03-19T23:55:00Z,25112535,Em curso,3301,Queda de árvore,0,2,0,5,2025-03-19T23:55:00Z,Santiago Do Cacém,Setúbal,Alentejo,-8.379258,37.922986
25112537,Monchique,Algarve,313,2025-03-20T00:08:00Z,25112537,Em despacho,3301,Queda de árvore,0,1,0,3,2025-03-20T00:08:00Z,Monchique,Faro,Algarve,-8.55301,37.32016
25112551,Carcavelos e Parede,Grande Lisboa,311,2025-03-20T00:10:00Z,25112551,Em despacho,3301,Queda de árvore,0,2,0,6,2025-03-20T00:10:00Z,Cascais,Lisboa,Área Metropolitana De Lisboa,-9.330858,38.68312
25112568,Sabugueiro,Beiras e Serra da Estrela,310,2025-03-19T23:30:00Z,25112568,Em despacho,3301,Queda de árvore,0,2,0,4,2025-03-19T23:30:00Z,Seia,Guarda,Centro,-7.6419,40.403015
25112569,São Salvador e Santa Maria,Alentejo Litoral,312,2025-03-20T00:01:00Z,25112569,Em despacho,3301,Queda de árvore,0,1,0,4,2025-03-20T00:01:00Z,Odemira,Beja,Alentejo,-8.681094,37.59238
25112570,Aljezur,Algarve,313,2025-03-20T00:05:00Z,25112570,Em despacho,3301,Queda de árvore,0,1,0,2,2025-03-20T00:05:00Z,Aljezur,Faro,Algarve,-8.8494,37.313973
25112797,Vila Franca de Xira,Grande Lisboa,311,2025-03-20T00:42:00Z,25112797,Em despacho,3301,Queda de árvore,0,0,0,0,2025-03-20T00:42:00Z,Vila Franca De Xira,Lisboa,Área Metropolitana De Lisboa,-8.95154,38.94419
25112806,Carnaxide e Queijas,Grande Lisboa,311,2025-03-20T00:30:00Z,25112806,Em despacho,3301,Queda de árvore,0,1,0,4,2025-03-20T00:30:00Z,Oeiras,Lisboa,Área Metropolitana De Lisboa,-9.259903,38.718843
25112808,Joane,Ave,309,2025-03-20T00:00:00Z,25112808,Em despacho,3301,Queda de árvore,0,1,0,2,2025-03-20T00:00:00Z,Vila Nova De Famalicão,Braga,Norte,-8.42238,41.440941
25112813,"S.maria, S.miguel, S.martinho, S.pedro Penaferrim",Grande Lisboa,311,2025-03-20T00:32:00Z,25112813,Em despacho,3301,Queda de árvore,0,2,0,6,2025-03-20T00:32:00Z,Sintra,Lisboa,Área Metropolitana De Lisboa,-9.413155,38.801935
25112815,São Bartolomeu de Messines,Algarve,313,2025-03-20T00:32:00Z,25112815,Em despacho,3301,Queda de árvore,0,1,0,5,2025-03-20T00:32:00Z,Silves,Faro,Algarve,-8.249188,37.266533
25112817,Azinhaga,Lezíria do Tejo,311,2025-03-20T00:43:00Z,25112817,Em curso,3301,Queda de árvore,0,2,0,5,2025-03-20T00:43:00Z,Golegã,Santarém,Alentejo,-8.52637,39.348745
25112824,Mafra,Grande Lisboa,311,2025-03-20T00:40:00Z,25112824,Em despacho,3301,Queda de árvore,0,1,0,5,2025-03-20T00:40:00Z,Mafra,Lisboa,Área Metropolitana De Lisboa,-9.356043,38.961979
25112831,Azueira e Sobral da Abelheira,Grande Lisboa,311,2025-03-20T00:46:00Z,25112831,Em despacho,3301,Queda de árvore,0,0,0,0,2025-03-20T00:46:00Z,Mafra,Lisboa,Área Metropolitana De Lisboa,-9.261398,38.99127
25112849,São Martinho do Bispo e Ribeira de Frades,Região de Coimbra,310,2025-03-20T00:40:00Z,25112849,Em despacho,3301,Queda de árvore,0,1,0,3,2025-03-20T00:40:00Z,Coimbra,Coimbra,Centro,-8.487837,40.206282
25112865,Ereira,Região de Coimbra,310,2025-03-20T00:51:00Z,25112865,Em despacho,3301,Queda de árvore,0,0,0,0,2025-03-20T00:51:00Z,Montemor-o-Velho,Coimbra,Centro,-8.698554,40.15028
25112458,"Santa Iria de Azoia, São João da Talha e Bobadela",Grande Lisboa,311,2025-03-19T23:54:00Z,25112458,Em despacho,3301,Queda de árvore,0,1,0,5,2025-03-19T23:54:00Z,Loures,Lisboa,Área Metropolitana De Lisboa,-9.09987,38.81129
25112475,Alcabideche,Grande Lisboa,311,2025-03-19T23:48:00Z,25112475,Em despacho,3301,Queda de árvore,0,1,0,5,2025-03-19T23:48:00Z,Cascais,Lisboa,Área Metropolitana De Lisboa,-9.41439,38.712196
25112492,Barreiro e Lavradio,Península de Setúbal,311,2025-03-19T23:41:00Z,25112492,Em curso,3301,Queda de árvore,0,1,0,5,2025-03-19T23:41:00Z,Barreiro,Setúbal,Área Metropolitana De Lisboa,-9.060271,38.662949
25112508,Santo Estêvão,Lezíria do Tejo,311,2025-03-20T00:02:00Z,25112508,Em despacho,3329,Queda de estruturas temporárias ou móveis,0,1,0,3,2025-03-20T00:02:00Z,Benavente,Santarém,Alentejo,-8.716509,38.87628
25112512,Alvorninha,Oeste,311,2025-03-19T23:46:00Z,25112512,Em curso,3321,Dano na rede de fornecimento de eletricidade ,0,2,0,7,2025-03-19T23:46:00Z,Caldas Da Rainha,Leiria,Centro,-9.047004,39.419673
25112543,Alcabideche,Grande Lisboa,311,2025-03-20T00:09:00Z,25112543,Em despacho,3301,Queda de árvore,0,1,0,5,2025-03-20T00:09:00Z,Cascais,Lisboa,Área Metropolitana De Lisboa,-9.38993,38.74284
25112560,Monchique,Algarve,313,2025-03-19T23:52:00Z,25112560,Em despacho,3301,Queda de árvore,0,1,0,3,2025-03-19T23:52:00Z,Monchique,Faro,Algarve,-8.567422,37.320753
25112561,Fernão Ferro,Península de Setúbal,311,2025-03-19T23:07:00Z,25112561,Em despacho,3321,Dano na rede de fornecimento de eletricidade ,0,1,0,2,2025-03-19T23:07:00Z,Seixal,Setúbal,Área Metropolitana De Lisboa,-9.063432,38.552125
25112562,"S.julião, N.s. da Anunciada e S. Maria da Graça",Península de Setúbal,311,2025-03-20T00:12:00Z,25112562,Em curso,3329,Queda de estruturas temporárias ou móveis,0,0,0,0,2025-03-20T00:12:00Z,Setúbal,Setúbal,Área Metropolitana De Lisboa,-8.90758,38.52468
25112867,Venda do Pinheiro e Santo Estêvão Das Galés,Grande Lisboa,311,2025-03-20T00:27:00Z,25112867,Em despacho,3301,Queda de árvore,0,1,0,5,2025-03-20T00:27:00Z,Mafra,Lisboa,Área Metropolitana De Lisboa,-9.265167,38.90615
25112872,Batalha,Região de Leiria,310,2025-03-20T00:51:00Z,25112872,Em despacho,3321,Dano na rede de fornecimento de eletricidade ,0,1,0,1,2025-03-20T00:51:00Z,Batalha,Leiria,Centro,-8.83197,39.63932
25112881,Albufeira e Olhos de Água,Algarve,313,2025-03-20T00:41:00Z,25112881,Em despacho,3329,Queda de estruturas temporárias ou móveis,0,1,0,3,2025-03-20T00:41:00Z,Albufeira,Faro,Algarve,-8.22417,37.08995
25112890,Amora,Península de Setúbal,311,2025-03-20T00:45:00Z,25112890,Em curso,3311,Queda de elementos de estruturas edificados,0,2,0,8,2025-03-20T00:45:00Z,Seixal,Setúbal,Área Metropolitana De Lisboa,-9.134237,38.611894
25112892,Alpiarça,Lezíria do Tejo,311,2025-03-20T00:52:00Z,25112892,Em curso,3301,Queda de árvore,0,2,0,7,2025-03-20T00:52:00Z,Alpiarça,Santarém,Alentejo,-8.570561,39.241131
25112897,Castelo de Penalva,Viseu Dão Lafões,310,2025-03-20T00:53:00Z,25112897,Em despacho,3301,Queda de árvore,0,1,0,3,2025-03-20T00:53:00Z,Penalva Do Castelo,Viseu,Centro,-7.638791,40.666855
25112908,Maceira,Região de Leiria,310,2025-03-20T00:37:00Z,25112908,Em despacho,3301,Queda de árvore,0,1,0,2,2025-03-20T00:37:00Z,Leiria,Leiria,Centro,-8.861611,39.680376
25112915,"Alto do Seixalinho, Santo André e Verderena",Península de Setúbal,311,2025-03-20T00:40:00Z,25112915,Em curso,3301,Queda de árvore,0,1,0,5,2025-03-20T00:40:00Z,Barreiro,Setúbal,Área Metropolitana De Lisboa,-9.065968,38.6593
25112933,Febres,Região de Coimbra,310,2025-03-20T00:45:00Z,25112933,Em despacho,3311,Queda de elementos de estruturas edificados,0,0,0,0,2025-03-20T00:45:00Z,Cantanhede,Coimbra,Centro,-8.63492,40.400257
25112940,Cantanhede e Pocariça,Região de Coimbra,310,2025-03-20T00:58:00Z,25112940,Em despacho,3301,Queda de árvore,0,1,0,2,2025-03-20T00:58:00Z,Cantanhede,Coimbra,Centro,-8.604891,40.353889
25112947,Vila Cova à Coelheira,Beiras e Serra da Estrela,310,2025-03-20T01:00:00Z,25112947,Em despacho,3301,Queda de árvore,0,2,0,6,2025-03-20T01:00:00Z,Seia,Guarda,Centro,-7.733886,40.385357
25112956,Rio de Mouro,Grande Lisboa,311,2025-03-20T00:33:00Z,25112956,Em despacho,3301,Queda de árvore,0,1,0,2,2025-03-20T00:33:00Z,Sintra,Lisboa,Área Metropolitana De Lisboa,-9.330688,38.782224
25112396,Portimão,Algarve,313,2025-03-19T23:47:00Z,25112396,Em despacho,3329,Queda de estruturas temporárias ou móveis,0,1,0,2,2025-03-19T23:47:00Z,Portimão,Faro,Algarve,-8.53929,37.12015
25112423,"Leiria, Pousos, Barreira e Cortes",Região de Leiria,310,2025-03-19T23:51:00Z,25112423,Em despacho,3301,Queda de árvore,0,1,0,2,2025-03-19T23:51:00Z,Leiria,Leiria,Centro,-8.803702,39.718552
25112462,Costa da Caparica,Península de Setúbal,311,2025-03-19T23:45:00Z,25112462,Em curso,3301,Queda de árvore,0,0,0,0,2025-03-19T23:45:00Z,Almada,Setúbal,Área Metropolitana De Lisboa,-9.227696,38.642583
25112466,Colares,Grande Lisboa,311,2025-03-19T23:50:00Z,25112466,Em curso,3321,Dano na rede de fornecimento de eletricidade ,0,2,0,7,2025-03-19T23:50:00Z,Sintra,Lisboa,Área Metropolitana De Lisboa,-9.470171,38.782676
25112480,Lagoa e Carvoeiro,Algarve,313,2025-03-19T23:58:00Z,25112480,Em despacho,3301,Queda de árvore,0,0,0,0,2025-03-19T23:58:00Z,Lagoa,Faro,Algarve,-8.43561,37.08839
25112496,Portimão,Algarve,313,2025-03-20T00:00:00Z,25112496,Em despacho,3301,Queda de árvore,0,0,0,0,2025-03-20T00:00:00Z,Portimão,Faro,Algarve,-8.54251,37.14361
25112498,Quinta do Anjo,Península de Setúbal,311,2025-03-19T23:54:00Z,25112498,Em curso,3311,Queda de elementos de estruturas edificados,0,1,0,3,2025-03-19T23:54:00Z,Palmela,Setúbal,Área Metropolitana De Lisboa,-8.968323,38.56095
25112505,"S.julião, N.s. da Anunciada e S. Maria da Graça",Península de Setúbal,311,2025-03-19T23:48:00Z,25112505,Em curso,3301,Queda de árvore,0,2,0,9,2025-03-19T23:48:00Z,Setúbal,Setúbal,Área Metropolitana De Lisboa,-8.889983,38.529955
25112507,São Francisco da Serra,Alentejo Litoral,312,2025-03-20T00:02:00Z,25112507,Em despacho,3301,Queda de árvore,0,0,0,0,2025-03-20T00:02:00Z,Santiago Do Cacém,Setúbal,Alentejo,-8.635579,38.09613
25112514,Carcavelos e Parede,Grande Lisboa,311,2025-03-20T00:04:00Z,25112514,Em despacho,3301,Queda de árvore,0,2,0,5,2025-03-20T00:04:00Z,Cascais,Lisboa,Área Metropolitana De Lisboa,-9.33892,38.69928
25112576,Samora Correia,Lezíria do Tejo,311,2025-03-20T00:14:00Z,25112576,Em curso,3301,Queda de árvore,0,2,0,5,2025-03-20T00:14:00Z,Benavente,Santarém,Alentejo,-8.868908,38.935447
25112578,Carnaxide e Queijas,Grande Lisboa,311,2025-03-20T00:10:00Z,25112578,Em despacho,3301,Queda de árvore,0,0,0,0,2025-03-20T00:10:00Z,Oeiras,Lisboa,Área Metropolitana De Lisboa,-9.249356,38.722132
25112592,Misericórdia,Grande Lisboa,311,2025-03-20T00:12:00Z,25112592,Em despacho,3301,Queda de árvore,0,2,0,8,2025-03-20T00:12:00Z,Lisboa,Lisboa,Área Metropolitana De Lisboa,-9.146675,38.705441
25112595,Maiorca,Região de Coimbra,310,2025-03-20T00:16:00Z,25112595,Em despacho,3301,Queda de árvore,0,0,0,0,2025-03-20T00:16:00Z,Figueira Da Foz,Coimbra,Centro,-8.749227,40.16851
25112611,Salvaterra de Magos e Foros de Salvaterra,Lezíria do Tejo,311,2025-03-20T00:18:00Z,25112611,Em resolução,3301,Queda de árvore,0,0,0,0,2025-03-20T00:18:00Z,Salvaterra De Magos,Santarém,Alentejo,-8.791365,39.03049
25112628,"Sé Nova, Santa Cruz, Almedina e São Bartolomeu",Região de Coimbra,310,2025-03-20T00:10:00Z,25112628,Em despacho,3311,Queda de elementos de estruturas edificados,0,0,0,0,2025-03-20T00:10:00Z,Coimbra,Coimbra,Centro,-8.425582,40.205556
25112642,Agualva e Mira-Sintra,Grande Lisboa,311,2025-03-20T00:24:00Z,25112642,Em despacho,3301,Queda de árvore,0,0,0,0,2025-03-20T00:24:00Z,Sintra,Lisboa,Área Metropolitana De Lisboa,-9.29455,38.77558
25112643,Massamá e Monte Abraão,Grande Lisboa,311,2025-03-20T00:11:00Z,25112643,Em despacho,3301,Queda de árvore,0,2,0,10,2025-03-20T00:11:00Z,Sintra,Lisboa,Área Metropolitana De Lisboa,-9.27045,38.75541
25112644,Poceirão e Marateca,Península de Setúbal,311,2025-03-20T00:20:00Z,25112644,Em curso,3301,Queda de árvore,0,2,0,5,2025-03-20T00:20:00Z,Palmela,Setúbal,Área Metropolitana De Lisboa,-8.796299,38.568359
25112539,"Almargem do Bispo, Pêro Pinheiro e Montelavar",Grande Lisboa,311,2025-03-20T00:02:00Z,25112539,Em despacho,3321,Dano na rede de fornecimento de eletricidade ,0,1,0,2,2025-03-20T00:02:00Z,Sintra,Lisboa,Área Metropolitana De Lisboa,-9.297507,38.825783
25112541,Fernão Ferro,Península de Setúbal,311,2025-03-19T23:20:00Z,25112541,Em despacho,3321,Dano na rede de fornecimento de eletricidade ,0,1,0,4,2025-03-19T23:20:00Z,Seixal,Setúbal,Área Metropolitana De Lisboa,-9.115329,38.572419
25112573,São João Das Lampas e Terrugem,Grande Lisboa,311,2025-03-20T00:14:00Z,25112573,Em despacho,3321,Dano na rede de fornecimento de eletricidade ,0,0,0,0,2025-03-20T00:14:00Z,Sintra,Lisboa,Área Metropolitana De Lisboa,-9.37013,38.83172
25112580,Monchique,Algarve,313,2025-03-19T23:46:00Z,25112580,Em despacho,3301,Queda de árvore,0,1,0,2,2025-03-19T23:46:00Z,Monchique,Faro,Algarve,-8.570796,37.318938
25112589,Fernão Ferro,Península de Setúbal,311,2025-03-20T00:16:00Z,25112589,Em curso,3301,Queda de árvore,0,0,0,0,2025-03-20T00:16:00Z,Seixal,Setúbal,Área Metropolitana De Lisboa,-9.07498,38.57159
25112598,"Algés, Linda-a-Velha e Cruz Quebrada-Dafundo",Grande Lisboa,311,2025-03-20T00:10:00Z,25112598,Em despacho,3329,Queda de estruturas temporárias ou móveis,0,1,0,5,2025-03-20T00:10:00Z,Oeiras,Lisboa,Área Metropolitana De Lisboa,-9.22967,38.696612
25112614,Carnaxide e Queijas,Grande Lisboa,311,2025-03-20T00:20:00Z,25112614,Em despacho,3311,Queda de elementos de estruturas edificados,0,1,0,2,2025-03-20T00:20:00Z,Oeiras,Lisboa,Área Metropolitana De Lisboa,-9.25602,38.7169
25112585,Rio de Mouro,Grande Lisboa,311,2025-03-20T00:15:00Z,25112585,Em despacho,3315,Inundação de estruturas por precipitação intensa,0,1,0,3,2025-03-20T00:15:00Z,Sintra,Lisboa,Área Metropolitana De Lisboa,-9.32588,38.77819
25112586,São João da Boa Vista,Região de Coimbra,310,2025-03-20T00:10:00Z,25112586,Em conclusão,3301,Queda de árvore,0,1,0,2,2025-03-20T00:10:00Z,Tábua,Coimbra,Centro,-7.999559,40.336121
25112600,Carvoeira,Grande Lisboa,311,2025-03-19T23:18:00Z,25112600,Em despacho,3301,Queda de árvore,0,1,0,4,2025-03-19T23:18:00Z,Mafra,Lisboa,Área Metropolitana De Lisboa,-9.39494,38.94355
25112617,São João Das Lampas e Terrugem,Grande Lisboa,311,2025-03-20T00:09:00Z,25112617,Em despacho,3321,Dano na rede de fornecimento de eletricidade ,0,1,0,4,2025-03-20T00:09:00Z,Sintra,Lisboa,Área Metropolitana De Lisboa,-9.349473,38.847654
25112618,Azinhaga,Lezíria do Tejo,311,2025-03-20T00:20:00Z,25112618,Em conclusão,3301,Queda de árvore,0,0,0,0,2025-03-20T00:20:00Z,Golegã,Santarém,Alentejo,-8.532263,39.364938
25112634,Algueirão-Mem Martins,Grande Lisboa,311,2025-03-20T00:23:00Z,25112634,Em despacho,3301,Queda de árvore,0,0,0,0,2025-03-20T00:23:00Z,Sintra,Lisboa,Área Metropolitana De Lisboa,-9.345731,38.79992
25112651,Setúbal (São Sebastião),Península de Setúbal,311,2025-03-20T00:25:00Z,25112651,Em curso,3301,Queda de árvore,0,0,0,0,2025-03-20T00:25:00Z,Setúbal,Setúbal,Área Metropolitana De Lisboa,-8.872648,38.53292
25112668,Guia,Algarve,313,2025-03-20T00:05:00Z,25112668,Em despacho,3301,Queda de árvore,0,1,0,3,2025-03-20T00:05:00Z,Albufeira,Faro,Algarve,-8.298486,37.126812
25112669,Parque Das Nações,Grande Lisboa,311,2025-03-20T00:28:00Z,25112669,Em despacho,3301,Queda de árvore,0,1,0,5,2025-03-20T00:28:00Z,Lisboa,Lisboa,Área Metropolitana De Lisboa,-9.09548,38.774802
25112685,"Coruche, Fajarda e Erra",Lezíria do Tejo,311,2025-03-20T00:29:00Z,25112685,Em despacho,3301,Queda de árvore,0,2,0,7,2025-03-20T00:29:00Z,Coruche,Santarém,Alentejo,-8.476933,38.966088
25112660,Valada,Lezíria do Tejo,311,2025-03-20T00:25:00Z,25112660,Em despacho,3329,Queda de estruturas temporárias ou móveis,0,2,0,6,2025-03-20T00:25:00Z,Cartaxo,Santarém,Alentejo,-8.764108,39.081983
25112661,"Algés, Linda-a-Velha e Cruz Quebrada-Dafundo",Grande Lisboa,311,2025-03-20T00:27:00Z,25112661,Em despacho,3329,Queda de estruturas temporárias ou móveis,0,2,0,7,2025-03-20T00:27:00Z,Oeiras,Lisboa,Área Metropolitana De Lisboa,-9.24794,38.70009
25112676,"Oeiras e S. Julião da Barra, Paço de Arcos e Caxias",Grande Lisboa,311,2025-03-20T00:05:00Z,25112676,Em despacho,3301,Queda de árvore,0,1,0,6,2025-03-20T00:05:00Z,Oeiras,Lisboa,Área Metropolitana De Lisboa,-9.310159,38.698531
25112693,Lagos (São Sebastião e Santa Maria),Algarve,313,2025-03-20T00:11:00Z,25112693,Em despacho,3309,Desabamento de estruturas edificadas,0,1,0,5,2025-03-20T00:11:00Z,Lagos,Faro,Algarve,-8.668524,37.100485
25112694,Amora,Península de Setúbal,311,2025-03-20T00:30:00Z,25112694,Em curso,3301,Queda de árvore,0,1,0,5,2025-03-20T00:30:00Z,Seixal,Setúbal,Área Metropolitana De Lisboa,-9.125095,38.62821
25112709,Alquerubim,Região de Aveiro,310,2025-03-20T00:32:00Z,25112709,Em despacho,3301,Queda de árvore,0,1,0,2,2025-03-20T00:32:00Z,Albergaria-a-Velha,Aveiro,Centro,-8.50917,40.62193
25112710,Silves,Algarve,313,2025-03-20T00:21:00Z,25112710,Em despacho,3321,Dano na rede de fornecimento de eletricidade ,0,1,0,5,2025-03-20T00:21:00Z,Silves,Faro,Algarve,-8.443919,37.192295
25112711,Esmolfe,Viseu Dão Lafões,310,2025-03-20T00:29:00Z,25112711,Em curso,3301,Queda de árvore,0,2,0,4,2025-03-20T00:29:00Z,Penalva Do Castelo,Viseu,Centro,-7.685918,40.678242
25112712,Malveira e São Miguel de Alcainça,Grande Lisboa,311,2025-03-20T00:33:00Z,25112712,Em despacho,3329,Queda de estruturas temporárias ou móveis,0,1,0,5,2025-03-20T00:33:00Z,Mafra,Lisboa,Área Metropolitana De Lisboa,-9.25702,38.92984
25112616,Vieira de Leiria,Região de Leiria,310,2025-03-19T23:52:00Z,25112616,Em despacho,3301,Queda de árvore,0,3,0,12,2025-03-19T23:52:00Z,Marinha Grande,Leiria,Centro,-8.929016,39.865463
25112632,Caparica e Trafaria,Península de Setúbal,311,2025-03-20T00:18:00Z,25112632,Em despacho,3301,Queda de árvore,0,1,0,3,2025-03-20T00:18:00Z,Almada,Setúbal,Área Metropolitana De Lisboa,-9.231582,38.671372
25112639,"S.julião, N.s. da Anunciada e S. Maria da Graça",Península de Setúbal,311,2025-03-20T00:23:00Z,25112639,Em curso,3311,Queda de elementos de estruturas edificados,0,0,0,0,2025-03-20T00:23:00Z,Setúbal,Setúbal,Área Metropolitana De Lisboa,-8.90127,38.52768
25112646,Cantanhede e Pocariça,Região de Coimbra,310,2025-03-19T23:58:00Z,25112646,Em curso,3301,Queda de árvore,0,1,0,5,2025-03-19T23:58:00Z,Cantanhede,Coimbra,Centro,-8.590971,40.346407
25112648,"S.julião, N.s. da Anunciada e S. Maria da Graça",Península de Setúbal,311,2025-03-20T00:25:00Z,25112648,Em curso,3321,Dano na rede de fornecimento de eletricidade ,0,0,0,0,2025-03-20T00:25:00Z,Setúbal,Setúbal,Área Metropolitana De Lisboa,-8.88305,38.53925
25112671,Ansião,Região de Leiria,310,2025-03-20T00:24:00Z,25112671,Em despacho,3301,Queda de árvore,0,1,0,2,2025-03-20T00:24:00Z,Ansião,Leiria,Centro,-8.43366,39.907437
25112675,Alhos Vedros,Península de Setúbal,311,2025-03-20T00:28:00Z,25112675,Em curso,3301,Queda de árvore,0,0,0,0,2025-03-20T00:28:00Z,Moita,Setúbal,Área Metropolitana De Lisboa,-9.010387,38.63902
25112680,Samora Correia,Lezíria do Tejo,311,2025-03-20T00:28:00Z,25112680,Em despacho,3301,Queda de árvore,0,2,0,4,2025-03-20T00:28:00Z,Benavente,Santarém,Alentejo,-8.890675,38.921796
25112682,Gâmbia-Pontes-Alto da Guerra,Península de Setúbal,311,2025-03-20T00:29:00Z,25112682,Em curso,3301,Queda de árvore,0,0,0,0,2025-03-20T00:29:00Z,Setúbal,Setúbal,Área Metropolitana De Lisboa,-8.85317,38.54087
25112726,Soure,Região de Coimbra,310,2025-03-20T00:21:00Z,25112726,Em despacho,3301,Queda de árvore,0,1,0,2,2025-03-20T00:21:00Z,Soure,Coimbra,Centro,-8.60395,40.01224
25112744,Ramada e Caneças,Grande Lisboa,311,2025-03-20T00:29:00Z,25112744,Em despacho,3301,Queda de árvore,0,2,0,7,2025-03-20T00:29:00Z,Odivelas,Lisboa,Área Metropolitana De Lisboa,-9.194441,38.801427
25112746,Amora,Península de Setúbal,311,2025-03-20T00:21:00Z,25112746,Em despacho,3315,Inundação de estruturas por precipitação intensa,0,1,0,4,2025-03-20T00:21:00Z,Seixal,Setúbal,Área Metropolitana De Lisboa,-9.128863,38.61388
25112760,"Algés, Linda-a-Velha e Cruz Quebrada-Dafundo",Grande Lisboa,311,2025-03-20T00:20:00Z,25112760,Em despacho,3311,Queda de elementos de estruturas edificados,0,1,0,5,2025-03-20T00:20:00Z,Oeiras,Lisboa,Área Metropolitana De Lisboa,-9.244903,38.715384
25112762,Monte Redondo e Carreira,Região de Leiria,310,2025-03-20T00:09:00Z,25112762,Em despacho,3301,Queda de árvore,0,1,0,4,2025-03-20T00:09:00Z,Leiria,Leiria,Centro,-8.847483,39.892112
25112778,Bidoeira de Cima,Região de Leiria,310,2025-03-20T00:09:00Z,25112778,Em despacho,3301,Queda de árvore,0,1,0,4,2025-03-20T00:09:00Z,Leiria,Leiria,Centro,-8.753564,39.849424
25112779,"Marvila, Ribeira Santarém, S.salvador, S.nicolau",Lezíria do Tejo,311,2025-03-20T00:40:00Z,25112779,Em curso,3301,Queda de árvore,0,1,0,5,2025-03-20T00:40:00Z,Santarém,Santarém,Alentejo,-8.678591,39.231938
25112796,"S.julião, N.s. da Anunciada e S. Maria da Graça",Península de Setúbal,311,2025-03-20T00:42:00Z,25112796,Em curso,3311,Queda de elementos de estruturas edificados,0,0,0,0,2025-03-20T00:42:00Z,Setúbal,Setúbal,Área Metropolitana De Lisboa,-8.890614,38.52599
25112810,São João Das Lampas e Terrugem,Grande Lisboa,311,2025-03-20T00:33:00Z,25112810,Em curso,3301,Queda de árvore,0,1,0,5,2025-03-20T00:33:00Z,Sintra,Lisboa,Área Metropolitana De Lisboa,-9.376923,38.836556
25112811,Sabóia,Alentejo Litoral,312,2025-03-20T00:37:00Z,25112811,Em despacho,3313,Deslizamento de terras,0,1,0,2,2025-03-20T00:37:00Z,Odemira,Beja,Alentejo,-8.484325,37.403923
25112812,Olivais,Grande Lisboa,311,2025-03-20T00:44:00Z,25112812,Em despacho,3301,Queda de árvore,0,2,0,5,2025-03-20T00:44:00Z,Lisboa,Lisboa,Área Metropolitana De Lisboa,-9.123507,38.76593
25112826,Budens,Algarve,313,2025-03-20T00:33:00Z,25112826,Em despacho,3301,Queda de árvore,0,1,0,4,2025-03-20T00:33:00Z,Vila Do Bispo,Faro,Algarve,-8.837124,37.086087
25112829,Bucelas,Grande Lisboa,311,2025-03-20T00:44:00Z,25112829,Em despacho,3301,Queda de árvore,0,1,0,4,2025-03-20T00:44:00Z,Loures,Lisboa,Área Metropolitana De Lisboa,-9.121038,38.903857
25112843,Raposa,Lezíria do Tejo,311,2025-03-20T00:47:00Z,25112843,Em despacho,3301,Queda de árvore,0,1,0,2,2025-03-20T00:47:00Z,Almeirim,Santarém,Alentejo,-8.585155,39.109839
25112844,Paçô,Alto Minho,309,2025-03-20T00:20:00Z,25112844,Em despacho,3301,Queda de árvore,0,1,0,2,2025-03-20T00:20:00Z,Arcos De Valdevez,Viana Do Castelo,Norte,-8.41279,41.82121
25112846,Amora,Península de Setúbal,311,2025-03-20T00:48:00Z,25112846,Em curso,3311,Queda de elementos de estruturas edificados,0,0,0,0,2025-03-20T00:48:00Z,Seixal,Setúbal,Área Metropolitana De Lisboa,-9.11648,38.62536
25112861,São João de Areias,Viseu Dão Lafões,310,2025-03-20T00:50:00Z,25112861,Em curso,3301,Queda de árvore,0,2,0,5,2025-03-20T00:50:00Z,Santa Comba Dão,Viseu,Centro,-8.081283,40.408545
25112862,Alcochete,Península de Setúbal,311,2025-03-20T00:35:00Z,25112862,Em curso,3301,Queda de árvore,0,1,0,4,2025-03-20T00:35:00Z,Alcochete,Setúbal,Área Metropolitana De Lisboa,-8.962464,38.749259
25112878,Santo André,Alentejo Litoral,312,2025-03-20T00:32:00Z,25112878,Em despacho,3309,Desabamento de estruturas edificadas,0,1,0,2,2025-03-20T00:32:00Z,Santiago Do Cacém,Setúbal,Alentejo,-8.751748,38.054211
25112689,Ferreiras,Algarve,313,2025-03-20T00:29:00Z,25112689,Em despacho,3301,Queda de árvore,0,0,0,0,2025-03-20T00:29:00Z,Albufeira,Faro,Algarve,-8.21873,37.11494
25112700,Palmela,Península de Setúbal,311,2025-03-20T00:31:00Z,25112700,Em curso,3329,Queda de estruturas temporárias ou móveis,0,0,0,0,2025-03-20T00:31:00Z,Palmela,Setúbal,Área Metropolitana De Lisboa,-8.887038,38.55602
25112716,São Vicente do Paul e Vale de Figueira,Lezíria do Tejo,311,2025-03-20T00:31:00Z,25112716,Em curso,3311,Queda de elementos de estruturas edificados,0,2,0,7,2025-03-20T00:31:00Z,Santarém,Santarém,Alentejo,-8.684192,39.191592
25112721,Quinta do Anjo,Península de Setúbal,311,2025-03-20T00:34:00Z,25112721,Em curso,3301,Queda de árvore,0,0,0,0,2025-03-20T00:34:00Z,Palmela,Setúbal,Área Metropolitana De Lisboa,-8.950333,38.56405
25112723,Serra D'El-Rei,Oeste,311,2025-03-20T00:30:00Z,25112723,Em despacho,3301,Queda de árvore,0,1,0,5,2025-03-20T00:30:00Z,Peniche,Leiria,Centro,-9.27897,39.332052
25112725,São João Das Lampas e Terrugem,Grande Lisboa,311,2025-03-20T00:23:00Z,25112725,Em despacho,3311,Queda de elementos de estruturas edificados,0,1,0,3,2025-03-20T00:23:00Z,Sintra,Lisboa,Área Metropolitana De Lisboa,-9.376923,38.836556
25112730,Boliqueime,Algarve,313,2025-03-20T00:35:00Z,25112730,Em despacho,3301,Queda de árvore,0,1,0,2,2025-03-20T00:35:00Z,Loulé,Faro,Algarve,-8.19188,37.12471
25112741,Matas e Cercal,Médio Tejo,311,2025-03-20T00:35:00Z,25112741,Em resolução,3301,Queda de árvore,0,2,0,6,2025-03-20T00:35:00Z,Ourém,Santarém,Centro,-8.670728,39.715643
25112748,Maceira,Região de Leiria,310,2025-03-20T00:19:00Z,25112748,Em despacho,3301,Queda de árvore,0,1,0,2,2025-03-20T00:19:00Z,Leiria,Leiria,Centro,-8.889652,39.686501
25112757,Grândola e Santa Margarida da Serra,Alentejo Litoral,312,2025-03-20T00:38:00Z,25112757,Em despacho,3301,Queda de árvore,0,0,0,0,2025-03-20T00:38:00Z,Grândola,Setúbal,Alentejo,-8.46262,38.12684
25112686,Alverca do Ribatejo e Sobralinho,Grande Lisboa,311,2025-03-20T00:28:00Z,25112686,Em despacho,3301,Queda de árvore,0,0,0,0,2025-03-20T00:28:00Z,Vila Franca De Xira,Lisboa,Área Metropolitana De Lisboa,-9.034761,38.918068
25112703,Santa Catarina,Oeste,311,2025-03-20T00:18:00Z,25112703,Em despacho,3301,Queda de árvore,0,1,0,5,2025-03-20T00:18:00Z,Caldas Da Rainha,Leiria,Centro,-9.013661,39.44605
25112704,Fernão Ferro,Península de Setúbal,311,2025-03-20T00:32:00Z,25112704,Em curso,3321,Dano na rede de fornecimento de eletricidade ,0,0,0,0,2025-03-20T00:32:00Z,Seixal,Setúbal,Área Metropolitana De Lisboa,-9.08671,38.56536
25112718,Alhos Vedros,Península de Setúbal,311,2025-03-20T00:33:00Z,25112718,Em curso,3329,Queda de estruturas temporárias ou móveis,0,0,0,0,2025-03-20T00:33:00Z,Moita,Setúbal,Área Metropolitana De Lisboa,-9.023435,38.65349
25112720,Luz,Algarve,313,2025-03-20T00:10:00Z,25112720,Em despacho,3301,Queda de árvore,0,2,0,7,2025-03-20T00:10:00Z,Lagos,Faro,Algarve,-8.736029,37.101963
25112736,Seixo de Gatões,Região de Coimbra,310,2025-03-20T00:26:00Z,25112736,Em despacho,3309,Desabamento de estruturas edificadas,0,0,0,0,2025-03-20T00:26:00Z,Montemor-o-Velho,Coimbra,Centro,-8.690129,40.238805
25112737,Laranjeiro e Feijó,Península de Setúbal,311,2025-03-20T00:36:00Z,25112737,Em curso,3301,Queda de árvore,0,1,0,4,2025-03-20T00:36:00Z,Almada,Setúbal,Área Metropolitana De Lisboa,-9.14737,38.65335
25112753,Olhalvo,Oeste,311,2025-03-20T00:35:00Z,25112753,Em despacho,3301,Queda de árvore,0,1,0,3,2025-03-20T00:35:00Z,Alenquer,Lisboa,Centro,-9.066755,39.088378
25112754,Praia de Mira,Região de Coimbra,310,2025-03-20T00:34:00Z,25112754,Em despacho,3329,Queda de estruturas temporárias ou móveis,0,1,0,2,2025-03-20T00:34:00Z,Mira,Coimbra,Centro,-8.8004270000000009,40.460655
25112767,Montijo e Afonsoeiro,Península de Setúbal,311,2025-03-20T00:36:00Z,25112767,Em curso,3301,Queda de árvore,0,1,0,5,2025-03-20T00:36:00Z,Montijo,Setúbal,Área Metropolitana De Lisboa,-8.975715,38.702323
25112766,Alverca do Ribatejo e Sobralinho,Grande Lisboa,311,2025-03-20T00:39:00Z,25112766,Em despacho,3329,Queda de estruturas temporárias ou móveis,0,0,0,0,2025-03-20T00:39:00Z,Vila Franca De Xira,Lisboa,Área Metropolitana De Lisboa,-9.04762,38.90468
25112773,Poceirão e Marateca,Península de Setúbal,311,2025-03-20T00:40:00Z,25112773,Em curso,3301,Queda de árvore,0,0,0,0,2025-03-20T00:40:00Z,Palmela,Setúbal,Área Metropolitana De Lisboa,-8.76661,38.69349
25112775,Turcifal,Oeste,311,2025-03-20T00:30:00Z,25112775,Em despacho,3301,Queda de árvore,0,1,0,3,2025-03-20T00:30:00Z,Torres Vedras,Lisboa,Centro,-9.265042,39.043063
25112789,"Camarate, Unhos e Apelação",Grande Lisboa,311,2025-03-20T00:30:00Z,25112789,Em despacho,3315,Inundação de estruturas por precipitação intensa,0,1,0,5,2025-03-20T00:30:00Z,Loures,Lisboa,Área Metropolitana De Lisboa,-9.139208,38.802817
25112798,Quarteira,Algarve,313,2025-03-20T00:43:00Z,25112798,Em despacho,3301,Queda de árvore,0,0,0,0,2025-03-20T00:43:00Z,Loulé,Faro,Algarve,-8.097117,37.07755
25112800,Santa Comba,Beiras e Serra da Estrela,310,2025-03-20T00:29:00Z,25112800,Em despacho,3301,Queda de árvore,0,1,0,4,2025-03-20T00:29:00Z,Seia,Guarda,Centro,-7.734704,40.446597
25112814,"Marvila, Ribeira Santarém, S.salvador, S.nicolau",Lezíria do Tejo,311,2025-03-20T00:44:00Z,25112814,Em despacho,3301,Queda de árvore,0,1,0,1,2025-03-20T00:44:00Z,Santarém,Santarém,Alentejo,-8.675088,39.23623
25112816,Castanheira do Ribatejo e Cachoeiras,Grande Lisboa,311,2025-03-20T00:32:00Z,25112816,Em despacho,3301,Queda de árvore,0,1,0,3,2025-03-20T00:32:00Z,Vila Franca De Xira,Lisboa,Área Metropolitana De Lisboa,-8.966389,38.987034
25112879,Quintela de Azurara,Viseu Dão Lafões,310,2025-03-20T00:53:00Z,25112879,Em despacho,3301,Queda de árvore,0,1,0,4,2025-03-20T00:53:00Z,Mangualde,Viseu,Centro,-7.71927,40.61601
25112893,Marrazes e Barosa,Região de Leiria,310,2025-03-20T00:32:00Z,25112893,Em despacho,3301,Queda de árvore,0,1,0,4,2025-03-20T00:32:00Z,Leiria,Leiria,Centro,-8.813484,39.764428
25112896,Ega,Região de Coimbra,310,2025-03-20T00:25:00Z,25112896,Em despacho,3301,Queda de árvore,0,1,0,3,2025-03-20T00:25:00Z,Condeixa-a-Nova,Coimbra,Centro,-8.550731,40.119616
25112909,a Dos Cunhados e Maceira,Oeste,311,2025-03-20T00:40:00Z,25112909,Em despacho,3301,Queda de árvore,0,1,0,5,2025-03-20T00:40:00Z,Torres Vedras,Lisboa,Centro,-9.271283,39.143883
25112911,Sesimbra (Castelo),Península de Setúbal,311,2025-03-20T00:56:00Z,25112911,Em curso,3329,Queda de estruturas temporárias ou móveis,0,0,0,0,2025-03-20T00:56:00Z,Sesimbra,Setúbal,Área Metropolitana De Lisboa,-9.10466,38.46059
25112912,Peniche,Oeste,311,2025-03-20T00:47:00Z,25112912,Em despacho,3329,Queda de estruturas temporárias ou móveis,0,1,0,2,2025-03-20T00:47:00Z,Peniche,Leiria,Centro,-9.376833,39.357166
25112913,São Bartolomeu de Messines,Algarve,313,2025-03-20T00:49:00Z,25112913,Em despacho,3329,Queda de estruturas temporárias ou móveis,0,1,0,5,2025-03-20T00:49:00Z,Silves,Faro,Algarve,-8.287502,37.25838
25112926,Barcarena,Grande Lisboa,311,2025-03-20T00:49:00Z,25112926,Em despacho,3301,Queda de árvore,0,1,0,5,2025-03-20T00:49:00Z,Oeiras,Lisboa,Área Metropolitana De Lisboa,-9.268179,38.733176
25112928,Porto Salvo,Grande Lisboa,311,2025-03-20T00:40:00Z,25112928,Em despacho,3329,Queda de estruturas temporárias ou móveis,0,1,0,4,2025-03-20T00:40:00Z,Oeiras,Lisboa,Área Metropolitana De Lisboa,-9.305901,38.719291
25112943,Alverca do Ribatejo e Sobralinho,Grande Lisboa,311,2025-03-20T01:00:00Z,25112943,Em despacho,3329,Queda de estruturas temporárias ou móveis,0,0,0,0,2025-03-20T01:00:00Z,Vila Franca De Xira,Lisboa,Área Metropolitana De Lisboa,-9.04604,38.89168
25112823,Samora Correia,Lezíria do Tejo,311,2025-03-20T00:46:00Z,25112823,Em despacho,3311,Queda de elementos de estruturas edificados,0,0,0,0,2025-03-20T00:46:00Z,Benavente,Santarém,Alentejo,-8.87181,38.90654
25112830,Canha,Península de Setúbal,311,2025-03-19T23:55:00Z,25112830,Em despacho,3301,Queda de árvore,0,1,0,5,2025-03-19T23:55:00Z,Montijo,Setúbal,Área Metropolitana De Lisboa,-8.631311,38.768258
25112832,"S.maria, S.miguel, S.martinho, S.pedro Penaferrim",Grande Lisboa,311,2025-03-20T00:35:00Z,25112832,Em despacho,3301,Queda de árvore,0,1,0,3,2025-03-20T00:35:00Z,Sintra,Lisboa,Área Metropolitana De Lisboa,-9.413155,38.801935
25112839,Mafra,Grande Lisboa,311,2025-03-20T00:41:00Z,25112839,Em despacho,3301,Queda de árvore,0,1,0,3,2025-03-20T00:41:00Z,Mafra,Lisboa,Área Metropolitana De Lisboa,-9.322743,38.971331
25112841,Vila Franca de Xira,Grande Lisboa,311,2025-03-20T00:48:00Z,25112841,Em despacho,3301,Queda de árvore,0,0,0,0,2025-03-20T00:48:00Z,Vila Franca De Xira,Lisboa,Área Metropolitana De Lisboa,-8.988948,38.95658
25112848,Valezim,Beiras e Serra da Estrela,310,2025-03-20T00:49:00Z,25112848,Em despacho,3311,Queda de elementos de estruturas edificados,0,0,0,0,2025-03-20T00:49:00Z,Seia,Guarda,Centro,-7.719,40.35847
25112850,Samora Correia,Lezíria do Tejo,311,2025-03-20T00:49:00Z,25112850,Em despacho,3309,Desabamento de estruturas edificadas,0,0,0,0,2025-03-20T00:49:00Z,Benavente,Santarém,Alentejo,-8.844734,38.92736
25112857,Póvoa de Santa Iria e Forte da Casa,Grande Lisboa,311,2025-03-20T00:30:00Z,25112857,Em despacho,3329,Queda de estruturas temporárias ou móveis,0,1,0,4,2025-03-20T00:30:00Z,Vila Franca De Xira,Lisboa,Área Metropolitana De Lisboa,-9.051508,38.875602
25112866,São Marcos da Ataboeira,Baixo Alentejo,312,2025-03-20T00:38:00Z,25112866,Em curso,3301,Queda de árvore,0,1,0,3,2025-03-20T00:38:00Z,Castro Verde,Beja,Alentejo,-7.911512,37.702306
25112873,Carnaxide e Queijas,Grande Lisboa,311,2025-03-20T00:33:00Z,25112873,Em despacho,3329,Queda de estruturas temporárias ou móveis,0,1,0,3,2025-03-20T00:33:00Z,Oeiras,Lisboa,Área Metropolitana De Lisboa,-9.25881,38.722457
25112882,Massamá e Monte Abraão,Grande Lisboa,311,2025-03-20T00:20:00Z,25112882,Em despacho,3329,Queda de estruturas temporárias ou móveis,0,1,0,2,2025-03-20T00:20:00Z,Sintra,Lisboa,Área Metropolitana De Lisboa,-9.280008,38.753778
25112889,Ramada e Caneças,Grande Lisboa,311,2025-03-20T00:41:00Z,25112889,Em despacho,3315,Inundação de estruturas por precipitação intensa,0,1,0,5,2025-03-20T00:41:00Z,Odivelas,Lisboa,Área Metropolitana De Lisboa,-9.225171,38.812571
25112891,Malveira e São Miguel de Alcainça,Grande Lisboa,311,2025-03-20T00:53:00Z,25112891,Em despacho,3301,Queda de árvore,0,0,0,0,2025-03-20T00:53:00Z,Mafra,Lisboa,Área Metropolitana De Lisboa,-9.28055,38.91962
25112898,Santa Maria Maior,Grande Lisboa,311,2025-03-20T00:44:00Z,25112898,Em despacho,3315,Inundação de estruturas por precipitação intensa,0,1,0,3,2025-03-20T00:44:00Z,Lisboa,Lisboa,Área Metropolitana De Lisboa,-9.132405,38.708307
25112900,Queluz e Belas,Grande Lisboa,311,2025-03-20T00:50:00Z,25112900,Em despacho,3301,Queda de árvore,0,1,0,4,2025-03-20T00:50:00Z,Sintra,Lisboa,Área Metropolitana De Lisboa,-9.270072,38.779997
25112907,Sesimbra (Castelo),Península de Setúbal,311,2025-03-20T00:51:00Z,25112907,Em curso,3301,Queda de árvore,0,2,0,9,2025-03-20T00:51:00Z,Sesimbra,Setúbal,Área Metropolitana De Lisboa,-9.106828,38.452682
25112930,Carregado e Cadafais,Oeste,311,2025-03-20T00:55:00Z,25112930,Em despacho,3309,Desabamento de estruturas edificadas,0,0,0,0,2025-03-20T00:55:00Z,Alenquer,Lisboa,Centro,-8.985297,39.023828
25112934,"Alto do Seixalinho, Santo André e Verderena",Península de Setúbal,311,2025-03-20T00:50:00Z,25112934,Em curso,3301,Queda de árvore,0,1,0,5,2025-03-20T00:50:00Z,Barreiro,Setúbal,Área Metropolitana De Lisboa,-9.065968,38.6593
25112939,Massamá e Monte Abraão,Grande Lisboa,311,2025-03-20T00:30:00Z,25112939,Em despacho,3301,Queda de árvore,0,1,0,4,2025-03-20T00:30:00Z,Sintra,Lisboa,Área Metropolitana De Lisboa,-9.27045,38.75541
25112948,Carvalhal,Oeste,311,2025-03-20T00:27:00Z,25112948,Em curso,3329,Queda de estruturas temporárias ou móveis,0,1,0,2,2025-03-20T00:27:00Z,Bombarral,Leiria,Centro,-9.134089,39.256831
25112950,Mansores,Area M. Porto,309,2025-03-20T01:00:00Z,25112950,Em despacho,3301,Queda de árvore,0,1,0,2,2025-03-20T01:00:00Z,Arouca,Aveiro,Norte,-8.363771,40.934787
25112957,Cascais e Estoril,Grande Lisboa,311,2025-03-20T01:02:00Z,25112957,Em despacho,3311,Queda de elementos de estruturas edificados,0,0,0,0,2025-03-20T01:02:00Z,Cascais,Lisboa,Área Metropolitana De Lisboa,-9.434678,38.72133
25112959,Alcochete,Península de Setúbal,311,2025-03-20T00:41:00Z,25112959,Em curso,3329,Queda de estruturas temporárias ou móveis,0,1,0,2,2025-03-20T00:41:00Z,Alcochete,Setúbal,Área Metropolitana De Lisboa,-8.962464,38.749259
25112964,Ílhavo (São Salvador),Região de Aveiro,310,2025-03-20T00:59:00Z,25112964,Em despacho,3311,Queda de elementos de estruturas edificados,0,1,0,3,2025-03-20T00:59:00Z,Ílhavo,Aveiro,Centro,-8.665964,40.601836
25112975,Aljezur,Algarve,313,2025-03-20T00:55:00Z,25112975,Em despacho,3301,Queda de árvore,0,1,0,3,2025-03-20T00:55:00Z,Aljezur,Faro,Algarve,-8.803144,37.313343
25112982,Moscavide e Portela,Grande Lisboa,311,2025-03-20T00:51:00Z,25112982,Em despacho,3301,Queda de árvore,0,1,0,4,2025-03-20T00:51:00Z,Loures,Lisboa,Área Metropolitana De Lisboa,-9.114803,38.78591
25112944,São Martinho Das Amoreiras,Alentejo Litoral,312,2025-03-20T00:20:00Z,25112944,Em despacho,3301,Queda de árvore,0,2,0,4,2025-03-20T00:20:00Z,Odemira,Beja,Alentejo,-8.374366,37.628547
25112945,Amora,Península de Setúbal,311,2025-03-20T01:00:00Z,25112945,Em curso,3311,Queda de elementos de estruturas edificados,0,0,0,0,2025-03-20T01:00:00Z,Seixal,Setúbal,Área Metropolitana De Lisboa,-9.112282,38.62221
25112960,Miranda do Corvo,Região de Coimbra,310,2025-03-20T00:55:00Z,25112960,Em despacho,3301,Queda de árvore,0,1,0,5,2025-03-20T00:55:00Z,Miranda Do Corvo,Coimbra,Centro,-8.359503,40.114746
25112962,Melides,Alentejo Litoral,312,2025-03-20T00:16:00Z,25112962,Em curso,3301,Queda de árvore,0,1,0,3,2025-03-20T00:16:00Z,Grândola,Setúbal,Alentejo,-8.726303,38.148035
25112963,Costa da Caparica,Península de Setúbal,311,2025-03-20T00:40:00Z,25112963,Em curso,3301,Queda de árvore,0,1,0,4,2025-03-20T00:40:00Z,Almada,Setúbal,Área Metropolitana De Lisboa,-9.227696,38.642583
25112977,Colares,Grande Lisboa,311,2025-03-20T01:01:00Z,25112977,Em despacho,3301,Queda de árvore,0,1,0,3,2025-03-20T01:01:00Z,Sintra,Lisboa,Área Metropolitana De Lisboa,-9.486381,38.778591
25112980,Eiras e São Paulo de Frades,Região de Coimbra,310,2025-03-20T00:47:00Z,25112980,Em despacho,3329,Queda de estruturas temporárias ou móveis,0,1,0,3,2025-03-20T00:47:00Z,Coimbra,Coimbra,Centro,-8.402978,40.247336
25112768,São Pedro Fins,Area M. Porto,309,2025-03-20T00:00:00Z,25112768,Em despacho,3301,Queda de árvore,0,1,0,2,2025-03-20T00:00:00Z,Maia,Porto,Norte,-8.554092,41.247401
25112770,Cascais e Estoril,Grande Lisboa,311,2025-03-20T00:39:00Z,25112770,Em despacho,3301,Queda de árvore,0,0,0,0,2025-03-20T00:39:00Z,Cascais,Lisboa,Área Metropolitana De Lisboa,-9.393056,38.71305
25112785,Marinhais,Lezíria do Tejo,311,2025-03-20T00:40:00Z,25112785,Em curso,3301,Queda de árvore,0,2,0,7,2025-03-20T00:40:00Z,Salvaterra De Magos,Santarém,Alentejo,-8.713032,39.042942
25112787,Milharado,Grande Lisboa,311,2025-03-20T00:26:00Z,25112787,Em despacho,3315,Inundação de estruturas por precipitação intensa,0,1,0,1,2025-03-20T00:26:00Z,Mafra,Lisboa,Área Metropolitana De Lisboa,-9.195476,38.94824
25112803,Castanheira do Ribatejo e Cachoeiras,Grande Lisboa,311,2025-03-20T00:25:00Z,25112803,Em despacho,3301,Queda de árvore,0,1,0,3,2025-03-20T00:25:00Z,Vila Franca De Xira,Lisboa,Área Metropolitana De Lisboa,-8.966389,38.987034
25112818,"Coruche, Fajarda e Erra",Lezíria do Tejo,311,2025-03-20T00:44:00Z,25112818,Em despacho,3301,Queda de árvore,0,1,0,4,2025-03-20T00:44:00Z,Coruche,Santarém,Alentejo,-8.54111,38.890215
25112819,Cascais e Estoril,Grande Lisboa,311,2025-03-20T00:45:00Z,25112819,Em despacho,3301,Queda de árvore,0,0,0,0,2025-03-20T00:45:00Z,Cascais,Lisboa,Área Metropolitana De Lisboa,-9.43903,38.70249
25112821,Queluz e Belas,Grande Lisboa,311,2025-03-20T00:05:00Z,25112821,Em despacho,3301,Queda de árvore,0,1,0,5,2025-03-20T00:05:00Z,Sintra,Lisboa,Área Metropolitana De Lisboa,-9.270072,38.779997
25112834,Alvorninha,Oeste,311,2025-03-20T00:42:00Z,25112834,Em despacho,3301,Queda de árvore,0,1,0,5,2025-03-20T00:42:00Z,Caldas Da Rainha,Leiria,Centro,-9.017805,39.406388
25112835,"Almada, Cova da Piedade, Pragal e Cacilhas",Península de Setúbal,311,2025-03-20T00:47:00Z,25112835,Em curso,3301,Queda de árvore,0,0,0,0,2025-03-20T00:47:00Z,Almada,Setúbal,Área Metropolitana De Lisboa,-9.15992,38.67447
25112837,Faia,Ave,309,2025-03-20T00:33:00Z,25112837,Em despacho,3301,Queda de árvore,0,1,0,2,2025-03-20T00:33:00Z,Cabeceiras De Basto,Braga,Norte,-7.975356,41.470919
25112851,Costa da Caparica,Península de Setúbal,311,2025-03-20T00:30:00Z,25112851,Em despacho,3301,Queda de árvore,0,1,0,4,2025-03-20T00:30:00Z,Almada,Setúbal,Área Metropolitana De Lisboa,-9.227696,38.642583
25112852,Vagos e Santo António,Região de Aveiro,310,2025-03-20T00:30:00Z,25112852,Em despacho,3311,Queda de elementos de estruturas edificados,0,1,0,2,2025-03-20T00:30:00Z,Vagos,Aveiro,Centro,-8.689645,40.531088
25112853,Juncal,Região de Leiria,310,2025-03-20T00:40:00Z,25112853,Em despacho,3301,Queda de árvore,0,1,0,3,2025-03-20T00:40:00Z,Porto De Mós,Leiria,Centro,-8.896898,39.603593
25112868,Germil,Viseu Dão Lafões,310,2025-03-20T00:50:00Z,25112868,Em despacho,3301,Queda de árvore,0,1,0,3,2025-03-20T00:50:00Z,Penalva Do Castelo,Viseu,Centro,-7.727588,40.65009
25112870,Maceira,Região de Leiria,310,2025-03-19T23:44:00Z,25112870,Em despacho,3329,Queda de estruturas temporárias ou móveis,0,1,0,3,2025-03-19T23:44:00Z,Leiria,Leiria,Centro,-8.861611,39.680376
25112884,"Camarate, Unhos e Apelação",Grande Lisboa,311,2025-03-20T00:42:00Z,25112884,Em despacho,3315,Inundação de estruturas por precipitação intensa,0,1,0,4,2025-03-20T00:42:00Z,Loures,Lisboa,Área Metropolitana De Lisboa,-9.129038,38.816416
25112885,Santo Antão e São Julião do Tojal,Grande Lisboa,311,2025-03-20T00:38:00Z,25112885,Em despacho,3301,Queda de árvore,0,1,0,5,2025-03-20T00:38:00Z,Loures,Lisboa,Área Metropolitana De Lisboa,-9.160652,38.853073
25112886,"Algés, Linda-a-Velha e Cruz Quebrada-Dafundo",Grande Lisboa,311,2025-03-20T00:21:00Z,25112886,Em despacho,3301,Queda de árvore,0,1,0,5,2025-03-20T00:21:00Z,Oeiras,Lisboa,Área Metropolitana De Lisboa,-9.250524,38.707224
25112901,Alhos Vedros,Península de Setúbal,311,2025-03-20T00:52:00Z,25112901,Em despacho,3311,Queda de elementos de estruturas edificados,0,1,0,5,2025-03-20T00:52:00Z,Moita,Setúbal,Área Metropolitana De Lisboa,-9.012767,38.643428
25112902,Peniche,Oeste,311,2025-03-20T00:40:00Z,25112902,Em despacho,3321,Dano na rede de fornecimento de eletricidade ,0,1,0,2,2025-03-20T00:40:00Z,Peniche,Leiria,Centro,-9.376833,39.357166
25112903,Massamá e Monte Abraão,Grande Lisboa,311,2025-03-20T00:46:00Z,25112903,Em despacho,3301,Queda de árvore,0,1,0,6,2025-03-20T00:46:00Z,Sintra,Lisboa,Área Metropolitana De Lisboa,-9.280008,38.753778
25112904,"Oliveira de Frades, Souto de Lafões e Sejães",Viseu Dão Lafões,310,2025-03-20T00:53:00Z,25112904,Em despacho,3311,Queda de elementos de estruturas edificados,0,1,0,3,2025-03-20T00:53:00Z,Oliveira De Frades,Viseu,Centro,-8.185214,40.736334
25112918,Mira,Região de Coimbra,310,2025-03-20T00:57:00Z,25112918,Em despacho,3329,Queda de estruturas temporárias ou móveis,0,0,0,0,2025-03-20T00:57:00Z,Mira,Coimbra,Centro,-8.69438,40.4138
25112919,São Domingos de Rana,Grande Lisboa,311,2025-03-20T00:57:00Z,25112919,Em despacho,3301,Queda de árvore,0,0,0,0,2025-03-20T00:57:00Z,Cascais,Lisboa,Área Metropolitana De Lisboa,-9.353889,38.70417
25112920,Miragaia e Marteleira,Oeste,311,2025-03-20T00:57:00Z,25112920,Em despacho,3301,Queda de árvore,0,0,0,0,2025-03-20T00:57:00Z,Lourinhã,Lisboa,Centro,-9.26782,39.22212
25112921,Castêlo da Maia,Area M. Porto,309,2025-03-20T00:40:00Z,25112921,Em despacho,3301,Queda de árvore,0,1,0,5,2025-03-20T00:40:00Z,Maia,Porto,Norte,-8.616749,41.267591
25112936,Pinhal Novo,Península de Setúbal,311,2025-03-20T00:59:00Z,25112936,Em curso,3329,Queda de estruturas temporárias ou móveis,0,0,0,0,2025-03-20T00:59:00Z,Palmela,Setúbal,Área Metropolitana De Lisboa,-8.93024,38.60548
25112937,Recardães e Espinhel,Região de Aveiro,310,2025-03-20T00:50:00Z,25112937,Em despacho,3301,Queda de árvore,0,1,0,5,2025-03-20T00:50:00Z,Águeda,Aveiro,Centro,-8.481519,40.575526
25112952,Amora,Península de Setúbal,311,2025-03-20T01:01:00Z,25112952,Em curso,3311,Queda de elementos de estruturas edificados,0,0,0,0,2025-03-20T01:01:00Z,Seixal,Setúbal,Área Metropolitana De Lisboa,-9.114517,38.62354
25112954,Lamas,Região de Coimbra,310,2025-03-20T00:55:00Z,25112954,Em despacho,3301,Queda de árvore,0,1,0,2,2025-03-20T00:55:00Z,Miranda Do Corvo,Coimbra,Centro,-8.371151,40.091307
25112969,Campo de Ourique,Grande Lisboa,311,2025-03-20T00:52:00Z,25112969,Em despacho,3301,Queda de árvore,0,1,0,6,2025-03-20T00:52:00Z,Lisboa,Lisboa,Área Metropolitana De Lisboa,-9.169863,38.718496
