id,address,subregion,neighborhood,date,id.1,state,nature,nature_description,aerial_means,terrestrial_means,aquatic_means,operational,date.1,Concelho,Distrito,NUTII_DSG,longitude,latitude
25583887,Alfaiates,Beiras e Serra da Estrela,310,2025-06-26T16:25:00Z,25583887,Em conclusão,3103,Incêndio rural,0,2,0,10,2025-06-26T16:25:00Z,Sabugal,Guarda,Centro,-6.948192,40.392977
25585373,Charneca de Caparica e Sobreda,Península de Setúbal,311,2025-06-26T22:44:00Z,25585373,Em despacho,2301,Incêndio em transporte rodoviário,0,1,0,5,2025-06-26T22:44:00Z,Almada,Setúbal,Área Metropolitana De Lisboa,-9.185875,38.61023
25585329,Carvalhais e Candal,Viseu Dão Lafões,310,2025-06-26T22:28:00Z,25585329,Em resolução,3103,Incêndio rural,0,7,0,22,2025-06-26T22:28:00Z,São Pedro Do Sul,Viseu,Centro,-8.115548,40.793175
25581155,Azambuja,Lezíria do Tejo,311,2025-06-26T07:29:00Z,25581155,Em despacho,3109,Gestão de combustível,0,1,0,4,2025-06-26T07:29:00Z,Azambuja,Lisboa,Alentejo,-8.898558,39.118107
25583390,Reguengos de Monsaraz,Alentejo Central,312,2025-06-26T14:40:00Z,25583390,Em conclusão,3105,Incêndio rural,0,0,0,0,2025-06-26T14:40:00Z,Reguengos De Monsaraz,Évora,Alentejo,-7.569853,38.418395
25584865,Vimeiro,Oeste,311,2025-06-26T20:35:00Z,25584865,Em conclusão,3103,Incêndio rural,0,3,0,12,2025-06-26T20:35:00Z,Alcobaça,Leiria,Centro,-9.059387,39.479592
25585033,Rebordões,Area M. Porto,309,2025-06-26T21:14:00Z,25585033,Em conclusão,3103,Incêndio rural,0,2,0,7,2025-06-26T21:14:00Z,Santo Tirso,Porto,Norte,-8.426964,41.3433
25585342,Foz do Sousa e Covelo,Area M. Porto,309,2025-06-26T22:33:00Z,25585342,Em conclusão,3103,Incêndio rural,0,4,0,14,2025-06-26T22:33:00Z,Gondomar,Porto,Norte,-8.498568,41.11365
25584457,"Messegães, Valadares e Sá",Alto Minho,309,2025-06-26T18:45:00Z,25584457,Em conclusão,3103,Incêndio rural,0,6,0,16,2025-06-26T18:45:00Z,Monção,Viana Do Castelo,Norte,-8.374895,42.075813
25584916,Aveleda,Area M. Porto,309,2025-06-26T20:45:00Z,25584916,Em conclusão,3105,Incêndio rural,0,2,0,7,2025-06-26T20:45:00Z,Vila Do Conde,Porto,Norte,-8.696453,41.266623
25584984,Charneca de Caparica e Sobreda,Península de Setúbal,311,2025-06-26T21:04:00Z,25584984,Em conclusão,3201,Detritos não confinados,0,0,0,0,2025-06-26T21:04:00Z,Almada,Setúbal,Área Metropolitana De Lisboa,-9.181365,38.661137
25585100,Labruja,Alto Minho,309,2025-06-26T21:10:00Z,25585100,Em conclusão,3101,Incêndio rural,0,4,0,10,2025-06-26T21:10:00Z,Ponte De Lima,Viana Do Castelo,Norte,-8.591375,41.835232
25585275,Monte Redondo e Carreira,Região de Leiria,310,2025-06-26T22:15:00Z,25585275,Em curso,2101,Incêndio em edifícios habitacionais,0,1,0,5,2025-06-26T22:15:00Z,Leiria,Leiria,Centro,-8.85234,39.89222
25585309,Ancede e Ribadouro,Tâmega e Sousa,309,2025-06-26T22:17:00Z,25585309,Em conclusão,3105,Incêndio rural,0,1,0,5,2025-06-26T22:17:00Z,Baião,Porto,Norte,-8.059632,41.1072
25585393,Miranda do Corvo,Região de Coimbra,310,2025-06-26T22:50:00Z,25585393,Em despacho,2111,Incêndio em edifícios hospitalares e lares de idosos,0,2,0,8,2025-06-26T22:50:00Z,Miranda Do Corvo,Coimbra,Centro,-8.339499,40.09407
