id,address,subregion,neighborhood,date,id.1,state,nature,nature_description,aerial_means,terrestrial_means,aquatic_means,operational,date.1,Concelho,Distrito,NUTII_DSG,longitude,latitude,state_2
25711397,Vale da Pedra,Lezíria do Tejo,311,2025-07-21T14:16:00Z,25711397,Em Resolução/Conclusão,3103,Incêndio rural,0,0,0,0,2025-07-21T14:16:00Z,Cartaxo,Santarém,Alentejo,-8.783137,39.110872,Resolução/Conclusão
25714112,Fregim,Tâmega e Sousa,309,2025-07-22T06:11:00Z,25714112,Em Resolução/Conclusão,3103,Incêndio rural,0,3,0,12,2025-07-22T06:11:00Z,Amarante,Porto,Norte,-8.129855,41.278348,Resolução/Conclusão
25714121,Souto Maior,Douro,309,2025-07-22T06:24:00Z,25714121,Em Resolução/Conclusão,3103,Incêndio rural,0,3,0,15,2025-07-22T06:24:00Z,Sabrosa,Vila Real,Norte,-7.592063,41.285112,Resolução/Conclusão
25708284,Bogas de Cima,Beiras e Serra da Estrela,310,2025-07-20T21:26:00Z,25708284,Em Resolução/Conclusão,3103,Incêndio rural,0,1,0,5,2025-07-20T21:26:00Z,Fundão,Castelo Branco,Centro,-7.707703,40.064562,Resolução/Conclusão
25714132,Oliveira do Douro,Area M. Porto,309,2025-07-22T06:25:00Z,25714132,Em Resolução/Conclusão,3103,Incêndio rural,0,1,0,5,2025-07-22T06:25:00Z,Vila Nova De Gaia,Porto,Norte,-8.58581,41.125206,Resolução/Conclusão
25712338,Cercal,Alentejo Litoral,312,2025-07-21T17:38:00Z,25712338,Em Resolução/Conclusão,3103,Incêndio rural,0,25,0,65,2025-07-21T17:38:00Z,Santiago Do Cacém,Setúbal,Alentejo,-8.682272,37.791582,Resolução/Conclusão
