id,address,subregion,neighborhood,date,id.1,state,nature,nature_description,aerial_means,terrestrial_means,aquatic_means,operational,date.1,Concelho,Distrito,NUTII_DSG,longitude,latitude
25316776,Guarda,Beiras e Serra da Estrela,310,2025-05-02T07:17:00Z,25316776,Em conclusão,3311,Queda de elementos de estruturas edificados,0,7,0,16,2025-05-02T07:17:00Z,Guarda,Guarda,Centro,-7.269039,40.539292
25071496,São Manços e São Vicente do Pigeiro,Alentejo Central,312,2025-03-11T13:18:00Z,25071496,Em conclusão,1101,Cheia,0,0,0,0,2025-03-11T13:18:00Z,Évora,Évora,Alentejo,-7.713313,38.513673
25316925,Sagres,Algarve,313,2025-05-02T08:04:00Z,25316925,Em curso,3301,Queda de árvore,0,2,0,6,2025-05-02T08:04:00Z,Vila Do Bispo,Faro,Algarve,-8.943145,37.00882
25317282,Nossa Senhora Das Neves,Baixo Alentejo,312,2025-05-02T09:32:00Z,25317282,Em despacho,3301,Queda de árvore,0,0,0,0,2025-05-02T09:32:00Z,Beja,Beja,Alentejo,-7.793703,38.021124
25317291,"Assunção, Ajuda, Salvador e Santo Ildefonso",Alto Alentejo,312,2025-05-02T09:38:00Z,25317291,Em despacho,3317,Inundação de estruturas por água canalizada,0,2,0,3,2025-05-02T09:38:00Z,Elvas,Portalegre,Alentejo,-7.17053,38.874473
25317409,Nossa Senhora Das Neves,Baixo Alentejo,312,2025-05-02T10:04:00Z,25317409,Em despacho,3301,Queda de árvore,0,1,0,3,2025-05-02T10:04:00Z,Beja,Beja,Alentejo,-7.793703,38.021124
25317078,Nossa Senhora Das Neves,Baixo Alentejo,312,2025-05-02T08:37:00Z,25317078,Em resolução,3301,Queda de árvore,0,3,0,4,2025-05-02T08:37:00Z,Beja,Beja,Alentejo,-7.79216,38.02064
25317295,Ramalde,Area M. Porto,309,2025-05-02T09:40:00Z,25317295,Em despacho,3315,Inundação de estruturas por precipitação intensa,0,1,0,5,2025-05-02T09:40:00Z,Porto,Porto,Norte,-8.651472,41.168297
