id,address,subregion,neighborhood,date,id.1,state,nature,nature_description,aerial_means,terrestrial_means,aquatic_means,operational,date.1,Concelho,Distrito,NUTII_DSG,longitude,latitude,state_2
25813482,Freches e Torres,Beiras e Serra da Estrela,310,2025-08-09T16:21:00Z,25813482,Em Resolução/Conclusão,3103,Incêndio rural,0,1,0,5,2025-08-09T16:21:00Z,Trancoso,Guarda,Centro,-7.363745,40.709022,Resolução/Conclusão
25832250,Ferreira de Aves,Viseu Dão Lafões,310,2025-08-13T00:03:00Z,25832250,Em Resolução/Conclusão,3103,Incêndio rural,0,1,0,2,2025-08-13T00:03:00Z,Sátão,Viseu,Centro,-7.647793,40.79568,Resolução/Conclusão
25836309,Cinfães,Tâmega e Sousa,309,2025-08-13T18:17:00Z,25836309,Em Resolução/Conclusão,3103,Incêndio rural,0,1,0,2,2025-08-13T18:17:00Z,Cinfães,Viseu,Norte,-8.071502,41.049757,Resolução/Conclusão
25910498,Cortiçadas de Lavre e Lavre,Alentejo Central,312,2025-08-28T12:32:00Z,25910498,Em Curso,3103,Incêndio rural,2,24,0,75,2025-08-28T12:32:00Z,Montemor-o-Novo,Évora,Alentejo,-8.362108,38.73748,Curso
25910615,Cabeça Boa,Douro,309,2025-08-28T13:00:00Z,25910615,Em Resolução/Conclusão,3103,Incêndio rural,0,1,0,4,2025-08-28T13:00:00Z,Torre De Moncorvo,Bragança,Norte,-7.11561,41.180175,Resolução/Conclusão
25910697,Chancelaria,Médio Tejo,311,2025-08-28T13:19:00Z,25910697,Em Resolução/Conclusão,3103,Incêndio rural,0,14,0,47,2025-08-28T13:19:00Z,Torres Novas,Santarém,Centro,-8.568325,39.54473,Resolução/Conclusão
25910796,Gralhas,Alto Tâmega e Barroso,309,2025-08-28T13:42:00Z,25910796,Em Resolução/Conclusão,3103,Incêndio rural,0,5,0,19,2025-08-28T13:42:00Z,Montalegre,Vila Real,Norte,-7.719135,41.880207,Resolução/Conclusão
25910932,Aljubarrota,Oeste,311,2025-08-28T14:05:00Z,25910932,Em Resolução/Conclusão,3103,Incêndio rural,0,2,0,6,2025-08-28T14:05:00Z,Alcobaça,Leiria,Centro,-8.889481,39.564013,Resolução/Conclusão
25911099,Chavães,Douro,309,2025-08-28T14:29:00Z,25911099,Em Resolução/Conclusão,3103,Incêndio rural,1,9,0,36,2025-08-28T14:29:00Z,Tabuaço,Viseu,Norte,-7.553807,41.09554,Resolução/Conclusão
25911281,Vilar Seco,Viseu Dão Lafões,310,2025-08-28T15:09:00Z,25911281,Em Curso,3103,Incêndio rural,6,28,0,128,2025-08-28T15:09:00Z,Nelas,Viseu,Centro,-7.825,40.56057,Curso
25883011,Almofala,Viseu Dão Lafões,310,2025-08-22T17:00:00Z,25883011,Em Resolução/Conclusão,3103,Incêndio rural,0,1,0,2,2025-08-22T17:00:00Z,Castro Daire,Viseu,Centro,-7.767003,40.956183,Resolução/Conclusão
25887019,Pedrógão Grande,Região de Leiria,310,2025-08-23T14:27:00Z,25887019,Em Resolução/Conclusão,3101,Incêndio rural,0,14,0,47,2025-08-23T14:27:00Z,Pedrógão Grande,Leiria,Centro,-8.15364,39.9136,Resolução/Conclusão
25906523,Picão e Ermida,Viseu Dão Lafões,310,2025-08-27T15:26:00Z,25906523,Em Resolução/Conclusão,3103,Incêndio rural,0,1,0,2,2025-08-27T15:26:00Z,Castro Daire,Viseu,Centro,-7.9416079999999996,40.947432,Resolução/Conclusão
25910026,Santa Lucrécia de Algeriz e Navarra,Cávado,309,2025-08-28T11:02:00Z,25910026,Em Resolução/Conclusão,3103,Incêndio rural,0,1,0,5,2025-08-28T11:02:00Z,Braga,Braga,Norte,-8.376365,41.605148,Resolução/Conclusão
25910542,Salvador e Santo Aleixo de Além-Tâmega,Alto Tâmega e Barroso,309,2025-08-28T12:42:00Z,25910542,Em Resolução/Conclusão,3103,Incêndio rural,0,7,0,19,2025-08-28T12:42:00Z,Ribeira De Pena,Vila Real,Norte,-7.807364,41.50306,Resolução/Conclusão
25832672,Piódão,Região de Coimbra,310,2025-08-13T05:08:00Z,25832672,Em Resolução/Conclusão,3103,Incêndio rural,0,44,0,146,2025-08-13T05:08:00Z,Arganil,Coimbra,Centro,-7.81972,40.23083,Resolução/Conclusão
25840417,Lousã e Vilarinho,Região de Coimbra,310,2025-08-14T13:46:00Z,25840417,Em Resolução/Conclusão,3101,Incêndio rural,0,2,0,6,2025-08-14T13:46:00Z,Lousã,Coimbra,Centro,-8.201561,40.080016,Resolução/Conclusão
25911102,"N. S. da Vila, N. S. do Bispo e Silveiras",Alentejo Central,312,2025-08-28T14:32:00Z,25911102,Em Resolução/Conclusão,3103,Incêndio rural,0,2,0,7,2025-08-28T14:32:00Z,Montemor-o-Novo,Évora,Alentejo,-8.292128,38.680931,Resolução/Conclusão
25911369,Alcantarilha e Pêra,Algarve,313,2025-08-28T15:25:00Z,25911369,Em Resolução/Conclusão,3103,Incêndio rural,1,4,0,23,2025-08-28T15:25:00Z,Silves,Faro,Algarve,-8.338979,37.120441,Resolução/Conclusão
25846480,Sabugal e Aldeia de Santo António,Beiras e Serra da Estrela,310,2025-08-15T14:41:00Z,25846480,Em Resolução/Conclusão,3103,Incêndio rural,0,11,0,33,2025-08-15T14:41:00Z,Sabugal,Guarda,Centro,-7.125037,40.34023,Resolução/Conclusão
25910055,Rebordelo,Terras de Trás-os-Montes,309,2025-08-28T11:08:00Z,25910055,Em Curso,3103,Incêndio rural,9,62,0,213,2025-08-28T11:08:00Z,Vinhais,Bragança,Norte,-7.134773,41.765422,Curso
25910638,Vale,Alto Minho,309,2025-08-28T13:04:00Z,25910638,Em Resolução/Conclusão,3103,Incêndio rural,0,6,0,21,2025-08-28T13:04:00Z,Arcos De Valdevez,Viana Do Castelo,Norte,-8.336287,41.861395,Resolução/Conclusão
25911105,"Requeixo, Nossa Senhora de Fátima e Nariz",Região de Aveiro,310,2025-08-28T14:36:00Z,25911105,Em Curso,3103,Incêndio rural,3,33,0,114,2025-08-28T14:36:00Z,Aveiro,Aveiro,Centro,-8.56064,40.59406,Curso
25911341,Famalicão,Oeste,311,2025-08-28T15:19:00Z,25911341,Em Curso,3105,Incêndio rural,0,4,0,17,2025-08-28T15:19:00Z,Nazaré,Leiria,Centro,-9.07467,39.51778,Curso
25911393,Santa Catarina da Serra e Chainça,Região de Leiria,310,2025-08-28T15:30:00Z,25911393,Em Curso,3103,Incêndio rural,1,5,0,27,2025-08-28T15:30:00Z,Leiria,Leiria,Centro,-8.690928,39.66315,Curso
