id,address,subregion,neighborhood,date,id.1,state,nature,nature_description,aerial_means,terrestrial_means,aquatic_means,operational,date.1,Concelho,Distrito,NUTII_DSG,longitude,latitude,state_2
25633812,Penhalonga e Paços de Gaiolo,Tâmega e Sousa,309,2025-07-05T23:17:00Z,25633812,Em Resolução/Conclusão,3103,Incêndio rural,0,0,0,0,2025-07-05T23:17:00Z,Marco De Canaveses,Porto,Norte,-8.133498,41.090452,Resolução/Conclusão
25634030,Navió e Vitorino Dos Piães,Alto Minho,309,2025-07-06T00:33:00Z,25634030,Em Resolução/Conclusão,3103,Incêndio rural,0,0,0,0,2025-07-06T00:33:00Z,Ponte De Lima,Viana Do Castelo,Norte,-8.633173,41.676753,Resolução/Conclusão
25634532,"Braga (Maximinos, Sé e Cividade)",Cávado,309,2025-07-06T05:48:00Z,25634532,Em Resolução/Conclusão,3103,Incêndio rural,0,5,0,18,2025-07-06T05:48:00Z,Braga,Braga,Norte,-8.471228,41.5518,Resolução/Conclusão
25610143,Nossa Senhora Das Misericórdias,Médio Tejo,311,2025-07-01T15:32:00Z,25610143,Em Resolução/Conclusão,3103,Incêndio rural,0,0,0,0,2025-07-01T15:32:00Z,Ourém,Santarém,Centro,-8.600277,39.655883,Resolução/Conclusão
25634586,Corroios,Península de Setúbal,311,2025-07-06T06:27:00Z,25634586,Em Despacho,3103,Incêndio rural,0,2,0,8,2025-07-06T06:27:00Z,Seixal,Setúbal,Área Metropolitana De Lisboa,-9.14367,38.65245,Despacho
25634474,"Merelim (São Paio), Panoias e Parada de Tibães",Cávado,309,2025-07-06T05:01:00Z,25634474,Em Resolução/Conclusão,3103,Incêndio rural,0,0,0,0,2025-07-06T05:01:00Z,Braga,Braga,Norte,-8.458677,41.558522,Resolução/Conclusão
25634260,Lomba,Area M. Porto,309,2025-07-06T02:37:00Z,25634260,Em Resolução/Conclusão,3103,Incêndio rural,0,5,0,19,2025-07-06T02:37:00Z,Gondomar,Porto,Norte,-8.406793,41.033087,Resolução/Conclusão
