id,address,subregion,neighborhood,date,id.1,state,nature,nature_description,aerial_means,terrestrial_means,aquatic_means,operational,date.1,Concelho,Distrito,NUTII_DSG,longitude,latitude,state_2
25727257,Santiago de Piães,Tâmega e Sousa,309,2025-07-24T17:40:00Z,25727257,Em Resolução/Conclusão,3103,Incêndio rural,0,5,0,18,2025-07-24T17:40:00Z,Cinfães,Viseu,Norte,-8.173138,41.025392,Resolução/Conclusão
25734893,Carrazedo de Montenegro e Curros,Alto Tâmega e Barroso,309,2025-07-26T07:44:00Z,25734893,Em Despacho,3101,Incêndio rural,0,2,0,10,2025-07-26T07:44:00Z,Valpaços,Vila Real,Norte,-7.410298,41.559778,Despacho
25712338,Cercal,Alentejo Litoral,312,2025-07-21T17:38:00Z,25712338,Em Resolução/Conclusão,3103,Incêndio rural,0,0,0,0,2025-07-21T17:38:00Z,Santiago Do Cacém,Setúbal,Alentejo,-8.682272,37.791582,Resolução/Conclusão
25729082,São Jorge e Ermelo,Alto Minho,309,2025-07-25T04:45:00Z,25729082,Em Resolução/Conclusão,3101,Incêndio rural,0,15,0,50,2025-07-25T04:45:00Z,Arcos De Valdevez,Viana Do Castelo,Norte,-8.356835,41.818005,Resolução/Conclusão
25730832,Aveleda e Rio de Onor,Terras de Trás-os-Montes,309,2025-07-25T12:07:00Z,25730832,Em Resolução/Conclusão,3103,Incêndio rural,0,24,0,87,2025-07-25T12:07:00Z,Bragança,Bragança,Norte,-6.707873,41.891435,Resolução/Conclusão
25734678,Quintiães e Aguiar,Cávado,309,2025-07-26T06:15:00Z,25734678,Em Curso,3103,Incêndio rural,0,6,0,21,2025-07-26T06:15:00Z,Barcelos,Braga,Norte,-8.660918,41.629673,Curso
25734712,"Crasto, Ruivos e Grovelas",Alto Minho,309,2025-07-26T06:55:00Z,25734712,Em Resolução/Conclusão,3103,Incêndio rural,0,1,0,5,2025-07-26T06:55:00Z,Ponte Da Barca,Viana Do Castelo,Norte,-8.438823,41.749302,Resolução/Conclusão
