id,address,subregion,neighborhood,date,id.1,state,nature,nature_description,aerial_means,terrestrial_means,aquatic_means,operational,date.1,Concelho,Distrito,NUTII_DSG,longitude,latitude
25484535,Jou,Douro,309,2025-06-06T08:55:00Z,25484535,Em despacho,3107,Consolidação de rescaldo de incêndio rural,0,1,0,5,2025-06-06T08:55:00Z,Murça,Vila Real,Norte,-7.415113,41.46365
25484778,Vieira de Leiria,Região de Leiria,310,2025-06-06T09:40:00Z,25484778,Em conclusão,3111,Queima,0,3,0,9,2025-06-06T09:40:00Z,Marinha Grande,Leiria,Centro,-8.92962,39.869257
25484871,Galveias,Alto Alentejo,312,2025-06-06T09:52:00Z,25484871,Em conclusão,3201,Detritos não confinados,0,5,0,13,2025-06-06T09:52:00Z,Ponte De Sor,Portalegre,Alentejo,-7.996133,39.161153
25484913,Muxagata,Douro,309,2025-06-06T09:20:00Z,25484913,Em curso,3109,Gestão de combustível,0,2,0,10,2025-06-06T09:20:00Z,Vila Nova De Foz Côa,Guarda,Norte,-7.162523,41.021165
25485098,Torre de Coelheiros,Alentejo Central,312,2025-06-06T10:37:00Z,25485098,Em despacho,3103,Incêndio rural,1,7,0,31,2025-06-06T10:37:00Z,Évora,Évora,Alentejo,-7.95199,38.41199
25484870,"Gondomar (São Cosme), Valbom e Jovim",Area M. Porto,309,2025-06-06T09:57:00Z,25484870,Em conclusão,3103,Incêndio rural,0,1,0,5,2025-06-06T09:57:00Z,Gondomar,Porto,Norte,-8.535295,41.129255
