id,address,subregion,neighborhood,date,id.1,state,nature,nature_description,aerial_means,terrestrial_means,aquatic_means,operational,date.1,Concelho,Distrito,NUTII_DSG,longitude,latitude
25071496,São Manços e São Vicente do Pigeiro,Alentejo Central,312,2025-03-11T13:18:00Z,25071496,Em conclusão,1101,Cheia,0,0,0,0,2025-03-11T13:18:00Z,Évora,Évora,Alentejo,-7.713313,38.513673
25202441,Serpa (Salvador e Santa Maria),Baixo Alentejo,312,2025-04-06T10:25:00Z,25202441,Em conclusão,1101,Cheia,0,0,0,0,2025-04-06T10:25:00Z,Serpa,Beja,Alentejo,-7.555783,37.88592
25262030,Gafanha da Encarnação,Região de Aveiro,310,2025-04-20T00:34:00Z,25262030,Em curso,3315,Inundação de estruturas por precipitação intensa,0,1,0,4,2025-04-20T00:34:00Z,Ílhavo,Aveiro,Centro,-8.750661,40.615534
25262128,Luso,Região de Coimbra,310,2025-04-20T01:32:00Z,25262128,Em despacho,3301,Queda de árvore,0,1,0,3,2025-04-20T01:32:00Z,Mealhada,Aveiro,Centro,-8.363927,40.380406
25261966,Souselas e Botão,Região de Coimbra,310,2025-04-19T23:58:00Z,25261966,Em curso,3313,Deslizamento de terras,0,2,0,4,2025-04-19T23:58:00Z,Coimbra,Coimbra,Centro,-8.446077,40.291836000000004
