id,address,subregion,neighborhood,date,id.1,state,nature,nature_description,aerial_means,terrestrial_means,aquatic_means,operational,date.1,Concelho,Distrito,NUTII_DSG,longitude,latitude
25468879,Gaio-Rosário e Sarilhos Pequenos,Península de Setúbal,311,2025-06-02T23:44:00Z,25468879,Em conclusão,3103,Incêndio rural,0,3,0,12,2025-06-02T23:44:00Z,Moita,Setúbal,Área Metropolitana De Lisboa,-9.00781,38.678637
25466369,Melides,Alentejo Litoral,312,2025-06-02T13:27:00Z,25466369,Em conclusão,3103,Incêndio rural,0,6,0,13,2025-06-02T13:27:00Z,Grândola,Setúbal,Alentejo,-8.754243,38.19534
25467128,Monte Redondo e Carreira,Região de Leiria,310,2025-06-02T15:48:00Z,25467128,Em conclusão,3103,Incêndio rural,0,1,0,2,2025-06-02T15:48:00Z,Leiria,Leiria,Centro,-8.860783,39.89848
25468859,São Bento do Mato,Alentejo Central,312,2025-06-02T23:35:00Z,25468859,Em conclusão,2301,Incêndio em transporte rodoviário,0,2,0,7,2025-06-02T23:35:00Z,Évora,Évora,Alentejo,-7.805613,38.695255
25468964,Macieira da Lixa e Caramos,Tâmega e Sousa,309,2025-06-03T00:35:00Z,25468964,Em despacho,2101,Incêndio em edifícios habitacionais,0,0,0,0,2025-06-03T00:35:00Z,Felgueiras,Porto,Norte,-8.14871,41.34549
25468966,Escapães,Area M. Porto,309,2025-06-03T00:34:00Z,25468966,Em resolução,3203,Detritos confinados,0,1,0,5,2025-06-03T00:34:00Z,Santa Maria Da Feira,Aveiro,Norte,-8.51182,40.920319
