id,address,subregion,neighborhood,date,id.1,state,nature,nature_description,aerial_means,terrestrial_means,aquatic_means,operational,date.1,Concelho,Distrito,NUTII_DSG,longitude,latitude,state_2
26091038,Nossa Senhora de Fátima,Médio Tejo,311,2025-10-05T11:00:00Z,26091038,Em Resolução/Conclusão,3103,Incêndio rural,0,3,0,9,2025-10-05T11:00:00Z,Entroncamento,Santarém,Centro,-8.483195,39.478892,Resolução/Conclusão
26091145,Ouca,Região de Aveiro,310,2025-10-05T11:29:00Z,26091145,Em Resolução/Conclusão,3103,Incêndio rural,0,2,0,7,2025-10-05T11:29:00Z,Vagos,Aveiro,Centro,-8.659223,40.50922,Resolução/Conclusão
26091231,Esperança e Brunhais,Ave,309,2025-10-05T11:48:00Z,26091231,Em Resolução/Conclusão,3103,Incêndio rural,0,2,0,7,2025-10-05T11:48:00Z,Póvoa De Lanhoso,Braga,Norte,-8.181747,41.592447,Resolução/Conclusão
26091182,Alfena,Area M. Porto,309,2025-10-05T11:35:00Z,26091182,Em Resolução/Conclusão,3103,Incêndio rural,0,2,0,7,2025-10-05T11:35:00Z,Valongo,Porto,Norte,-8.5276,41.22185,Resolução/Conclusão
26091218,"Mealhada, Ventosa do Bairro e Antes",Região de Coimbra,310,2025-10-05T11:45:00Z,26091218,Em Resolução/Conclusão,3105,Incêndio rural,0,3,0,11,2025-10-05T11:45:00Z,Mealhada,Aveiro,Centro,-8.451571,40.39233,Resolução/Conclusão
