id,address,subregion,neighborhood,date,id.1,state,nature,nature_description,aerial_means,terrestrial_means,aquatic_means,operational,date.1,Concelho,Distrito,NUTII_DSG,longitude,latitude,state_2
26164727,Benavente,Lezíria do Tejo,311,2025-10-20T13:30:00Z,26164727,Em Resolução/Conclusão,3103,Incêndio rural,0,13,0,45,2025-10-20T13:30:00Z,Benavente,Santarém,Alentejo,-8.680143,38.920237,Resolução/Conclusão
26160929,Caranguejeira,Região de Leiria,310,2025-10-19T16:50:00Z,26160929,Em Resolução/Conclusão,3101,Incêndio rural,0,1,0,2,2025-10-19T16:50:00Z,Leiria,Leiria,Centro,-8.697637,39.726483,Resolução/Conclusão
26165132,Azeitão (São Lourenço e São Simão),Península de Setúbal,311,2025-10-20T14:43:00Z,26165132,Em Resolução/Conclusão,3103,Incêndio rural,0,2,0,9,2025-10-20T14:43:00Z,Setúbal,Setúbal,Área Metropolitana De Lisboa,-8.99956,38.54407,Resolução/Conclusão
26165207,Tortosendo,Beiras e Serra da Estrela,310,2025-10-20T14:56:00Z,26165207,Em Despacho,3103,Incêndio rural,0,0,0,0,2025-10-20T14:56:00Z,Covilhã,Castelo Branco,Centro,-7.516167,40.239413,Despacho
26164572,Castro Verde e Casével,Baixo Alentejo,312,2025-10-20T12:54:00Z,26164572,Em Resolução/Conclusão,3105,Incêndio rural,0,8,0,22,2025-10-20T12:54:00Z,Castro Verde,Beja,Alentejo,-8.01625,37.63235,Resolução/Conclusão
26164933,Olaia e Paço,Médio Tejo,311,2025-10-20T14:06:00Z,26164933,Em Resolução/Conclusão,3103,Incêndio rural,0,1,0,5,2025-10-20T14:06:00Z,Torres Novas,Santarém,Centro,-8.481335,39.554018,Resolução/Conclusão
