id,address,subregion,neighborhood,date,id.1,state,nature,nature_description,aerial_means,terrestrial_means,aquatic_means,operational,date.1,Concelho,Distrito,NUTII_DSG,longitude,latitude,state_2
25676606,Moncarapacho e Fuseta,Algarve,313,2025-07-14T13:57:00Z,25676606,Em Resolução/Conclusão,3103,Incêndio rural,0,2,0,3,2025-07-14T13:57:00Z,Olhão,Faro,Algarve,-7.82583,37.101482,Resolução/Conclusão
25679281,Facha,Alto Minho,309,2025-07-15T01:32:00Z,25679281,Em Resolução/Conclusão,3103,Incêndio rural,0,1,0,5,2025-07-15T01:32:00Z,Ponte De Lima,Viana Do Castelo,Norte,-8.616397,41.713835,Resolução/Conclusão
25679144,"Esqueiros, Nevogilde e Travassós",Cávado,309,2025-07-15T00:06:00Z,25679144,Em Resolução/Conclusão,3103,Incêndio rural,0,2,0,10,2025-07-15T00:06:00Z,Vila Verde,Braga,Norte,-8.440395,41.66251,Resolução/Conclusão
25679185,Santa Maria do Castelo e Santiago e Santa Susana,Alentejo Litoral,312,2025-07-15T00:17:00Z,25679185,Em Resolução/Conclusão,3103,Incêndio rural,0,6,0,20,2025-07-15T00:17:00Z,Alcácer Do Sal,Setúbal,Alentejo,-8.476618,38.29545,Resolução/Conclusão
25665133,Lindoso,Alto Minho,309,2025-07-12T02:50:00Z,25665133,Em Resolução/Conclusão,3103,Incêndio rural,0,2,0,10,2025-07-12T02:50:00Z,Ponte Da Barca,Viana Do Castelo,Norte,-8.224007,41.852543,Resolução/Conclusão
25677014,Alcórrego e Maranhão,Alto Alentejo,312,2025-07-14T15:07:00Z,25677014,Em Resolução/Conclusão,3101,Incêndio rural,0,8,0,27,2025-07-14T15:07:00Z,Avis,Portalegre,Alentejo,-7.895798,38.982193,Resolução/Conclusão
25679190,Cidade da Maia,Area M. Porto,309,2025-07-15T00:37:00Z,25679190,Em Resolução/Conclusão,3103,Incêndio rural,0,4,0,13,2025-07-15T00:37:00Z,Maia,Porto,Norte,-8.62672,41.22988,Resolução/Conclusão
