id,address,subregion,neighborhood,date,id.1,state,nature,nature_description,aerial_means,terrestrial_means,aquatic_means,operational,date.1,Concelho,Distrito,NUTII_DSG,longitude,latitude,state_2
26114961,Duas Igrejas,Area M. Porto,309,2025-10-10T09:40:00Z,26114961,Em Resolução/Conclusão,3103,Incêndio rural,0,2,0,7,2025-10-10T09:40:00Z,Paredes,Porto,Norte,-8.386488,41.229538,Resolução/Conclusão
26114441,Terrugem e Vila Boim,Alto Alentejo,312,2025-10-10T08:03:00Z,26114441,Em Resolução/Conclusão,3103,Incêndio rural,0,3,0,9,2025-10-10T08:03:00Z,Elvas,Portalegre,Alentejo,-7.26645,38.875873,Resolução/Conclusão
26093602,Castro Daire,Viseu Dão Lafões,310,2025-10-05T22:05:00Z,26093602,Em Resolução/Conclusão,3103,Incêndio rural,0,0,0,0,2025-10-05T22:05:00Z,Castro Daire,Viseu,Centro,-7.9408,40.925289,Resolução/Conclusão
26115473,Marinhais,Lezíria do Tejo,311,2025-10-10T11:10:00Z,26115473,Em Resolução/Conclusão,3105,Incêndio rural,0,7,0,21,2025-10-10T11:10:00Z,Salvaterra De Magos,Santarém,Alentejo,-8.717808,39.06066,Resolução/Conclusão
26115621,Calvos e Frades,Ave,309,2025-10-10T11:31:00Z,26115621,Em Curso,3103,Incêndio rural,2,6,0,35,2025-10-10T11:31:00Z,Póvoa De Lanhoso,Braga,Norte,-8.246933,41.604337,Curso
26115664,Monteiras,Viseu Dão Lafões,310,2025-10-10T11:38:00Z,26115664,Em Despacho,3103,Incêndio rural,2,8,0,49,2025-10-10T11:38:00Z,Castro Daire,Viseu,Centro,-7.886059,40.960303,Despacho
26114630,Seixo da Beira,Região de Coimbra,310,2025-10-10T08:46:00Z,26114630,Em Curso,3101,Incêndio rural,12,59,0,235,2025-10-10T08:46:00Z,Oliveira Do Hospital,Coimbra,Centro,-7.851872,40.421183,Curso
26115084,Monte Córdova,Area M. Porto,309,2025-10-10T10:03:00Z,26115084,Em Resolução/Conclusão,3103,Incêndio rural,0,1,0,5,2025-10-10T10:03:00Z,Santo Tirso,Porto,Norte,-8.413215,41.316635,Resolução/Conclusão
