id,address,subregion,neighborhood,date,id.1,state,nature,nature_description,aerial_means,terrestrial_means,aquatic_means,operational,date.1,Concelho,Distrito,NUTII_DSG,longitude,latitude
25059714,Torrão,Alentejo Litoral,312,2025-03-08T22:10:00Z,25059714,Em curso,1101,Cheia,0,1,0,2,2025-03-08T22:10:00Z,Alcácer Do Sal,Setúbal,Alentejo,-8.359133,38.252053
25070044,Praia do Ribatejo,Médio Tejo,311,2025-03-10T19:30:00Z,25070044,Em curso,1101,Cheia,0,0,0,0,2025-03-10T19:30:00Z,Vila Nova Da Barquinha,Santarém,Centro,-8.357309,39.485638
25071496,São Manços e São Vicente do Pigeiro,Alentejo Central,312,2025-03-11T13:18:00Z,25071496,Em curso,1101,Cheia,0,2,0,4,2025-03-11T13:18:00Z,Évora,Évora,Alentejo,-7.713313,38.513673
25137544,Dois Portos e Runa,Oeste,311,2025-03-23T13:41:00Z,25137544,Em curso,3313,Deslizamento de terras,0,0,0,0,2025-03-23T13:41:00Z,Torres Vedras,Lisboa,Centro,-9.178343,39.036686
25140619,Abrã,Lezíria do Tejo,311,2025-03-24T09:28:00Z,25140619,Em curso,3317,Inundação de estruturas por água canalizada,0,1,0,3,2025-03-24T09:28:00Z,Santarém,Santarém,Alentejo,-8.745307,39.445073
25140636,Setúbal (São Sebastião),Península de Setúbal,311,2025-03-24T09:23:00Z,25140636,Em despacho,3301,Queda de árvore,0,1,0,5,2025-03-24T09:23:00Z,Setúbal,Setúbal,Área Metropolitana De Lisboa,-8.87514,38.536356
25140736,Santo Estêvão,Lezíria do Tejo,311,2025-03-24T09:50:00Z,25140736,Em resolução,3301,Queda de árvore,0,1,0,2,2025-03-24T09:50:00Z,Benavente,Santarém,Alentejo,-8.73667,38.873713
25141103,Sernancelhe e Sarzeda,Douro,309,2025-03-24T10:49:00Z,25141103,Em despacho,3301,Queda de árvore,0,1,0,3,2025-03-24T10:49:00Z,Sernancelhe,Viseu,Norte,-7.470413,40.896741
25068300,Almeirim,Lezíria do Tejo,311,2025-03-10T20:52:00Z,25068300,Em curso,1101,Cheia,0,0,0,0,2025-03-10T20:52:00Z,Almeirim,Santarém,Alentejo,-8.635002,39.187436
25121298,Gafanhoeira (São Pedro) e Sabugueiro,Alentejo Central,312,2025-03-20T14:26:00Z,25121298,Em resolução,3301,Queda de árvore,0,0,0,0,2025-03-20T14:26:00Z,Arraiolos,Évora,Alentejo,-8.088754,38.754507
25140039,"S.maria, S.miguel, S.martinho, S.pedro Penaferrim",Grande Lisboa,311,2025-03-24T07:30:00Z,25140039,Em despacho,3301,Queda de árvore,0,1,0,5,2025-03-24T07:30:00Z,Sintra,Lisboa,Área Metropolitana De Lisboa,-9.366763,38.781718
25140157,Aljezur,Algarve,313,2025-03-24T08:00:00Z,25140157,Em conclusão,3311,Queda de elementos de estruturas edificados,0,1,0,2,2025-03-24T08:00:00Z,Aljezur,Faro,Algarve,-8.803144,37.313343
25140300,"S.maria, S.miguel, S.martinho, S.pedro Penaferrim",Grande Lisboa,311,2025-03-24T08:10:00Z,25140300,Em despacho,3301,Queda de árvore,0,1,0,2,2025-03-24T08:10:00Z,Sintra,Lisboa,Área Metropolitana De Lisboa,-9.414924,38.772191
25140423,Sazes da Beira,Beiras e Serra da Estrela,310,2025-03-24T08:55:00Z,25140423,Em despacho,3301,Queda de árvore,0,1,0,2,2025-03-24T08:55:00Z,Seia,Guarda,Centro,-7.7305720000000004,40.348423
25140566,"Camarate, Unhos e Apelação",Grande Lisboa,311,2025-03-24T09:13:00Z,25140566,Em despacho,3301,Queda de árvore,0,1,0,3,2025-03-24T09:13:00Z,Loures,Lisboa,Área Metropolitana De Lisboa,-9.139208,38.802817
25140784,Ermesinde,Area M. Porto,309,2025-03-24T09:47:00Z,25140784,Em despacho,3315,Inundação de estruturas por precipitação intensa,0,1,0,2,2025-03-24T09:47:00Z,Valongo,Porto,Norte,-8.549319,41.21602
25087162,Pedrógão,Baixo Alentejo,312,2025-03-14T17:00:00Z,25087162,Em curso,1101,Cheia,0,2,0,3,2025-03-14T17:00:00Z,Vidigueira,Beja,Alentejo,-7.630327,38.110775
25128056,Santa Maria do Castelo e Santiago e Santa Susana,Alentejo Litoral,312,2025-03-21T14:41:00Z,25128056,Em curso,1101,Cheia,0,0,0,0,2025-03-21T14:41:00Z,Alcácer Do Sal,Setúbal,Alentejo,-8.434671,38.401157
25139997,Colares,Grande Lisboa,311,2025-03-24T07:10:00Z,25139997,Em despacho,3301,Queda de árvore,0,2,0,7,2025-03-24T07:10:00Z,Sintra,Lisboa,Área Metropolitana De Lisboa,-9.432326,38.780106
25141017,Poceirão e Marateca,Península de Setúbal,311,2025-03-24T10:28:00Z,25141017,Em despacho,3301,Queda de árvore,0,1,0,3,2025-03-24T10:28:00Z,Palmela,Setúbal,Área Metropolitana De Lisboa,-8.702358,38.586871
25141124,Costa da Caparica,Península de Setúbal,311,2025-03-24T10:30:00Z,25141124,Em despacho,3301,Queda de árvore,0,1,0,4,2025-03-24T10:30:00Z,Almada,Setúbal,Área Metropolitana De Lisboa,-9.227696,38.642583
25141183,Santa Marinha e São Pedro da Afurada,Area M. Porto,309,2025-03-24T10:52:00Z,25141183,Em despacho,3311,Queda de elementos de estruturas edificados,0,1,0,3,2025-03-24T10:52:00Z,Vila Nova De Gaia,Porto,Norte,-8.624714,41.132843
25141187,"Algés, Linda-a-Velha e Cruz Quebrada-Dafundo",Grande Lisboa,311,2025-03-24T10:54:00Z,25141187,Em despacho,3301,Queda de árvore,0,1,0,4,2025-03-24T10:54:00Z,Oeiras,Lisboa,Área Metropolitana De Lisboa,-9.22967,38.696612
25140010,"S.maria, S.miguel, S.martinho, S.pedro Penaferrim",Grande Lisboa,311,2025-03-24T07:15:00Z,25140010,Em despacho,3301,Queda de árvore,0,1,0,5,2025-03-24T07:15:00Z,Sintra,Lisboa,Área Metropolitana De Lisboa,-9.362223,38.785369
25140560,Vimeiro,Oeste,311,2025-03-24T09:17:00Z,25140560,Em despacho,3301,Queda de árvore,0,1,0,2,2025-03-24T09:17:00Z,Alcobaça,Leiria,Centro,-9.016349,39.474851
25140595,Colares,Grande Lisboa,311,2025-03-24T09:09:00Z,25140595,Em despacho,3301,Queda de árvore,0,1,0,2,2025-03-24T09:09:00Z,Sintra,Lisboa,Área Metropolitana De Lisboa,-9.486381,38.778591
25140714,Alfeizerão,Oeste,311,2025-03-24T09:46:00Z,25140714,Em despacho,3301,Queda de árvore,0,1,0,2,2025-03-24T09:46:00Z,Alcobaça,Leiria,Centro,-9.110786,39.496611
25140913,Azeitão (São Lourenço e São Simão),Península de Setúbal,311,2025-03-24T10:08:00Z,25140913,Em despacho,3301,Queda de árvore,0,1,0,5,2025-03-24T10:08:00Z,Setúbal,Setúbal,Área Metropolitana De Lisboa,-9.029743,38.518157
25140825,"Alhandra, São João Dos Montes e Calhandriz",Grande Lisboa,311,2025-03-24T09:45:00Z,25140825,Em despacho,3301,Queda de árvore,0,3,0,8,2025-03-24T09:45:00Z,Vila Franca De Xira,Lisboa,Área Metropolitana De Lisboa,-9.029303,38.94243
25141034,São João Baptista e Santa Maria Dos Olivais,Médio Tejo,311,2025-03-24T10:37:00Z,25141034,Em conclusão,3317,Inundação de estruturas por água canalizada,0,0,0,0,2025-03-24T10:37:00Z,Tomar,Santarém,Centro,-8.410545,39.597187
25141141,Azeitão (São Lourenço e São Simão),Península de Setúbal,311,2025-03-24T10:32:00Z,25141141,Em despacho,3301,Queda de árvore,0,1,0,4,2025-03-24T10:32:00Z,Setúbal,Setúbal,Área Metropolitana De Lisboa,-9.04265,38.541479
