id,address,subregion,neighborhood,date,id.1,state,nature,nature_description,aerial_means,terrestrial_means,aquatic_means,operational,date.1,Concelho,Distrito,NUTII_DSG,longitude,latitude
25508203,Ermelo e Pardelhas,Ave,309,2025-06-11T07:30:00Z,25508203,Em conclusão,3103,Incêndio rural,0,7,0,26,2025-06-11T07:30:00Z,Mondim De Basto,Vila Real,Norte,-7.842792,41.3582
25509271,Beja (Salvador e Santa Maria da Feira),Baixo Alentejo,312,2025-06-11T10:38:00Z,25509271,Em conclusão,3105,Incêndio rural,0,0,0,0,2025-06-11T10:38:00Z,Beja,Beja,Alentejo,-7.866213,38.030653
25509891,Sanfins Lamoso Codessos,Tâmega e Sousa,309,2025-06-11T12:30:00Z,25509891,Em conclusão,3103,Incêndio rural,0,3,0,15,2025-06-11T12:30:00Z,Paços De Ferreira,Porto,Norte,-8.382427,41.32457
25510491,São João Baptista e Santa Maria Dos Olivais,Médio Tejo,311,2025-06-11T14:23:00Z,25510491,Em despacho,3109,Gestão de combustível,0,1,0,1,2025-06-11T14:23:00Z,Tomar,Santarém,Centro,-8.398191,39.598324
25510177,Estômbar e Parchal,Algarve,313,2025-06-11T13:25:00Z,25510177,Em conclusão,2101,Incêndio em edifícios habitacionais,0,2,0,4,2025-06-11T13:25:00Z,Lagoa,Faro,Algarve,-8.51809,37.13631
25510522,Tocha,Região de Coimbra,310,2025-06-11T14:27:00Z,25510522,Em curso,3101,Incêndio rural,1,6,0,26,2025-06-11T14:27:00Z,Cantanhede,Coimbra,Centro,-8.782308,40.341926
25509569,Carvalhal,Médio Tejo,311,2025-06-11T11:29:00Z,25509569,Em conclusão,2301,Incêndio em transporte rodoviário,0,2,0,7,2025-06-11T11:29:00Z,Abrantes,Santarém,Centro,-8.186488,39.579455
25509835,Azeitão (São Lourenço e São Simão),Península de Setúbal,311,2025-06-11T12:16:00Z,25509835,Em conclusão,3103,Incêndio rural,0,8,0,24,2025-06-11T12:16:00Z,Setúbal,Setúbal,Área Metropolitana De Lisboa,-8.995407,38.542967
