id,address,subregion,neighborhood,date,id.1,state,nature,nature_description,aerial_means,terrestrial_means,aquatic_means,operational,date.1,Concelho,Distrito,NUTII_DSG,longitude,latitude
24874428,Donai,Terras de Trás-os-Montes,309,2025-01-26T21:18:00Z,24874428,Em curso,3315,Inundação de estruturas por precipitação intensa,0,1,0,2,2025-01-26T21:18:00Z,Bragança,Bragança,Norte,-6.805385,41.830788
24874564,"Sé, Santa Maria e Meixedo",Terras de Trás-os-Montes,309,2025-01-26T21:55:00Z,24874564,Em curso,3315,Inundação de estruturas por precipitação intensa,0,1,0,2,2025-01-26T21:55:00Z,Bragança,Bragança,Norte,-6.761223,41.813164
24875382,Pampilhosa da Serra,Região de Coimbra,310,2025-01-27T06:56:00Z,24875382,Em despacho,3315,Inundação de estruturas por precipitação intensa,0,4,0,8,2025-01-27T06:56:00Z,Pampilhosa Da Serra,Coimbra,Centro,-7.953077,40.054967
24876200,Ceira,Região de Coimbra,310,2025-01-27T09:56:00Z,24876200,Em despacho,3315,Inundação de estruturas por precipitação intensa,0,1,0,2,2025-01-27T09:56:00Z,Coimbra,Coimbra,Centro,-8.376144,40.175952
24876461,Buarcos,Região de Coimbra,310,2025-01-27T10:20:00Z,24876461,Em curso,3315,Inundação de estruturas por precipitação intensa,0,1,0,2,2025-01-27T10:20:00Z,Figueira Da Foz,Coimbra,Centro,-8.880897,40.168384
24876893,"Sé, Santa Maria e Meixedo",Terras de Trás-os-Montes,309,2025-01-27T11:22:00Z,24876893,Em curso,3315,Inundação de estruturas por precipitação intensa,0,1,0,1,2025-01-27T11:22:00Z,Bragança,Bragança,Norte,-6.761223,41.813164
24878106,São Pedro de Sarracenos,Terras de Trás-os-Montes,309,2025-01-27T14:44:00Z,24878106,Em despacho,3315,Inundação de estruturas por precipitação intensa,0,1,0,2,2025-01-27T14:44:00Z,Bragança,Bragança,Norte,-6.751439,41.76443
24878406,Santa Maria Maior,Alto Tâmega e Barroso,309,2025-01-27T15:49:00Z,24878406,Em despacho,3315,Inundação de estruturas por precipitação intensa,0,1,0,3,2025-01-27T15:49:00Z,Chaves,Vila Real,Norte,-7.464751,41.742877
24875937,Açores e Velosa,Beiras e Serra da Estrela,310,2025-01-27T09:15:00Z,24875937,Em despacho,3301,Queda de árvore,0,2,0,4,2025-01-27T09:15:00Z,Celorico Da Beira,Guarda,Centro,-7.293622,40.654959
24877910,Constantim e Vale de Nogueiras,Douro,309,2025-01-27T14:24:00Z,24877910,Em despacho,3309,Desabamento de estruturas edificadas,0,0,0,0,2025-01-27T14:24:00Z,Vila Real,Vila Real,Norte,-7.711022,41.27386
24878043,Salto,Alto Tâmega e Barroso,309,2025-01-27T14:30:00Z,24878043,Em despacho,3301,Queda de árvore,0,1,0,4,2025-01-27T14:30:00Z,Montalegre,Vila Real,Norte,-7.930242,41.659104
24878060,"Sé, Santa Maria e Meixedo",Terras de Trás-os-Montes,309,2025-01-27T14:20:00Z,24878060,Em despacho,3315,Inundação de estruturas por precipitação intensa,0,1,0,2,2025-01-27T14:20:00Z,Bragança,Bragança,Norte,-6.761223,41.813164
24878460,Candoso (São Martinho),Ave,309,2025-01-27T16:00:00Z,24878460,Em despacho,3311,Queda de elementos de estruturas edificados,0,3,0,5,2025-01-27T16:00:00Z,Guimarães,Braga,Norte,-8.332216,41.42214
24878462,"Mealhada, Ventosa do Bairro e Antes",Região de Coimbra,310,2025-01-27T16:01:00Z,24878462,Em conclusão,3301,Queda de árvore,0,1,0,2,2025-01-27T16:01:00Z,Mealhada,Aveiro,Centro,-8.458111,40.375676
24878740,Vagos e Santo António,Região de Aveiro,310,2025-01-27T16:53:00Z,24878740,Em curso,3321,Dano na rede de fornecimento de eletricidade ,0,1,0,2,2025-01-27T16:53:00Z,Vagos,Aveiro,Centro,-8.68906,40.55631
24878747,Costa da Caparica,Península de Setúbal,311,2025-01-27T16:45:00Z,24878747,Em despacho,3301,Queda de árvore,0,1,0,3,2025-01-27T16:45:00Z,Almada,Setúbal,Área Metropolitana De Lisboa,-9.227696,38.642583
24878781,"Malhou, Louriceira e Espinheiro",Médio Tejo,311,2025-01-27T16:56:00Z,24878781,Em conclusão,3301,Queda de árvore,0,1,0,3,2025-01-27T16:56:00Z,Alcanena,Santarém,Centro,-8.669897,39.424858
24878799,Vila de Punhe,Alto Minho,309,2025-01-27T16:51:00Z,24878799,Em despacho,3301,Queda de árvore,0,1,0,3,2025-01-27T16:51:00Z,Viana Do Castelo,Viana Do Castelo,Norte,-8.730042,41.656262
24878856,São Miguel do Rio Torto e Rossio Ao Sul do Tejo,Médio Tejo,311,2025-01-27T17:12:00Z,24878856,Em conclusão,3301,Queda de árvore,0,0,0,0,2025-01-27T17:12:00Z,Abrantes,Santarém,Centro,-8.1877,39.443074
24878922,"S.maria, S.miguel, S.martinho, S.pedro Penaferrim",Grande Lisboa,311,2025-01-27T17:20:00Z,24878922,Em despacho,3301,Queda de árvore,0,1,0,2,2025-01-27T17:20:00Z,Sintra,Lisboa,Área Metropolitana De Lisboa,-9.367712,38.769998
24878924,Lavos,Região de Coimbra,310,2025-01-27T17:26:00Z,24878924,Em despacho,3329,Queda de estruturas temporárias ou móveis,0,2,0,5,2025-01-27T17:26:00Z,Figueira Da Foz,Coimbra,Centro,-8.871831,40.090092
24878951,Canidelo,Area M. Porto,309,2025-01-27T17:13:00Z,24878951,Em despacho,3329,Queda de estruturas temporárias ou móveis,0,1,0,2,2025-01-27T17:13:00Z,Vila Nova De Gaia,Porto,Norte,-8.652723,41.127681
24878958,"Mogadouro, Valverde, Vale de Porco e Vilar de Rei",Terras de Trás-os-Montes,309,2025-01-27T17:29:00Z,24878958,Em despacho,3315,Inundação de estruturas por precipitação intensa,0,1,0,2,2025-01-27T17:29:00Z,Mogadouro,Bragança,Norte,-6.706687,41.339826
24878967,Almodôvar e Graça Dos Padrões,Baixo Alentejo,312,2025-01-27T17:20:00Z,24878967,Em conclusão,3301,Queda de árvore,0,1,0,2,2025-01-27T17:20:00Z,Almodôvar,Beja,Alentejo,-7.986013,37.521489
24878974,Aveiras de Cima,Lezíria do Tejo,311,2025-01-27T17:35:00Z,24878974,Em despacho,3301,Queda de árvore,0,2,0,5,2025-01-27T17:35:00Z,Azambuja,Lisboa,Alentejo,-8.897636,39.139731
24879001,"Oeiras e S. Julião da Barra, Paço de Arcos e Caxias",Grande Lisboa,311,2025-01-27T17:35:00Z,24879001,Em despacho,3301,Queda de árvore,0,1,0,3,2025-01-27T17:35:00Z,Oeiras,Lisboa,Área Metropolitana De Lisboa,-9.310159,38.698531
24879040,"N. S. da Vila, N. S. do Bispo e Silveiras",Alentejo Central,312,2025-01-27T17:45:00Z,24879040,Em despacho,3301,Queda de árvore,0,2,0,5,2025-01-27T17:45:00Z,Montemor-o-Novo,Évora,Alentejo,-8.21652,38.662575
24879056,Alcochete,Península de Setúbal,311,2025-01-27T17:25:00Z,24879056,Em despacho,3311,Queda de elementos de estruturas edificados,0,1,0,4,2025-01-27T17:25:00Z,Alcochete,Setúbal,Área Metropolitana De Lisboa,-8.962464,38.749259
24875758,Valhelhas,Beiras e Serra da Estrela,310,2025-01-27T08:41:00Z,24875758,Em curso,3301,Queda de árvore,0,1,0,2,2025-01-27T08:41:00Z,Guarda,Guarda,Centro,-7.405093,40.406271
24876783,Santo António Dos Olivais,Região de Coimbra,310,2025-01-27T10:56:00Z,24876783,Em despacho,3315,Inundação de estruturas por precipitação intensa,0,1,0,2,2025-01-27T10:56:00Z,Coimbra,Coimbra,Centro,-8.426807,40.217261
24877003,Malagueira e Horta Das Figueiras,Alentejo Central,312,2025-01-27T11:41:00Z,24877003,Em conclusão,3315,Inundação de estruturas por precipitação intensa,0,1,0,2,2025-01-27T11:41:00Z,Évora,Évora,Alentejo,-7.924277,38.57285
24877228,Eiras e São Paulo de Frades,Região de Coimbra,310,2025-01-27T12:14:00Z,24877228,Em despacho,3301,Queda de árvore,0,1,0,2,2025-01-27T12:14:00Z,Coimbra,Coimbra,Centro,-8.392843,40.24436
24878057,Salto,Alto Tâmega e Barroso,309,2025-01-27T14:42:00Z,24878057,Em despacho,3301,Queda de árvore,0,1,0,4,2025-01-27T14:42:00Z,Montalegre,Vila Real,Norte,-7.929191,41.611383
24878139,"Sé, Santa Maria e Meixedo",Terras de Trás-os-Montes,309,2025-01-27T14:59:00Z,24878139,Em despacho,3315,Inundação de estruturas por precipitação intensa,0,1,0,2,2025-01-27T14:59:00Z,Bragança,Bragança,Norte,-6.761223,41.813164
24878623,Carvalhal,Oeste,311,2025-01-27T16:30:00Z,24878623,Em despacho,3321,Dano na rede de fornecimento de eletricidade ,0,1,0,2,2025-01-27T16:30:00Z,Bombarral,Leiria,Centro,-9.136946,39.294636
24878641,Poceirão e Marateca,Península de Setúbal,311,2025-01-27T16:26:00Z,24878641,Em despacho,3301,Queda de árvore,0,1,0,1,2025-01-27T16:26:00Z,Palmela,Setúbal,Área Metropolitana De Lisboa,-8.751295,38.672199
24878657,"S.maria, S.miguel, S.martinho, S.pedro Penaferrim",Grande Lisboa,311,2025-01-27T16:38:00Z,24878657,Em despacho,3321,Dano na rede de fornecimento de eletricidade ,0,1,0,2,2025-01-27T16:38:00Z,Sintra,Lisboa,Área Metropolitana De Lisboa,-9.363811,38.743917
24851780,"São Miguel, Santa Eufémia e Rabaçal",Região de Coimbra,310,2025-01-21T23:25:00Z,24851780,Em curso,3315,Inundação de estruturas por precipitação intensa,0,0,0,0,2025-01-21T23:25:00Z,Penela,Coimbra,Centro,-8.399036,40.025502
24876130,Bornes de Aguiar,Alto Tâmega e Barroso,309,2025-01-27T09:37:00Z,24876130,Em curso,3315,Inundação de estruturas por precipitação intensa,0,1,0,5,2025-01-27T09:37:00Z,Vila Pouca De Aguiar,Vila Real,Norte,-7.60702,41.543737
24878217,Alfragide,Grande Lisboa,311,2025-01-27T14:57:00Z,24878217,Em curso,3301,Queda de árvore,0,2,0,8,2025-01-27T14:57:00Z,Amadora,Lisboa,Área Metropolitana De Lisboa,-9.225704,38.738085
24878284,Praia de Mira,Região de Coimbra,310,2025-01-27T15:28:00Z,24878284,Em conclusão,3301,Queda de árvore,0,4,0,11,2025-01-27T15:28:00Z,Mira,Coimbra,Centro,-8.8004270000000009,40.460655
24878536,Vilar de Mouros,Alto Minho,309,2025-01-27T16:06:00Z,24878536,Em conclusão,3301,Queda de árvore,0,0,0,0,2025-01-27T16:06:00Z,Caminha,Viana Do Castelo,Norte,-8.810755,41.8815
24878701,Alfeizerão,Oeste,311,2025-01-27T16:41:00Z,24878701,Em conclusão,3301,Queda de árvore,0,1,0,2,2025-01-27T16:41:00Z,Alcobaça,Leiria,Centro,-9.110786,39.496611
24878704,Salto,Alto Tâmega e Barroso,309,2025-01-27T16:44:00Z,24878704,Em despacho,1107,Nevão,0,3,0,6,2025-01-27T16:44:00Z,Montalegre,Vila Real,Norte,-7.953108,41.639334
24878757,Benavente,Lezíria do Tejo,311,2025-01-27T16:56:00Z,24878757,Em resolução,3301,Queda de árvore,0,2,0,7,2025-01-27T16:56:00Z,Benavente,Santarém,Alentejo,-8.809933,38.975318
24878773,Carnaxide e Queijas,Grande Lisboa,311,2025-01-27T16:50:00Z,24878773,Em curso,3311,Queda de elementos de estruturas edificados,0,1,0,5,2025-01-27T16:50:00Z,Oeiras,Lisboa,Área Metropolitana De Lisboa,-9.233587,38.727201
24878782,Soalhães,Tâmega e Sousa,309,2025-01-27T16:52:00Z,24878782,Em despacho,3301,Queda de árvore,0,1,0,2,2025-01-27T16:52:00Z,Marco De Canaveses,Porto,Norte,-8.100963,41.16136
24878809,Lousã e Vilarinho,Região de Coimbra,310,2025-01-27T17:03:00Z,24878809,Em despacho,3301,Queda de árvore,0,1,0,2,2025-01-27T17:03:00Z,Lousã,Coimbra,Centro,-8.224562,40.08071
24878834,"S.julião, N.s. da Anunciada e S. Maria da Graça",Península de Setúbal,311,2025-01-27T17:09:00Z,24878834,Em curso,3301,Queda de árvore,0,1,0,5,2025-01-27T17:09:00Z,Setúbal,Setúbal,Área Metropolitana De Lisboa,-8.884092,38.533
24878875,Ribeira de Nisa e Carreiras,Alto Alentejo,312,2025-01-27T17:11:00Z,24878875,Em resolução,3301,Queda de árvore,0,2,0,8,2025-01-27T17:11:00Z,Portalegre,Portalegre,Alentejo,-7.413627,39.323865
24878898,Charneca de Caparica e Sobreda,Península de Setúbal,311,2025-01-27T16:52:00Z,24878898,Em despacho,3301,Queda de árvore,0,1,0,3,2025-01-27T16:52:00Z,Almada,Setúbal,Área Metropolitana De Lisboa,-9.206824,38.629265
24878907,Miranda do Corvo,Região de Coimbra,310,2025-01-27T17:20:00Z,24878907,Em despacho,3301,Queda de árvore,0,1,0,2,2025-01-27T17:20:00Z,Miranda Do Corvo,Coimbra,Centro,-8.339499,40.09407
24878939,Rio Tinto,Area M. Porto,309,2025-01-27T17:20:00Z,24878939,Em despacho,3311,Queda de elementos de estruturas edificados,0,1,0,2,2025-01-27T17:20:00Z,Gondomar,Porto,Norte,-8.556242,41.183094
24878736,"Oeiras e S. Julião da Barra, Paço de Arcos e Caxias",Grande Lisboa,311,2025-01-27T16:44:00Z,24878736,Em curso,3301,Queda de árvore,0,1,0,5,2025-01-27T16:44:00Z,Oeiras,Lisboa,Área Metropolitana De Lisboa,-9.290593,38.696925
24878737,Macedo de Cavaleiros,Terras de Trás-os-Montes,309,2025-01-27T16:48:00Z,24878737,Em despacho,3311,Queda de elementos de estruturas edificados,0,2,0,4,2025-01-27T16:48:00Z,Macedo De Cavaleiros,Bragança,Norte,-6.958775,41.538051
24878785,Santa Eufémia e Boa Vista,Região de Leiria,310,2025-01-27T17:00:00Z,24878785,Em despacho,3301,Queda de árvore,0,1,0,2,2025-01-27T17:00:00Z,Leiria,Leiria,Centro,-8.741307,39.784643
24878801,Serpins,Região de Coimbra,310,2025-01-27T17:01:00Z,24878801,Em despacho,3313,Deslizamento de terras,0,1,0,1,2025-01-27T17:01:00Z,Lousã,Coimbra,Centro,-8.200016,40.156377
24878953,Parada de Gatim,Cávado,309,2025-01-27T17:20:00Z,24878953,Em curso,3301,Queda de árvore,0,2,0,5,2025-01-27T17:20:00Z,Vila Verde,Braga,Norte,-8.524927,41.620349
24878987,Campanhã,Area M. Porto,309,2025-01-27T17:28:00Z,24878987,Em despacho,3321,Dano na rede de fornecimento de eletricidade ,0,1,0,4,2025-01-27T17:28:00Z,Porto,Porto,Norte,-8.575994,41.158637
24878984,"Sé, Santa Maria e Meixedo",Terras de Trás-os-Montes,309,2025-01-27T17:32:00Z,24878984,Em despacho,3315,Inundação de estruturas por precipitação intensa,0,1,0,2,2025-01-27T17:32:00Z,Bragança,Bragança,Norte,-6.761223,41.813164
24879000,Loures,Grande Lisboa,311,2025-01-27T17:33:00Z,24879000,Em despacho,3311,Queda de elementos de estruturas edificados,0,2,0,6,2025-01-27T17:33:00Z,Loures,Lisboa,Área Metropolitana De Lisboa,-9.198552,38.845527
24879059,"Oliveira de Frades, Souto de Lafões e Sejães",Viseu Dão Lafões,310,2025-01-27T17:48:00Z,24879059,Em despacho,3301,Queda de árvore,0,1,0,2,2025-01-27T17:48:00Z,Oliveira De Frades,Viseu,Centro,-8.199429,40.744431
24879002,Queiriz,Beiras e Serra da Estrela,310,2025-01-27T17:22:00Z,24879002,Em despacho,3301,Queda de árvore,0,1,0,3,2025-01-27T17:22:00Z,Fornos De Algodres,Guarda,Centro,-7.463091,40.734408
24878476,Grijó e Sermonde,Area M. Porto,309,2025-01-27T16:00:00Z,24878476,Em despacho,3301,Queda de árvore,0,2,0,4,2025-01-27T16:00:00Z,Vila Nova De Gaia,Porto,Norte,-8.579955,41.030201
24878495,Tramagal,Médio Tejo,311,2025-01-27T16:12:00Z,24878495,Em resolução,3315,Inundação de estruturas por precipitação intensa,0,1,0,2,2025-01-27T16:12:00Z,Abrantes,Santarém,Centro,-8.249298,39.461042
24878559,Urrô,Area M. Porto,309,2025-01-27T16:16:00Z,24878559,Em despacho,3301,Queda de árvore,0,1,0,2,2025-01-27T16:16:00Z,Arouca,Aveiro,Norte,-8.292055,40.898489
24878662,São João da Boa Vista,Região de Coimbra,310,2025-01-27T16:35:00Z,24878662,Em despacho,3301,Queda de árvore,0,1,0,2,2025-01-27T16:35:00Z,Tábua,Coimbra,Centro,-8.008366,40.340948
24878694,São Domingos de Rana,Grande Lisboa,311,2025-01-27T16:34:00Z,24878694,Em despacho,3321,Dano na rede de fornecimento de eletricidade ,0,1,0,3,2025-01-27T16:34:00Z,Cascais,Lisboa,Área Metropolitana De Lisboa,-9.340115,38.702729
24878744,Vila Nova da Rainha,Lezíria do Tejo,311,2025-01-27T16:53:00Z,24878744,Em resolução,3301,Queda de árvore,0,1,0,5,2025-01-27T16:53:00Z,Azambuja,Lisboa,Alentejo,-8.91909,39.04341
24878745,Salselas,Terras de Trás-os-Montes,309,2025-01-27T16:50:00Z,24878745,Em despacho,3301,Queda de árvore,0,1,0,2,2025-01-27T16:50:00Z,Macedo De Cavaleiros,Bragança,Norte,-6.87465,41.550667
24878761,Montijo e Afonsoeiro,Península de Setúbal,311,2025-01-27T16:57:00Z,24878761,Em despacho,3301,Queda de árvore,0,1,0,5,2025-01-27T16:57:00Z,Montijo,Setúbal,Área Metropolitana De Lisboa,-9.00581,38.70034
24878778,Santa Maria Maior e Monserrate e Meadela,Alto Minho,309,2025-01-27T16:40:00Z,24878778,Em curso,3311,Queda de elementos de estruturas edificados,0,0,0,0,2025-01-27T16:40:00Z,Viana Do Castelo,Viana Do Castelo,Norte,-8.827073,41.69272
24878779,Algueirão-Mem Martins,Grande Lisboa,311,2025-01-27T16:40:00Z,24878779,Em despacho,3301,Queda de árvore,0,2,0,4,2025-01-27T16:40:00Z,Sintra,Lisboa,Área Metropolitana De Lisboa,-9.330827,38.796332
24878793,Porches,Algarve,313,2025-01-27T16:51:00Z,24878793,Em conclusão,3329,Queda de estruturas temporárias ou móveis,0,1,0,3,2025-01-27T16:51:00Z,Lagoa,Faro,Algarve,-8.398631,37.124827
24878861,"Coruche, Fajarda e Erra",Lezíria do Tejo,311,2025-01-27T17:15:00Z,24878861,Em despacho,3301,Queda de árvore,0,1,0,2,2025-01-27T17:15:00Z,Coruche,Santarém,Alentejo,-8.651043,38.97222
24878863,Pinhal Novo,Península de Setúbal,311,2025-01-27T17:10:00Z,24878863,Em curso,3301,Queda de árvore,0,1,0,5,2025-01-27T17:10:00Z,Palmela,Setúbal,Área Metropolitana De Lisboa,-8.933451,38.62335
24878879,"Crato e Mártires, Flor da Rosa e Vale do Peso",Alto Alentejo,312,2025-01-27T17:10:00Z,24878879,Em conclusão,3301,Queda de árvore,0,2,0,5,2025-01-27T17:10:00Z,Crato,Portalegre,Alentejo,-7.636685,39.264758
24878895,Beco,Médio Tejo,311,2025-01-27T17:18:00Z,24878895,Em conclusão,3301,Queda de árvore,0,2,0,4,2025-01-27T17:18:00Z,Ferreira Do Zêzere,Santarém,Centro,-8.307143,39.779162
24878961,Porto Salvo,Grande Lisboa,311,2025-01-27T17:25:00Z,24878961,Em despacho,3329,Queda de estruturas temporárias ou móveis,0,1,0,4,2025-01-27T17:25:00Z,Oeiras,Lisboa,Área Metropolitana De Lisboa,-9.305901,38.719291
24878963,Vila Chã de Ourique,Lezíria do Tejo,311,2025-01-27T17:33:00Z,24878963,Em resolução,3301,Queda de árvore,0,1,0,3,2025-01-27T17:33:00Z,Cartaxo,Santarém,Alentejo,-8.766047,39.169344
24878977,Charneca de Caparica e Sobreda,Península de Setúbal,311,2025-01-27T17:32:00Z,24878977,Em despacho,3301,Queda de árvore,0,1,0,4,2025-01-27T17:32:00Z,Almada,Setúbal,Área Metropolitana De Lisboa,-9.172667,38.570122
24879045,Gâmbia-Pontes-Alto da Guerra,Península de Setúbal,311,2025-01-27T17:26:00Z,24879045,Em despacho,3321,Dano na rede de fornecimento de eletricidade ,0,1,0,5,2025-01-27T17:26:00Z,Setúbal,Setúbal,Área Metropolitana De Lisboa,-8.81215,38.545747
24879047,Abraveses,Viseu Dão Lafões,310,2025-01-27T17:37:00Z,24879047,Em despacho,3313,Deslizamento de terras,0,1,0,2,2025-01-27T17:37:00Z,Viseu,Viseu,Centro,-7.924947,40.678528
