id,address,subregion,neighborhood,date,id.1,state,nature,nature_description,aerial_means,terrestrial_means,aquatic_means,operational,date.1,Concelho,Distrito,NUTII_DSG,longitude,latitude
25059714,Torrão,Alentejo Litoral,312,2025-03-08T22:10:00Z,25059714,Em curso,1101,Cheia,0,0,0,0,2025-03-08T22:10:00Z,Alcácer Do Sal,Setúbal,Alentejo,-8.359133,38.252053
25065700,São Salvador e Santa Maria,Alentejo Litoral,312,2025-03-10T09:00:00Z,25065700,Em curso,3313,Deslizamento de terras,0,2,0,3,2025-03-10T09:00:00Z,Odemira,Beja,Alentejo,-8.643495,37.596661
25066365,Reguengo e São Julião,Alto Alentejo,312,2025-03-10T13:47:00Z,25066365,Em conclusão,3301,Queda de árvore,0,0,0,0,2025-03-10T13:47:00Z,Portalegre,Portalegre,Alentejo,-7.40139,39.30139
25066467,Sé e São Lourenço,Alto Alentejo,312,2025-03-10T13:56:00Z,25066467,Em conclusão,3301,Queda de árvore,0,0,0,0,2025-03-10T13:56:00Z,Portalegre,Portalegre,Alentejo,-7.412372,39.282628
25066950,Sé e São Lourenço,Alto Alentejo,312,2025-03-10T15:40:00Z,25066950,Em conclusão,3313,Deslizamento de terras,0,1,0,5,2025-03-10T15:40:00Z,Portalegre,Portalegre,Alentejo,-7.402905,39.288733
25067153,Figueira Dos Cavaleiros,Baixo Alentejo,312,2025-03-10T16:13:00Z,25067153,Em despacho,3301,Queda de árvore,0,1,0,1,2025-03-10T16:13:00Z,Ferreira Do Alentejo,Beja,Alentejo,-8.283967,38.107288
25067270,Pedroso e Seixezelo,Area M. Porto,309,2025-03-10T16:44:00Z,25067270,Em despacho,3315,Inundação de estruturas por precipitação intensa,0,1,0,3,2025-03-10T16:44:00Z,Vila Nova De Gaia,Porto,Norte,-8.55785,41.06333
25067352,Santa Marinha e São Pedro da Afurada,Area M. Porto,309,2025-03-10T17:10:00Z,25067352,Em despacho,3315,Inundação de estruturas por precipitação intensa,0,0,0,0,2025-03-10T17:10:00Z,Vila Nova De Gaia,Porto,Norte,-8.648161,41.14226
25066213,Venda do Pinheiro e Santo Estêvão Das Galés,Grande Lisboa,311,2025-03-10T13:02:00Z,25066213,Em conclusão,3311,Queda de elementos de estruturas edificados,0,1,0,1,2025-03-10T13:02:00Z,Mafra,Lisboa,Área Metropolitana De Lisboa,-9.208921,38.921996
25066245,São Salvador e Santa Maria,Alentejo Litoral,312,2025-03-10T12:29:00Z,25066245,Em despacho,3321,Dano na rede de fornecimento de eletricidade ,0,1,0,1,2025-03-10T12:29:00Z,Odemira,Beja,Alentejo,-8.650536,37.594321
25066488,Chamusca e Pinheiro Grande,Lezíria do Tejo,311,2025-03-10T14:12:00Z,25066488,Em despacho,3313,Deslizamento de terras,0,1,0,4,2025-03-10T14:12:00Z,Chamusca,Santarém,Alentejo,-8.451173,39.360068
25066522,Reguengo e São Julião,Alto Alentejo,312,2025-03-10T14:12:00Z,25066522,Em conclusão,3301,Queda de árvore,0,0,0,0,2025-03-10T14:12:00Z,Portalegre,Portalegre,Alentejo,-7.403278,39.298715
25067040,Sé e São Lourenço,Alto Alentejo,312,2025-03-10T15:45:00Z,25067040,Em conclusão,3301,Queda de árvore,0,1,0,2,2025-03-10T15:45:00Z,Portalegre,Portalegre,Alentejo,-7.407555,39.284165
25067238,Cascais e Estoril,Grande Lisboa,311,2025-03-10T16:28:00Z,25067238,Em despacho,3317,Inundação de estruturas por água canalizada,0,1,0,2,2025-03-10T16:28:00Z,Cascais,Lisboa,Área Metropolitana De Lisboa,-9.408908,38.704814
25067333,Vimeiro,Oeste,311,2025-03-10T16:55:00Z,25067333,Em curso,3313,Deslizamento de terras,0,3,0,4,2025-03-10T16:55:00Z,Alcobaça,Leiria,Centro,-9.029884,39.481301
25067390,Turcifal,Oeste,311,2025-03-10T16:55:00Z,25067390,Em resolução,3315,Inundação de estruturas por precipitação intensa,0,2,0,3,2025-03-10T16:55:00Z,Torres Vedras,Lisboa,Centro,-9.276761,39.03408
25063232,Santa Maria do Castelo e Santiago e Santa Susana,Alentejo Litoral,312,2025-03-09T19:02:00Z,25063232,Em curso,1101,Cheia,0,0,0,0,2025-03-09T19:02:00Z,Alcácer Do Sal,Setúbal,Alentejo,-8.48167,38.29806
25064922,Arruda Dos Vinhos,Oeste,311,2025-03-10T09:03:00Z,25064922,Em curso,3315,Inundação de estruturas por precipitação intensa,0,1,0,1,2025-03-10T09:03:00Z,Arruda Dos Vinhos,Lisboa,Centro,-9.098654,39.001645
25065874,Maceira,Região de Leiria,310,2025-03-10T11:57:00Z,25065874,Em curso,3315,Inundação de estruturas por precipitação intensa,0,2,0,3,2025-03-10T11:57:00Z,Leiria,Leiria,Centro,-8.916737,39.710638
25066126,Sé e São Lourenço,Alto Alentejo,312,2025-03-10T12:30:00Z,25066126,Em conclusão,3301,Queda de árvore,0,0,0,0,2025-03-10T12:30:00Z,Portalegre,Portalegre,Alentejo,-7.421847,39.289553
25066273,Sé e São Lourenço,Alto Alentejo,312,2025-03-10T13:02:00Z,25066273,Em conclusão,3309,Desabamento de estruturas edificadas,0,0,0,0,2025-03-10T13:02:00Z,Portalegre,Portalegre,Alentejo,-7.417375,39.288735
25066293,São Salvador e Santa Maria,Alentejo Litoral,312,2025-03-10T13:26:00Z,25066293,Em despacho,3301,Queda de árvore,0,1,0,2,2025-03-10T13:26:00Z,Odemira,Beja,Alentejo,-8.650536,37.594321
25066357,Sé e São Lourenço,Alto Alentejo,312,2025-03-10T13:27:00Z,25066357,Em conclusão,3309,Desabamento de estruturas edificadas,0,0,0,0,2025-03-10T13:27:00Z,Portalegre,Portalegre,Alentejo,-7.405077,39.28866
25066393,Sé e São Lourenço,Alto Alentejo,312,2025-03-10T13:30:00Z,25066393,Em conclusão,3309,Desabamento de estruturas edificadas,0,0,0,0,2025-03-10T13:30:00Z,Portalegre,Portalegre,Alentejo,-7.40493,39.2887
25066777,Benavente,Lezíria do Tejo,311,2025-03-10T15:03:00Z,25066777,Em despacho,3315,Inundação de estruturas por precipitação intensa,0,1,0,2,2025-03-10T15:03:00Z,Benavente,Santarém,Alentejo,-8.804753,38.980872
25066793,Sé e São Lourenço,Alto Alentejo,312,2025-03-10T15:06:00Z,25066793,Em conclusão,3301,Queda de árvore,0,5,0,15,2025-03-10T15:06:00Z,Portalegre,Portalegre,Alentejo,-7.404387,39.297978
25064801,Mira,Região de Coimbra,310,2025-03-10T08:34:00Z,25064801,Em despacho,3315,Inundação de estruturas por precipitação intensa,0,1,0,1,2025-03-10T08:34:00Z,Mira,Coimbra,Centro,-8.734102,40.4268
25065928,Sé e São Lourenço,Alto Alentejo,312,2025-03-10T12:15:00Z,25065928,Em conclusão,3309,Desabamento de estruturas edificadas,0,1,0,1,2025-03-10T12:15:00Z,Portalegre,Portalegre,Alentejo,-7.4066090000000004,39.288378
25065953,Sé e São Lourenço,Alto Alentejo,312,2025-03-10T12:21:00Z,25065953,Em conclusão,3301,Queda de árvore,0,3,0,4,2025-03-10T12:21:00Z,Portalegre,Portalegre,Alentejo,-7.405434,39.281244
25066773,"Almargem do Bispo, Pêro Pinheiro e Montelavar",Grande Lisboa,311,2025-03-10T14:30:00Z,25066773,Em despacho,3315,Inundação de estruturas por precipitação intensa,0,2,0,6,2025-03-10T14:30:00Z,Sintra,Lisboa,Área Metropolitana De Lisboa,-9.304885,38.867927
25067364,Paranhos,Area M. Porto,309,2025-03-10T17:12:00Z,25067364,Em despacho,3315,Inundação de estruturas por precipitação intensa,0,0,0,0,2025-03-10T17:12:00Z,Porto,Porto,Norte,-8.60156,41.16693
25067441,Rogil,Algarve,313,2025-03-10T17:15:00Z,25067441,Em despacho,3301,Queda de árvore,0,2,0,5,2025-03-10T17:15:00Z,Aljezur,Faro,Algarve,-8.789218,37.398116
25067448,"Cedofeita, Ildefonso, Sé, Miragaia, Nicolau e Vitória",Area M. Porto,309,2025-03-10T17:28:00Z,25067448,Em despacho,3315,Inundação de estruturas por precipitação intensa,0,0,0,0,2025-03-10T17:28:00Z,Porto,Porto,Norte,-8.61777,41.1517
25067471,Santa Marinha e São Pedro da Afurada,Area M. Porto,309,2025-03-10T17:35:00Z,25067471,Em despacho,3315,Inundação de estruturas por precipitação intensa,0,0,0,0,2025-03-10T17:35:00Z,Vila Nova De Gaia,Porto,Norte,-8.6346,41.12813
25067520,Madalena,Area M. Porto,309,2025-03-10T17:34:00Z,25067520,Em curso,3315,Inundação de estruturas por precipitação intensa,0,0,0,0,2025-03-10T17:34:00Z,Vila Nova De Gaia,Porto,Norte,-8.646182,41.106358
25067522,Canidelo,Area M. Porto,309,2025-03-10T17:45:00Z,25067522,Em despacho,3315,Inundação de estruturas por precipitação intensa,0,1,0,3,2025-03-10T17:45:00Z,Vila Nova De Gaia,Porto,Norte,-8.6469,41.12399
25067552,Azeitão (São Lourenço e São Simão),Península de Setúbal,311,2025-03-10T17:50:00Z,25067552,Em curso,3313,Deslizamento de terras,0,3,0,12,2025-03-10T17:50:00Z,Setúbal,Setúbal,Área Metropolitana De Lisboa,-8.97172,38.51772
25067752,Moreira,Area M. Porto,309,2025-03-10T18:29:00Z,25067752,Em despacho,3301,Queda de árvore,0,1,0,2,2025-03-10T18:29:00Z,Maia,Porto,Norte,-8.651156,41.243233
25067463,Marinhais,Lezíria do Tejo,311,2025-03-10T17:32:00Z,25067463,Em resolução,3315,Inundação de estruturas por precipitação intensa,0,3,0,8,2025-03-10T17:32:00Z,Salvaterra De Magos,Santarém,Alentejo,-8.704894,39.048061
25067612,Marinhais,Lezíria do Tejo,311,2025-03-10T18:02:00Z,25067612,Em conclusão,3315,Inundação de estruturas por precipitação intensa,0,1,0,1,2025-03-10T18:02:00Z,Salvaterra De Magos,Santarém,Alentejo,-8.704894,39.048061
25067628,"Cedofeita, Ildefonso, Sé, Miragaia, Nicolau e Vitória",Area M. Porto,309,2025-03-10T18:06:00Z,25067628,Em despacho,3315,Inundação de estruturas por precipitação intensa,0,1,0,3,2025-03-10T18:06:00Z,Porto,Porto,Norte,-8.6182,41.15012
25067630,Santa Maria do Castelo e Santiago e Santa Susana,Alentejo Litoral,312,2025-03-10T17:53:00Z,25067630,Em curso,3313,Deslizamento de terras,0,2,0,3,2025-03-10T17:53:00Z,Alcácer Do Sal,Setúbal,Alentejo,-8.513732,38.402515
25067615,Paranhos,Area M. Porto,309,2025-03-10T18:03:00Z,25067615,Em despacho,3315,Inundação de estruturas por precipitação intensa,0,0,0,0,2025-03-10T18:03:00Z,Porto,Porto,Norte,-8.60637,41.16422
25067701,Canidelo,Area M. Porto,309,2025-03-10T18:13:00Z,25067701,Em despacho,3315,Inundação de estruturas por precipitação intensa,0,1,0,4,2025-03-10T18:13:00Z,Vila Nova De Gaia,Porto,Norte,-8.647622,41.133197
25067742,Paranhos,Area M. Porto,309,2025-03-10T18:30:00Z,25067742,Em despacho,3315,Inundação de estruturas por precipitação intensa,0,1,0,2,2025-03-10T18:30:00Z,Porto,Porto,Norte,-8.604254,41.174248
25067751,Alter do Chão,Alto Alentejo,312,2025-03-10T18:23:00Z,25067751,Em conclusão,3315,Inundação de estruturas por precipitação intensa,0,1,0,3,2025-03-10T18:23:00Z,Alter Do Chão,Portalegre,Alentejo,-7.655677,39.200487
25067755,Santa Marinha e São Pedro da Afurada,Area M. Porto,309,2025-03-10T18:38:00Z,25067755,Em despacho,3315,Inundação de estruturas por precipitação intensa,0,0,0,0,2025-03-10T18:38:00Z,Vila Nova De Gaia,Porto,Norte,-8.62476,41.1364
25067534,"Cedofeita, Ildefonso, Sé, Miragaia, Nicolau e Vitória",Area M. Porto,309,2025-03-10T17:46:00Z,25067534,Em despacho,3315,Inundação de estruturas por precipitação intensa,0,0,0,0,2025-03-10T17:46:00Z,Porto,Porto,Norte,-8.615939,41.15359
25067589,Paranhos,Area M. Porto,309,2025-03-10T17:56:00Z,25067589,Em despacho,3315,Inundação de estruturas por precipitação intensa,0,0,0,0,2025-03-10T17:56:00Z,Porto,Porto,Norte,-8.604254,41.174248
25067693,Venda do Pinheiro e Santo Estêvão Das Galés,Grande Lisboa,311,2025-03-10T17:48:00Z,25067693,Em despacho,3313,Deslizamento de terras,0,1,0,5,2025-03-10T17:48:00Z,Mafra,Lisboa,Área Metropolitana De Lisboa,-9.250856,38.875663
25067716,Salir,Algarve,313,2025-03-10T18:27:00Z,25067716,Em despacho,3313,Deslizamento de terras,0,1,0,2,2025-03-10T18:27:00Z,Loulé,Faro,Algarve,-7.957935,37.23457
25067775,Madalena,Area M. Porto,309,2025-03-10T18:45:00Z,25067775,Em despacho,3315,Inundação de estruturas por precipitação intensa,0,0,0,0,2025-03-10T18:45:00Z,Vila Nova De Gaia,Porto,Norte,-8.64005,41.11209
25067679,Algueirão-Mem Martins,Grande Lisboa,311,2025-03-10T17:45:00Z,25067679,Em despacho,3301,Queda de árvore,0,1,0,2,2025-03-10T17:45:00Z,Sintra,Lisboa,Área Metropolitana De Lisboa,-9.340934,38.801232
25067694,Salvaterra de Magos e Foros de Salvaterra,Lezíria do Tejo,311,2025-03-10T18:21:00Z,25067694,Em resolução,3315,Inundação de estruturas por precipitação intensa,0,1,0,4,2025-03-10T18:21:00Z,Salvaterra De Magos,Santarém,Alentejo,-8.766002,39.022647
25067695,Benfica do Ribatejo,Lezíria do Tejo,311,2025-03-10T18:20:00Z,25067695,Em despacho,3315,Inundação de estruturas por precipitação intensa,0,1,0,5,2025-03-10T18:20:00Z,Almeirim,Santarém,Alentejo,-8.688346,39.147223
25067714,Castelo Branco,Beira Baixa,310,2025-03-10T18:20:00Z,25067714,Em despacho,3315,Inundação de estruturas por precipitação intensa,0,3,0,5,2025-03-10T18:20:00Z,Castelo Branco,Castelo Branco,Centro,-7.454262,39.86254
