id,address,subregion,neighborhood,date,id.1,state,nature,nature_description,aerial_means,terrestrial_means,aquatic_means,operational,date.1,Concelho,Distrito,NUTII_DSG,longitude,latitude
24944007,Vila Nova de Tazem,Beiras e Serra da Estrela,310,2025-02-11T08:31:00Z,24944007,Em despacho,3301,Queda de árvore,0,2,0,5,2025-02-11T08:31:00Z,Gouveia,Guarda,Centro,-7.716662,40.505068
24944207,"Espadanedo, Edroso, Murçós e Soutelo Mourisco",Terras de Trás-os-Montes,309,2025-02-11T09:13:00Z,24944207,Em despacho,3311,Queda de elementos de estruturas edificados,0,1,0,3,2025-02-11T09:13:00Z,Macedo De Cavaleiros,Bragança,Norte,-6.988583,41.682405
24944393,São João Das Lampas e Terrugem,Grande Lisboa,311,2025-02-11T09:15:00Z,24944393,Em despacho,3315,Inundação de estruturas por precipitação intensa,0,1,0,3,2025-02-11T09:15:00Z,Sintra,Lisboa,Área Metropolitana De Lisboa,-9.378279,38.848251
24944406,Ramada e Caneças,Grande Lisboa,311,2025-02-11T09:30:00Z,24944406,Em conclusão,3315,Inundação de estruturas por precipitação intensa,0,1,0,4,2025-02-11T09:30:00Z,Odivelas,Lisboa,Área Metropolitana De Lisboa,-9.224517,38.811058
24944556,Santo Antão e São Julião do Tojal,Grande Lisboa,311,2025-02-11T10:00:00Z,24944556,Em conclusão,3315,Inundação de estruturas por precipitação intensa,0,1,0,4,2025-02-11T10:00:00Z,Loures,Lisboa,Área Metropolitana De Lisboa,-9.137133,38.85709
24944560,Glória e Vera Cruz,Região de Aveiro,310,2025-02-11T10:09:00Z,24944560,Em despacho,3317,Inundação de estruturas por água canalizada,0,1,0,1,2025-02-11T10:09:00Z,Aveiro,Aveiro,Centro,-8.647359,40.640643
24944297,Carcavelos e Parede,Grande Lisboa,311,2025-02-11T09:33:00Z,24944297,Em despacho,3315,Inundação de estruturas por precipitação intensa,0,1,0,3,2025-02-11T09:33:00Z,Cascais,Lisboa,Área Metropolitana De Lisboa,-9.344331,38.68334
24944366,Sines,Alentejo Litoral,312,2025-02-11T09:43:00Z,24944366,Em conclusão,3315,Inundação de estruturas por precipitação intensa,0,2,0,7,2025-02-11T09:43:00Z,Sines,Setúbal,Alentejo,-8.85732,37.96325
24944585,"Oeiras e S. Julião da Barra, Paço de Arcos e Caxias",Grande Lisboa,311,2025-02-11T10:00:00Z,24944585,Em despacho,3321,Dano na rede de fornecimento de eletricidade ,0,1,0,4,2025-02-11T10:00:00Z,Oeiras,Lisboa,Área Metropolitana De Lisboa,-9.310159,38.698531
24944615,Cartaxo e Vale da Pinta,Lezíria do Tejo,311,2025-02-11T10:18:00Z,24944615,Em resolução,3315,Inundação de estruturas por precipitação intensa,0,1,0,2,2025-02-11T10:18:00Z,Cartaxo,Santarém,Alentejo,-8.799529,39.165457
24944616,Sines,Alentejo Litoral,312,2025-02-11T10:18:00Z,24944616,Em resolução,3309,Desabamento de estruturas edificadas,0,2,0,6,2025-02-11T10:18:00Z,Sines,Setúbal,Alentejo,-8.783423,37.950027
24944111,"Provesende, Gouvães Douro, S.cristóvão Douro",Douro,309,2025-02-11T08:57:00Z,24944111,Em despacho,3321,Dano na rede de fornecimento de eletricidade ,0,2,0,5,2025-02-11T08:57:00Z,Sabrosa,Vila Real,Norte,-7.547938,41.203187
24944429,Carcavelos e Parede,Grande Lisboa,311,2025-02-11T09:35:00Z,24944429,Em curso,3311,Queda de elementos de estruturas edificados,0,2,0,4,2025-02-11T09:35:00Z,Cascais,Lisboa,Área Metropolitana De Lisboa,-9.355169,38.690219
24944438,Carcavelos e Parede,Grande Lisboa,311,2025-02-11T09:55:00Z,24944438,Em despacho,3315,Inundação de estruturas por precipitação intensa,0,0,0,0,2025-02-11T09:55:00Z,Cascais,Lisboa,Área Metropolitana De Lisboa,-9.33891,38.69525
24944704,Lagoa e Carvoeiro,Algarve,313,2025-02-11T09:53:00Z,24944704,Em despacho,3315,Inundação de estruturas por precipitação intensa,0,1,0,4,2025-02-11T09:53:00Z,Lagoa,Faro,Algarve,-8.449309,37.134614
24944576,Carcavelos e Parede,Grande Lisboa,311,2025-02-11T09:34:00Z,24944576,Em despacho,3315,Inundação de estruturas por precipitação intensa,0,1,0,2,2025-02-11T09:34:00Z,Cascais,Lisboa,Área Metropolitana De Lisboa,-9.355169,38.690219
24944591,São Bartolomeu de Messines,Algarve,313,2025-02-11T10:17:00Z,24944591,Em despacho,3311,Queda de elementos de estruturas edificados,0,2,0,5,2025-02-11T10:17:00Z,Silves,Faro,Algarve,-8.293242,37.307028
24944609,Alverca do Ribatejo e Sobralinho,Grande Lisboa,311,2025-02-11T10:15:00Z,24944609,Em despacho,3315,Inundação de estruturas por precipitação intensa,0,1,0,5,2025-02-11T10:15:00Z,Vila Franca De Xira,Lisboa,Área Metropolitana De Lisboa,-9.046012,38.896362
24944708,Beato,Grande Lisboa,311,2025-02-11T10:34:00Z,24944708,Em despacho,3315,Inundação de estruturas por precipitação intensa,0,0,0,0,2025-02-11T10:34:00Z,Lisboa,Lisboa,Área Metropolitana De Lisboa,-9.11707,38.73176
24944710,Canha,Península de Setúbal,311,2025-02-11T10:30:00Z,24944710,Em despacho,3301,Queda de árvore,0,1,0,4,2025-02-11T10:30:00Z,Montijo,Setúbal,Área Metropolitana De Lisboa,-8.632345,38.75606
24877003,Malagueira e Horta Das Figueiras,Alentejo Central,312,2025-01-27T11:41:00Z,24877003,Em conclusão,3315,Inundação de estruturas por precipitação intensa,0,0,0,0,2025-01-27T11:41:00Z,Évora,Évora,Alentejo,-7.924277,38.57285
24944385,Vialonga,Grande Lisboa,311,2025-02-11T09:23:00Z,24944385,Em despacho,3315,Inundação de estruturas por precipitação intensa,0,1,0,4,2025-02-11T09:23:00Z,Vila Franca De Xira,Lisboa,Área Metropolitana De Lisboa,-9.106591,38.858941
24944412,Algueirão-Mem Martins,Grande Lisboa,311,2025-02-11T09:43:00Z,24944412,Em despacho,3315,Inundação de estruturas por precipitação intensa,0,1,0,2,2025-02-11T09:43:00Z,Sintra,Lisboa,Área Metropolitana De Lisboa,-9.330827,38.796332
24944419,São Jacinto,Região de Aveiro,310,2025-02-11T09:29:00Z,24944419,Em despacho,3311,Queda de elementos de estruturas edificados,0,1,0,2,2025-02-11T09:29:00Z,Aveiro,Aveiro,Centro,-8.723538,40.699711
24944437,Azeitão (São Lourenço e São Simão),Península de Setúbal,311,2025-02-11T09:50:00Z,24944437,Em despacho,3315,Inundação de estruturas por precipitação intensa,0,1,0,4,2025-02-11T09:50:00Z,Setúbal,Setúbal,Área Metropolitana De Lisboa,-9.008047,38.525528
24944485,Carcavelos e Parede,Grande Lisboa,311,2025-02-11T09:35:00Z,24944485,Em despacho,3315,Inundação de estruturas por precipitação intensa,0,1,0,2,2025-02-11T09:35:00Z,Cascais,Lisboa,Área Metropolitana De Lisboa,-9.355169,38.690219
24944505,"S.maria, S.miguel, S.martinho, S.pedro Penaferrim",Grande Lisboa,311,2025-02-11T09:47:00Z,24944505,Em curso,3315,Inundação de estruturas por precipitação intensa,0,3,0,5,2025-02-11T09:47:00Z,Sintra,Lisboa,Área Metropolitana De Lisboa,-9.387899,38.805813
24944685,Carcavelos e Parede,Grande Lisboa,311,2025-02-11T09:40:00Z,24944685,Em despacho,3315,Inundação de estruturas por precipitação intensa,0,1,0,2,2025-02-11T09:40:00Z,Cascais,Lisboa,Área Metropolitana De Lisboa,-9.325114,38.69928
24944717,Porto Salvo,Grande Lisboa,311,2025-02-11T10:28:00Z,24944717,Em despacho,3315,Inundação de estruturas por precipitação intensa,0,1,0,4,2025-02-11T10:28:00Z,Oeiras,Lisboa,Área Metropolitana De Lisboa,-9.305901,38.719291
24944510,"S.maria, S.miguel, S.martinho, S.pedro Penaferrim",Grande Lisboa,311,2025-02-11T09:58:00Z,24944510,Em despacho,3315,Inundação de estruturas por precipitação intensa,0,1,0,2,2025-02-11T09:58:00Z,Sintra,Lisboa,Área Metropolitana De Lisboa,-9.385912,38.758094
24944555,Porto Salvo,Grande Lisboa,311,2025-02-11T10:12:00Z,24944555,Em despacho,3315,Inundação de estruturas por precipitação intensa,0,1,0,5,2025-02-11T10:12:00Z,Oeiras,Lisboa,Área Metropolitana De Lisboa,-9.306172,38.750637
24944639,Cascais e Estoril,Grande Lisboa,311,2025-02-11T10:07:00Z,24944639,Em despacho,3315,Inundação de estruturas por precipitação intensa,0,1,0,3,2025-02-11T10:07:00Z,Cascais,Lisboa,Área Metropolitana De Lisboa,-9.398759,38.70391
24944646,Moscavide e Portela,Grande Lisboa,311,2025-02-11T09:30:00Z,24944646,Em despacho,3315,Inundação de estruturas por precipitação intensa,0,1,0,4,2025-02-11T09:30:00Z,Lisboa,Lisboa,Área Metropolitana De Lisboa,-9.099341,38.780698
24944771,Carcavelos e Parede,Grande Lisboa,311,2025-02-11T10:39:00Z,24944771,Em despacho,3315,Inundação de estruturas por precipitação intensa,0,1,0,2,2025-02-11T10:39:00Z,Cascais,Lisboa,Área Metropolitana De Lisboa,-9.355169,38.690219
