id,address,subregion,neighborhood,date,id.1,state,nature,nature_description,aerial_means,terrestrial_means,aquatic_means,operational,date.1,Concelho,Distrito,NUTII_DSG,longitude,latitude
25070044,Praia do Ribatejo,Médio Tejo,311,2025-03-10T19:30:00Z,25070044,Em curso,1101,Cheia,0,0,0,0,2025-03-10T19:30:00Z,Vila Nova Da Barquinha,Santarém,Centro,-8.357309,39.485638
25071496,São Manços e São Vicente do Pigeiro,Alentejo Central,312,2025-03-11T13:18:00Z,25071496,Em conclusão,1101,Cheia,0,0,0,0,2025-03-11T13:18:00Z,Évora,Évora,Alentejo,-7.713313,38.513673
25202441,Serpa (Salvador e Santa Maria),Baixo Alentejo,312,2025-04-06T10:25:00Z,25202441,Em conclusão,1101,Cheia,0,0,0,0,2025-04-06T10:25:00Z,Serpa,Beja,Alentejo,-7.555783,37.88592
25238439,Sobrado e Bairros,Tâmega e Sousa,309,2025-04-14T08:19:00Z,25238439,Em despacho,3301,Queda de árvore,0,1,0,2,2025-04-14T08:19:00Z,Castelo De Paiva,Aveiro,Norte,-8.23627,41.04705
25238581,Alcobaça e Vestiaria,Oeste,311,2025-04-14T08:50:00Z,25238581,Em despacho,3301,Queda de árvore,0,1,0,2,2025-04-14T08:50:00Z,Alcobaça,Leiria,Centro,-8.970766,39.549944000000004
25068300,Almeirim,Lezíria do Tejo,311,2025-03-10T20:52:00Z,25068300,Em curso,1101,Cheia,0,0,0,0,2025-03-10T20:52:00Z,Almeirim,Santarém,Alentejo,-8.635002,39.187436
25238686,Vilar de Mouros,Alto Minho,309,2025-04-14T09:10:00Z,25238686,Em despacho,3301,Queda de árvore,0,1,0,3,2025-04-14T09:10:00Z,Caminha,Viana Do Castelo,Norte,-8.787108,41.883597
