id,address,subregion,neighborhood,date,id.1,state,nature,nature_description,aerial_means,terrestrial_means,aquatic_means,operational,date.1,Concelho,Distrito,NUTII_DSG,longitude,latitude
25490181,Covas,Alto Minho,309,2025-06-07T10:05:00Z,25490181,Em curso,3109,Gestão de combustível,0,3,0,14,2025-06-07T10:05:00Z,Vila Nova De Cerveira,Viana Do Castelo,Norte,-8.692105,41.901722
25490744,Poceirão e Marateca,Península de Setúbal,311,2025-06-07T12:07:00Z,25490744,Em conclusão,3103,Incêndio rural,0,9,0,34,2025-06-07T12:07:00Z,Palmela,Setúbal,Área Metropolitana De Lisboa,-8.68872,38.59961
25490826,Válega,Região de Aveiro,310,2025-06-07T12:25:00Z,25490826,Em conclusão,3105,Incêndio rural,0,3,0,10,2025-06-07T12:25:00Z,Ovar,Aveiro,Centro,-8.564517,40.829722
25490671,Mexilhoeira Grande,Algarve,313,2025-06-07T11:51:00Z,25490671,Em conclusão,3103,Incêndio rural,0,9,0,22,2025-06-07T11:51:00Z,Portimão,Faro,Algarve,-8.596203,37.162148
25490954,Pontinha e Famões,Grande Lisboa,311,2025-06-07T12:58:00Z,25490954,Em conclusão,2101,Incêndio em edifícios habitacionais,0,1,0,5,2025-06-07T12:58:00Z,Odivelas,Lisboa,Área Metropolitana De Lisboa,-9.21273,38.79887
25491022,Marinha Grande,Região de Leiria,310,2025-06-07T13:15:00Z,25491022,Em resolução,3101,Incêndio rural,1,6,0,25,2025-06-07T13:15:00Z,Leiria,Leiria,Centro,-8.729265,39.742082
25491055,Santa Clara-a-Nova e Gomes Aires,Baixo Alentejo,312,2025-06-07T13:28:00Z,25491055,Em despacho,3103,Incêndio rural,1,6,0,28,2025-06-07T13:28:00Z,Almodôvar,Beja,Alentejo,-8.228333,37.43722
25491046,Banho e Carvalhosa,Tâmega e Sousa,309,2025-06-07T13:21:00Z,25491046,Em curso,2101,Incêndio em edifícios habitacionais,0,3,0,9,2025-06-07T13:21:00Z,Marco De Canaveses,Porto,Norte,-8.147902,41.25384
25490718,Conde e Gandarela,Ave,309,2025-06-07T11:59:00Z,25490718,Em conclusão,3103,Incêndio rural,0,6,0,16,2025-06-07T11:59:00Z,Guimarães,Braga,Norte,-8.339596,41.394277
25490825,Nossa Senhora da Graça do Divor,Alentejo Central,312,2025-06-07T12:25:00Z,25490825,Em resolução,3103,Incêndio rural,1,18,0,64,2025-06-07T12:25:00Z,Évora,Évora,Alentejo,-8.018983,38.669043
25490866,Tarouca e Dálvares,Douro,309,2025-06-07T12:39:00Z,25490866,Em conclusão,3103,Incêndio rural,0,3,0,11,2025-06-07T12:39:00Z,Tarouca,Viseu,Norte,-7.76012,41.035963
25491111,Igreja Nova e Cheleiros,Grande Lisboa,311,2025-06-07T13:39:00Z,25491111,Em despacho,3103,Incêndio rural,0,4,0,16,2025-06-07T13:39:00Z,Mafra,Lisboa,Área Metropolitana De Lisboa,-9.32526,38.91501
