id,address,subregion,neighborhood,date,id.1,state,nature,nature_description,aerial_means,terrestrial_means,aquatic_means,operational,date.1,Concelho,Distrito,NUTII_DSG,longitude,latitude
24851780,"São Miguel, Santa Eufémia e Rabaçal",Região de Coimbra,310,2025-01-21T23:25:00Z,24851780,Em curso,3315,Inundação de estruturas por precipitação intensa,0,0,0,0,2025-01-21T23:25:00Z,Penela,Coimbra,Centro,-8.399036,40.025502
24862409,Ladoeiro,Beira Baixa,310,2025-01-24T08:21:00Z,24862409,Em despacho,3315,Inundação de estruturas por precipitação intensa,0,1,0,2,2025-01-24T08:21:00Z,Idanha-a-Nova,Castelo Branco,Centro,-7.267471,39.83436
24862708,"Coruche, Fajarda e Erra",Lezíria do Tejo,311,2025-01-24T09:35:00Z,24862708,Em despacho,3301,Queda de árvore,0,2,0,3,2025-01-24T09:35:00Z,Coruche,Santarém,Alentejo,-8.528909,38.975831
24862855,Rogil,Algarve,313,2025-01-24T09:57:00Z,24862855,Em despacho,3301,Queda de árvore,0,2,0,6,2025-01-24T09:57:00Z,Aljezur,Faro,Algarve,-8.79915,37.371931
24862871,Gondemaria e Olival,Médio Tejo,311,2025-01-24T10:03:00Z,24862871,Em despacho,3317,Inundação de estruturas por água canalizada,0,3,0,5,2025-01-24T10:03:00Z,Ourém,Santarém,Centro,-8.607563,39.687999
