id,address,subregion,neighborhood,date,id.1,state,nature,nature_description,aerial_means,terrestrial_means,aquatic_means,operational,date.1,Concelho,Distrito,NUTII_DSG,longitude,latitude,state_2
25959238,Ervedosa,Terras de Trás-os-Montes,309,2025-09-08T05:47:00Z,25959238,Em Resolução/Conclusão,3103,Incêndio rural,0,3,0,12,2025-09-08T05:47:00Z,Vinhais,Bragança,Norte,-7.089912,41.72798,Resolução/Conclusão
25832672,Piódão,Região de Coimbra,310,2025-08-13T05:08:00Z,25832672,Em Resolução/Conclusão,3103,Incêndio rural,0,14,0,41,2025-08-13T05:08:00Z,Arganil,Coimbra,Centro,-7.81972,40.23083,Resolução/Conclusão
25840417,Lousã e Vilarinho,Região de Coimbra,310,2025-08-14T13:46:00Z,25840417,Em Resolução/Conclusão,3101,Incêndio rural,0,0,0,0,2025-08-14T13:46:00Z,Lousã,Coimbra,Centro,-8.201561,40.080016,Resolução/Conclusão
25952858,Figueira de Castelo Rodrigo,Beiras e Serra da Estrela,310,2025-09-06T16:22:00Z,25952858,Em Resolução/Conclusão,3103,Incêndio rural,0,3,0,11,2025-09-06T16:22:00Z,Figueira De Castelo Rodrigo,Guarda,Centro,-6.934648,40.906778,Resolução/Conclusão
25953169,"Algodres, Vale de Afonsinho e Vilar de Amargo",Beiras e Serra da Estrela,310,2025-09-06T17:30:00Z,25953169,Em Resolução/Conclusão,3103,Incêndio rural,0,0,0,0,2025-09-06T17:30:00Z,Figueira De Castelo Rodrigo,Guarda,Centro,-6.99142,40.943735,Resolução/Conclusão
25951176,Sandomil,Beiras e Serra da Estrela,310,2025-09-06T10:29:00Z,25951176,Em Resolução/Conclusão,3103,Incêndio rural,3,17,0,67,2025-09-06T10:29:00Z,Seia,Guarda,Centro,-7.76001,40.351547,Resolução/Conclusão
25960784,Almagreira,Região de Leiria,310,2025-09-08T12:20:00Z,25960784,Em Resolução/Conclusão,3103,Incêndio rural,0,1,0,2,2025-09-08T12:20:00Z,Pombal,Leiria,Centro,-8.712058,40.00823,Resolução/Conclusão
25961053,Santo António de Monforte,Alto Tâmega e Barroso,309,2025-09-08T13:20:00Z,25961053,Em Curso,3103,Incêndio rural,4,12,0,63,2025-09-08T13:20:00Z,Chaves,Vila Real,Norte,-7.36777,41.803962,Curso
25961219,"Leiria, Pousos, Barreira e Cortes",Região de Leiria,310,2025-09-08T13:54:00Z,25961219,Em Curso,3103,Incêndio rural,0,5,0,17,2025-09-08T13:54:00Z,Leiria,Leiria,Centro,-8.79157,39.7504,Curso
