id,address,subregion,neighborhood,date,id.1,state,nature,nature_description,aerial_means,terrestrial_means,aquatic_means,operational,date.1,Concelho,Distrito,NUTII_DSG,longitude,latitude,state_2
25951176,Sandomil,Beiras e Serra da Estrela,310,2025-09-06T10:29:00Z,25951176,Em Resolução/Conclusão,3103,Incêndio rural,0,2,0,10,2025-09-06T10:29:00Z,Seia,Guarda,Centro,-7.76001,40.351547,Resolução/Conclusão
26001447,Pelmá,Região de Leiria,310,2025-09-17T02:13:00Z,26001447,Em Resolução/Conclusão,3101,Incêndio rural,0,1,0,2,2025-09-17T02:13:00Z,Alvaiázere,Leiria,Centro,-8.425235,39.797637,Resolução/Conclusão
26003954,Repeses e São Salvador,Viseu Dão Lafões,310,2025-09-17T14:20:00Z,26003954,Em Resolução/Conclusão,3103,Incêndio rural,0,1,0,5,2025-09-17T14:20:00Z,Viseu,Viseu,Centro,-7.95257,40.644483,Resolução/Conclusão
26010690,Calvão e Soutelinho da Raia,Alto Tâmega e Barroso,309,2025-09-18T20:28:00Z,26010690,Em Resolução/Conclusão,3103,Incêndio rural,0,1,0,5,2025-09-18T20:28:00Z,Chaves,Vila Real,Norte,-7.580105,41.828367,Resolução/Conclusão
26011040,"Canedo, Vale e Vila Maior",Area M. Porto,309,2025-09-18T22:08:00Z,26011040,Em Despacho,3103,Incêndio rural,0,1,0,5,2025-09-18T22:08:00Z,Santa Maria Da Feira,Aveiro,Norte,-8.448673,41.011004,Despacho
25832672,Piódão,Região de Coimbra,310,2025-08-13T05:08:00Z,25832672,Em Resolução/Conclusão,3103,Incêndio rural,0,0,0,0,2025-08-13T05:08:00Z,Arganil,Coimbra,Centro,-7.81972,40.23083,Resolução/Conclusão
26010878,Candoso (São Martinho),Ave,309,2025-09-18T21:24:00Z,26010878,Em Resolução/Conclusão,3103,Incêndio rural,0,3,0,14,2025-09-18T21:24:00Z,Guimarães,Braga,Norte,-8.33575,41.42144,Resolução/Conclusão
26011026,Vialonga,Grande Lisboa,311,2025-09-18T21:54:00Z,26011026,Em Despacho,3103,Incêndio rural,0,1,0,5,2025-09-18T21:54:00Z,Vila Franca De Xira,Lisboa,Área Metropolitana De Lisboa,-9.087262,38.878017,Despacho
26003298,Barreiros e Cepões,Viseu Dão Lafões,310,2025-09-17T12:05:00Z,26003298,Em Resolução/Conclusão,3101,Incêndio rural,0,1,0,2,2025-09-17T12:05:00Z,Viseu,Viseu,Centro,-7.825281,40.745844,Resolução/Conclusão
26010993,Viade de Baixo e Fervidelas,Alto Tâmega e Barroso,309,2025-09-18T21:55:00Z,26010993,Em Despacho,3103,Incêndio rural,0,4,0,20,2025-09-18T21:55:00Z,Montalegre,Vila Real,Norte,-7.855522,41.725574,Despacho
25980131,Carva e Vilares,Douro,309,2025-09-12T14:27:00Z,25980131,Em Resolução/Conclusão,3103,Incêndio rural,0,0,0,0,2025-09-12T14:27:00Z,Murça,Vila Real,Norte,-7.55901,41.401343,Resolução/Conclusão
26010531,Portela e Extremo,Alto Minho,309,2025-09-18T19:43:00Z,26010531,Em Curso,3103,Incêndio rural,0,7,0,24,2025-09-18T19:43:00Z,Arcos De Valdevez,Viana Do Castelo,Norte,-8.445827,41.970253,Curso
26010915,Vila Boa de Quires e Maureles,Tâmega e Sousa,309,2025-09-18T21:35:00Z,26010915,Em Resolução/Conclusão,3105,Incêndio rural,0,1,0,5,2025-09-18T21:35:00Z,Marco De Canaveses,Porto,Norte,-8.21453,41.187895,Resolução/Conclusão
26011013,"Póvoa de Varzim, Beiriz e Argivai",Area M. Porto,309,2025-09-18T22:00:00Z,26011013,Em Curso,3103,Incêndio rural,0,1,0,5,2025-09-18T22:00:00Z,Póvoa De Varzim,Porto,Norte,-8.741711,41.385553,Curso
