id,address,subregion,neighborhood,date,id.1,state,nature,nature_description,aerial_means,terrestrial_means,aquatic_means,operational,date.1,Concelho,Distrito,NUTII_DSG,longitude,latitude,state_2
25686029,Beja (Salvador e Santa Maria da Feira),Baixo Alentejo,312,2025-07-16T10:54:00Z,25686029,Em Resolução/Conclusão,3105,Incêndio rural,0,3,0,8,2025-07-16T10:54:00Z,Beja,Beja,Alentejo,-7.859914,38.02577,Resolução/Conclusão
25686168,Proença-a-Velha,Beira Baixa,310,2025-07-16T11:11:00Z,25686168,Em Resolução/Conclusão,3101,Incêndio rural,0,7,0,21,2025-07-16T11:11:00Z,Idanha-a-Nova,Castelo Branco,Centro,-7.206996,40.02141,Resolução/Conclusão
25686177,Pedrógão Pequeno,Beira Baixa,310,2025-07-16T11:19:00Z,25686177,Em Despacho,3101,Incêndio rural,0,0,0,0,2025-07-16T11:19:00Z,Sertã,Castelo Branco,Centro,-8.08157,39.91603,Despacho
25682868,Sertã,Beira Baixa,310,2025-07-15T17:30:00Z,25682868,Em Resolução/Conclusão,3101,Incêndio rural,0,4,0,17,2025-07-15T17:30:00Z,Sertã,Castelo Branco,Centro,-8.092748,39.819602,Resolução/Conclusão
25685551,Alvalade,Alentejo Litoral,312,2025-07-16T09:42:00Z,25685551,Em Resolução/Conclusão,3105,Incêndio rural,0,5,0,15,2025-07-16T09:42:00Z,Santiago Do Cacém,Setúbal,Alentejo,-8.3582,37.895503,Resolução/Conclusão
25685553,Alvalade,Alentejo Litoral,312,2025-07-16T09:37:00Z,25685553,Em Resolução/Conclusão,3105,Incêndio rural,0,0,0,0,2025-07-16T09:37:00Z,Santiago Do Cacém,Setúbal,Alentejo,-8.380973,37.950178,Resolução/Conclusão
25686085,Touro,Viseu Dão Lafões,310,2025-07-16T11:04:00Z,25686085,Em Resolução/Conclusão,3103,Incêndio rural,0,6,0,23,2025-07-16T11:04:00Z,Vila Nova De Paiva,Viseu,Centro,-7.696173,40.938535,Resolução/Conclusão
25686160,Campo,Viseu Dão Lafões,310,2025-07-16T11:15:00Z,25686160,Em Resolução/Conclusão,3103,Incêndio rural,1,4,0,22,2025-07-16T11:15:00Z,Viseu,Viseu,Centro,-7.939115,40.701422,Resolução/Conclusão
25686241,Carvalhal,Beira Baixa,310,2025-07-16T11:31:00Z,25686241,Em Resolução/Conclusão,3101,Incêndio rural,1,6,0,33,2025-07-16T11:31:00Z,Sertã,Castelo Branco,Centro,-8.130772,39.869102,Resolução/Conclusão
25686324,Canaviais,Alentejo Central,312,2025-07-16T11:45:00Z,25686324,Em Curso,3105,Incêndio rural,1,5,0,28,2025-07-16T11:45:00Z,Évora,Évora,Alentejo,-7.899381,38.616252,Curso
25686287,Favaios,Douro,309,2025-07-16T11:40:00Z,25686287,Em Despacho,3103,Incêndio rural,1,3,0,21,2025-07-16T11:40:00Z,Alijó,Vila Real,Norte,-7.498253,41.267672,Despacho
25682254,Panque,Cávado,309,2025-07-15T15:31:00Z,25682254,Em Resolução/Conclusão,3101,Incêndio rural,0,14,0,37,2025-07-15T15:31:00Z,Barcelos,Braga,Norte,-8.607035,41.626113,Resolução/Conclusão
25682641,São Bento,Região de Leiria,310,2025-07-15T16:44:00Z,25682641,Em Resolução/Conclusão,3101,Incêndio rural,0,4,0,11,2025-07-15T16:44:00Z,Porto De Mós,Leiria,Centro,-8.746525,39.524688,Resolução/Conclusão
25683057,Messejana,Baixo Alentejo,312,2025-07-15T18:10:00Z,25683057,Em Resolução/Conclusão,3103,Incêndio rural,0,26,0,82,2025-07-15T18:10:00Z,Aljustrel,Beja,Alentejo,-8.253787,37.845618,Resolução/Conclusão
25684761,Travancas e Roriz,Alto Tâmega e Barroso,309,2025-07-16T06:16:00Z,25684761,Em Resolução/Conclusão,3103,Incêndio rural,0,5,0,19,2025-07-16T06:16:00Z,Chaves,Vila Real,Norte,-7.321297,41.815978,Resolução/Conclusão
25685479,Vilar de Pinheiro,Area M. Porto,309,2025-07-16T09:31:00Z,25685479,Em Resolução/Conclusão,3103,Incêndio rural,0,4,0,16,2025-07-16T09:31:00Z,Vila Do Conde,Porto,Norte,-8.675913,41.270743,Resolução/Conclusão
25686301,"Aldeia do Bispo, Águas e Aldeia de João Pires",Beira Baixa,310,2025-07-16T11:41:00Z,25686301,Em Curso,3103,Incêndio rural,0,5,0,24,2025-07-16T11:41:00Z,Penamacor,Castelo Branco,Centro,-7.2077,40.109481,Curso
