id,address,subregion,neighborhood,date,id.1,state,nature,nature_description,aerial_means,terrestrial_means,aquatic_means,operational,date.1,Concelho,Distrito,NUTII_DSG,longitude,latitude,state_2
25928763,Calvão e Soutelinho da Raia,Alto Tâmega e Barroso,309,2025-09-01T13:46:00Z,25928763,Em Resolução/Conclusão,3103,Incêndio rural,0,0,0,0,2025-09-01T13:46:00Z,Chaves,Vila Real,Norte,-7.570508,41.805473,Resolução/Conclusão
25932474,Vaiamonte,Alto Alentejo,312,2025-09-02T10:30:00Z,25932474,Em Resolução/Conclusão,3105,Incêndio rural,0,6,0,14,2025-09-02T10:30:00Z,Monforte,Portalegre,Alentejo,-7.47818,39.12844,Resolução/Conclusão
25932960,Lamas e Cercal,Oeste,311,2025-09-02T12:06:00Z,25932960,Em Despacho,3103,Incêndio rural,0,1,0,4,2025-09-02T12:06:00Z,Cadaval,Lisboa,Centro,-8.99583,39.224613,Despacho
25932832,Alverca do Ribatejo e Sobralinho,Grande Lisboa,311,2025-09-02T11:33:00Z,25932832,Em Resolução/Conclusão,3103,Incêndio rural,0,1,0,5,2025-09-02T11:33:00Z,Vila Franca De Xira,Lisboa,Área Metropolitana De Lisboa,-9.064747,38.918733,Resolução/Conclusão
25932981,Malagueira e Horta Das Figueiras,Alentejo Central,312,2025-09-02T12:12:00Z,25932981,Em Despacho,3103,Incêndio rural,0,3,0,11,2025-09-02T12:12:00Z,Évora,Évora,Alentejo,-7.9265,38.56363,Despacho
25933011,Soalheira,Beiras e Serra da Estrela,310,2025-09-02T12:17:00Z,25933011,Em Despacho,3105,Incêndio rural,0,1,0,5,2025-09-02T12:17:00Z,Fundão,Castelo Branco,Centro,-7.491072,40.033945,Despacho
25832672,Piódão,Região de Coimbra,310,2025-08-13T05:08:00Z,25832672,Em Resolução/Conclusão,3103,Incêndio rural,1,21,0,70,2025-08-13T05:08:00Z,Arganil,Coimbra,Centro,-7.81972,40.23083,Resolução/Conclusão
25840417,Lousã e Vilarinho,Região de Coimbra,310,2025-08-14T13:46:00Z,25840417,Em Resolução/Conclusão,3101,Incêndio rural,0,2,0,4,2025-08-14T13:46:00Z,Lousã,Coimbra,Centro,-8.201561,40.080016,Resolução/Conclusão
25929520,Pitões Das Junias,Alto Tâmega e Barroso,309,2025-09-01T16:18:00Z,25929520,Em Resolução/Conclusão,3103,Incêndio rural,0,1,0,2,2025-09-01T16:18:00Z,Montalegre,Vila Real,Norte,-7.949417,41.807492,Resolução/Conclusão
