id,address,subregion,neighborhood,date,id.1,state,nature,nature_description,aerial_means,terrestrial_means,aquatic_means,operational,date.1,Concelho,Distrito,NUTII_DSG,longitude,latitude
25517278,Cidade da Maia,Area M. Porto,309,2025-06-12T22:11:00Z,25517278,Em conclusão,3201,Detritos não confinados,0,3,0,11,2025-06-12T22:11:00Z,Maia,Porto,Norte,-8.636967,41.234223
25517282,São João da Madeira,Area M. Porto,309,2025-06-12T22:05:00Z,25517282,Em curso,2101,Incêndio em edifícios habitacionais,0,3,0,10,2025-06-12T22:05:00Z,São João Da Madeira,Aveiro,Norte,-8.491788,40.892735
25516987,Ermelo e Pardelhas,Ave,309,2025-06-12T20:40:00Z,25516987,Em despacho,3107,Consolidação de rescaldo de incêndio rural,0,1,0,5,2025-06-12T20:40:00Z,Mondim De Basto,Vila Real,Norte,-7.842792,41.3582
25517204,Queluz e Belas,Grande Lisboa,311,2025-06-12T21:46:00Z,25517204,Em conclusão,2101,Incêndio em edifícios habitacionais,0,1,0,5,2025-06-12T21:46:00Z,Sintra,Lisboa,Área Metropolitana De Lisboa,-9.25804,38.76676
25515902,Alcaria Ruiva,Baixo Alentejo,312,2025-06-12T16:13:00Z,25515902,Em conclusão,3105,Incêndio rural,0,0,0,0,2025-06-12T16:13:00Z,Mértola,Beja,Alentejo,-7.844582,37.786912
25517290,Santa Cruz do Douro e São Tomé de Covelas,Tâmega e Sousa,309,2025-06-12T22:15:00Z,25517290,Em despacho,3103,Incêndio rural,0,3,0,15,2025-06-12T22:15:00Z,Baião,Porto,Norte,-7.998456,41.123167
