id,address,subregion,neighborhood,date,id.1,state,nature,nature_description,aerial_means,terrestrial_means,aquatic_means,operational,date.1,Concelho,Distrito,NUTII_DSG,longitude,latitude,state_2
25933585,Travanca,Tâmega e Sousa,309,2025-09-02T14:21:00Z,25933585,Em Resolução/Conclusão,3105,Incêndio rural,0,1,0,5,2025-09-02T14:21:00Z,Cinfães,Viseu,Norte,-8.2252,41.03914,Resolução/Conclusão
25934137,Pedralva,Cávado,309,2025-09-02T16:00:00Z,25934137,Em Despacho,3111,Queima,0,1,0,2,2025-09-02T16:00:00Z,Braga,Braga,Norte,-8.315349,41.561402,Despacho
25933011,Soalheira,Beiras e Serra da Estrela,310,2025-09-02T12:17:00Z,25933011,Em Resolução/Conclusão,3105,Incêndio rural,0,2,0,7,2025-09-02T12:17:00Z,Fundão,Castelo Branco,Centro,-7.479918,40.039798,Resolução/Conclusão
25832672,Piódão,Região de Coimbra,310,2025-08-13T05:08:00Z,25832672,Em Resolução/Conclusão,3103,Incêndio rural,0,18,0,52,2025-08-13T05:08:00Z,Arganil,Coimbra,Centro,-7.81972,40.23083,Resolução/Conclusão
25840417,Lousã e Vilarinho,Região de Coimbra,310,2025-08-14T13:46:00Z,25840417,Em Resolução/Conclusão,3101,Incêndio rural,0,2,0,3,2025-08-14T13:46:00Z,Lousã,Coimbra,Centro,-8.201561,40.080016,Resolução/Conclusão
25934223,Glória e Vera Cruz,Região de Aveiro,310,2025-09-02T16:37:00Z,25934223,Em Despacho,3103,Incêndio rural,0,1,0,5,2025-09-02T16:37:00Z,Aveiro,Aveiro,Centro,-8.659223,40.645992,Despacho
