id,address,subregion,neighborhood,date,id.1,state,nature,nature_description,aerial_means,terrestrial_means,aquatic_means,operational,date.1,Concelho,Distrito,NUTII_DSG,longitude,latitude
24877003,Malagueira e Horta Das Figueiras,Alentejo Central,312,2025-01-27T11:41:00Z,24877003,Em conclusão,3315,Inundação de estruturas por precipitação intensa,0,1,0,2,2025-01-27T11:41:00Z,Évora,Évora,Alentejo,-7.924277,38.57285
24880472,Ereira,Região de Coimbra,310,2025-01-28T01:47:00Z,24880472,Em despacho,3301,Queda de árvore,0,1,0,2,2025-01-28T01:47:00Z,Montemor-o-Velho,Coimbra,Centro,-8.716436,40.154921
24874564,"Sé, Santa Maria e Meixedo",Terras de Trás-os-Montes,309,2025-01-26T21:55:00Z,24874564,Em curso,3315,Inundação de estruturas por precipitação intensa,0,1,0,2,2025-01-26T21:55:00Z,Bragança,Bragança,Norte,-6.761223,41.813164
24876200,Ceira,Região de Coimbra,310,2025-01-27T09:56:00Z,24876200,Em despacho,3315,Inundação de estruturas por precipitação intensa,0,1,0,2,2025-01-27T09:56:00Z,Coimbra,Coimbra,Centro,-8.376144,40.175952
24876893,"Sé, Santa Maria e Meixedo",Terras de Trás-os-Montes,309,2025-01-27T11:22:00Z,24876893,Em curso,3315,Inundação de estruturas por precipitação intensa,0,1,0,1,2025-01-27T11:22:00Z,Bragança,Bragança,Norte,-6.761223,41.813164
24880487,Ramalde,Area M. Porto,309,2025-01-28T02:06:00Z,24880487,Em despacho,3317,Inundação de estruturas por água canalizada,0,0,0,0,2025-01-28T02:06:00Z,Porto,Porto,Norte,-8.64097,41.17492
24880467,"Ovar, São João, Arada e São Vicente de Pereira Jusã",Região de Aveiro,310,2025-01-28T01:49:00Z,24880467,Em conclusão,1115,Galgamento costeiro,0,3,0,9,2025-01-28T01:49:00Z,Ovar,Aveiro,Centro,-8.671695,40.872857
24851780,"São Miguel, Santa Eufémia e Rabaçal",Região de Coimbra,310,2025-01-21T23:25:00Z,24851780,Em curso,3315,Inundação de estruturas por precipitação intensa,0,0,0,0,2025-01-21T23:25:00Z,Penela,Coimbra,Centro,-8.399036,40.025502
24880255,Covas e Vila Nova de Oliveirinha,Região de Coimbra,310,2025-01-27T23:25:00Z,24880255,Em despacho,3301,Queda de árvore,0,1,0,3,2025-01-27T23:25:00Z,Tábua,Coimbra,Centro,-7.918972,40.324608
24880473,Lorvão,Região de Coimbra,310,2025-01-28T01:55:00Z,24880473,Em despacho,3301,Queda de árvore,0,2,0,4,2025-01-28T01:55:00Z,Penacova,Coimbra,Centro,-8.351774,40.264257
24880475,Pombal,Região de Leiria,310,2025-01-28T01:48:00Z,24880475,Em despacho,3301,Queda de árvore,0,1,0,2,2025-01-28T01:48:00Z,Pombal,Leiria,Centro,-8.657032,39.908442
