id,address,subregion,neighborhood,date,id.1,state,nature,nature_description,aerial_means,terrestrial_means,aquatic_means,operational,date.1,Concelho,Distrito,NUTII_DSG,longitude,latitude
25552515,Idanha-a-Nova e Alcafozes,Beira Baixa,310,2025-06-20T10:26:00Z,25552515,Em conclusão,3105,Incêndio rural,0,3,0,12,2025-06-20T10:26:00Z,Idanha-a-Nova,Castelo Branco,Centro,-7.161587,39.83646
25553202,Lindoso,Alto Minho,309,2025-06-20T12:29:00Z,25553202,Em conclusão,3103,Incêndio rural,0,1,0,5,2025-06-20T12:29:00Z,Ponte Da Barca,Viana Do Castelo,Norte,-8.24121,41.861148
25553236,Sabadim,Alto Minho,309,2025-06-20T12:39:00Z,25553236,Em conclusão,3101,Incêndio rural,0,3,0,8,2025-06-20T12:39:00Z,Arcos De Valdevez,Viana Do Castelo,Norte,-8.461455,41.907618
25553383,Ladoeiro,Beira Baixa,310,2025-06-20T13:10:00Z,25553383,Em conclusão,3105,Incêndio rural,0,1,0,2,2025-06-20T13:10:00Z,Idanha-a-Nova,Castelo Branco,Centro,-7.275773,39.826375
25553468,Benquerenças,Beira Baixa,310,2025-06-20T13:26:00Z,25553468,Em resolução,3101,Incêndio rural,0,7,0,25,2025-06-20T13:26:00Z,Castelo Branco,Castelo Branco,Centro,-7.5872,39.835847
25553485,Nossa Senhora da Tourega e Nossa Senhora de Guadalupe,Alentejo Central,312,2025-06-20T13:29:00Z,25553485,Em conclusão,3105,Incêndio rural,0,0,0,0,2025-06-20T13:29:00Z,Évora,Évora,Alentejo,-8.076643,38.395753
25553969,"Esposende, Marinhas e Gandra",Cávado,309,2025-06-20T14:55:00Z,25553969,Em despacho,3107,Consolidação de rescaldo de incêndio rural,0,1,0,5,2025-06-20T14:55:00Z,Esposende,Braga,Norte,-8.783658,41.557894
25554055,Campo de Besteiros,Viseu Dão Lafões,310,2025-06-20T15:16:00Z,25554055,Em conclusão,3105,Incêndio rural,0,5,0,15,2025-06-20T15:16:00Z,Tondela,Viseu,Centro,-8.13076,40.567951
25553182,Ceivães e Badim,Alto Minho,309,2025-06-20T12:26:00Z,25553182,Em conclusão,3103,Incêndio rural,0,2,0,6,2025-06-20T12:26:00Z,Monção,Viana Do Castelo,Norte,-8.37627,42.074267
25553364,Carregosa,Area M. Porto,309,2025-06-20T13:00:00Z,25553364,Em conclusão,3101,Incêndio rural,0,8,0,30,2025-06-20T13:00:00Z,Oliveira De Azeméis,Aveiro,Norte,-8.413127,40.881882
25553455,Belmonte e Colmeal da Torre,Beiras e Serra da Estrela,310,2025-06-20T13:25:00Z,25553455,Em conclusão,3103,Incêndio rural,0,3,0,12,2025-06-20T13:25:00Z,Covilhã,Castelo Branco,Centro,-7.352072,40.379908
25553471,Samora Correia,Lezíria do Tejo,311,2025-06-20T13:30:00Z,25553471,Em conclusão,3103,Incêndio rural,0,0,0,0,2025-06-20T13:30:00Z,Benavente,Santarém,Alentejo,-8.916393,38.756655
25553864,Caldas de São Jorge e Pigeiros,Area M. Porto,309,2025-06-20T14:30:00Z,25553864,Em conclusão,3103,Incêndio rural,0,1,0,5,2025-06-20T14:30:00Z,Santa Maria Da Feira,Aveiro,Norte,-8.48706,40.951914
25553875,Ermelo e Pardelhas,Ave,309,2025-06-20T14:38:00Z,25553875,Em resolução,3107,Consolidação de rescaldo de incêndio rural,0,2,0,10,2025-06-20T14:38:00Z,Mondim De Basto,Vila Real,Norte,-7.870974,41.353823
25554198,Beduído e Veiros,Região de Aveiro,310,2025-06-20T15:44:00Z,25554198,Em curso,3105,Incêndio rural,0,1,0,4,2025-06-20T15:44:00Z,Estarreja,Aveiro,Centro,-8.564243,40.767053
25552413,Vila Chã (São João Baptista e Santiago),Alto Minho,309,2025-06-20T10:11:00Z,25552413,Em curso,3107,Consolidação de rescaldo de incêndio rural,0,1,0,5,2025-06-20T10:11:00Z,Ponte Da Barca,Viana Do Castelo,Norte,-8.321927,41.809178
25553154,Pedrógão,Baixo Alentejo,312,2025-06-20T12:23:00Z,25553154,Em curso,3105,Incêndio rural,6,59,0,188,2025-06-20T12:23:00Z,Vidigueira,Beja,Alentejo,-7.61775,38.179483
25553508,São João da Ribeira e Ribeira de São João,Lezíria do Tejo,311,2025-06-20T13:33:00Z,25553508,Em conclusão,3103,Incêndio rural,0,0,0,0,2025-06-20T13:33:00Z,Rio Maior,Santarém,Alentejo,-8.878438,39.290003
25553715,Ferreira do Alentejo e Canhestros,Baixo Alentejo,312,2025-06-20T14:07:00Z,25553715,Em conclusão,3105,Incêndio rural,0,0,0,0,2025-06-20T14:07:00Z,Ferreira Do Alentejo,Beja,Alentejo,-8.119798,38.056325
25553792,Canelas e Fermelã,Região de Aveiro,310,2025-06-20T14:30:00Z,25553792,Em conclusão,3103,Incêndio rural,1,5,0,23,2025-06-20T14:30:00Z,Estarreja,Aveiro,Centro,-8.540262,40.696283
25553824,Monsanto e Idanha-a-Velha,Beira Baixa,310,2025-06-20T14:34:00Z,25553824,Em conclusão,3105,Incêndio rural,0,8,0,30,2025-06-20T14:34:00Z,Idanha-a-Nova,Castelo Branco,Centro,-7.10684,40.045652
25552625,Idanha-a-Nova e Alcafozes,Beira Baixa,310,2025-06-20T10:38:00Z,25552625,Em conclusão,3105,Incêndio rural,0,4,0,8,2025-06-20T10:38:00Z,Idanha-a-Nova,Castelo Branco,Centro,-7.156743,39.833192
25553409,Conceição e Estoi,Algarve,313,2025-06-20T13:13:00Z,25553409,Em conclusão,3103,Incêndio rural,0,2,0,7,2025-06-20T13:13:00Z,Faro,Faro,Algarve,-7.849255,37.082437
25553443,Semide e Rio Vide,Região de Coimbra,310,2025-06-20T13:21:00Z,25553443,Em conclusão,3101,Incêndio rural,0,12,0,40,2025-06-20T13:21:00Z,Miranda Do Corvo,Coimbra,Centro,-8.353843,40.177798
25553626,Samora Correia,Lezíria do Tejo,311,2025-06-20T13:59:00Z,25553626,Em conclusão,3103,Incêndio rural,0,0,0,0,2025-06-20T13:59:00Z,Benavente,Santarém,Alentejo,-8.872114,38.88719
25553679,Lomba,Area M. Porto,309,2025-06-20T14:12:00Z,25553679,Em conclusão,3103,Incêndio rural,0,5,0,19,2025-06-20T14:12:00Z,Gondomar,Porto,Norte,-8.405722,41.033878
25554043,Alcains,Beira Baixa,310,2025-06-20T15:15:00Z,25554043,Em resolução,3103,Incêndio rural,0,8,0,24,2025-06-20T15:15:00Z,Castelo Branco,Castelo Branco,Centro,-7.466145,39.930763
25554060,"Silvares, Pias, Nogueira e Alvarenga",Tâmega e Sousa,309,2025-06-20T15:19:00Z,25554060,Em resolução,3103,Incêndio rural,0,4,0,20,2025-06-20T15:19:00Z,Lousada,Porto,Norte,-8.25661,41.272575
25554146,Viseu,Viseu Dão Lafões,310,2025-06-20T15:34:00Z,25554146,Em conclusão,3103,Incêndio rural,0,5,0,15,2025-06-20T15:34:00Z,Viseu,Viseu,Centro,-7.898413,40.656252
25554211,Ruivães e Novais,Ave,309,2025-06-20T15:47:00Z,25554211,Em despacho,3107,Consolidação de rescaldo de incêndio rural,0,0,0,0,2025-06-20T15:47:00Z,Vila Nova De Famalicão,Braga,Norte,-8.42914,41.39405
25554201,Rendo,Beiras e Serra da Estrela,310,2025-06-20T15:45:00Z,25554201,Em resolução,3103,Incêndio rural,0,4,0,17,2025-06-20T15:45:00Z,Sabugal,Guarda,Centro,-7.0177,40.38429
