id,address,subregion,neighborhood,date,id.1,state,nature,nature_description,aerial_means,terrestrial_means,aquatic_means,operational,date.1,Concelho,Distrito,NUTII_DSG,longitude,latitude
25263058,Braga (São José de São Lázaro e São João do Souto),Cávado,309,2025-04-20T11:02:00Z,25263058,Em despacho,3317,Inundação de estruturas por água canalizada,0,1,0,2,2025-04-20T11:02:00Z,Braga,Braga,Norte,-8.419101,41.543217
25263182,Odivelas,Grande Lisboa,311,2025-04-20T11:28:00Z,25263182,Em despacho,3311,Queda de elementos de estruturas edificados,0,1,0,4,2025-04-20T11:28:00Z,Odivelas,Lisboa,Área Metropolitana De Lisboa,-9.182813,38.793425
25263213,Almagreira,Região de Leiria,310,2025-04-20T11:49:00Z,25263213,Em despacho,3301,Queda de árvore,0,1,0,3,2025-04-20T11:49:00Z,Pombal,Leiria,Centro,-8.69483,39.954196
25071496,São Manços e São Vicente do Pigeiro,Alentejo Central,312,2025-03-11T13:18:00Z,25071496,Em conclusão,1101,Cheia,0,0,0,0,2025-03-11T13:18:00Z,Évora,Évora,Alentejo,-7.713313,38.513673
25202441,Serpa (Salvador e Santa Maria),Baixo Alentejo,312,2025-04-06T10:25:00Z,25202441,Em conclusão,1101,Cheia,0,0,0,0,2025-04-06T10:25:00Z,Serpa,Beja,Alentejo,-7.555783,37.88592
25262974,Anais,Alto Minho,309,2025-04-20T10:44:00Z,25262974,Em conclusão,3313,Deslizamento de terras,0,2,0,3,2025-04-20T10:44:00Z,Ponte De Lima,Viana Do Castelo,Norte,-8.533672,41.70192
25263190,"Barcelos, V. Boa e V. Frescainha",Cávado,309,2025-04-20T11:50:00Z,25263190,Em despacho,3301,Queda de árvore,0,1,0,2,2025-04-20T11:50:00Z,Barcelos,Braga,Norte,-8.61563,41.53566
