id,address,subregion,neighborhood,date,id.1,state,nature,nature_description,aerial_means,terrestrial_means,aquatic_means,operational,date.1,Concelho,Distrito,NUTII_DSG,longitude,latitude
25270888,"S.maria, S.miguel, S.martinho, S.pedro Penaferrim",Grande Lisboa,311,2025-04-22T10:12:00Z,25270888,Em despacho,3301,Queda de árvore,0,1,0,2,2025-04-22T10:12:00Z,Sintra,Lisboa,Área Metropolitana De Lisboa,-9.387899,38.805813
25071496,São Manços e São Vicente do Pigeiro,Alentejo Central,312,2025-03-11T13:18:00Z,25071496,Em conclusão,1101,Cheia,0,0,0,0,2025-03-11T13:18:00Z,Évora,Évora,Alentejo,-7.713313,38.513673
25202441,Serpa (Salvador e Santa Maria),Baixo Alentejo,312,2025-04-06T10:25:00Z,25202441,Em conclusão,1101,Cheia,0,0,0,0,2025-04-06T10:25:00Z,Serpa,Beja,Alentejo,-7.555783,37.88592
25270695,Vila Nova de Cacela,Algarve,313,2025-04-22T09:37:00Z,25270695,Em conclusão,3321,Dano na rede de fornecimento de eletricidade ,0,2,0,7,2025-04-22T09:37:00Z,Vila Real De Santo António,Faro,Algarve,-7.53444,37.17447
25270978,"Oeiras e S. Julião da Barra, Paço de Arcos e Caxias",Grande Lisboa,311,2025-04-22T10:27:00Z,25270978,Em despacho,3317,Inundação de estruturas por água canalizada,0,1,0,5,2025-04-22T10:27:00Z,Oeiras,Lisboa,Área Metropolitana De Lisboa,-9.310159,38.698531
