id,address,subregion,neighborhood,date,id.1,state,nature,nature_description,aerial_means,terrestrial_means,aquatic_means,operational,date.1,Concelho,Distrito,NUTII_DSG,longitude,latitude,state_2
25686799,Souto Maior,Douro,309,2025-07-16T13:19:00Z,25686799,Em Curso,3101,Incêndio rural,9,35,0,147,2025-07-16T13:19:00Z,Sabrosa,Vila Real,Norte,-7.57839,41.287518,Curso
25697095,Alfarelos,Região de Coimbra,310,2025-07-18T14:01:00Z,25697095,Em Resolução/Conclusão,3101,Incêndio rural,0,17,0,58,2025-07-18T14:01:00Z,Soure,Coimbra,Centro,-8.640182,40.154127,Resolução/Conclusão
25697379,Azeitão (São Lourenço e São Simão),Península de Setúbal,311,2025-07-18T14:51:00Z,25697379,Em Resolução/Conclusão,3105,Incêndio rural,1,18,0,68,2025-07-18T14:51:00Z,Setúbal,Setúbal,Área Metropolitana De Lisboa,-9.008871,38.513402,Resolução/Conclusão
25697429,Almeirim,Lezíria do Tejo,311,2025-07-18T15:04:00Z,25697429,Em Resolução/Conclusão,3103,Incêndio rural,0,10,0,33,2025-07-18T15:04:00Z,Almeirim,Santarém,Alentejo,-8.667113,39.215015,Resolução/Conclusão
25697597,Abiul,Região de Leiria,310,2025-07-18T15:40:00Z,25697597,Em Despacho,3103,Incêndio rural,1,4,0,23,2025-07-18T15:40:00Z,Pombal,Leiria,Centro,-8.536554,39.904421,Despacho
25695378,Refóios do Lima,Alto Minho,309,2025-07-18T08:35:00Z,25695378,Em Resolução/Conclusão,3103,Incêndio rural,0,15,0,45,2025-07-18T08:35:00Z,Ponte De Lima,Viana Do Castelo,Norte,-8.52127,41.804412,Resolução/Conclusão
25697084,Ribeira do Neiva,Cávado,309,2025-07-18T14:01:00Z,25697084,Em Resolução/Conclusão,3103,Incêndio rural,0,6,0,19,2025-07-18T14:01:00Z,Vila Verde,Braga,Norte,-8.50881,41.698721,Resolução/Conclusão
25697209,Venda do Pinheiro e Santo Estêvão Das Galés,Grande Lisboa,311,2025-07-18T14:19:00Z,25697209,Em Resolução/Conclusão,3103,Incêndio rural,0,3,0,15,2025-07-18T14:19:00Z,Mafra,Lisboa,Área Metropolitana De Lisboa,-9.232798,38.874027,Resolução/Conclusão
25697241,Esmoriz,Região de Aveiro,310,2025-07-18T14:27:00Z,25697241,Em Resolução/Conclusão,3105,Incêndio rural,0,2,0,7,2025-07-18T14:27:00Z,Ovar,Aveiro,Centro,-8.647848,40.955535,Resolução/Conclusão
25697536,Vila Nova de São Bento e Vale de Vargo,Baixo Alentejo,312,2025-07-18T15:25:00Z,25697536,Em Curso,3105,Incêndio rural,0,6,0,22,2025-07-18T15:25:00Z,Serpa,Beja,Alentejo,-7.41287,37.92695,Curso
25697550,"Santiago do Cacém, S.cruz e São Bartolomeu da Serra",Alentejo Litoral,312,2025-07-18T15:28:00Z,25697550,Em Despacho,3103,Incêndio rural,0,4,0,16,2025-07-18T15:28:00Z,Santiago Do Cacém,Setúbal,Alentejo,-8.724654,38.07005,Despacho
25692562,Atouguia,Médio Tejo,311,2025-07-17T15:31:00Z,25692562,Em Resolução/Conclusão,3101,Incêndio rural,0,3,0,12,2025-07-17T15:31:00Z,Ourém,Santarém,Centro,-8.62029,39.654072,Resolução/Conclusão
25692814,"Espírito Santo, Nossa Senhora da Graça e São Simão",Alto Alentejo,312,2025-07-17T16:23:00Z,25692814,Em Resolução/Conclusão,3103,Incêndio rural,0,4,0,17,2025-07-17T16:23:00Z,Nisa,Portalegre,Alentejo,-7.635642,39.486993,Resolução/Conclusão
25693046,Santo Aleixo,Alto Alentejo,312,2025-07-17T17:04:00Z,25693046,Em Resolução/Conclusão,3105,Incêndio rural,0,3,0,7,2025-07-17T17:04:00Z,Monforte,Portalegre,Alentejo,-7.397183,38.919233,Resolução/Conclusão
25697326,Paredes,Area M. Porto,309,2025-07-18T14:41:00Z,25697326,Em Resolução/Conclusão,3103,Incêndio rural,0,1,0,5,2025-07-18T14:41:00Z,Paredes,Porto,Norte,-8.311818,41.234578,Resolução/Conclusão
25697408,Orjais,Beiras e Serra da Estrela,310,2025-07-18T14:58:00Z,25697408,Em Resolução/Conclusão,3103,Incêndio rural,0,9,0,32,2025-07-18T14:58:00Z,Covilhã,Castelo Branco,Centro,-7.446697,40.325678,Resolução/Conclusão
25696034,Rio de Mel,Beiras e Serra da Estrela,310,2025-07-18T10:31:00Z,25696034,Em Resolução/Conclusão,3103,Incêndio rural,0,5,0,15,2025-07-18T10:31:00Z,Trancoso,Guarda,Centro,-7.4166,40.801295,Resolução/Conclusão
25696336,Alcaria Ruiva,Baixo Alentejo,312,2025-07-18T11:24:00Z,25696336,Em Resolução/Conclusão,3105,Incêndio rural,1,21,0,45,2025-07-18T11:24:00Z,Mértola,Beja,Alentejo,-7.78541,37.768223,Resolução/Conclusão
25696838,Possacos,Alto Tâmega e Barroso,309,2025-07-18T13:13:00Z,25696838,Em Resolução/Conclusão,3103,Incêndio rural,0,6,0,19,2025-07-18T13:13:00Z,Valpaços,Vila Real,Norte,-7.255073,41.635962,Resolução/Conclusão
25696955,Bouro (Santa Marta),Cávado,309,2025-07-18T13:36:00Z,25696955,Em Curso,3103,Incêndio rural,3,19,0,75,2025-07-18T13:36:00Z,Amares,Braga,Norte,-8.288215,41.672176,Curso
25697086,Caldas de São Jorge e Pigeiros,Area M. Porto,309,2025-07-18T13:58:00Z,25697086,Em Resolução/Conclusão,3103,Incêndio rural,0,1,0,4,2025-07-18T13:58:00Z,Santa Maria Da Feira,Aveiro,Norte,-8.48706,40.951914,Resolução/Conclusão
25697386,Requião,Ave,309,2025-07-18T14:57:00Z,25697386,Em Resolução/Conclusão,3103,Incêndio rural,1,4,0,26,2025-07-18T14:57:00Z,Vila Nova De Famalicão,Braga,Norte,-8.486485,41.419627,Resolução/Conclusão
25697591,Fiães,Area M. Porto,309,2025-07-18T15:38:00Z,25697591,Em Despacho,3103,Incêndio rural,1,3,0,21,2025-07-18T15:38:00Z,Santa Maria Da Feira,Aveiro,Norte,-8.522206,40.985785,Despacho
25697625,Malagueira e Horta Das Figueiras,Alentejo Central,312,2025-07-18T15:45:00Z,25697625,Em Curso,3103,Incêndio rural,1,2,0,15,2025-07-18T15:45:00Z,Évora,Évora,Alentejo,-7.918509,38.549701,Curso
25697567,Esporões,Cávado,309,2025-07-18T15:29:00Z,25697567,Em Resolução/Conclusão,3105,Incêndio rural,0,2,0,8,2025-07-18T15:29:00Z,Braga,Braga,Norte,-8.417638,41.5104,Resolução/Conclusão
25697488,Igrejinha,Alentejo Central,312,2025-07-18T15:10:00Z,25697488,Em Resolução/Conclusão,3105,Incêndio rural,0,6,0,21,2025-07-18T15:10:00Z,Arraiolos,Évora,Alentejo,-7.918308,38.664258,Resolução/Conclusão
25697521,Poceirão e Marateca,Península de Setúbal,311,2025-07-18T15:23:00Z,25697521,Em Despacho,3103,Incêndio rural,0,2,0,10,2025-07-18T15:23:00Z,Palmela,Setúbal,Área Metropolitana De Lisboa,-8.654671,38.55811,Despacho
25697539,Glória e Vera Cruz,Região de Aveiro,310,2025-07-18T15:26:00Z,25697539,Em Resolução/Conclusão,3105,Incêndio rural,0,6,0,18,2025-07-18T15:26:00Z,Aveiro,Aveiro,Centro,-8.679202,40.633687,Resolução/Conclusão
25697570,Ermesinde,Area M. Porto,309,2025-07-18T15:30:00Z,25697570,Em Resolução/Conclusão,3103,Incêndio rural,0,2,0,8,2025-07-18T15:30:00Z,Valongo,Porto,Norte,-8.547217,41.222048,Resolução/Conclusão
