id,address,subregion,neighborhood,date,id.1,state,nature,nature_description,aerial_means,terrestrial_means,aquatic_means,operational,date.1,Concelho,Distrito,NUTII_DSG,longitude,latitude
25581392,Távora (Santa Maria e São Vicente),Alto Minho,309,2025-06-26T08:33:00Z,25581392,Em despacho,2201,Incêndio em equipamentos ou produtos,0,0,0,0,2025-06-26T08:33:00Z,Arcos De Valdevez,Viana Do Castelo,Norte,-8.45471,41.81358
25581155,Azambuja,Lezíria do Tejo,311,2025-06-26T07:29:00Z,25581155,Em despacho,3109,Gestão de combustível,0,1,0,4,2025-06-26T07:29:00Z,Azambuja,Lisboa,Alentejo,-8.898558,39.118107
25581325,Lamelas e Guimarei,Area M. Porto,309,2025-06-26T08:10:00Z,25581325,Em conclusão,3103,Incêndio rural,0,1,0,5,2025-06-26T08:10:00Z,Santo Tirso,Porto,Norte,-8.478203,41.301309
25581054,Beringel,Baixo Alentejo,312,2025-06-26T06:48:00Z,25581054,Em resolução,2301,Incêndio em transporte rodoviário,0,7,0,20,2025-06-26T06:48:00Z,Beja,Beja,Alentejo,-8.009313,38.05808
25581137,Paredes de Viadores e Manhuncelos,Tâmega e Sousa,309,2025-06-26T07:05:00Z,25581137,Em resolução,2101,Incêndio em edifícios habitacionais,0,4,0,10,2025-06-26T07:05:00Z,Marco De Canaveses,Porto,Norte,-8.114447,41.131908
