id,address,subregion,neighborhood,date,id.1,state,nature,nature_description,aerial_means,terrestrial_means,aquatic_means,operational,date.1,Concelho,Distrito,NUTII_DSG,longitude,latitude
25087162,Pedrógão,Baixo Alentejo,312,2025-03-14T17:00:00Z,25087162,Em curso,1101,Cheia,0,0,0,0,2025-03-14T17:00:00Z,Vidigueira,Beja,Alentejo,-7.630327,38.110775
25116192,Charneca de Caparica e Sobreda,Península de Setúbal,311,2025-03-20T06:59:00Z,25116192,Em curso,3301,Queda de árvore,0,1,0,3,2025-03-20T06:59:00Z,Almada,Setúbal,Área Metropolitana De Lisboa,-9.179431,38.58817
25125459,Massamá e Monte Abraão,Grande Lisboa,311,2025-03-21T07:28:00Z,25125459,Em despacho,3301,Queda de árvore,0,1,0,2,2025-03-21T07:28:00Z,Sintra,Lisboa,Área Metropolitana De Lisboa,-9.27045,38.75541
25126336,Manteigas (Santa Maria),Beiras e Serra da Estrela,310,2025-03-21T10:00:00Z,25126336,Em despacho,3301,Queda de árvore,0,2,0,4,2025-03-21T10:00:00Z,Manteigas,Guarda,Centro,-7.537826,40.403513
25126702,São João Das Lampas e Terrugem,Grande Lisboa,311,2025-03-21T11:01:00Z,25126702,Em despacho,3301,Queda de árvore,0,1,0,1,2025-03-21T11:01:00Z,Sintra,Lisboa,Área Metropolitana De Lisboa,-9.442718,38.844843
25126795,Sarzedas,Beira Baixa,310,2025-03-21T11:17:00Z,25126795,Em despacho,3313,Deslizamento de terras,0,3,0,5,2025-03-21T11:17:00Z,Castelo Branco,Castelo Branco,Centro,-7.61616,39.847017
25126797,Marinhais,Lezíria do Tejo,311,2025-03-21T11:18:00Z,25126797,Em resolução,3315,Inundação de estruturas por precipitação intensa,0,2,0,9,2025-03-21T11:18:00Z,Salvaterra De Magos,Santarém,Alentejo,-8.704894,39.048061
25126986,São Pedro e Santa Maria e Vila Boa do Mondego,Beiras e Serra da Estrela,310,2025-03-21T11:40:00Z,25126986,Em despacho,3301,Queda de árvore,0,1,0,2,2025-03-21T11:40:00Z,Celorico Da Beira,Guarda,Centro,-7.39057,40.639156
25127322,Caldas da Rainha - Santo Onofre e Serra do Bouro,Oeste,311,2025-03-21T12:44:00Z,25127322,Em conclusão,3301,Queda de árvore,0,1,0,5,2025-03-21T12:44:00Z,Caldas Da Rainha,Leiria,Centro,-9.173623,39.439262
25127615,Alcabideche,Grande Lisboa,311,2025-03-21T13:35:00Z,25127615,Em despacho,3301,Queda de árvore,0,1,0,5,2025-03-21T13:35:00Z,Cascais,Lisboa,Área Metropolitana De Lisboa,-9.438785,38.755713
25127783,Colares,Grande Lisboa,311,2025-03-21T13:55:00Z,25127783,Em despacho,3315,Inundação de estruturas por precipitação intensa,0,1,0,3,2025-03-21T13:55:00Z,Sintra,Lisboa,Área Metropolitana De Lisboa,-9.464841,38.795953
25127815,Avintes,Area M. Porto,309,2025-03-21T14:12:00Z,25127815,Em despacho,3329,Queda de estruturas temporárias ou móveis,0,1,0,3,2025-03-21T14:12:00Z,Vila Nova De Gaia,Porto,Norte,-8.547155,41.105347
25127963,Alcabideche,Grande Lisboa,311,2025-03-21T14:32:00Z,25127963,Em despacho,3301,Queda de árvore,0,2,0,7,2025-03-21T14:32:00Z,Cascais,Lisboa,Área Metropolitana De Lisboa,-9.438785,38.755713
25128033,"S.maria, S.miguel, S.martinho, S.pedro Penaferrim",Grande Lisboa,311,2025-03-21T14:46:00Z,25128033,Em despacho,3301,Queda de árvore,0,2,0,6,2025-03-21T14:46:00Z,Sintra,Lisboa,Área Metropolitana De Lisboa,-9.366763,38.781718
25128038,São Bartolomeu de Messines,Algarve,313,2025-03-21T14:40:00Z,25128038,Em despacho,3301,Queda de árvore,0,1,0,3,2025-03-21T14:40:00Z,Silves,Faro,Algarve,-8.22463,37.255898
25128056,Santa Maria do Castelo e Santiago e Santa Susana,Alentejo Litoral,312,2025-03-21T14:41:00Z,25128056,Em curso,1101,Cheia,0,0,0,0,2025-03-21T14:41:00Z,Alcácer Do Sal,Setúbal,Alentejo,-8.434671,38.401157
25128067,Meimão,Beira Baixa,310,2025-03-21T14:51:00Z,25128067,Em curso,3313,Deslizamento de terras,0,4,0,6,2025-03-21T14:51:00Z,Penamacor,Castelo Branco,Centro,-7.118335,40.282541
25128092,Amora,Península de Setúbal,311,2025-03-21T14:58:00Z,25128092,Em curso,3301,Queda de árvore,0,1,0,3,2025-03-21T14:58:00Z,Seixal,Setúbal,Área Metropolitana De Lisboa,-9.12088,38.62349
25128106,Repeses e São Salvador,Viseu Dão Lafões,310,2025-03-21T14:23:00Z,25128106,Em despacho,3315,Inundação de estruturas por precipitação intensa,0,1,0,2,2025-03-21T14:23:00Z,Viseu,Viseu,Centro,-7.923871,40.644307
25128142,Rio Frio,Alto Minho,309,2025-03-21T15:00:00Z,25128142,Em despacho,3301,Queda de árvore,0,1,0,2,2025-03-21T15:00:00Z,Arcos De Valdevez,Viana Do Castelo,Norte,-8.489703,41.873003
25128181,Bombarral e Vale Covo,Oeste,311,2025-03-21T15:09:00Z,25128181,Em despacho,3301,Queda de árvore,0,1,0,4,2025-03-21T15:09:00Z,Bombarral,Leiria,Centro,-9.184976,39.250978
25128190,Vila Franca de Xira,Grande Lisboa,311,2025-03-21T14:35:00Z,25128190,Em despacho,3315,Inundação de estruturas por precipitação intensa,0,1,0,2,2025-03-21T14:35:00Z,Vila Franca De Xira,Lisboa,Área Metropolitana De Lisboa,-8.989293,38.955728
25128208,Campanhã,Area M. Porto,309,2025-03-21T15:10:00Z,25128208,Em despacho,3315,Inundação de estruturas por precipitação intensa,0,1,0,4,2025-03-21T15:10:00Z,Porto,Porto,Norte,-8.571543,41.154223
25128251,"Santa Iria de Azoia, São João da Talha e Bobadela",Grande Lisboa,311,2025-03-21T15:22:00Z,25128251,Em despacho,3321,Dano na rede de fornecimento de eletricidade ,0,0,0,0,2025-03-21T15:22:00Z,Loures,Lisboa,Área Metropolitana De Lisboa,-9.09696,38.80996
25128265,Colares,Grande Lisboa,311,2025-03-21T15:16:00Z,25128265,Em despacho,3301,Queda de árvore,0,1,0,2,2025-03-21T15:16:00Z,Sintra,Lisboa,Área Metropolitana De Lisboa,-9.453168,38.787078
25128276,"Belazaima do Chão, Castanheira do Vouga e Agadão",Região de Aveiro,310,2025-03-21T15:19:00Z,25128276,Em despacho,3301,Queda de árvore,0,2,0,5,2025-03-21T15:19:00Z,Águeda,Aveiro,Centro,-8.380975,40.532562
25128297,Abrantes (São Vicente e São João) e Alferrarede,Médio Tejo,311,2025-03-21T15:29:00Z,25128297,Em despacho,3311,Queda de elementos de estruturas edificados,0,1,0,2,2025-03-21T15:29:00Z,Abrantes,Santarém,Centro,-8.168056,39.47525
25128301,Paredes,Area M. Porto,309,2025-03-21T15:27:00Z,25128301,Em despacho,3301,Queda de árvore,0,1,0,2,2025-03-21T15:27:00Z,Paredes,Porto,Norte,-8.340526,41.21359
25059714,Torrão,Alentejo Litoral,312,2025-03-08T22:10:00Z,25059714,Em curso,1101,Cheia,0,1,0,2,2025-03-08T22:10:00Z,Alcácer Do Sal,Setúbal,Alentejo,-8.359133,38.252053
25070044,Praia do Ribatejo,Médio Tejo,311,2025-03-10T19:30:00Z,25070044,Em curso,1101,Cheia,0,0,0,0,2025-03-10T19:30:00Z,Vila Nova Da Barquinha,Santarém,Centro,-8.357309,39.485638
25071496,São Manços e São Vicente do Pigeiro,Alentejo Central,312,2025-03-11T13:18:00Z,25071496,Em curso,1101,Cheia,0,2,0,4,2025-03-11T13:18:00Z,Évora,Évora,Alentejo,-7.713313,38.513673
25126246,Corval,Alentejo Central,312,2025-03-21T09:54:00Z,25126246,Em despacho,3311,Queda de elementos de estruturas edificados,0,1,0,2,2025-03-21T09:54:00Z,Reguengos De Monsaraz,Évora,Alentejo,-7.465278,38.444932
25126933,Azeitão (São Lourenço e São Simão),Península de Setúbal,311,2025-03-21T11:20:00Z,25126933,Em curso,3301,Queda de árvore,0,1,0,5,2025-03-21T11:20:00Z,Setúbal,Setúbal,Área Metropolitana De Lisboa,-9.04265,38.541479
25126948,Charneca de Caparica e Sobreda,Península de Setúbal,311,2025-03-21T11:43:00Z,25126948,Em curso,3301,Queda de árvore,0,0,0,0,2025-03-21T11:43:00Z,Almada,Setúbal,Área Metropolitana De Lisboa,-9.17738,38.58114
25126998,Arruda Dos Vinhos,Oeste,311,2025-03-21T11:45:00Z,25126998,Em despacho,3301,Queda de árvore,0,1,0,1,2025-03-21T11:45:00Z,Arruda Dos Vinhos,Lisboa,Centro,-9.074841,38.984407
25127102,Cascais e Estoril,Grande Lisboa,311,2025-03-21T10:55:00Z,25127102,Em despacho,3301,Queda de árvore,0,1,0,4,2025-03-21T10:55:00Z,Cascais,Lisboa,Área Metropolitana De Lisboa,-9.444181,38.698838
25127133,"S.julião, N.s. da Anunciada e S. Maria da Graça",Península de Setúbal,311,2025-03-21T12:04:00Z,25127133,Em despacho,3301,Queda de árvore,0,1,0,5,2025-03-21T12:04:00Z,Setúbal,Setúbal,Área Metropolitana De Lisboa,-8.889983,38.529955
25063232,Santa Maria do Castelo e Santiago e Santa Susana,Alentejo Litoral,312,2025-03-09T19:02:00Z,25063232,Em conclusão,1101,Cheia,0,0,0,0,2025-03-09T19:02:00Z,Alcácer Do Sal,Setúbal,Alentejo,-8.48167,38.29806
25113469,Arruda Dos Vinhos,Oeste,311,2025-03-20T01:39:00Z,25113469,Em resolução,3301,Queda de árvore,0,3,0,3,2025-03-20T01:39:00Z,Arruda Dos Vinhos,Lisboa,Centro,-9.074841,38.984407
25126689,Santo Estêvão,Lezíria do Tejo,311,2025-03-21T11:03:00Z,25126689,Em resolução,3301,Queda de árvore,0,2,0,5,2025-03-21T11:03:00Z,Benavente,Santarém,Alentejo,-8.712798,38.852863
25126874,Santana da Azinha,Beiras e Serra da Estrela,310,2025-03-21T11:27:00Z,25126874,Em despacho,3311,Queda de elementos de estruturas edificados,0,1,0,2,2025-03-21T11:27:00Z,Guarda,Guarda,Centro,-7.226578,40.45364
25126959,São Domingos de Rana,Grande Lisboa,311,2025-03-21T11:45:00Z,25126959,Em despacho,3329,Queda de estruturas temporárias ou móveis,0,0,0,0,2025-03-21T11:45:00Z,Cascais,Lisboa,Área Metropolitana De Lisboa,-9.33506,38.72761
25127442,Cascais e Estoril,Grande Lisboa,311,2025-03-21T13:09:00Z,25127442,Em despacho,3301,Queda de árvore,0,0,0,0,2025-03-21T13:09:00Z,Cascais,Lisboa,Área Metropolitana De Lisboa,-9.44074,38.71857
25127511,Moita,Península de Setúbal,311,2025-03-21T13:17:00Z,25127511,Em despacho,3301,Queda de árvore,0,1,0,5,2025-03-21T13:17:00Z,Moita,Setúbal,Área Metropolitana De Lisboa,-8.9759620000000009,38.642311
25127528,Carvalhosa,Tâmega e Sousa,309,2025-03-21T13:27:00Z,25127528,Em curso,3301,Queda de árvore,0,4,0,9,2025-03-21T13:27:00Z,Paços De Ferreira,Porto,Norte,-8.36104,41.30634
25068300,Almeirim,Lezíria do Tejo,311,2025-03-10T20:52:00Z,25068300,Em curso,1101,Cheia,0,0,0,0,2025-03-10T20:52:00Z,Almeirim,Santarém,Alentejo,-8.635002,39.187436
25121298,Gafanhoeira (São Pedro) e Sabugueiro,Alentejo Central,312,2025-03-20T14:26:00Z,25121298,Em resolução,3301,Queda de árvore,0,0,0,0,2025-03-20T14:26:00Z,Arraiolos,Évora,Alentejo,-8.088754,38.754507
25125415,Cascais e Estoril,Grande Lisboa,311,2025-03-21T07:23:00Z,25125415,Em curso,3301,Queda de árvore,0,1,0,2,2025-03-21T07:23:00Z,Cascais,Lisboa,Área Metropolitana De Lisboa,-9.419397,38.700982
25127153,Algueirão-Mem Martins,Grande Lisboa,311,2025-03-21T09:48:00Z,25127153,Em conclusão,3301,Queda de árvore,0,1,0,4,2025-03-21T09:48:00Z,Sintra,Lisboa,Área Metropolitana De Lisboa,-9.340934,38.801232
25127396,"Santa Iria de Azoia, São João da Talha e Bobadela",Grande Lisboa,311,2025-03-21T12:45:00Z,25127396,Em despacho,3301,Queda de árvore,0,3,0,6,2025-03-21T12:45:00Z,Loures,Lisboa,Área Metropolitana De Lisboa,-9.098065,38.824783
25127457,"S.maria, S.miguel, S.martinho, S.pedro Penaferrim",Grande Lisboa,311,2025-03-21T13:10:00Z,25127457,Em curso,3313,Deslizamento de terras,0,1,0,4,2025-03-21T13:10:00Z,Sintra,Lisboa,Área Metropolitana De Lisboa,-9.372641,38.788861
25127562,Sabóia,Alentejo Litoral,312,2025-03-21T13:20:00Z,25127562,Em despacho,3301,Queda de árvore,0,1,0,2,2025-03-21T13:20:00Z,Odemira,Beja,Alentejo,-8.502858,37.49757
25127905,Fazendas de Almeirim,Lezíria do Tejo,311,2025-03-21T14:28:00Z,25127905,Em conclusão,3301,Queda de árvore,0,2,0,6,2025-03-21T14:28:00Z,Almeirim,Santarém,Alentejo,-8.515362,39.13728
25128324,São João Das Lampas e Terrugem,Grande Lisboa,311,2025-03-21T15:19:00Z,25128324,Em curso,3301,Queda de árvore,0,0,0,0,2025-03-21T15:19:00Z,Sintra,Lisboa,Área Metropolitana De Lisboa,-9.442718,38.844843
25128365,Vale de Santarém,Lezíria do Tejo,311,2025-03-21T15:37:00Z,25128365,Em despacho,3321,Dano na rede de fornecimento de eletricidade ,0,1,0,2,2025-03-21T15:37:00Z,Santarém,Santarém,Alentejo,-8.723394,39.188484
25128374,Carcavelos e Parede,Grande Lisboa,311,2025-03-21T15:21:00Z,25128374,Em despacho,3301,Queda de árvore,0,1,0,3,2025-03-21T15:21:00Z,Cascais,Lisboa,Área Metropolitana De Lisboa,-9.337574,38.688343
25128392,Vila da Ponte,Douro,309,2025-03-21T15:40:00Z,25128392,Em despacho,3301,Queda de árvore,0,1,0,5,2025-03-21T15:40:00Z,Sernancelhe,Viseu,Norte,-7.51704,40.917505
25128431,"Seia, São Romão e Lapa Dos Dinheiros",Beiras e Serra da Estrela,310,2025-03-21T15:44:00Z,25128431,Em despacho,3313,Deslizamento de terras,0,1,0,2,2025-03-21T15:44:00Z,Seia,Guarda,Centro,-7.706579,40.420381
25127616,"Almada, Cova da Piedade, Pragal e Cacilhas",Península de Setúbal,311,2025-03-21T13:41:00Z,25127616,Em despacho,3301,Queda de árvore,0,1,0,5,2025-03-21T13:41:00Z,Almada,Setúbal,Área Metropolitana De Lisboa,-9.16695,38.67342
25127886,Chave,Area M. Porto,309,2025-03-21T14:25:00Z,25127886,Em despacho,3301,Queda de árvore,0,1,0,2,2025-03-21T14:25:00Z,Arouca,Aveiro,Norte,-8.356991,40.89663
25127986,Sesimbra (Castelo),Península de Setúbal,311,2025-03-21T14:38:00Z,25127986,Em despacho,3315,Inundação de estruturas por precipitação intensa,0,1,0,5,2025-03-21T14:38:00Z,Sesimbra,Setúbal,Área Metropolitana De Lisboa,-9.124133,38.461545
25128071,Carnaxide e Queijas,Grande Lisboa,311,2025-03-21T13:30:00Z,25128071,Em despacho,3311,Queda de elementos de estruturas edificados,0,2,0,6,2025-03-21T13:30:00Z,Oeiras,Lisboa,Área Metropolitana De Lisboa,-9.259903,38.718843
25127912,Vila Nova da Baronia,Baixo Alentejo,312,2025-03-21T14:29:00Z,25127912,Em conclusão,3311,Queda de elementos de estruturas edificados,0,2,0,3,2025-03-21T14:29:00Z,Alvito,Beja,Alentejo,-8.03884,38.288712
25127944,"S.maria, S.miguel, S.martinho, S.pedro Penaferrim",Grande Lisboa,311,2025-03-21T14:29:00Z,25127944,Em despacho,3301,Queda de árvore,0,3,0,11,2025-03-21T14:29:00Z,Sintra,Lisboa,Área Metropolitana De Lisboa,-9.402206,38.768727
25127960,Sagres,Algarve,313,2025-03-21T14:28:00Z,25127960,Em despacho,3311,Queda de elementos de estruturas edificados,0,3,0,6,2025-03-21T14:28:00Z,Vila Do Bispo,Faro,Algarve,-8.943145,37.00882
25127978,Azeitão (São Lourenço e São Simão),Península de Setúbal,311,2025-03-21T14:21:00Z,25127978,Em curso,3301,Queda de árvore,0,0,0,0,2025-03-21T14:21:00Z,Setúbal,Setúbal,Área Metropolitana De Lisboa,-9.04265,38.541479
25128127,Azeitão (São Lourenço e São Simão),Península de Setúbal,311,2025-03-21T14:59:00Z,25128127,Em despacho,3301,Queda de árvore,0,3,0,12,2025-03-21T14:59:00Z,Setúbal,Setúbal,Área Metropolitana De Lisboa,-9.004314,38.501234
25128160,"Santa Iria de Azoia, São João da Talha e Bobadela",Grande Lisboa,311,2025-03-21T11:49:00Z,25128160,Em despacho,3301,Queda de árvore,0,1,0,4,2025-03-21T11:49:00Z,Loures,Lisboa,Área Metropolitana De Lisboa,-9.093217,38.806807
25128230,Valongo,Area M. Porto,309,2025-03-21T15:05:00Z,25128230,Em despacho,3315,Inundação de estruturas por precipitação intensa,0,1,0,1,2025-03-21T15:05:00Z,Valongo,Porto,Norte,-8.498295,41.191956
25127907,Águeda e Borralha,Região de Aveiro,310,2025-03-21T14:25:00Z,25127907,Em despacho,1101,Cheia,0,1,0,1,2025-03-21T14:25:00Z,Águeda,Aveiro,Centro,-8.444879,40.569328
25127939,"Leiria, Pousos, Barreira e Cortes",Região de Leiria,310,2025-03-21T14:28:00Z,25127939,Em despacho,3313,Deslizamento de terras,0,1,0,2,2025-03-21T14:28:00Z,Leiria,Leiria,Centro,-8.777233,39.756529
25127955,Carnide,Grande Lisboa,311,2025-03-21T14:19:00Z,25127955,Em despacho,3301,Queda de árvore,0,2,0,5,2025-03-21T14:19:00Z,Lisboa,Lisboa,Área Metropolitana De Lisboa,-9.196248,38.768082
25128000,São João Das Lampas e Terrugem,Grande Lisboa,311,2025-03-21T13:22:00Z,25128000,Em despacho,3301,Queda de árvore,0,1,0,2,2025-03-21T13:22:00Z,Sintra,Lisboa,Área Metropolitana De Lisboa,-9.389956,38.923794
25128048,Fernão Ferro,Península de Setúbal,311,2025-03-21T14:46:00Z,25128048,Em despacho,3301,Queda de árvore,0,1,0,3,2025-03-21T14:46:00Z,Seixal,Setúbal,Área Metropolitana De Lisboa,-9.115329,38.572419
25128123,Santa Clara,Grande Lisboa,311,2025-03-21T14:55:00Z,25128123,Em despacho,3311,Queda de elementos de estruturas edificados,0,1,0,3,2025-03-21T14:55:00Z,Lisboa,Lisboa,Área Metropolitana De Lisboa,-9.150603,38.794611
25128088,Marinhais,Lezíria do Tejo,311,2025-03-21T14:57:00Z,25128088,Em resolução,3315,Inundação de estruturas por precipitação intensa,0,1,0,4,2025-03-21T14:57:00Z,Salvaterra De Magos,Santarém,Alentejo,-8.704894,39.048061
25128118,"Almada, Cova da Piedade, Pragal e Cacilhas",Península de Setúbal,311,2025-03-21T14:50:00Z,25128118,Em despacho,3311,Queda de elementos de estruturas edificados,0,1,0,5,2025-03-21T14:50:00Z,Almada,Setúbal,Área Metropolitana De Lisboa,-9.164498,38.675268
25128120,Rio de Mouro,Grande Lisboa,311,2025-03-21T14:59:00Z,25128120,Em despacho,3315,Inundação de estruturas por precipitação intensa,0,1,0,4,2025-03-21T14:59:00Z,Sintra,Lisboa,Área Metropolitana De Lisboa,-9.344491,38.75763
25128135,Aljubarrota,Oeste,311,2025-03-21T15:00:00Z,25128135,Em despacho,3301,Queda de árvore,0,1,0,3,2025-03-21T15:00:00Z,Alcobaça,Leiria,Centro,-8.941861,39.565461
25128188,Carregal do Sal,Viseu Dão Lafões,310,2025-03-21T15:09:00Z,25128188,Em despacho,3311,Queda de elementos de estruturas edificados,0,3,0,4,2025-03-21T15:09:00Z,Carregal Do Sal,Viseu,Centro,-8.005868,40.418393
25128204,Matosinhos e Leça da Palmeira,Area M. Porto,309,2025-03-21T14:55:00Z,25128204,Em despacho,3311,Queda de elementos de estruturas edificados,0,1,0,3,2025-03-21T14:55:00Z,Matosinhos,Porto,Norte,-8.692583,41.193749
25128271,Colares,Grande Lisboa,311,2025-03-21T15:21:00Z,25128271,Em despacho,3301,Queda de árvore,0,1,0,2,2025-03-21T15:21:00Z,Sintra,Lisboa,Área Metropolitana De Lisboa,-9.486381,38.778591
25128285,"Alhandra, São João Dos Montes e Calhandriz",Grande Lisboa,311,2025-03-21T15:06:00Z,25128285,Em despacho,3301,Queda de árvore,0,1,0,3,2025-03-21T15:06:00Z,Vila Franca De Xira,Lisboa,Área Metropolitana De Lisboa,-9.029303,38.94243
25128278,"Torres Novas (São Pedro), Lapas e Ribeira Branca",Médio Tejo,311,2025-03-21T15:26:00Z,25128278,Em despacho,3301,Queda de árvore,0,1,0,2,2025-03-21T15:26:00Z,Torres Novas,Santarém,Centro,-8.535466,39.518045
25128293,Barcarena,Grande Lisboa,311,2025-03-21T15:27:00Z,25128293,Em despacho,3301,Queda de árvore,0,1,0,5,2025-03-21T15:27:00Z,Oeiras,Lisboa,Área Metropolitana De Lisboa,-9.277392,38.733987
25128310,Cascais e Estoril,Grande Lisboa,311,2025-03-21T15:24:00Z,25128310,Em despacho,3301,Queda de árvore,0,3,0,9,2025-03-21T15:24:00Z,Cascais,Lisboa,Área Metropolitana De Lisboa,-9.398759,38.70391
25128327,Bemposta,Médio Tejo,311,2025-03-21T15:32:00Z,25128327,Em despacho,3313,Deslizamento de terras,0,1,0,1,2025-03-21T15:32:00Z,Abrantes,Santarém,Centro,-8.150503,39.352114
25128344,Quinta do Conde,Península de Setúbal,311,2025-03-21T15:34:00Z,25128344,Em despacho,3301,Queda de árvore,0,1,0,5,2025-03-21T15:34:00Z,Sesimbra,Setúbal,Área Metropolitana De Lisboa,-9.03613,38.570355
25128346,Gemeses,Cávado,309,2025-03-21T15:30:00Z,25128346,Em despacho,3301,Queda de árvore,0,1,0,2,2025-03-21T15:30:00Z,Esposende,Braga,Norte,-8.726802,41.517854
25128347,Figueiró Dos Vinhos e Bairradas,Região de Leiria,310,2025-03-21T15:00:00Z,25128347,Em despacho,3311,Queda de elementos de estruturas edificados,0,3,0,7,2025-03-21T15:00:00Z,Figueiró Dos Vinhos,Leiria,Centro,-8.273435,39.902339
25128377,Atouguia da Baleia,Oeste,311,2025-03-21T15:26:00Z,25128377,Em despacho,3329,Queda de estruturas temporárias ou móveis,0,2,0,4,2025-03-21T15:26:00Z,Peniche,Leiria,Centro,-9.32433,39.339703
25128378,Porto Salvo,Grande Lisboa,311,2025-03-21T15:35:00Z,25128378,Em despacho,3329,Queda de estruturas temporárias ou móveis,0,2,0,6,2025-03-21T15:35:00Z,Oeiras,Lisboa,Área Metropolitana De Lisboa,-9.305901,38.719291
25128379,"Almargem do Bispo, Pêro Pinheiro e Montelavar",Grande Lisboa,311,2025-03-21T15:30:00Z,25128379,Em despacho,3301,Queda de árvore,0,1,0,3,2025-03-21T15:30:00Z,Sintra,Lisboa,Área Metropolitana De Lisboa,-9.268587,38.831355
25128394,Cacia,Região de Aveiro,310,2025-03-21T15:41:00Z,25128394,Em despacho,3311,Queda de elementos de estruturas edificados,0,0,0,0,2025-03-21T15:41:00Z,Aveiro,Aveiro,Centro,-8.60899,40.66408
25128395,Alenquer (Santo Estêvão e Triana),Oeste,311,2025-03-21T15:41:00Z,25128395,Em despacho,3301,Queda de árvore,0,0,0,0,2025-03-21T15:41:00Z,Alenquer,Lisboa,Centro,-8.984683,39.06281
25128412,Buarcos,Região de Coimbra,310,2025-03-21T15:42:00Z,25128412,Em despacho,3329,Queda de estruturas temporárias ou móveis,0,1,0,2,2025-03-21T15:42:00Z,Figueira Da Foz,Coimbra,Centro,-8.870977,40.171768
25128430,Alverca do Ribatejo e Sobralinho,Grande Lisboa,311,2025-03-21T15:00:00Z,25128430,Em despacho,3301,Queda de árvore,0,1,0,5,2025-03-21T15:00:00Z,Vila Franca De Xira,Lisboa,Área Metropolitana De Lisboa,-9.046012,38.896362
25128444,Glória e Vera Cruz,Região de Aveiro,310,2025-03-21T15:43:00Z,25128444,Em despacho,3301,Queda de árvore,0,1,0,4,2025-03-21T15:43:00Z,Aveiro,Aveiro,Centro,-8.6520879999999991,40.640621
25128446,"Oeiras e S. Julião da Barra, Paço de Arcos e Caxias",Grande Lisboa,311,2025-03-21T15:49:00Z,25128446,Em despacho,3301,Queda de árvore,0,1,0,4,2025-03-21T15:49:00Z,Oeiras,Lisboa,Área Metropolitana De Lisboa,-9.290593,38.696925
25128175,Ferreira do Zêzere,Médio Tejo,311,2025-03-21T15:10:00Z,25128175,Em despacho,3309,Desabamento de estruturas edificadas,0,2,0,2,2025-03-21T15:10:00Z,Ferreira Do Zêzere,Santarém,Centro,-8.270681,39.696095
25128182,Vila Franca de Xira,Grande Lisboa,311,2025-03-21T14:48:00Z,25128182,Em despacho,3301,Queda de árvore,0,1,0,5,2025-03-21T14:48:00Z,Vila Franca De Xira,Lisboa,Área Metropolitana De Lisboa,-8.989293,38.955728
25128198,"Guia, Ilha e Mata Mourisca",Região de Leiria,310,2025-03-21T15:10:00Z,25128198,Em despacho,3301,Queda de árvore,0,1,0,2,2025-03-21T15:10:00Z,Pombal,Leiria,Centro,-8.753282,39.947593
25128200,Póvoa de Santa Iria e Forte da Casa,Grande Lisboa,311,2025-03-21T14:06:00Z,25128200,Em despacho,3301,Queda de árvore,0,1,0,2,2025-03-21T14:06:00Z,Vila Franca De Xira,Lisboa,Área Metropolitana De Lisboa,-9.051508,38.875602
25128248,São Brás de Alportel,Algarve,313,2025-03-21T15:06:00Z,25128248,Em despacho,3315,Inundação de estruturas por precipitação intensa,0,1,0,5,2025-03-21T15:06:00Z,São Brás De Alportel,Faro,Algarve,-7.892178,37.149213
25128284,Canha,Península de Setúbal,311,2025-03-21T15:28:00Z,25128284,Em curso,3301,Queda de árvore,0,5,0,12,2025-03-21T15:28:00Z,Montijo,Setúbal,Área Metropolitana De Lisboa,-8.657477,38.74015
25128289,"Sé Nova, Santa Cruz, Almedina e São Bartolomeu",Região de Coimbra,310,2025-03-21T15:20:00Z,25128289,Em despacho,3301,Queda de árvore,0,1,0,2,2025-03-21T15:20:00Z,Coimbra,Coimbra,Centro,-8.415007,40.204682
25128341,Caparica e Trafaria,Península de Setúbal,311,2025-03-21T15:19:00Z,25128341,Em despacho,3301,Queda de árvore,0,1,0,4,2025-03-21T15:19:00Z,Almada,Setúbal,Área Metropolitana De Lisboa,-9.234918,38.664134
25128348,Quinta do Anjo,Península de Setúbal,311,2025-03-21T15:30:00Z,25128348,Em despacho,3301,Queda de árvore,0,1,0,3,2025-03-21T15:30:00Z,Palmela,Setúbal,Área Metropolitana De Lisboa,-8.938536,38.564763
25128287,"Alto do Seixalinho, Santo André e Verderena",Península de Setúbal,311,2025-03-21T15:19:00Z,25128287,Em despacho,3311,Queda de elementos de estruturas edificados,0,1,0,4,2025-03-21T15:19:00Z,Barreiro,Setúbal,Área Metropolitana De Lisboa,-9.056708,38.653969
25128304,Cascais e Estoril,Grande Lisboa,311,2025-03-21T13:17:00Z,25128304,Em despacho,3301,Queda de árvore,0,1,0,5,2025-03-21T13:17:00Z,Cascais,Lisboa,Área Metropolitana De Lisboa,-9.419397,38.700982
25128305,Moscavide e Portela,Grande Lisboa,311,2025-03-21T15:12:00Z,25128305,Em despacho,3301,Queda de árvore,0,1,0,4,2025-03-21T15:12:00Z,Loures,Lisboa,Área Metropolitana De Lisboa,-9.114803,38.78591
25128321,Caparica e Trafaria,Península de Setúbal,311,2025-03-21T15:19:00Z,25128321,Em despacho,3301,Queda de árvore,0,2,0,6,2025-03-21T15:19:00Z,Almada,Setúbal,Área Metropolitana De Lisboa,-9.230296,38.662376
25128386,Ramalhal,Oeste,311,2025-03-21T15:40:00Z,25128386,Em despacho,3301,Queda de árvore,0,0,0,0,2025-03-21T15:40:00Z,Torres Vedras,Lisboa,Centro,-9.24961,39.163007
25128387,Queluz e Belas,Grande Lisboa,311,2025-03-21T15:32:00Z,25128387,Em despacho,3301,Queda de árvore,0,1,0,3,2025-03-21T15:32:00Z,Sintra,Lisboa,Área Metropolitana De Lisboa,-9.253085,38.778886
25128388,Bombarral e Vale Covo,Oeste,311,2025-03-21T15:39:00Z,25128388,Em despacho,3301,Queda de árvore,0,1,0,5,2025-03-21T15:39:00Z,Bombarral,Leiria,Centro,-9.142029,39.245053
25128404,Mafra,Grande Lisboa,311,2025-03-21T15:39:00Z,25128404,Em despacho,3301,Queda de árvore,0,1,0,5,2025-03-21T15:39:00Z,Mafra,Lisboa,Área Metropolitana De Lisboa,-9.325095,38.974009
25128357,Sarilhos Grandes,Península de Setúbal,311,2025-03-21T15:17:00Z,25128357,Em despacho,3301,Queda de árvore,0,1,0,5,2025-03-21T15:17:00Z,Montijo,Setúbal,Área Metropolitana De Lisboa,-8.974291,38.678913
25128373,Alfena,Area M. Porto,309,2025-03-21T15:38:00Z,25128373,Em despacho,3301,Queda de árvore,0,1,0,5,2025-03-21T15:38:00Z,Valongo,Porto,Norte,-8.529521,41.2424
25128389,Ramada e Caneças,Grande Lisboa,311,2025-03-21T15:30:00Z,25128389,Em despacho,3301,Queda de árvore,0,1,0,4,2025-03-21T15:30:00Z,Odivelas,Lisboa,Área Metropolitana De Lisboa,-9.224517,38.811058
25128414,Colares,Grande Lisboa,311,2025-03-21T15:35:00Z,25128414,Em despacho,3301,Queda de árvore,0,1,0,3,2025-03-21T15:35:00Z,Sintra,Lisboa,Área Metropolitana De Lisboa,-9.437372,38.80437
25128425,Bombarral e Vale Covo,Oeste,311,2025-03-21T15:39:00Z,25128425,Em despacho,3313,Deslizamento de terras,0,2,0,2,2025-03-21T15:39:00Z,Bombarral,Leiria,Centro,-9.184976,39.250978
25128441,Santa Marinha e São Pedro da Afurada,Area M. Porto,309,2025-03-21T15:39:00Z,25128441,Em despacho,3301,Queda de árvore,0,1,0,3,2025-03-21T15:39:00Z,Vila Nova De Gaia,Porto,Norte,-8.624714,41.132843
25128448,Paços de Brandão,Area M. Porto,309,2025-03-21T15:41:00Z,25128448,Em despacho,3301,Queda de árvore,0,1,0,2,2025-03-21T15:41:00Z,Santa Maria Da Feira,Aveiro,Norte,-8.588172,40.97497
25128419,Caldas da Rainha - Santo Onofre e Serra do Bouro,Oeste,311,2025-03-21T15:28:00Z,25128419,Em curso,3301,Queda de árvore,0,1,0,5,2025-03-21T15:28:00Z,Caldas Da Rainha,Leiria,Centro,-9.148929,39.401713
25128421,Luz de Tavira e Santo Estêvão,Algarve,313,2025-03-21T15:35:00Z,25128421,Em despacho,3301,Queda de árvore,0,1,0,5,2025-03-21T15:35:00Z,Tavira,Faro,Algarve,-7.714632,37.093757
25128435,São Vicente do Paul e Vale de Figueira,Lezíria do Tejo,311,2025-03-21T15:48:00Z,25128435,Em despacho,3301,Queda de árvore,0,1,0,5,2025-03-21T15:48:00Z,Santarém,Santarém,Alentejo,-8.622647,39.347479
25128452,Nadadouro,Oeste,311,2025-03-21T15:51:00Z,25128452,Em despacho,3321,Dano na rede de fornecimento de eletricidade ,0,1,0,5,2025-03-21T15:51:00Z,Caldas Da Rainha,Leiria,Centro,-9.199088,39.417476
25128454,"Tavares (Chãs, Várzea e Travanca)",Viseu Dão Lafões,310,2025-03-21T15:39:00Z,25128454,Em despacho,3301,Queda de árvore,0,1,0,3,2025-03-21T15:39:00Z,Mangualde,Viseu,Centro,-7.62744,40.60377
