id,address,subregion,neighborhood,date,id.1,state,nature,nature_description,aerial_means,terrestrial_means,aquatic_means,operational,date.1,Concelho,Distrito,NUTII_DSG,longitude,latitude,state_2
25716558,Alquerubim,Região de Aveiro,310,2025-07-22T14:38:00Z,25716558,Em Resolução/Conclusão,3101,Incêndio rural,0,13,0,40,2025-07-22T14:38:00Z,Albergaria-a-Velha,Aveiro,Centro,-8.51459,40.626095,Resolução/Conclusão
25717625,Charneca de Caparica e Sobreda,Península de Setúbal,311,2025-07-22T18:20:00Z,25717625,Em Resolução/Conclusão,3105,Incêndio rural,0,3,0,12,2025-07-22T18:20:00Z,Almada,Setúbal,Área Metropolitana De Lisboa,-9.19046,38.61425,Resolução/Conclusão
25716135,Palaçoulo,Terras de Trás-os-Montes,309,2025-07-22T13:22:00Z,25716135,Em Resolução/Conclusão,3103,Incêndio rural,0,2,0,7,2025-07-22T13:22:00Z,Miranda Do Douro,Bragança,Norte,-6.430875,41.404038,Resolução/Conclusão
25716294,Canelas e Fermelã,Região de Aveiro,310,2025-07-22T13:52:00Z,25716294,Em Resolução/Conclusão,3103,Incêndio rural,0,2,0,4,2025-07-22T13:52:00Z,Estarreja,Aveiro,Centro,-8.543075,40.697923,Resolução/Conclusão
25712338,Cercal,Alentejo Litoral,312,2025-07-21T17:38:00Z,25712338,Em Resolução/Conclusão,3103,Incêndio rural,0,13,0,43,2025-07-21T17:38:00Z,Santiago Do Cacém,Setúbal,Alentejo,-8.682272,37.791582,Resolução/Conclusão
25716617,Alquerubim,Região de Aveiro,310,2025-07-22T14:47:00Z,25716617,Em Resolução/Conclusão,3101,Incêndio rural,0,9,0,32,2025-07-22T14:47:00Z,Albergaria-a-Velha,Aveiro,Centro,-8.503263,40.635405,Resolução/Conclusão
25717167,Pinhel,Beiras e Serra da Estrela,310,2025-07-22T16:40:00Z,25717167,Em Resolução/Conclusão,3103,Incêndio rural,0,10,0,38,2025-07-22T16:40:00Z,Pinhel,Guarda,Centro,-7.060442,40.781598,Resolução/Conclusão
25717282,Faiões,Alto Tâmega e Barroso,309,2025-07-22T17:03:00Z,25717282,Em Resolução/Conclusão,3103,Incêndio rural,0,4,0,17,2025-07-22T17:03:00Z,Chaves,Vila Real,Norte,-7.435467,41.749257,Resolução/Conclusão
25717520,Castelo Branco,Beira Baixa,310,2025-07-22T17:59:00Z,25717520,Em Resolução/Conclusão,3103,Incêndio rural,5,43,0,143,2025-07-22T17:59:00Z,Castelo Branco,Castelo Branco,Centro,-7.461503,39.85421,Resolução/Conclusão
25717835,Guilhufe e Urrô,Tâmega e Sousa,309,2025-07-22T19:09:00Z,25717835,Em Resolução/Conclusão,3103,Incêndio rural,0,2,0,8,2025-07-22T19:09:00Z,Penafiel,Porto,Norte,-8.344138,41.190125,Resolução/Conclusão
25711397,Vale da Pedra,Lezíria do Tejo,311,2025-07-21T14:16:00Z,25711397,Em Resolução/Conclusão,3103,Incêndio rural,0,0,0,0,2025-07-21T14:16:00Z,Cartaxo,Santarém,Alentejo,-8.783137,39.110872,Resolução/Conclusão
25715993,Azueira e Sobral da Abelheira,Grande Lisboa,311,2025-07-22T12:53:00Z,25715993,Em Resolução/Conclusão,3101,Incêndio rural,0,12,0,41,2025-07-22T12:53:00Z,Mafra,Lisboa,Área Metropolitana De Lisboa,-9.323877,38.988737,Resolução/Conclusão
25716118,Alvite,Douro,309,2025-07-22T13:18:00Z,25716118,Em Resolução/Conclusão,3101,Incêndio rural,0,0,0,0,2025-07-22T13:18:00Z,Moimenta Da Beira,Viseu,Norte,-7.71388,40.952273,Resolução/Conclusão
25717395,Palmela,Península de Setúbal,311,2025-07-22T17:22:00Z,25717395,Em Resolução/Conclusão,3105,Incêndio rural,0,5,0,16,2025-07-22T17:22:00Z,Palmela,Setúbal,Área Metropolitana De Lisboa,-8.918012,38.6116,Resolução/Conclusão
25717724,Branca,Região de Aveiro,310,2025-07-22T18:46:00Z,25717724,Em Resolução/Conclusão,3111,Queima,0,2,0,7,2025-07-22T18:46:00Z,Albergaria-a-Velha,Aveiro,Centro,-8.477664,40.743933,Resolução/Conclusão
