id,address,subregion,neighborhood,date,id.1,state,nature,nature_description,aerial_means,terrestrial_means,aquatic_means,operational,date.1,Concelho,Distrito,NUTII_DSG,longitude,latitude
25059714,Torrão,Alentejo Litoral,312,2025-03-08T22:10:00Z,25059714,Em curso,1101,Cheia,0,1,0,2,2025-03-08T22:10:00Z,Alcácer Do Sal,Setúbal,Alentejo,-8.359133,38.252053
25070044,Praia do Ribatejo,Médio Tejo,311,2025-03-10T19:30:00Z,25070044,Em curso,1101,Cheia,0,0,0,0,2025-03-10T19:30:00Z,Vila Nova Da Barquinha,Santarém,Centro,-8.357309,39.485638
25071496,São Manços e São Vicente do Pigeiro,Alentejo Central,312,2025-03-11T13:18:00Z,25071496,Em curso,1101,Cheia,0,2,0,4,2025-03-11T13:18:00Z,Évora,Évora,Alentejo,-7.713313,38.513673
25126998,Arruda Dos Vinhos,Oeste,311,2025-03-21T11:45:00Z,25126998,Em despacho,3301,Queda de árvore,0,1,0,1,2025-03-21T11:45:00Z,Arruda Dos Vinhos,Lisboa,Centro,-9.074841,38.984407
25128489,Benfica do Ribatejo,Lezíria do Tejo,311,2025-03-21T15:59:00Z,25128489,Em conclusão,3301,Queda de árvore,0,1,0,1,2025-03-21T15:59:00Z,Almeirim,Santarém,Alentejo,-8.67144,39.150233
25128670,Condeixa-a-Velha e Condeixa-a-Nova,Região de Coimbra,310,2025-03-21T16:25:00Z,25128670,Em curso,3315,Inundação de estruturas por precipitação intensa,0,2,0,4,2025-03-21T16:25:00Z,Condeixa-a-Nova,Coimbra,Centro,-8.482693,40.119842
25128739,Santo António Dos Olivais,Região de Coimbra,310,2025-03-21T16:21:00Z,25128739,Em despacho,3315,Inundação de estruturas por precipitação intensa,0,1,0,3,2025-03-21T16:21:00Z,Coimbra,Coimbra,Centro,-8.408011,40.217307
25128988,Quinta do Conde,Península de Setúbal,311,2025-03-21T16:55:00Z,25128988,Em curso,3301,Queda de árvore,0,0,0,0,2025-03-21T16:55:00Z,Sesimbra,Setúbal,Área Metropolitana De Lisboa,-9.03613,38.570355
25129021,Meirinhas,Região de Leiria,310,2025-03-21T17:20:00Z,25129021,Em despacho,3311,Queda de elementos de estruturas edificados,0,2,0,4,2025-03-21T17:20:00Z,Pombal,Leiria,Centro,-8.69978,39.845196
25129104,"S.maria, S.miguel, S.martinho, S.pedro Penaferrim",Grande Lisboa,311,2025-03-21T17:34:00Z,25129104,Em despacho,3301,Queda de árvore,0,1,0,4,2025-03-21T17:34:00Z,Sintra,Lisboa,Área Metropolitana De Lisboa,-9.387899,38.805813
25129154,São Teotónio,Alentejo Litoral,312,2025-03-21T17:50:00Z,25129154,Em despacho,3301,Queda de árvore,0,1,0,2,2025-03-21T17:50:00Z,Odemira,Beja,Alentejo,-8.730952,37.478171
25129191,Alcanede,Lezíria do Tejo,311,2025-03-21T17:59:00Z,25129191,Em despacho,3301,Queda de árvore,0,1,0,2,2025-03-21T17:59:00Z,Santarém,Santarém,Alentejo,-8.793268,39.357442
25129321,"Almada, Cova da Piedade, Pragal e Cacilhas",Península de Setúbal,311,2025-03-21T18:24:00Z,25129321,Em despacho,3311,Queda de elementos de estruturas edificados,0,1,0,2,2025-03-21T18:24:00Z,Almada,Setúbal,Área Metropolitana De Lisboa,-9.15714,38.67931
25129356,Vila Nova,Região de Coimbra,310,2025-03-21T18:30:00Z,25129356,Em despacho,3313,Deslizamento de terras,0,3,0,3,2025-03-21T18:30:00Z,Miranda Do Corvo,Coimbra,Centro,-8.334667,40.046347
25129522,Miranda do Corvo,Região de Coimbra,310,2025-03-21T19:00:00Z,25129522,Em despacho,3313,Deslizamento de terras,0,2,0,4,2025-03-21T19:00:00Z,Miranda Do Corvo,Coimbra,Centro,-8.328159,40.098029
25129540,Caparica e Trafaria,Península de Setúbal,311,2025-03-21T18:57:00Z,25129540,Em despacho,3301,Queda de árvore,0,1,0,6,2025-03-21T18:57:00Z,Almada,Setúbal,Área Metropolitana De Lisboa,-9.230199,38.656072
25068300,Almeirim,Lezíria do Tejo,311,2025-03-10T20:52:00Z,25068300,Em curso,1101,Cheia,0,0,0,0,2025-03-10T20:52:00Z,Almeirim,Santarém,Alentejo,-8.635002,39.187436
25121298,Gafanhoeira (São Pedro) e Sabugueiro,Alentejo Central,312,2025-03-20T14:26:00Z,25121298,Em resolução,3301,Queda de árvore,0,0,0,0,2025-03-20T14:26:00Z,Arraiolos,Évora,Alentejo,-8.088754,38.754507
25124665,Rio de Mouro,Grande Lisboa,311,2025-03-20T15:47:00Z,25124665,Em despacho,3301,Queda de árvore,0,1,0,4,2025-03-20T15:47:00Z,Sintra,Lisboa,Área Metropolitana De Lisboa,-9.329811,38.76656
25127153,Algueirão-Mem Martins,Grande Lisboa,311,2025-03-21T09:48:00Z,25127153,Em conclusão,3301,Queda de árvore,0,1,0,4,2025-03-21T09:48:00Z,Sintra,Lisboa,Área Metropolitana De Lisboa,-9.340934,38.801232
25127562,Sabóia,Alentejo Litoral,312,2025-03-21T13:20:00Z,25127562,Em despacho,3301,Queda de árvore,0,1,0,2,2025-03-21T13:20:00Z,Odemira,Beja,Alentejo,-8.502858,37.49757
25128341,Caparica e Trafaria,Península de Setúbal,311,2025-03-21T15:19:00Z,25128341,Em despacho,3301,Queda de árvore,0,2,0,7,2025-03-21T15:19:00Z,Almada,Setúbal,Área Metropolitana De Lisboa,-9.234918,38.664134
25128600,Alferce,Algarve,313,2025-03-21T16:03:00Z,25128600,Em despacho,3313,Deslizamento de terras,0,2,0,3,2025-03-21T16:03:00Z,Monchique,Faro,Algarve,-8.493023,37.333617
25063232,Santa Maria do Castelo e Santiago e Santa Susana,Alentejo Litoral,312,2025-03-09T19:02:00Z,25063232,Em conclusão,1101,Cheia,0,0,0,0,2025-03-09T19:02:00Z,Alcácer Do Sal,Setúbal,Alentejo,-8.48167,38.29806
25126874,Santana da Azinha,Beiras e Serra da Estrela,310,2025-03-21T11:27:00Z,25126874,Em despacho,3311,Queda de elementos de estruturas edificados,0,1,0,2,2025-03-21T11:27:00Z,Guarda,Guarda,Centro,-7.226578,40.45364
25127575,Cela,Oeste,311,2025-03-21T13:33:00Z,25127575,Em despacho,3301,Queda de árvore,0,1,0,3,2025-03-21T13:33:00Z,Alcobaça,Leiria,Centro,-9.062135,39.50962
25127944,Colares,Grande Lisboa,311,2025-03-21T14:29:00Z,25127944,Em despacho,3301,Queda de árvore,0,5,0,22,2025-03-21T14:29:00Z,Sintra,Lisboa,Área Metropolitana De Lisboa,-9.432326,38.780106
25127978,Azeitão (São Lourenço e São Simão),Península de Setúbal,311,2025-03-21T14:21:00Z,25127978,Em curso,3301,Queda de árvore,0,0,0,0,2025-03-21T14:21:00Z,Setúbal,Setúbal,Área Metropolitana De Lisboa,-9.04265,38.541479
25128580,"Cedofeita, Ildefonso, Sé, Miragaia, Nicolau e Vitória",Area M. Porto,309,2025-03-21T16:10:00Z,25128580,Em despacho,3311,Queda de elementos de estruturas edificados,0,1,0,5,2025-03-21T16:10:00Z,Porto,Porto,Norte,-8.615939,41.15359
25128898,Queluz e Belas,Grande Lisboa,311,2025-03-21T16:53:00Z,25128898,Em despacho,3301,Queda de árvore,0,2,0,5,2025-03-21T16:53:00Z,Sintra,Lisboa,Área Metropolitana De Lisboa,-9.282171,38.81681
25128965,Beijós,Viseu Dão Lafões,310,2025-03-21T17:15:00Z,25128965,Em despacho,3301,Queda de árvore,0,1,0,2,2025-03-21T17:15:00Z,Carregal Do Sal,Viseu,Centro,-7.957266,40.531798
25129573,Igrejinha,Alentejo Central,312,2025-03-21T19:16:00Z,25129573,Em despacho,3301,Queda de árvore,0,1,0,4,2025-03-21T19:16:00Z,Arraiolos,Évora,Alentejo,-7.926918,38.72757
25129575,Santo António Dos Cavaleiros e Frielas,Grande Lisboa,311,2025-03-21T19:16:00Z,25129575,Em despacho,3301,Queda de árvore,0,1,0,3,2025-03-21T19:16:00Z,Loures,Lisboa,Área Metropolitana De Lisboa,-9.164006,38.81379
25129592,"Espírito Santo, Nossa Senhora da Graça e São Simão",Alto Alentejo,312,2025-03-21T19:18:00Z,25129592,Em despacho,3313,Deslizamento de terras,0,1,0,3,2025-03-21T19:18:00Z,Nisa,Portalegre,Alentejo,-7.632127,39.517287
25129608,Caxarias,Médio Tejo,311,2025-03-21T19:21:00Z,25129608,Em curso,3301,Queda de árvore,0,1,0,2,2025-03-21T19:21:00Z,Ourém,Santarém,Centro,-8.539025,39.728789
25129658,Peniche,Oeste,311,2025-03-21T19:29:00Z,25129658,Em despacho,3329,Queda de estruturas temporárias ou móveis,0,1,0,5,2025-03-21T19:29:00Z,Peniche,Leiria,Centro,-9.376833,39.357166
25129659,Igreja Nova e Cheleiros,Grande Lisboa,311,2025-03-21T19:30:00Z,25129659,Em despacho,3313,Deslizamento de terras,0,1,0,5,2025-03-21T19:30:00Z,Mafra,Lisboa,Área Metropolitana De Lisboa,-9.321418,38.89208
25128816,Igreja Nova do Sobral,Médio Tejo,311,2025-03-21T16:51:00Z,25128816,Em despacho,3313,Deslizamento de terras,0,1,0,2,2025-03-21T16:51:00Z,Ferreira Do Zêzere,Santarém,Centro,-8.334746,39.676186
25128834,"S.maria, S.miguel, S.martinho, S.pedro Penaferrim",Grande Lisboa,311,2025-03-21T16:49:00Z,25128834,Em despacho,3301,Queda de árvore,0,1,0,4,2025-03-21T16:49:00Z,Sintra,Lisboa,Área Metropolitana De Lisboa,-9.372641,38.788861
25128902,Alvor,Algarve,313,2025-03-21T16:59:00Z,25128902,Em despacho,3301,Queda de árvore,0,4,0,10,2025-03-21T16:59:00Z,Portimão,Faro,Algarve,-8.5944680000000009,37.131433
25129052,São Bartolomeu de Messines,Algarve,313,2025-03-21T17:28:00Z,25129052,Em despacho,3315,Inundação de estruturas por precipitação intensa,0,1,0,2,2025-03-21T17:28:00Z,Silves,Faro,Algarve,-8.323586,37.262832
25129093,"Mealhada, Ventosa do Bairro e Antes",Região de Coimbra,310,2025-03-21T17:33:00Z,25129093,Em despacho,3301,Queda de árvore,0,1,0,2,2025-03-21T17:33:00Z,Mealhada,Aveiro,Centro,-8.458111,40.375676
25129200,Rio Tinto,Area M. Porto,309,2025-03-21T17:53:00Z,25129200,Em despacho,3311,Queda de elementos de estruturas edificados,0,1,0,5,2025-03-21T17:53:00Z,Gondomar,Porto,Norte,-8.560102,41.179302
25129297,Santo Aleixo,Alto Alentejo,312,2025-03-21T18:05:00Z,25129297,Em conclusão,3301,Queda de árvore,0,1,0,3,2025-03-21T18:05:00Z,Monforte,Portalegre,Alentejo,-7.42167,38.920892
25129314,Atouguia da Baleia,Oeste,311,2025-03-21T18:00:00Z,25129314,Em despacho,3301,Queda de árvore,0,2,0,5,2025-03-21T18:00:00Z,Peniche,Leiria,Centro,-9.327364,39.313552
25129348,Alfragide,Grande Lisboa,311,2025-03-21T18:29:00Z,25129348,Em despacho,3315,Inundação de estruturas por precipitação intensa,0,0,0,0,2025-03-21T18:29:00Z,Amadora,Lisboa,Área Metropolitana De Lisboa,-9.21545,38.73245
25129363,Queluz e Belas,Grande Lisboa,311,2025-03-21T18:32:00Z,25129363,Em despacho,3313,Deslizamento de terras,0,1,0,3,2025-03-21T18:32:00Z,Sintra,Lisboa,Área Metropolitana De Lisboa,-9.249948,38.77978
25129383,Colares,Grande Lisboa,311,2025-03-21T18:33:00Z,25129383,Em despacho,3301,Queda de árvore,0,1,0,2,2025-03-21T18:33:00Z,Sintra,Lisboa,Área Metropolitana De Lisboa,-9.453168,38.787078
25129397,Quiaios,Região de Coimbra,310,2025-03-21T18:37:00Z,25129397,Em despacho,3301,Queda de árvore,0,1,0,3,2025-03-21T18:37:00Z,Figueira Da Foz,Coimbra,Centro,-8.853222,40.215389
25129449,Quinta do Anjo,Península de Setúbal,311,2025-03-21T18:45:00Z,25129449,Em despacho,3301,Queda de árvore,0,1,0,3,2025-03-21T18:45:00Z,Palmela,Setúbal,Área Metropolitana De Lisboa,-8.970285,38.583894
25129499,"Aldoar, Foz do Douro e Nevogilde",Area M. Porto,309,2025-03-21T18:56:00Z,25129499,Em despacho,3301,Queda de árvore,0,1,0,5,2025-03-21T18:56:00Z,Porto,Porto,Norte,-8.672426,41.161999
25129563,Silgueiros,Viseu Dão Lafões,310,2025-03-21T19:10:00Z,25129563,Em despacho,3301,Queda de árvore,0,1,0,2,2025-03-21T19:10:00Z,Viseu,Viseu,Centro,-7.954081,40.566544
25129286,Cuba,Baixo Alentejo,312,2025-03-21T18:12:00Z,25129286,Em conclusão,3301,Queda de árvore,0,3,0,8,2025-03-21T18:12:00Z,Cuba,Beja,Alentejo,-7.886872,38.171733
25129295,São João Das Lampas e Terrugem,Grande Lisboa,311,2025-03-21T17:54:00Z,25129295,Em despacho,3301,Queda de árvore,0,1,0,2,2025-03-21T17:54:00Z,Sintra,Lisboa,Área Metropolitana De Lisboa,-9.404642,38.905614
25129350,"Algés, Linda-a-Velha e Cruz Quebrada-Dafundo",Grande Lisboa,311,2025-03-21T18:25:00Z,25129350,Em conclusão,3311,Queda de elementos de estruturas edificados,0,1,0,3,2025-03-21T18:25:00Z,Oeiras,Lisboa,Área Metropolitana De Lisboa,-9.244903,38.715384
25129427,"S.julião, N.s. da Anunciada e S. Maria da Graça",Península de Setúbal,311,2025-03-21T17:33:00Z,25129427,Em despacho,3301,Queda de árvore,0,2,0,10,2025-03-21T17:33:00Z,Setúbal,Setúbal,Área Metropolitana De Lisboa,-8.926392,38.520139
25129486,Fóios,Beiras e Serra da Estrela,310,2025-03-21T18:50:00Z,25129486,Em despacho,3301,Queda de árvore,0,1,0,3,2025-03-21T18:50:00Z,Sabugal,Guarda,Centro,-6.899522,40.288522
25129495,Sarzedas,Beira Baixa,310,2025-03-21T18:50:00Z,25129495,Em conclusão,3313,Deslizamento de terras,0,2,0,4,2025-03-21T18:50:00Z,Castelo Branco,Castelo Branco,Centro,-7.691092,39.854652
25129511,"Oeiras e S. Julião da Barra, Paço de Arcos e Caxias",Grande Lisboa,311,2025-03-21T18:59:00Z,25129511,Em despacho,3301,Queda de árvore,0,1,0,3,2025-03-21T18:59:00Z,Oeiras,Lisboa,Área Metropolitana De Lisboa,-9.278759,38.707062
25129604,Cachopo,Algarve,313,2025-03-21T19:11:00Z,25129604,Em despacho,3301,Queda de árvore,0,1,0,5,2025-03-21T19:11:00Z,Tavira,Faro,Algarve,-7.714643,37.296491
25129627,Azeitão (São Lourenço e São Simão),Península de Setúbal,311,2025-03-21T18:52:00Z,25129627,Em despacho,3301,Queda de árvore,0,1,0,4,2025-03-21T18:52:00Z,Setúbal,Setúbal,Área Metropolitana De Lisboa,-9.04265,38.541479
25129566,Zebreira e Segura,Beira Baixa,310,2025-03-21T19:10:00Z,25129566,Em despacho,3301,Queda de árvore,0,2,0,4,2025-03-21T19:10:00Z,Idanha-a-Nova,Castelo Branco,Centro,-6.986044,39.828319
25129616,Caxarias,Médio Tejo,311,2025-03-21T19:22:00Z,25129616,Em resolução,3301,Queda de árvore,0,1,0,5,2025-03-21T19:22:00Z,Ourém,Santarém,Centro,-8.526117,39.715323
25129617,"Custóias, Leça do Balio e Guifões",Area M. Porto,309,2025-03-21T19:10:00Z,25129617,Em despacho,3317,Inundação de estruturas por água canalizada,0,1,0,2,2025-03-21T19:10:00Z,Matosinhos,Porto,Norte,-8.643123,41.208539
25129630,Fanhões,Grande Lisboa,311,2025-03-21T19:23:00Z,25129630,Em despacho,3301,Queda de árvore,0,1,0,4,2025-03-21T19:23:00Z,Loures,Lisboa,Área Metropolitana De Lisboa,-9.189041,38.903262
25129680,Carregal do Sal,Viseu Dão Lafões,310,2025-03-21T19:36:00Z,25129680,Em despacho,3315,Inundação de estruturas por precipitação intensa,0,1,0,5,2025-03-21T19:36:00Z,Carregal Do Sal,Viseu,Centro,-7.999939,40.437298
25129636,"S.maria, S.miguel, S.martinho, S.pedro Penaferrim",Grande Lisboa,311,2025-03-21T19:25:00Z,25129636,Em despacho,3301,Queda de árvore,0,1,0,5,2025-03-21T19:25:00Z,Sintra,Lisboa,Área Metropolitana De Lisboa,-9.366763,38.781718
25129643,Poceirão e Marateca,Península de Setúbal,311,2025-03-21T19:24:00Z,25129643,Em despacho,3301,Queda de árvore,0,1,0,2,2025-03-21T19:24:00Z,Palmela,Setúbal,Área Metropolitana De Lisboa,-8.702358,38.586871
25129652,Sangalhos,Região de Aveiro,310,2025-03-21T19:30:00Z,25129652,Em despacho,3311,Queda de elementos de estruturas edificados,0,1,0,3,2025-03-21T19:30:00Z,Anadia,Aveiro,Centro,-8.478739,40.494487
25129677,Mira,Região de Coimbra,310,2025-03-21T19:37:00Z,25129677,Em despacho,3301,Queda de árvore,0,1,0,2,2025-03-21T19:37:00Z,Mira,Coimbra,Centro,-8.734102,40.4268
25087162,Pedrógão,Baixo Alentejo,312,2025-03-14T17:00:00Z,25087162,Em curso,1101,Cheia,0,0,0,0,2025-03-14T17:00:00Z,Vidigueira,Beja,Alentejo,-7.630327,38.110775
25126336,Manteigas (Santa Maria),Beiras e Serra da Estrela,310,2025-03-21T10:00:00Z,25126336,Em despacho,3301,Queda de árvore,0,2,0,4,2025-03-21T10:00:00Z,Manteigas,Guarda,Centro,-7.537826,40.403513
25126986,São Pedro e Santa Maria e Vila Boa do Mondego,Beiras e Serra da Estrela,310,2025-03-21T11:40:00Z,25126986,Em despacho,3301,Queda de árvore,0,1,0,2,2025-03-21T11:40:00Z,Celorico Da Beira,Guarda,Centro,-7.39057,40.639156
25128033,"S.maria, S.miguel, S.martinho, S.pedro Penaferrim",Grande Lisboa,311,2025-03-21T14:46:00Z,25128033,Em despacho,3301,Queda de árvore,0,2,0,6,2025-03-21T14:46:00Z,Sintra,Lisboa,Área Metropolitana De Lisboa,-9.366763,38.781718
25128056,Santa Maria do Castelo e Santiago e Santa Susana,Alentejo Litoral,312,2025-03-21T14:41:00Z,25128056,Em curso,1101,Cheia,0,0,0,0,2025-03-21T14:41:00Z,Alcácer Do Sal,Setúbal,Alentejo,-8.434671,38.401157
25128949,Santa Clara e Castelo Viegas,Região de Coimbra,310,2025-03-21T17:15:00Z,25128949,Em curso,3313,Deslizamento de terras,0,3,0,5,2025-03-21T17:15:00Z,Coimbra,Coimbra,Centro,-8.405437,40.161477
25128960,Barcarena,Grande Lisboa,311,2025-03-21T17:13:00Z,25128960,Em curso,3301,Queda de árvore,0,1,0,2,2025-03-21T17:13:00Z,Oeiras,Lisboa,Área Metropolitana De Lisboa,-9.268179,38.733176
25129042,Miranda do Corvo,Região de Coimbra,310,2025-03-21T17:33:00Z,25129042,Em curso,3301,Queda de árvore,0,1,0,2,2025-03-21T17:33:00Z,Miranda Do Corvo,Coimbra,Centro,-8.339499,40.09407
25129103,Rio de Mouro,Grande Lisboa,311,2025-03-21T15:49:00Z,25129103,Em despacho,3311,Queda de elementos de estruturas edificados,0,1,0,2,2025-03-21T15:49:00Z,Sintra,Lisboa,Área Metropolitana De Lisboa,-9.335789,38.787445
25129253,"S.maria, S.miguel, S.martinho, S.pedro Penaferrim",Grande Lisboa,311,2025-03-21T17:52:00Z,25129253,Em despacho,3301,Queda de árvore,0,2,0,4,2025-03-21T17:52:00Z,Sintra,Lisboa,Área Metropolitana De Lisboa,-9.414924,38.772191
25129260,Tropeço,Area M. Porto,309,2025-03-21T18:06:00Z,25129260,Em despacho,3301,Queda de árvore,0,1,0,2,2025-03-21T18:06:00Z,Arouca,Aveiro,Norte,-8.300565,40.940632
25129344,Cascais e Estoril,Grande Lisboa,311,2025-03-21T18:25:00Z,25129344,Em despacho,3301,Queda de árvore,0,2,0,7,2025-03-21T18:25:00Z,Cascais,Lisboa,Área Metropolitana De Lisboa,-9.398759,38.70391
25129403,Quinta do Conde,Península de Setúbal,311,2025-03-21T17:43:00Z,25129403,Em curso,3301,Queda de árvore,0,0,0,0,2025-03-21T17:43:00Z,Sesimbra,Setúbal,Área Metropolitana De Lisboa,-9.03613,38.570355
25129442,Cascais e Estoril,Grande Lisboa,311,2025-03-21T18:16:00Z,25129442,Em despacho,3315,Inundação de estruturas por precipitação intensa,0,1,0,2,2025-03-21T18:16:00Z,Cascais,Lisboa,Área Metropolitana De Lisboa,-9.398759,38.70391
25129578,Brotas,Alentejo Central,312,2025-03-21T19:13:00Z,25129578,Em curso,3301,Queda de árvore,0,2,0,4,2025-03-21T19:13:00Z,Mora,Évora,Alentejo,-8.176946,38.899781
25129594,Vandoma,Area M. Porto,309,2025-03-21T19:15:00Z,25129594,Em despacho,3311,Queda de elementos de estruturas edificados,0,1,0,2,2025-03-21T19:15:00Z,Paredes,Porto,Norte,-8.396146,41.201051
25129612,"Nossa Senhora do Pópulo, Coto e São Gregório",Oeste,311,2025-03-21T19:11:00Z,25129612,Em conclusão,3301,Queda de árvore,0,1,0,5,2025-03-21T19:11:00Z,Caldas Da Rainha,Leiria,Centro,-9.070578,39.359139
25129619,Lourosa,Area M. Porto,309,2025-03-21T19:20:00Z,25129619,Em curso,3311,Queda de elementos de estruturas edificados,0,1,0,3,2025-03-21T19:20:00Z,Santa Maria Da Feira,Aveiro,Norte,-8.54384,40.98201
25129660,Charneca de Caparica e Sobreda,Península de Setúbal,311,2025-03-21T19:28:00Z,25129660,Em despacho,3301,Queda de árvore,0,1,0,4,2025-03-21T19:28:00Z,Almada,Setúbal,Área Metropolitana De Lisboa,-9.194473,38.648295
