id,address,subregion,neighborhood,date,id.1,state,nature,nature_description,aerial_means,terrestrial_means,aquatic_means,operational,date.1,Concelho,Distrito,NUTII_DSG,longitude,latitude,state_2
25718082,Monsanto e Idanha-a-Velha,Beira Baixa,310,2025-07-22T20:17:00Z,25718082,Em Resolução/Conclusão,3105,Incêndio rural,0,1,0,2,2025-07-22T20:17:00Z,Idanha-a-Nova,Castelo Branco,Centro,-7.048977,40.051923,Resolução/Conclusão
25720797,"Lavandeira, Beira Grande e Selores",Douro,309,2025-07-23T12:23:00Z,25720797,Em Curso,3103,Incêndio rural,2,29,0,89,2025-07-23T12:23:00Z,Carrazeda De Ansiães,Bragança,Norte,-7.304242,41.205575,Curso
25721942,Paredes,Area M. Porto,309,2025-07-23T16:24:00Z,25721942,Em Resolução/Conclusão,3103,Incêndio rural,1,2,0,16,2025-07-23T16:24:00Z,Paredes,Porto,Norte,-8.32115,41.23021,Resolução/Conclusão
25722033,Dois Portos e Runa,Oeste,311,2025-07-23T16:42:00Z,25722033,Em Resolução/Conclusão,3101,Incêndio rural,0,6,0,21,2025-07-23T16:42:00Z,Torres Vedras,Lisboa,Centro,-9.178735,39.064587,Resolução/Conclusão
25721619,Costa da Caparica,Península de Setúbal,311,2025-07-23T15:11:00Z,25721619,Em Resolução/Conclusão,3103,Incêndio rural,0,16,0,55,2025-07-23T15:11:00Z,Almada,Setúbal,Área Metropolitana De Lisboa,-9.21697,38.61683,Resolução/Conclusão
25721653,Belmonte e Colmeal da Torre,Beiras e Serra da Estrela,310,2025-07-23T15:18:00Z,25721653,Em Resolução/Conclusão,3103,Incêndio rural,0,13,0,50,2025-07-23T15:18:00Z,Belmonte,Castelo Branco,Centro,-7.335192,40.353123,Resolução/Conclusão
25721670,Barreiro de Besteiros e Tourigo,Viseu Dão Lafões,310,2025-07-23T15:20:00Z,25721670,Em Resolução/Conclusão,3103,Incêndio rural,0,10,0,29,2025-07-23T15:20:00Z,Tondela,Viseu,Centro,-8.214625,40.525652,Resolução/Conclusão
25721704,Bugalhos,Médio Tejo,311,2025-07-23T15:28:00Z,25721704,Em Resolução/Conclusão,3101,Incêndio rural,0,13,0,41,2025-07-23T15:28:00Z,Alcanena,Santarém,Centro,-8.626415,39.435343,Resolução/Conclusão
25722007,Santo Isidoro,Grande Lisboa,311,2025-07-23T16:33:00Z,25722007,Em Resolução/Conclusão,3103,Incêndio rural,0,7,0,28,2025-07-23T16:33:00Z,Mafra,Lisboa,Área Metropolitana De Lisboa,-9.360955,38.987937,Resolução/Conclusão
25722039,Ronfe,Ave,309,2025-07-23T16:45:00Z,25722039,Em Resolução/Conclusão,3103,Incêndio rural,1,3,0,21,2025-07-23T16:45:00Z,Guimarães,Braga,Norte,-8.386088,41.435752,Resolução/Conclusão
25722056,São João Baptista,Médio Tejo,311,2025-07-23T16:48:00Z,25722056,Em Resolução/Conclusão,3103,Incêndio rural,0,6,0,24,2025-07-23T16:48:00Z,Entroncamento,Santarém,Centro,-8.47006,39.48502,Resolução/Conclusão
25712338,Cercal,Alentejo Litoral,312,2025-07-21T17:38:00Z,25712338,Em Resolução/Conclusão,3103,Incêndio rural,0,11,0,38,2025-07-21T17:38:00Z,Santiago Do Cacém,Setúbal,Alentejo,-8.682272,37.791582,Resolução/Conclusão
25717167,Pinhel,Beiras e Serra da Estrela,310,2025-07-22T16:40:00Z,25717167,Em Resolução/Conclusão,3103,Incêndio rural,0,2,0,7,2025-07-22T16:40:00Z,Pinhel,Guarda,Centro,-7.060442,40.781598,Resolução/Conclusão
25717520,Castelo Branco,Beira Baixa,310,2025-07-22T17:59:00Z,25717520,Em Resolução/Conclusão,3103,Incêndio rural,0,2,0,10,2025-07-22T17:59:00Z,Castelo Branco,Castelo Branco,Centro,-7.464898,39.851129,Resolução/Conclusão
25721579,Caparica e Trafaria,Península de Setúbal,311,2025-07-23T15:05:00Z,25721579,Em Resolução/Conclusão,3103,Incêndio rural,0,0,0,0,2025-07-23T15:05:00Z,Almada,Setúbal,Área Metropolitana De Lisboa,-9.20719,38.673972,Resolução/Conclusão
25721930,Vilar de Perdizes e Meixide,Alto Tâmega e Barroso,309,2025-07-23T16:21:00Z,25721930,Em Curso,3103,Incêndio rural,4,11,0,56,2025-07-23T16:21:00Z,NA,NA,NA,-7.618655,41.886193,Curso
25722013,Carreiras (São Miguel) e Carreiras (Santiago),Cávado,309,2025-07-23T16:41:00Z,25722013,Em Resolução/Conclusão,3103,Incêndio rural,1,3,0,21,2025-07-23T16:41:00Z,Vila Verde,Braga,Norte,-8.497982,41.65622,Resolução/Conclusão
25722112,"Romãs, Decermilo e Vila Longa",Viseu Dão Lafões,310,2025-07-23T17:02:00Z,25722112,Em Despacho,3103,Incêndio rural,1,5,0,25,2025-07-23T17:02:00Z,Sátão,Viseu,Centro,-7.650066,40.743445,Despacho
25711397,Vale da Pedra,Lezíria do Tejo,311,2025-07-21T14:16:00Z,25711397,Em Resolução/Conclusão,3103,Incêndio rural,0,0,0,0,2025-07-21T14:16:00Z,Cartaxo,Santarém,Alentejo,-8.783137,39.110872,Resolução/Conclusão
25719571,Belmonte e Colmeal da Torre,Beiras e Serra da Estrela,310,2025-07-23T08:37:00Z,25719571,Em Resolução/Conclusão,3103,Incêndio rural,0,2,0,4,2025-07-23T08:37:00Z,Belmonte,Castelo Branco,Centro,-7.3317,40.38457,Resolução/Conclusão
25720387,Castro Verde e Casével,Baixo Alentejo,312,2025-07-23T10:58:00Z,25720387,Em Resolução/Conclusão,3103,Incêndio rural,0,18,0,44,2025-07-23T10:58:00Z,Castro Verde,Beja,Alentejo,-8.032932,37.655215,Resolução/Conclusão
25720932,Bouro (Santa Marta),Cávado,309,2025-07-23T12:54:00Z,25720932,Em Resolução/Conclusão,3101,Incêndio rural,0,10,0,34,2025-07-23T12:54:00Z,Amares,Braga,Norte,-8.283857,41.671897,Resolução/Conclusão
25721382,Unhais da Serra,Beiras e Serra da Estrela,310,2025-07-23T14:29:00Z,25721382,Em Resolução/Conclusão,3103,Incêndio rural,0,10,0,27,2025-07-23T14:29:00Z,Covilhã,Castelo Branco,Centro,-7.61948,40.25114,Resolução/Conclusão
25721734,Barqueiros,Cávado,309,2025-07-23T15:31:00Z,25721734,Em Resolução/Conclusão,3103,Incêndio rural,0,2,0,7,2025-07-23T15:31:00Z,Barcelos,Braga,Norte,-8.739395,41.480643,Resolução/Conclusão
25721800,Fornelos e Queijada,Alto Minho,309,2025-07-23T15:43:00Z,25721800,Em Resolução/Conclusão,3105,Incêndio rural,0,0,0,0,2025-07-23T15:43:00Z,Ponte De Lima,Viana Do Castelo,Norte,-8.56129,41.754317,Resolução/Conclusão
25721877,Alhos Vedros,Península de Setúbal,311,2025-07-23T16:08:00Z,25721877,Em Resolução/Conclusão,3105,Incêndio rural,0,0,0,0,2025-07-23T16:08:00Z,Moita,Setúbal,Área Metropolitana De Lisboa,-9.0188,38.64815,Resolução/Conclusão
25722018,"Pinheiro da Bemposta, Travanca e Palmaz",Area M. Porto,309,2025-07-23T16:40:00Z,25722018,Em Curso,3103,Incêndio rural,2,6,0,36,2025-07-23T16:40:00Z,Oliveira De Azeméis,Aveiro,Norte,-8.485833,40.79389,Curso
