id,address,subregion,neighborhood,date,id.1,state,nature,nature_description,aerial_means,terrestrial_means,aquatic_means,operational,date.1,Concelho,Distrito,NUTII_DSG,longitude,latitude
24851780,"São Miguel, Santa Eufémia e Rabaçal",Região de Coimbra,310,2025-01-21T23:25:00Z,24851780,Em curso,3315,Inundação de estruturas por precipitação intensa,0,0,0,0,2025-01-21T23:25:00Z,Penela,Coimbra,Centro,-8.399036,40.025502
24885423,"Cedofeita, Ildefonso, Sé, Miragaia, Nicolau e Vitória",Area M. Porto,309,2025-01-29T07:20:00Z,24885423,Em despacho,3321,Dano na rede de fornecimento de eletricidade ,0,0,0,0,2025-01-29T07:20:00Z,Porto,Porto,Norte,-8.61864,41.15619
24877003,Malagueira e Horta Das Figueiras,Alentejo Central,312,2025-01-27T11:41:00Z,24877003,Em conclusão,3315,Inundação de estruturas por precipitação intensa,0,0,0,0,2025-01-27T11:41:00Z,Évora,Évora,Alentejo,-7.924277,38.57285
24885309,"Oeiras e S. Julião da Barra, Paço de Arcos e Caxias",Grande Lisboa,311,2025-01-29T05:56:00Z,24885309,Em resolução,3317,Inundação de estruturas por água canalizada,0,1,0,4,2025-01-29T05:56:00Z,Oeiras,Lisboa,Área Metropolitana De Lisboa,-9.32032,38.67882
24885444,Moreira,Area M. Porto,309,2025-01-29T07:31:00Z,24885444,Em despacho,3315,Inundação de estruturas por precipitação intensa,0,0,0,0,2025-01-29T07:31:00Z,Maia,Porto,Norte,-8.64537,41.25554
24885433,"S.maria, S.miguel, S.martinho, S.pedro Penaferrim",Grande Lisboa,311,2025-01-29T07:18:00Z,24885433,Em despacho,3301,Queda de árvore,0,1,0,5,2025-01-29T07:18:00Z,Sintra,Lisboa,Área Metropolitana De Lisboa,-9.387899,38.805813
24885467,Bonfim,Area M. Porto,309,2025-01-29T07:17:00Z,24885467,Em despacho,3315,Inundação de estruturas por precipitação intensa,0,1,0,4,2025-01-29T07:17:00Z,Porto,Porto,Norte,-8.596119,41.151713
