id,address,subregion,neighborhood,date,id.1,state,nature,nature_description,aerial_means,terrestrial_means,aquatic_means,operational,date.1,Concelho,Distrito,NUTII_DSG,longitude,latitude
25059714,Torrão,Alentejo Litoral,312,2025-03-08T22:10:00Z,25059714,Em curso,1101,Cheia,0,2,0,3,2025-03-08T22:10:00Z,Alcácer Do Sal,Setúbal,Alentejo,-8.359133,38.252053
25070044,Praia do Ribatejo,Médio Tejo,311,2025-03-10T19:30:00Z,25070044,Em curso,1101,Cheia,0,0,0,0,2025-03-10T19:30:00Z,Vila Nova Da Barquinha,Santarém,Centro,-8.357309,39.485638
25071496,São Manços e São Vicente do Pigeiro,Alentejo Central,312,2025-03-11T13:18:00Z,25071496,Em curso,1101,Cheia,0,2,0,4,2025-03-11T13:18:00Z,Évora,Évora,Alentejo,-7.713313,38.513673
25111474,Bombarral e Vale Covo,Oeste,311,2025-03-19T21:07:00Z,25111474,Em resolução,3301,Queda de árvore,0,2,0,3,2025-03-19T21:07:00Z,Bombarral,Leiria,Centro,-9.16726,39.2754
25111623,Alqueidão,Região de Coimbra,310,2025-03-19T21:36:00Z,25111623,Em despacho,3301,Queda de árvore,0,0,0,0,2025-03-19T21:36:00Z,Figueira Da Foz,Coimbra,Centro,-8.76809,40.07898
25111658,Alvorninha,Oeste,311,2025-03-19T21:41:00Z,25111658,Em curso,3309,Desabamento de estruturas edificadas,0,0,0,0,2025-03-19T21:41:00Z,Caldas Da Rainha,Leiria,Centro,-9.047004,39.419673
25111824,Amoreira,Oeste,311,2025-03-19T21:58:00Z,25111824,Em despacho,3301,Queda de árvore,0,1,0,5,2025-03-19T21:58:00Z,Óbidos,Leiria,Centro,-9.213027,39.342591
25111859,Cadaval e Pêro Moniz,Oeste,311,2025-03-19T22:07:00Z,25111859,Em curso,3301,Queda de árvore,0,1,0,3,2025-03-19T22:07:00Z,Cadaval,Lisboa,Centro,-9.101481,39.244497
25111860,Longueira/Almograve,Alentejo Litoral,312,2025-03-19T22:09:00Z,25111860,Em conclusão,3301,Queda de árvore,0,1,0,2,2025-03-19T22:09:00Z,Odemira,Beja,Alentejo,-8.71748,37.612027
25111891,"Seia, São Romão e Lapa Dos Dinheiros",Beiras e Serra da Estrela,310,2025-03-19T22:20:00Z,25111891,Em curso,3301,Queda de árvore,0,3,0,6,2025-03-19T22:20:00Z,Seia,Guarda,Centro,-7.74354,40.393485
25111892,Marinha Das Ondas,Região de Coimbra,310,2025-03-19T22:22:00Z,25111892,Em despacho,3309,Desabamento de estruturas edificadas,0,0,0,0,2025-03-19T22:22:00Z,Figueira Da Foz,Coimbra,Centro,-8.832842,40.02937
25111926,Foz do Arelho,Oeste,311,2025-03-19T22:00:00Z,25111926,Em despacho,3309,Desabamento de estruturas edificadas,0,1,0,5,2025-03-19T22:00:00Z,Caldas Da Rainha,Leiria,Centro,-9.207478,39.434512
25111960,Portimão,Algarve,313,2025-03-19T22:28:00Z,25111960,Em curso,3301,Queda de árvore,0,2,0,5,2025-03-19T22:28:00Z,Portimão,Faro,Algarve,-8.532608,37.137966
25111974,Montijo e Afonsoeiro,Península de Setúbal,311,2025-03-19T22:35:00Z,25111974,Em curso,3311,Queda de elementos de estruturas edificados,0,2,0,6,2025-03-19T22:35:00Z,Montijo,Setúbal,Área Metropolitana De Lisboa,-8.953643,38.70447
25068300,Almeirim,Lezíria do Tejo,311,2025-03-10T20:52:00Z,25068300,Em curso,1101,Cheia,0,0,0,0,2025-03-10T20:52:00Z,Almeirim,Santarém,Alentejo,-8.635002,39.187436
25111284,"Manique do Intendente, V. N. de São Pedro e Maçussa",Lezíria do Tejo,311,2025-03-19T20:22:00Z,25111284,Em conclusão,3329,Queda de estruturas temporárias ou móveis,0,1,0,2,2025-03-19T20:22:00Z,Azambuja,Lisboa,Alentejo,-8.889528,39.229128
25111872,Samora Correia,Lezíria do Tejo,311,2025-03-19T22:19:00Z,25111872,Em resolução,3301,Queda de árvore,0,2,0,5,2025-03-19T22:19:00Z,Benavente,Santarém,Alentejo,-8.881385,38.895035
25111888,Louriçal,Região de Leiria,310,2025-03-19T22:22:00Z,25111888,Em despacho,3321,Dano na rede de fornecimento de eletricidade ,0,1,0,1,2025-03-19T22:22:00Z,Pombal,Leiria,Centro,-8.773705,40.03828
25111976,Cascais e Estoril,Grande Lisboa,311,2025-03-19T22:25:00Z,25111976,Em conclusão,3301,Queda de árvore,0,2,0,7,2025-03-19T22:25:00Z,Cascais,Lisboa,Área Metropolitana De Lisboa,-9.419397,38.700982
25111992,Souto da Carpalhosa e Ortigosa,Região de Leiria,310,2025-03-19T22:26:00Z,25111992,Em despacho,3301,Queda de árvore,0,1,0,3,2025-03-19T22:26:00Z,Leiria,Leiria,Centro,-8.823387,39.821109
25112007,Ovoa e Vimieiro,Viseu Dão Lafões,310,2025-03-19T22:36:00Z,25112007,Em curso,3301,Queda de árvore,0,2,0,5,2025-03-19T22:36:00Z,Santa Comba Dão,Viseu,Centro,-8.170712,40.34961
25112008,Manteigas (Santa Maria),Beiras e Serra da Estrela,310,2025-03-19T22:44:00Z,25112008,Em curso,3301,Queda de árvore,0,1,0,1,2025-03-19T22:44:00Z,Manteigas,Guarda,Centro,-7.534834,40.40585
25112044,"Gondomar (São Cosme), Valbom e Jovim",Area M. Porto,309,2025-03-19T22:50:00Z,25112044,Em despacho,3301,Queda de árvore,0,1,0,4,2025-03-19T22:50:00Z,Gondomar,Porto,Norte,-8.53618,41.11193
25112076,São José da Lamarosa,Lezíria do Tejo,311,2025-03-19T22:54:00Z,25112076,Em curso,3301,Queda de árvore,0,3,0,8,2025-03-19T22:54:00Z,Coruche,Santarém,Alentejo,-8.555198,39.085078
25112092,Roliça,Oeste,311,2025-03-19T22:49:00Z,25112092,Em curso,3301,Queda de árvore,0,2,0,6,2025-03-19T22:49:00Z,Bombarral,Leiria,Centro,-9.176338,39.293388
25112093,Palmela,Península de Setúbal,311,2025-03-19T22:58:00Z,25112093,Em despacho,3301,Queda de árvore,0,1,0,3,2025-03-19T22:58:00Z,Palmela,Setúbal,Área Metropolitana De Lisboa,-8.872455,38.582082
25112107,Nossa Senhora da Piedade,Médio Tejo,311,2025-03-19T22:59:00Z,25112107,Em conclusão,3301,Queda de árvore,0,1,0,5,2025-03-19T22:59:00Z,Ourém,Santarém,Centro,-8.573645,39.667457
25112126,São Pedro de Castelões,Area M. Porto,309,2025-03-19T23:00:00Z,25112126,Em curso,3311,Queda de elementos de estruturas edificados,0,2,0,4,2025-03-19T23:00:00Z,Vale De Cambra,Aveiro,Norte,-8.39388,40.815821
25063232,Santa Maria do Castelo e Santiago e Santa Susana,Alentejo Litoral,312,2025-03-09T19:02:00Z,25063232,Em curso,1101,Cheia,0,0,0,0,2025-03-09T19:02:00Z,Alcácer Do Sal,Setúbal,Alentejo,-8.48167,38.29806
25111584,Miranda do Corvo,Região de Coimbra,310,2025-03-19T21:25:00Z,25111584,Em despacho,3329,Queda de estruturas temporárias ou móveis,0,1,0,4,2025-03-19T21:25:00Z,Miranda Do Corvo,Coimbra,Centro,-8.339499,40.09407
25111783,Marinha Grande,Região de Leiria,310,2025-03-19T22:05:00Z,25111783,Em curso,3311,Queda de elementos de estruturas edificados,0,1,0,2,2025-03-19T22:05:00Z,Marinha Grande,Leiria,Centro,-8.924808,39.76481
25111848,Alenquer (Santo Estêvão e Triana),Oeste,311,2025-03-19T22:14:00Z,25111848,Em despacho,3301,Queda de árvore,0,1,0,2,2025-03-19T22:14:00Z,Alenquer,Lisboa,Centro,-9.02472,39.02977
25111898,Santo Isidoro,Grande Lisboa,311,2025-03-19T22:16:00Z,25111898,Em despacho,3301,Queda de árvore,0,1,0,5,2025-03-19T22:16:00Z,Mafra,Lisboa,Área Metropolitana De Lisboa,-9.368141,38.994278
25087162,Pedrógão,Baixo Alentejo,312,2025-03-14T17:00:00Z,25087162,Em curso,1101,Cheia,0,0,0,0,2025-03-14T17:00:00Z,Vidigueira,Beja,Alentejo,-7.630327,38.110775
25111421,Febres,Região de Coimbra,310,2025-03-19T20:53:00Z,25111421,Em despacho,3311,Queda de elementos de estruturas edificados,0,1,0,2,2025-03-19T20:53:00Z,Cantanhede,Coimbra,Centro,-8.637168,40.385839
25111596,Paião,Região de Coimbra,310,2025-03-19T21:30:00Z,25111596,Em despacho,3301,Queda de árvore,0,1,0,2,2025-03-19T21:30:00Z,Figueira Da Foz,Coimbra,Centro,-8.756598,40.054747
25111610,Marrazes e Barosa,Região de Leiria,310,2025-03-19T21:35:00Z,25111610,Em despacho,3301,Queda de árvore,0,0,0,0,2025-03-19T21:35:00Z,Leiria,Leiria,Centro,-8.81813,39.75452
25111669,Marinha Grande,Região de Leiria,310,2025-03-19T21:26:00Z,25111669,Em despacho,3311,Queda de elementos de estruturas edificados,0,1,0,2,2025-03-19T21:26:00Z,Marinha Grande,Leiria,Centro,-8.937219,39.767238
25111694,Antuzede e Vil de Matos,Região de Coimbra,310,2025-03-19T21:49:00Z,25111694,Em despacho,3301,Queda de árvore,0,1,0,3,2025-03-19T21:49:00Z,Coimbra,Coimbra,Centro,-8.495048,40.236879
25111794,Santiago e S. Simão de Litém e Albergaria Dos Doze,Região de Leiria,310,2025-03-19T22:00:00Z,25111794,Em despacho,3311,Queda de elementos de estruturas edificados,0,2,0,7,2025-03-19T22:00:00Z,Pombal,Leiria,Centro,-8.58281,39.824995
25111812,Parceiros e Azoia,Região de Leiria,310,2025-03-19T22:08:00Z,25111812,Em despacho,3301,Queda de árvore,0,1,0,3,2025-03-19T22:08:00Z,Leiria,Leiria,Centro,-8.83613,39.70146
25112141,Alfarelos,Região de Coimbra,310,2025-03-19T22:57:00Z,25112141,Em despacho,3301,Queda de árvore,0,1,0,3,2025-03-19T22:57:00Z,Soure,Coimbra,Centro,-8.635329,40.138191
25112143,Canelas e Fermelã,Região de Aveiro,310,2025-03-19T22:55:00Z,25112143,Em conclusão,3301,Queda de árvore,0,2,0,5,2025-03-19T22:55:00Z,Estarreja,Aveiro,Centro,-8.554472,40.720264
25112144,"S.julião, N.s. da Anunciada e S. Maria da Graça",Península de Setúbal,311,2025-03-19T23:01:00Z,25112144,Em despacho,3311,Queda de elementos de estruturas edificados,0,2,0,9,2025-03-19T23:01:00Z,Setúbal,Setúbal,Área Metropolitana De Lisboa,-8.889983,38.529955
25112158,Fátima,Médio Tejo,311,2025-03-19T23:11:00Z,25112158,Em resolução,3301,Queda de árvore,0,2,0,4,2025-03-19T23:11:00Z,Ourém,Santarém,Centro,-8.670851,39.581444
25112159,Peniche,Oeste,311,2025-03-19T22:54:00Z,25112159,Em curso,3321,Dano na rede de fornecimento de eletricidade ,0,1,0,4,2025-03-19T22:54:00Z,Peniche,Leiria,Centro,-9.376833,39.357166
25112160,"Guia, Ilha e Mata Mourisca",Região de Leiria,310,2025-03-19T22:25:00Z,25112160,Em despacho,3301,Queda de árvore,0,1,0,3,2025-03-19T22:25:00Z,Pombal,Leiria,Centro,-8.753282,39.947593
25112174,Ramada e Caneças,Grande Lisboa,311,2025-03-19T23:08:00Z,25112174,Em curso,3301,Queda de árvore,0,1,0,5,2025-03-19T23:08:00Z,Odivelas,Lisboa,Área Metropolitana De Lisboa,-9.194441,38.801427
25112177,Sacavém e Prior Velho,Grande Lisboa,311,2025-03-19T23:03:00Z,25112177,Em despacho,3329,Queda de estruturas temporárias ou móveis,0,1,0,5,2025-03-19T23:03:00Z,Lisboa,Lisboa,Área Metropolitana De Lisboa,-9.097627,38.792359
25112192,Poceirão e Marateca,Península de Setúbal,311,2025-03-19T23:10:00Z,25112192,Em despacho,3301,Queda de árvore,0,1,0,4,2025-03-19T23:10:00Z,Palmela,Setúbal,Área Metropolitana De Lisboa,-8.702358,38.586871
25112194,Mafamude e Vilar do Paraíso,Area M. Porto,309,2025-03-19T23:11:00Z,25112194,Em despacho,3311,Queda de elementos de estruturas edificados,0,1,0,3,2025-03-19T23:11:00Z,Vila Nova De Gaia,Porto,Norte,-8.611105,41.107184
25111913,Águas Santas,Area M. Porto,309,2025-03-19T22:26:00Z,25111913,Em curso,3329,Queda de estruturas temporárias ou móveis,0,1,0,4,2025-03-19T22:26:00Z,Maia,Porto,Norte,-8.561395,41.20415
25111936,Alfeizerão,Oeste,311,2025-03-19T22:29:00Z,25111936,Em despacho,3301,Queda de árvore,0,1,0,1,2025-03-19T22:29:00Z,Alcobaça,Leiria,Centro,-9.10212,39.50255
25111972,Maçainhas,Beiras e Serra da Estrela,310,2025-03-19T22:34:00Z,25111972,Em curso,3301,Queda de árvore,0,0,0,0,2025-03-19T22:34:00Z,Guarda,Guarda,Centro,-7.310414,40.538915
25112036,"São Miguel, Santa Eufémia e Rabaçal",Região de Coimbra,310,2025-03-19T22:40:00Z,25112036,Em despacho,3301,Queda de árvore,0,3,0,7,2025-03-19T22:40:00Z,Penela,Coimbra,Centro,-8.397812,40.011996
25112038,Porto de Mós - São João Baptista e São Pedro,Região de Leiria,310,2025-03-19T22:49:00Z,25112038,Em despacho,3301,Queda de árvore,0,1,0,2,2025-03-19T22:49:00Z,Porto De Mós,Leiria,Centro,-8.833938,39.61876
25112072,São João do Campo,Região de Coimbra,310,2025-03-19T22:45:00Z,25112072,Em curso,3311,Queda de elementos de estruturas edificados,0,1,0,3,2025-03-19T22:45:00Z,Coimbra,Coimbra,Centro,-8.517374,40.236807
25112088,Azeitão (São Lourenço e São Simão),Península de Setúbal,311,2025-03-19T22:51:00Z,25112088,Em despacho,3301,Queda de árvore,0,1,0,5,2025-03-19T22:51:00Z,Setúbal,Setúbal,Área Metropolitana De Lisboa,-9.00001,38.524687
25112097,Cidade da Maia,Area M. Porto,309,2025-03-19T22:59:00Z,25112097,Em despacho,3301,Queda de árvore,0,0,0,0,2025-03-19T22:59:00Z,Maia,Porto,Norte,-8.601682,41.23353
25112111,Lourinhã e Atalaia,Oeste,311,2025-03-19T22:43:00Z,25112111,Em despacho,3301,Queda de árvore,0,1,0,5,2025-03-19T22:43:00Z,Lourinhã,Lisboa,Centro,-9.314052,39.280363
25111915,Góis,Região de Coimbra,310,2025-03-19T22:23:00Z,25111915,Em despacho,3301,Queda de árvore,0,1,0,4,2025-03-19T22:23:00Z,Góis,Coimbra,Centro,-8.120659,40.134935
25111934,Monchique,Algarve,313,2025-03-19T22:18:00Z,25111934,Em curso,3301,Queda de árvore,0,2,0,5,2025-03-19T22:18:00Z,Monchique,Faro,Algarve,-8.614574,37.284529
25111999,"Seixal, Arrentela e Aldeia de Paio Pires",Península de Setúbal,311,2025-03-19T22:42:00Z,25111999,Em despacho,3301,Queda de árvore,0,1,0,4,2025-03-19T22:42:00Z,Seixal,Setúbal,Área Metropolitana De Lisboa,-9.10403,38.61725
25112000,Fernão Ferro,Península de Setúbal,311,2025-03-19T22:42:00Z,25112000,Em despacho,3301,Queda de árvore,0,1,0,2,2025-03-19T22:42:00Z,Seixal,Setúbal,Área Metropolitana De Lisboa,-9.09385,38.57806
25112001,Nadadouro,Oeste,311,2025-03-19T22:37:00Z,25112001,Em despacho,3321,Dano na rede de fornecimento de eletricidade ,0,1,0,5,2025-03-19T22:37:00Z,Caldas Da Rainha,Leiria,Centro,-9.199088,39.417476
25112033,São Bartolomeu de Messines,Algarve,313,2025-03-19T22:40:00Z,25112033,Em curso,3301,Queda de árvore,0,1,0,5,2025-03-19T22:40:00Z,Silves,Faro,Algarve,-8.283554,37.282885
25112066,Gafanha da Nazaré,Região de Aveiro,310,2025-03-19T22:51:00Z,25112066,Em despacho,3311,Queda de elementos de estruturas edificados,0,1,0,3,2025-03-19T22:51:00Z,Ílhavo,Aveiro,Centro,-8.714699,40.63582
25112068,Lagoa e Carvoeiro,Algarve,313,2025-03-19T22:54:00Z,25112068,Em curso,3301,Queda de árvore,0,3,0,6,2025-03-19T22:54:00Z,Lagoa,Faro,Algarve,-8.45971,37.09728
25112083,Bordeira,Algarve,313,2025-03-19T22:57:00Z,25112083,Em despacho,3301,Queda de árvore,0,1,0,3,2025-03-19T22:57:00Z,Aljezur,Faro,Algarve,-8.795544,37.21969
25112208,Malveira e São Miguel de Alcainça,Grande Lisboa,311,2025-03-19T23:11:00Z,25112208,Em despacho,3321,Dano na rede de fornecimento de eletricidade ,0,1,0,5,2025-03-19T23:11:00Z,Mafra,Lisboa,Área Metropolitana De Lisboa,-9.288438,38.919433
25112210,Rio de Mouro,Grande Lisboa,311,2025-03-19T23:21:00Z,25112210,Em despacho,3301,Queda de árvore,0,1,0,3,2025-03-19T23:21:00Z,Sintra,Lisboa,Área Metropolitana De Lisboa,-9.318117,38.78921
25112211,Mafamude e Vilar do Paraíso,Area M. Porto,309,2025-03-19T23:21:00Z,25112211,Em despacho,3311,Queda de elementos de estruturas edificados,0,1,0,6,2025-03-19T23:21:00Z,Vila Nova De Gaia,Porto,Norte,-8.60752,41.12127
25112224,Fânzeres e São Pedro da Cova,Area M. Porto,309,2025-03-19T23:23:00Z,25112224,Em despacho,3311,Queda de elementos de estruturas edificados,0,1,0,5,2025-03-19T23:23:00Z,Gondomar,Porto,Norte,-8.53937,41.16223
25112227,Freiria,Oeste,311,2025-03-19T22:49:00Z,25112227,Em despacho,3311,Queda de elementos de estruturas edificados,0,1,0,2,2025-03-19T22:49:00Z,Torres Vedras,Lisboa,Centro,-9.292595,39.032884
25112258,Ramalde,Area M. Porto,309,2025-03-19T23:28:00Z,25112258,Em despacho,3311,Queda de elementos de estruturas edificados,0,1,0,5,2025-03-19T23:28:00Z,Porto,Porto,Norte,-8.65923,41.16712
25112261,São João Das Lampas e Terrugem,Grande Lisboa,311,2025-03-19T23:27:00Z,25112261,Em despacho,3301,Queda de árvore,0,1,0,5,2025-03-19T23:27:00Z,Sintra,Lisboa,Área Metropolitana De Lisboa,-9.404642,38.905614
25112278,Loures,Grande Lisboa,311,2025-03-19T23:18:00Z,25112278,Em despacho,3329,Queda de estruturas temporárias ou móveis,0,1,0,5,2025-03-19T23:18:00Z,Loures,Lisboa,Área Metropolitana De Lisboa,-9.189379,38.848312
25111844,Cadafaz e Colmeal,Região de Coimbra,310,2025-03-19T22:11:00Z,25111844,Em despacho,3309,Desabamento de estruturas edificadas,0,2,0,3,2025-03-19T22:11:00Z,Góis,Coimbra,Centro,-8.013447,40.126617
25111862,Buarcos,Região de Coimbra,310,2025-03-19T22:17:00Z,25111862,Em despacho,3309,Desabamento de estruturas edificadas,0,1,0,3,2025-03-19T22:17:00Z,Figueira Da Foz,Coimbra,Centro,-8.87546,40.16447
25111880,Caldas da Rainha - Santo Onofre e Serra do Bouro,Oeste,311,2025-03-19T22:21:00Z,25111880,Em despacho,3301,Queda de árvore,0,1,0,5,2025-03-19T22:21:00Z,Caldas Da Rainha,Leiria,Centro,-9.14999,39.4037
25111894,São Martinho,Alentejo Litoral,312,2025-03-19T22:23:00Z,25111894,Em resolução,3301,Queda de árvore,0,5,0,9,2025-03-19T22:23:00Z,Alcácer Do Sal,Setúbal,Alentejo,-8.5474,38.44614
25111896,Rio Tinto,Area M. Porto,309,2025-03-19T22:23:00Z,25111896,Em resolução,3301,Queda de árvore,0,3,0,8,2025-03-19T22:23:00Z,Gondomar,Porto,Norte,-8.56816,41.18064
25111939,Pombal,Região de Leiria,310,2025-03-19T22:30:00Z,25111939,Em despacho,3301,Queda de árvore,0,1,0,2,2025-03-19T22:30:00Z,Pombal,Leiria,Centro,-8.603159,39.896965
25111987,Paião,Região de Coimbra,310,2025-03-19T22:38:00Z,25111987,Em despacho,3301,Queda de árvore,0,0,0,0,2025-03-19T22:38:00Z,Figueira Da Foz,Coimbra,Centro,-8.81391,40.06369
25111998,Maceira,Região de Leiria,310,2025-03-19T22:18:00Z,25111998,Em despacho,3309,Desabamento de estruturas edificadas,0,2,0,4,2025-03-19T22:18:00Z,Leiria,Leiria,Centro,-8.877948,39.682073
25112030,Santa Bárbara de Nexe,Algarve,313,2025-03-19T22:47:00Z,25112030,Em despacho,3321,Dano na rede de fornecimento de eletricidade ,0,2,0,5,2025-03-19T22:47:00Z,Faro,Faro,Algarve,-7.93309,37.12767
25112039,Beduído e Veiros,Região de Aveiro,310,2025-03-19T22:49:00Z,25112039,Em curso,3311,Queda de elementos de estruturas edificados,0,3,0,7,2025-03-19T22:49:00Z,Estarreja,Aveiro,Centro,-8.574685,40.76101
25112115,Oliveira do Bairro,Região de Aveiro,310,2025-03-19T22:59:00Z,25112115,Em despacho,3311,Queda de elementos de estruturas edificados,0,1,0,3,2025-03-19T22:59:00Z,Oliveira Do Bairro,Aveiro,Centro,-8.49301,40.516056
25112145,Marinha Das Ondas,Região de Coimbra,310,2025-03-19T23:10:00Z,25112145,Em despacho,3301,Queda de árvore,0,0,0,0,2025-03-19T23:10:00Z,Figueira Da Foz,Coimbra,Centro,-8.80992,40.01798
25112154,Arouca e Burgo,Area M. Porto,309,2025-03-19T23:09:00Z,25112154,Em despacho,3301,Queda de árvore,0,1,0,2,2025-03-19T23:09:00Z,Arouca,Aveiro,Norte,-8.248978,40.925751
25112156,Alcobaça e Vestiaria,Oeste,311,2025-03-19T23:12:00Z,25112156,Em despacho,3301,Queda de árvore,0,0,0,0,2025-03-19T23:12:00Z,Alcobaça,Leiria,Centro,-9.00768,39.55876
25112170,"Oeiras e S. Julião da Barra, Paço de Arcos e Caxias",Grande Lisboa,311,2025-03-19T23:12:00Z,25112170,Em despacho,3301,Queda de árvore,0,1,0,3,2025-03-19T23:12:00Z,Oeiras,Lisboa,Área Metropolitana De Lisboa,-9.290593,38.696925
25112172,"Seixal, Arrentela e Aldeia de Paio Pires",Península de Setúbal,311,2025-03-19T23:13:00Z,25112172,Em curso,3329,Queda de estruturas temporárias ou móveis,0,1,0,4,2025-03-19T23:13:00Z,Seixal,Setúbal,Área Metropolitana De Lisboa,-9.090212,38.62184
25112190,"Guia, Ilha e Mata Mourisca",Região de Leiria,310,2025-03-19T22:40:00Z,25112190,Em despacho,3301,Queda de árvore,0,1,0,3,2025-03-19T22:40:00Z,Pombal,Leiria,Centro,-8.781363,39.947439
25112197,"Cedofeita, Ildefonso, Sé, Miragaia, Nicolau e Vitória",Area M. Porto,309,2025-03-19T23:19:00Z,25112197,Em despacho,3301,Queda de árvore,0,1,0,5,2025-03-19T23:19:00Z,Porto,Porto,Norte,-8.61143,41.14721
25112215,"Coruche, Fajarda e Erra",Lezíria do Tejo,311,2025-03-19T23:21:00Z,25112215,Em despacho,3301,Queda de árvore,0,1,0,5,2025-03-19T23:21:00Z,Coruche,Santarém,Alentejo,-8.45442,39.02326
25112308,Muge,Lezíria do Tejo,311,2025-03-19T23:35:00Z,25112308,Em despacho,3301,Queda de árvore,0,2,0,7,2025-03-19T23:35:00Z,Salvaterra De Magos,Santarém,Alentejo,-8.717905,39.084927
25112310,Macinhata do Vouga,Região de Aveiro,310,2025-03-19T23:36:00Z,25112310,Em despacho,3311,Queda de elementos de estruturas edificados,0,2,0,3,2025-03-19T23:36:00Z,Águeda,Aveiro,Centro,-8.431026,40.667375
25112311,Chamusca e Pinheiro Grande,Lezíria do Tejo,311,2025-03-19T23:36:00Z,25112311,Em despacho,3301,Queda de árvore,0,1,0,2,2025-03-19T23:36:00Z,Chamusca,Santarém,Alentejo,-8.439722,39.41778
25112325,Manteigas (São Pedro),Beiras e Serra da Estrela,310,2025-03-19T23:30:00Z,25112325,Em despacho,3301,Queda de árvore,0,1,0,3,2025-03-19T23:30:00Z,Manteigas,Guarda,Centro,-7.537096,40.398921
25112326,Carvalhal,Oeste,311,2025-03-19T23:29:00Z,25112326,Em despacho,3301,Queda de árvore,0,0,0,0,2025-03-19T23:29:00Z,Bombarral,Leiria,Centro,-9.137216,39.313548
25112341,Sabugueiro,Beiras e Serra da Estrela,310,2025-03-19T23:40:00Z,25112341,Em despacho,3311,Queda de elementos de estruturas edificados,0,1,0,2,2025-03-19T23:40:00Z,Seia,Guarda,Centro,-7.63621,40.40352
25112342,Alvor,Algarve,313,2025-03-19T23:41:00Z,25112342,Em despacho,3301,Queda de árvore,0,0,0,0,2025-03-19T23:41:00Z,Portimão,Faro,Algarve,-8.580215,37.16216
25112343,Marinha Grande,Região de Leiria,310,2025-03-19T23:32:00Z,25112343,Em despacho,3311,Queda de elementos de estruturas edificados,0,1,0,2,2025-03-19T23:32:00Z,Marinha Grande,Leiria,Centro,-8.923225,39.768235
25112344,Caxarias,Médio Tejo,311,2025-03-19T23:40:00Z,25112344,Em despacho,3321,Dano na rede de fornecimento de eletricidade ,0,1,0,3,2025-03-19T23:40:00Z,Ourém,Santarém,Centro,-8.527237,39.707214
25112360,Algueirão-Mem Martins,Grande Lisboa,311,2025-03-19T23:21:00Z,25112360,Em despacho,3301,Queda de árvore,0,1,0,3,2025-03-19T23:21:00Z,Sintra,Lisboa,Área Metropolitana De Lisboa,-9.340934,38.801232
25112361,"Almada, Cova da Piedade, Pragal e Cacilhas",Península de Setúbal,311,2025-03-19T23:43:00Z,25112361,Em curso,3301,Queda de árvore,0,0,0,0,2025-03-19T23:43:00Z,Almada,Setúbal,Área Metropolitana De Lisboa,-9.169937,38.67238
25112376,Carvalhal,Oeste,311,2025-03-19T23:40:00Z,25112376,Em despacho,3301,Queda de árvore,0,1,0,4,2025-03-19T23:40:00Z,Bombarral,Leiria,Centro,-9.140539,39.302711
25112377,Pombal,Região de Leiria,310,2025-03-19T23:44:00Z,25112377,Em despacho,3321,Dano na rede de fornecimento de eletricidade ,0,1,0,1,2025-03-19T23:44:00Z,Pombal,Leiria,Centro,-8.67152,39.8958
25112392,Lousã e Vilarinho,Região de Coimbra,310,2025-03-19T23:40:00Z,25112392,Em despacho,3301,Queda de árvore,0,1,0,2,2025-03-19T23:40:00Z,Lousã,Coimbra,Centro,-8.225749,40.091516
25112393,São João Das Lampas e Terrugem,Grande Lisboa,311,2025-03-19T23:39:00Z,25112393,Em despacho,3311,Queda de elementos de estruturas edificados,0,1,0,3,2025-03-19T23:39:00Z,Sintra,Lisboa,Área Metropolitana De Lisboa,-9.404642,38.905614
25112395,"Sandim, Olival, Lever e Crestuma",Area M. Porto,309,2025-03-19T23:45:00Z,25112395,Em despacho,3301,Queda de árvore,0,1,0,4,2025-03-19T23:45:00Z,Vila Nova De Gaia,Porto,Norte,-8.502382,41.048753
25112410,"Seia, São Romão e Lapa Dos Dinheiros",Beiras e Serra da Estrela,310,2025-03-19T23:45:00Z,25112410,Em despacho,3311,Queda de elementos de estruturas edificados,0,1,0,3,2025-03-19T23:45:00Z,Seia,Guarda,Centro,-7.707882,40.400574
25112428,Pindo,Viseu Dão Lafões,310,2025-03-19T23:49:00Z,25112428,Em despacho,3301,Queda de árvore,0,1,0,3,2025-03-19T23:49:00Z,Penalva Do Castelo,Viseu,Centro,-7.7496,40.666578
25112442,Alverca do Ribatejo e Sobralinho,Grande Lisboa,311,2025-03-19T23:45:00Z,25112442,Em despacho,3301,Queda de árvore,0,1,0,4,2025-03-19T23:45:00Z,Vila Franca De Xira,Lisboa,Área Metropolitana De Lisboa,-9.034761,38.918068
25112220,Tábua,Região de Coimbra,310,2025-03-19T23:15:00Z,25112220,Em despacho,3301,Queda de árvore,0,1,0,2,2025-03-19T23:15:00Z,Tábua,Coimbra,Centro,-8.022455,40.361675
25112229,"Seia, São Romão e Lapa Dos Dinheiros",Beiras e Serra da Estrela,310,2025-03-19T23:06:00Z,25112229,Em curso,3311,Queda de elementos de estruturas edificados,0,1,0,2,2025-03-19T23:06:00Z,Seia,Guarda,Centro,-7.706696,40.417704
25112238,Soure,Região de Coimbra,310,2025-03-19T23:10:00Z,25112238,Em despacho,3301,Queda de árvore,0,1,0,2,2025-03-19T23:10:00Z,Soure,Coimbra,Centro,-8.654421,40.026433
25112240,Vermoil,Região de Leiria,310,2025-03-19T22:45:00Z,25112240,Em despacho,3301,Queda de árvore,0,1,0,4,2025-03-19T22:45:00Z,Pombal,Leiria,Centro,-8.694122,39.86774
25112245,Montijo e Afonsoeiro,Península de Setúbal,311,2025-03-19T23:26:00Z,25112245,Em curso,3301,Queda de árvore,0,1,0,5,2025-03-19T23:26:00Z,Montijo,Setúbal,Área Metropolitana De Lisboa,-8.95166,38.70552
25112247,"Marvila, Ribeira Santarém, S.salvador, S.nicolau",Lezíria do Tejo,311,2025-03-19T23:26:00Z,25112247,Em curso,3301,Queda de árvore,0,2,0,6,2025-03-19T23:26:00Z,Santarém,Santarém,Alentejo,-8.678591,39.231938
25112263,Assentiz,Médio Tejo,311,2025-03-19T23:27:00Z,25112263,Em despacho,3301,Queda de árvore,0,2,0,7,2025-03-19T23:27:00Z,Torres Novas,Santarém,Centro,-8.51594,39.562245
25112265,Santo António da Charneca,Península de Setúbal,311,2025-03-19T22:54:00Z,25112265,Em curso,3301,Queda de árvore,0,1,0,5,2025-03-19T22:54:00Z,Barreiro,Setúbal,Área Metropolitana De Lisboa,-9.016979,38.599327
25112270,Marrazes e Barosa,Região de Leiria,310,2025-03-19T23:00:00Z,25112270,Em despacho,3301,Queda de árvore,0,1,0,2,2025-03-19T23:00:00Z,Leiria,Leiria,Centro,-8.794769,39.760033
25112272,Monchique,Algarve,313,2025-03-19T21:21:00Z,25112272,Em despacho,3301,Queda de árvore,0,1,0,3,2025-03-19T21:21:00Z,Monchique,Faro,Algarve,-8.538157,37.333471
25112100,Sines,Alentejo Litoral,312,2025-03-19T22:56:00Z,25112100,Em conclusão,3301,Queda de árvore,0,1,0,2,2025-03-19T22:56:00Z,Sines,Setúbal,Alentejo,-8.817062,37.971866
25112116,Venda do Pinheiro e Santo Estêvão Das Galés,Grande Lisboa,311,2025-03-19T23:03:00Z,25112116,Em despacho,3301,Queda de árvore,0,1,0,5,2025-03-19T23:03:00Z,Mafra,Lisboa,Área Metropolitana De Lisboa,-9.23127,38.875849
25112119,Góis,Região de Coimbra,310,2025-03-19T23:00:00Z,25112119,Em despacho,3301,Queda de árvore,0,1,0,3,2025-03-19T23:00:00Z,Góis,Coimbra,Centro,-8.101407,40.194217
25112132,Alfeizerão,Oeste,311,2025-03-19T23:05:00Z,25112132,Em curso,3301,Queda de árvore,0,1,0,3,2025-03-19T23:05:00Z,Alcobaça,Leiria,Centro,-9.074601,39.50577
25112149,"Santa Maria, São Pedro e Sobral da Lagoa",Oeste,311,2025-03-19T23:00:00Z,25112149,Em despacho,3301,Queda de árvore,0,1,0,4,2025-03-19T23:00:00Z,Óbidos,Leiria,Centro,-9.190485,39.386031
25112150,"Oeiras e S. Julião da Barra, Paço de Arcos e Caxias",Grande Lisboa,311,2025-03-19T23:06:00Z,25112150,Em despacho,3329,Queda de estruturas temporárias ou móveis,0,1,0,4,2025-03-19T23:06:00Z,Oeiras,Lisboa,Área Metropolitana De Lisboa,-9.310159,38.698531
25112168,Caldas da Rainha - Santo Onofre e Serra do Bouro,Oeste,311,2025-03-19T23:09:00Z,25112168,Em despacho,3329,Queda de estruturas temporárias ou móveis,0,1,0,5,2025-03-19T23:09:00Z,Caldas Da Rainha,Leiria,Centro,-9.148929,39.401713
25112199,Cascais e Estoril,Grande Lisboa,311,2025-03-19T23:12:00Z,25112199,Em despacho,3301,Queda de árvore,0,2,0,10,2025-03-19T23:12:00Z,Cascais,Lisboa,Área Metropolitana De Lisboa,-9.398759,38.70391
25112201,Parque Das Nações,Grande Lisboa,311,2025-03-19T23:12:00Z,25112201,Em despacho,3329,Queda de estruturas temporárias ou móveis,0,1,0,5,2025-03-19T23:12:00Z,Lisboa,Lisboa,Área Metropolitana De Lisboa,-9.09548,38.774802
25112202,Sameiro,Beiras e Serra da Estrela,310,2025-03-19T23:10:00Z,25112202,Em despacho,3301,Queda de árvore,0,1,0,3,2025-03-19T23:10:00Z,Manteigas,Guarda,Centro,-7.495761,40.410408
25112443,Almodôvar e Graça Dos Padrões,Baixo Alentejo,312,2025-03-19T23:43:00Z,25112443,Em despacho,3301,Queda de árvore,0,1,0,2,2025-03-19T23:43:00Z,Almodôvar,Beja,Alentejo,-8.07199,37.515257
25112444,"S.maria, S.miguel, S.martinho, S.pedro Penaferrim",Grande Lisboa,311,2025-03-19T23:45:00Z,25112444,Em despacho,3301,Queda de árvore,0,1,0,4,2025-03-19T23:45:00Z,Sintra,Lisboa,Área Metropolitana De Lisboa,-9.414924,38.772191
25112055,Cascais e Estoril,Grande Lisboa,311,2025-03-19T22:49:00Z,25112055,Em despacho,3301,Queda de árvore,0,1,0,5,2025-03-19T22:49:00Z,Cascais,Lisboa,Área Metropolitana De Lisboa,-9.419397,38.700982
25112073,Corroios,Península de Setúbal,311,2025-03-19T22:56:00Z,25112073,Em curso,3301,Queda de árvore,0,1,0,3,2025-03-19T22:56:00Z,Seixal,Setúbal,Área Metropolitana De Lisboa,-9.15214,38.58275
25112087,"S.pedro e Santiago, S.maria e S.miguel e Matacães",Oeste,311,2025-03-19T22:55:00Z,25112087,Em despacho,3301,Queda de árvore,0,3,0,9,2025-03-19T22:55:00Z,Torres Vedras,Lisboa,Centro,-9.251952,39.091829
25112089,Cerdeira e Moura da Serra,Região de Coimbra,310,2025-03-19T22:55:00Z,25112089,Em despacho,3301,Queda de árvore,0,1,0,2,2025-03-19T22:55:00Z,Arganil,Coimbra,Centro,-7.902901,40.205702
25112098,Oliveira do Hospital e São Paio de Gramaços,Região de Coimbra,310,2025-03-19T22:45:00Z,25112098,Em despacho,3301,Queda de árvore,0,1,0,2,2025-03-19T22:45:00Z,Oliveira Do Hospital,Coimbra,Centro,-7.869418,40.359628
25112105,Vidais,Oeste,311,2025-03-19T22:37:00Z,25112105,Em despacho,3301,Queda de árvore,0,2,0,6,2025-03-19T22:37:00Z,Caldas Da Rainha,Leiria,Centro,-9.048666,39.369221
25112121,Porto Salvo,Grande Lisboa,311,2025-03-19T22:53:00Z,25112121,Em despacho,3329,Queda de estruturas temporárias ou móveis,0,1,0,6,2025-03-19T22:53:00Z,Oeiras,Lisboa,Área Metropolitana De Lisboa,-9.305901,38.719291
25112137,Algueirão-Mem Martins,Grande Lisboa,311,2025-03-19T23:09:00Z,25112137,Em despacho,3321,Dano na rede de fornecimento de eletricidade ,0,0,0,0,2025-03-19T23:09:00Z,Sintra,Lisboa,Área Metropolitana De Lisboa,-9.31929,38.82433
25112281,Ericeira,Grande Lisboa,311,2025-03-19T23:00:00Z,25112281,Em despacho,3329,Queda de estruturas temporárias ou móveis,0,1,0,2,2025-03-19T23:00:00Z,Mafra,Lisboa,Área Metropolitana De Lisboa,-9.417289,38.967626
25112288,Odivelas,Grande Lisboa,311,2025-03-19T23:33:00Z,25112288,Em despacho,3301,Queda de árvore,0,1,0,5,2025-03-19T23:33:00Z,Odivelas,Lisboa,Área Metropolitana De Lisboa,-9.177745,38.79967
25112304,Carragozela e Várzea de Meruge,Beiras e Serra da Estrela,310,2025-03-19T23:28:00Z,25112304,Em despacho,3301,Queda de árvore,0,1,0,2,2025-03-19T23:28:00Z,Seia,Guarda,Centro,-7.760772,40.410557
25112313,Massamá e Monte Abraão,Grande Lisboa,311,2025-03-19T23:32:00Z,25112313,Em despacho,3301,Queda de árvore,0,1,0,5,2025-03-19T23:32:00Z,Sintra,Lisboa,Área Metropolitana De Lisboa,-9.28303,38.7547
25112315,Aljubarrota,Oeste,311,2025-03-19T23:16:00Z,25112315,Em despacho,3321,Dano na rede de fornecimento de eletricidade ,0,1,0,4,2025-03-19T23:16:00Z,Alcobaça,Leiria,Centro,-8.941861,39.565461
25112320,São Mamede de Infesta e Senhora da Hora,Area M. Porto,309,2025-03-19T23:29:00Z,25112320,Em despacho,3301,Queda de árvore,0,1,0,5,2025-03-19T23:29:00Z,Matosinhos,Porto,Norte,-8.630369,41.188957
25112324,Juncal,Região de Leiria,310,2025-03-19T23:30:00Z,25112324,Em despacho,3301,Queda de árvore,0,3,0,7,2025-03-19T23:30:00Z,Porto De Mós,Leiria,Centro,-8.908329,39.584603
25112331,Ventosa,Oeste,311,2025-03-19T23:38:00Z,25112331,Em despacho,3329,Queda de estruturas temporárias ou móveis,0,0,0,0,2025-03-19T23:38:00Z,Torres Vedras,Lisboa,Centro,-9.319671,39.061725
25112338,Pereira,Região de Coimbra,310,2025-03-19T23:39:00Z,25112338,Em despacho,3301,Queda de árvore,0,1,0,3,2025-03-19T23:39:00Z,Montemor-o-Velho,Coimbra,Centro,-8.585186,40.185229
25112345,Santo Antão e São Julião do Tojal,Grande Lisboa,311,2025-03-19T23:33:00Z,25112345,Em despacho,3321,Dano na rede de fornecimento de eletricidade ,0,1,0,4,2025-03-19T23:33:00Z,Loures,Lisboa,Área Metropolitana De Lisboa,-9.160833,38.865682
25112217,Lourinhã e Atalaia,Oeste,311,2025-03-19T23:22:00Z,25112217,Em despacho,3301,Queda de árvore,0,1,0,5,2025-03-19T23:22:00Z,Lourinhã,Lisboa,Centro,-9.31955,39.26043
25112219,"Oeiras e S. Julião da Barra, Paço de Arcos e Caxias",Grande Lisboa,311,2025-03-19T23:11:00Z,25112219,Em despacho,3329,Queda de estruturas temporárias ou móveis,0,1,0,5,2025-03-19T23:11:00Z,Oeiras,Lisboa,Área Metropolitana De Lisboa,-9.310159,38.698531
25112234,Montijo e Afonsoeiro,Península de Setúbal,311,2025-03-19T23:24:00Z,25112234,Em curso,3301,Queda de árvore,0,1,0,5,2025-03-19T23:24:00Z,Montijo,Setúbal,Área Metropolitana De Lisboa,-8.98749,38.71097
25112236,Mansores,Area M. Porto,309,2025-03-19T23:00:00Z,25112236,Em despacho,3301,Queda de árvore,0,1,0,2,2025-03-19T23:00:00Z,Arouca,Aveiro,Norte,-8.363771,40.934787
25112249,Alte,Algarve,313,2025-03-19T23:24:00Z,25112249,Em despacho,3301,Queda de árvore,0,0,0,0,2025-03-19T23:24:00Z,Loulé,Faro,Algarve,-8.178145,37.237749
25112250,"Oeiras e S. Julião da Barra, Paço de Arcos e Caxias",Grande Lisboa,311,2025-03-19T23:27:00Z,25112250,Em despacho,3311,Queda de elementos de estruturas edificados,0,0,0,0,2025-03-19T23:27:00Z,Oeiras,Lisboa,Área Metropolitana De Lisboa,-9.30512,38.69244
25112251,Ermesinde,Area M. Porto,309,2025-03-19T23:27:00Z,25112251,Em despacho,3311,Queda de elementos de estruturas edificados,0,1,0,4,2025-03-19T23:27:00Z,Valongo,Porto,Norte,-8.55628,41.21346
25112253,Soure,Região de Coimbra,310,2025-03-19T23:09:00Z,25112253,Em despacho,3301,Queda de árvore,0,1,0,2,2025-03-19T23:09:00Z,Soure,Coimbra,Centro,-8.612815,40.053098
25112267,"Santa Maria, São Pedro e Sobral da Lagoa",Oeste,311,2025-03-19T23:28:00Z,25112267,Em despacho,3321,Dano na rede de fornecimento de eletricidade ,0,1,0,5,2025-03-19T23:28:00Z,Óbidos,Leiria,Centro,-9.145839,39.3486
25112155,Portimão,Algarve,313,2025-03-19T23:04:00Z,25112155,Em curso,3315,Inundação de estruturas por precipitação intensa,0,0,0,0,2025-03-19T23:04:00Z,Portimão,Faro,Algarve,-8.532608,37.137966
25112164,Samora Correia,Lezíria do Tejo,311,2025-03-19T23:12:00Z,25112164,Em conclusão,3301,Queda de árvore,0,3,0,6,2025-03-19T23:12:00Z,Benavente,Santarém,Alentejo,-8.868908,38.935447
25112171,"Almada, Cova da Piedade, Pragal e Cacilhas",Península de Setúbal,311,2025-03-19T23:04:00Z,25112171,Em despacho,3311,Queda de elementos de estruturas edificados,0,1,0,4,2025-03-19T23:04:00Z,Almada,Setúbal,Área Metropolitana De Lisboa,-9.173069,38.677312
25112173,Massamá e Monte Abraão,Grande Lisboa,311,2025-03-19T23:05:00Z,25112173,Em curso,3321,Dano na rede de fornecimento de eletricidade ,0,2,0,7,2025-03-19T23:05:00Z,Sintra,Lisboa,Área Metropolitana De Lisboa,-9.28458,38.751931
25112180,Pombal,Região de Leiria,310,2025-03-19T22:40:00Z,25112180,Em despacho,3301,Queda de árvore,0,1,0,4,2025-03-19T22:40:00Z,Pombal,Leiria,Centro,-8.65944,39.917437
25112187,"Mangualde, Mesquitela e Cunha Alta",Viseu Dão Lafões,310,2025-03-19T23:14:00Z,25112187,Em conclusão,3301,Queda de árvore,0,1,0,3,2025-03-19T23:14:00Z,Mangualde,Viseu,Centro,-7.740703,40.606613
25112203,Campanhã,Area M. Porto,309,2025-03-19T23:20:00Z,25112203,Em despacho,3329,Queda de estruturas temporárias ou móveis,0,1,0,5,2025-03-19T23:20:00Z,Porto,Porto,Norte,-8.5886,41.16328
25112205,Freiria,Oeste,311,2025-03-19T23:20:00Z,25112205,Em despacho,3301,Queda de árvore,0,0,0,0,2025-03-19T23:20:00Z,Torres Vedras,Lisboa,Centro,-9.292595,39.032884
25112212,Queluz e Belas,Grande Lisboa,311,2025-03-19T23:21:00Z,25112212,Em resolução,3321,Dano na rede de fornecimento de eletricidade ,0,3,0,11,2025-03-19T23:21:00Z,Sintra,Lisboa,Área Metropolitana De Lisboa,-9.25377,38.76204
25112246,Alcabideche,Grande Lisboa,311,2025-03-19T23:27:00Z,25112246,Em despacho,3301,Queda de árvore,0,1,0,4,2025-03-19T23:27:00Z,Cascais,Lisboa,Área Metropolitana De Lisboa,-9.382,38.74191
25112354,Vila Verde Dos Francos,Oeste,311,2025-03-19T23:42:00Z,25112354,Em despacho,3301,Queda de árvore,0,2,0,6,2025-03-19T23:42:00Z,Alenquer,Lisboa,Centro,-9.13935,39.16664
25112356,Samora Correia,Lezíria do Tejo,311,2025-03-19T23:41:00Z,25112356,Em curso,3301,Queda de árvore,0,1,0,4,2025-03-19T23:41:00Z,Benavente,Santarém,Alentejo,-8.868908,38.935447
25112363,Alfeizerão,Oeste,311,2025-03-19T23:43:00Z,25112363,Em despacho,3301,Queda de árvore,0,2,0,4,2025-03-19T23:43:00Z,Alcobaça,Leiria,Centro,-9.10453,39.49995
25112374,Santa Clara e Castelo Viegas,Região de Coimbra,310,2025-03-19T23:38:00Z,25112374,Em despacho,3321,Dano na rede de fornecimento de eletricidade ,0,1,0,3,2025-03-19T23:38:00Z,Coimbra,Coimbra,Centro,-8.430244,40.197439
25112381,Encosta do Sol,Grande Lisboa,311,2025-03-19T23:45:00Z,25112381,Em despacho,3321,Dano na rede de fornecimento de eletricidade ,0,1,0,6,2025-03-19T23:45:00Z,Amadora,Lisboa,Área Metropolitana De Lisboa,-9.208077,38.76744
25112390,Midões,Região de Coimbra,310,2025-03-19T23:40:00Z,25112390,Em despacho,3301,Queda de árvore,0,1,0,2,2025-03-19T23:40:00Z,Tábua,Coimbra,Centro,-7.929414,40.374158
25112397,Lagos (São Sebastião e Santa Maria),Algarve,313,2025-03-19T23:30:00Z,25112397,Em despacho,3301,Queda de árvore,0,2,0,4,2025-03-19T23:30:00Z,Lagos,Faro,Algarve,-8.667608,37.130224
25112399,Barcarena,Grande Lisboa,311,2025-03-19T23:42:00Z,25112399,Em despacho,3301,Queda de árvore,0,1,0,5,2025-03-19T23:42:00Z,Oeiras,Lisboa,Área Metropolitana De Lisboa,-9.277392,38.733987
25112415,São Mamede de Infesta e Senhora da Hora,Area M. Porto,309,2025-03-19T23:40:00Z,25112415,Em despacho,3311,Queda de elementos de estruturas edificados,0,2,0,3,2025-03-19T23:40:00Z,Matosinhos,Porto,Norte,-8.630369,41.188957
25112422,Pala,Região de Coimbra,310,2025-03-19T23:48:00Z,25112422,Em despacho,3301,Queda de árvore,0,1,0,4,2025-03-19T23:48:00Z,Mortágua,Viseu,Centro,-8.262736,40.422891
25112284,São Teotónio,Alentejo Litoral,312,2025-03-19T23:25:00Z,25112284,Em curso,3301,Queda de árvore,0,3,0,6,2025-03-19T23:25:00Z,Odemira,Beja,Alentejo,-8.70051,37.523962
25112286,Sebal e Belide,Região de Coimbra,310,2025-03-19T23:28:00Z,25112286,Em despacho,3301,Queda de árvore,0,1,0,3,2025-03-19T23:28:00Z,Condeixa-a-Nova,Coimbra,Centro,-8.536649,40.118765
25112299,Buarcos,Região de Coimbra,310,2025-03-19T23:21:00Z,25112299,Em despacho,3311,Queda de elementos de estruturas edificados,0,1,0,5,2025-03-19T23:21:00Z,Figueira Da Foz,Coimbra,Centro,-8.880897,40.168384
25112301,Pinhal Novo,Península de Setúbal,311,2025-03-19T23:28:00Z,25112301,Em curso,3301,Queda de árvore,0,1,0,4,2025-03-19T23:28:00Z,Palmela,Setúbal,Área Metropolitana De Lisboa,-8.91294,38.637902
25112302,Alverca do Ribatejo e Sobralinho,Grande Lisboa,311,2025-03-19T23:35:00Z,25112302,Em despacho,3329,Queda de estruturas temporárias ou móveis,0,1,0,4,2025-03-19T23:35:00Z,Vila Franca De Xira,Lisboa,Área Metropolitana De Lisboa,-9.04705,38.90353
25112317,Fernão Ferro,Península de Setúbal,311,2025-03-19T22:48:00Z,25112317,Em curso,3321,Dano na rede de fornecimento de eletricidade ,0,1,0,2,2025-03-19T22:48:00Z,Seixal,Setúbal,Área Metropolitana De Lisboa,-9.115329,38.572419
25112333,Costa da Caparica,Península de Setúbal,311,2025-03-19T23:33:00Z,25112333,Em despacho,3301,Queda de árvore,0,1,0,3,2025-03-19T23:33:00Z,Almada,Setúbal,Área Metropolitana De Lisboa,-9.227696,38.642583
25112334,São João de Areias,Viseu Dão Lafões,310,2025-03-19T23:36:00Z,25112334,Em curso,3301,Queda de árvore,0,1,0,4,2025-03-19T23:36:00Z,Santa Comba Dão,Viseu,Centro,-8.083098,40.404408
25112273,Sesimbra (Castelo),Península de Setúbal,311,2025-03-19T23:12:00Z,25112273,Em despacho,3301,Queda de árvore,0,1,0,6,2025-03-19T23:12:00Z,Sesimbra,Setúbal,Área Metropolitana De Lisboa,-9.112506,38.449031
25112280,Santo António da Charneca,Península de Setúbal,311,2025-03-19T22:54:00Z,25112280,Em curso,3301,Queda de árvore,0,1,0,5,2025-03-19T22:54:00Z,Barreiro,Setúbal,Área Metropolitana De Lisboa,-9.016979,38.599327
25112282,Lagoa e Carvoeiro,Algarve,313,2025-03-19T23:25:00Z,25112282,Em despacho,3329,Queda de estruturas temporárias ou móveis,0,1,0,3,2025-03-19T23:25:00Z,Lagoa,Faro,Algarve,-8.449309,37.134614
25112287,Mira,Região de Coimbra,310,2025-03-19T22:56:00Z,25112287,Em despacho,3329,Queda de estruturas temporárias ou móveis,0,1,0,2,2025-03-19T22:56:00Z,Mira,Coimbra,Centro,-8.74068,40.414411
25112289,Alcabideche,Grande Lisboa,311,2025-03-19T23:23:00Z,25112289,Em despacho,3301,Queda de árvore,0,1,0,5,2025-03-19T23:23:00Z,Cascais,Lisboa,Área Metropolitana De Lisboa,-9.377282,38.724858
25112296,Bombarral e Vale Covo,Oeste,311,2025-03-19T23:23:00Z,25112296,Em despacho,3329,Queda de estruturas temporárias ou móveis,0,2,0,4,2025-03-19T23:23:00Z,Bombarral,Leiria,Centro,-9.171316,39.267313
25112307,Almeirim,Lezíria do Tejo,311,2025-03-19T23:35:00Z,25112307,Em resolução,3329,Queda de estruturas temporárias ou móveis,0,1,0,5,2025-03-19T23:35:00Z,Almeirim,Santarém,Alentejo,-8.588832,39.142251
25112323,Lagoa e Carvoeiro,Algarve,313,2025-03-19T23:38:00Z,25112323,Em despacho,3301,Queda de árvore,0,0,0,0,2025-03-19T23:38:00Z,Lagoa,Faro,Algarve,-8.45553,37.0934
25112332,Rio de Mouro,Grande Lisboa,311,2025-03-19T23:37:00Z,25112332,Em despacho,3311,Queda de elementos de estruturas edificados,0,1,0,3,2025-03-19T23:37:00Z,Sintra,Lisboa,Área Metropolitana De Lisboa,-9.344491,38.75763
25112346,Portimão,Algarve,313,2025-03-19T23:34:00Z,25112346,Em despacho,3311,Queda de elementos de estruturas edificados,0,1,0,3,2025-03-19T23:34:00Z,Portimão,Faro,Algarve,-8.532608,37.137966
25112335,Falagueira-Venda Nova,Grande Lisboa,311,2025-03-19T23:38:00Z,25112335,Em despacho,3321,Dano na rede de fornecimento de eletricidade ,0,0,0,0,2025-03-19T23:38:00Z,Amadora,Lisboa,Área Metropolitana De Lisboa,-9.223747,38.760622
25112350,Setúbal (São Sebastião),Península de Setúbal,311,2025-03-19T23:42:00Z,25112350,Em curso,3329,Queda de estruturas temporárias ou móveis,0,0,0,0,2025-03-19T23:42:00Z,Setúbal,Setúbal,Área Metropolitana De Lisboa,-8.87752,38.52253
25112352,Pedrouços,Area M. Porto,309,2025-03-19T23:28:00Z,25112352,Em despacho,3329,Queda de estruturas temporárias ou móveis,0,1,0,3,2025-03-19T23:28:00Z,Maia,Porto,Norte,-8.588851,41.189901
25112353,Fátima,Médio Tejo,311,2025-03-19T23:40:00Z,25112353,Em despacho,3321,Dano na rede de fornecimento de eletricidade ,0,2,0,3,2025-03-19T23:40:00Z,Ourém,Santarém,Centro,-8.682947,39.63903
25112367,"S.maria, S.miguel, S.martinho, S.pedro Penaferrim",Grande Lisboa,311,2025-03-19T23:37:00Z,25112367,Em despacho,3301,Queda de árvore,0,1,0,5,2025-03-19T23:37:00Z,Sintra,Lisboa,Área Metropolitana De Lisboa,-9.385912,38.758094
25112368,Alcobaça e Vestiaria,Oeste,311,2025-03-19T23:35:00Z,25112368,Em despacho,3301,Queda de árvore,0,2,0,4,2025-03-19T23:35:00Z,Alcobaça,Leiria,Centro,-8.997577,39.554251
25112383,Pegões,Península de Setúbal,311,2025-03-19T23:20:00Z,25112383,Em curso,3301,Queda de árvore,0,1,0,5,2025-03-19T23:20:00Z,Montijo,Setúbal,Área Metropolitana De Lisboa,-8.757197,38.690184
25112384,Cascais e Estoril,Grande Lisboa,311,2025-03-19T23:45:00Z,25112384,Em despacho,3321,Dano na rede de fornecimento de eletricidade ,0,0,0,0,2025-03-19T23:45:00Z,Cascais,Lisboa,Área Metropolitana De Lisboa,-9.40783,38.70507
25112386,Nogueira e Silva Escura,Area M. Porto,309,2025-03-19T23:46:00Z,25112386,Em despacho,3329,Queda de estruturas temporárias ou móveis,0,0,0,0,2025-03-19T23:46:00Z,Maia,Porto,Norte,-8.574696,41.23258
25112401,Mafra,Grande Lisboa,311,2025-03-19T23:47:00Z,25112401,Em despacho,3301,Queda de árvore,0,0,0,0,2025-03-19T23:47:00Z,Mafra,Lisboa,Área Metropolitana De Lisboa,-9.308823,38.9651
25112429,Vila do Bispo e Raposeira,Algarve,313,2025-03-19T23:47:00Z,25112429,Em despacho,3329,Queda de estruturas temporárias ou móveis,0,1,0,2,2025-03-19T23:47:00Z,Vila Do Bispo,Faro,Algarve,-8.90908,37.083835
25112438,Almeirim,Lezíria do Tejo,311,2025-03-19T23:52:00Z,25112438,Em despacho,3301,Queda de árvore,0,0,0,0,2025-03-19T23:52:00Z,Almeirim,Santarém,Alentejo,-8.66092,39.17867
25112440,Alcabideche,Grande Lisboa,311,2025-03-19T23:39:00Z,25112440,Em despacho,3329,Queda de estruturas temporárias ou móveis,0,1,0,5,2025-03-19T23:39:00Z,Cascais,Lisboa,Área Metropolitana De Lisboa,-9.385597,38.740082
25112447,Laranjeiro e Feijó,Península de Setúbal,311,2025-03-19T23:43:00Z,25112447,Em curso,3311,Queda de elementos de estruturas edificados,0,1,0,4,2025-03-19T23:43:00Z,Almada,Setúbal,Área Metropolitana De Lisboa,-9.156624,38.652235
25112355,Cascais e Estoril,Grande Lisboa,311,2025-03-19T23:42:00Z,25112355,Em despacho,3301,Queda de árvore,0,0,0,0,2025-03-19T23:42:00Z,Cascais,Lisboa,Área Metropolitana De Lisboa,-9.44891,38.69577
25112362,Santa Comba Dão e Couto do Mosteiro,Viseu Dão Lafões,310,2025-03-19T23:38:00Z,25112362,Em despacho,3329,Queda de estruturas temporárias ou móveis,0,1,0,3,2025-03-19T23:38:00Z,Santa Comba Dão,Viseu,Centro,-8.143693,40.40822
25112364,Canha,Península de Setúbal,311,2025-03-19T23:25:00Z,25112364,Em curso,3301,Queda de árvore,0,2,0,7,2025-03-19T23:25:00Z,Montijo,Setúbal,Área Metropolitana De Lisboa,-8.631311,38.768258
25112371,Oliveira do Hospital e São Paio de Gramaços,Região de Coimbra,310,2025-03-19T23:44:00Z,25112371,Em despacho,3309,Desabamento de estruturas edificadas,0,1,0,3,2025-03-19T23:44:00Z,Oliveira Do Hospital,Coimbra,Centro,-7.86434,40.35772
25112382,Igreja Nova e Cheleiros,Grande Lisboa,311,2025-03-19T23:30:00Z,25112382,Em despacho,3301,Queda de árvore,0,1,0,3,2025-03-19T23:30:00Z,Mafra,Lisboa,Área Metropolitana De Lisboa,-9.290378,38.896896
25112387,Barreiro e Lavradio,Península de Setúbal,311,2025-03-19T23:08:00Z,25112387,Em curso,3311,Queda de elementos de estruturas edificados,0,2,0,7,2025-03-19T23:08:00Z,Barreiro,Setúbal,Área Metropolitana De Lisboa,-9.060271,38.662949
25112389,Peniche,Oeste,311,2025-03-19T23:28:00Z,25112389,Em despacho,3329,Queda de estruturas temporárias ou móveis,0,3,0,8,2025-03-19T23:28:00Z,Peniche,Leiria,Centro,-9.376833,39.357166
25112396,Portimão,Algarve,313,2025-03-19T23:47:00Z,25112396,Em despacho,3329,Queda de estruturas temporárias ou móveis,0,0,0,0,2025-03-19T23:47:00Z,Portimão,Faro,Algarve,-8.53929,37.12015
25112398,"Oeiras e S. Julião da Barra, Paço de Arcos e Caxias",Grande Lisboa,311,2025-03-19T23:39:00Z,25112398,Em despacho,3301,Queda de árvore,0,1,0,3,2025-03-19T23:39:00Z,Oeiras,Lisboa,Área Metropolitana De Lisboa,-9.275682,38.698873
25112417,Portimão,Algarve,313,2025-03-19T23:45:00Z,25112417,Em despacho,3301,Queda de árvore,0,1,0,5,2025-03-19T23:45:00Z,Portimão,Faro,Algarve,-8.532608,37.137966
25112418,Paranhos,Area M. Porto,309,2025-03-19T23:29:00Z,25112418,Em despacho,3301,Queda de árvore,0,1,0,4,2025-03-19T23:29:00Z,Porto,Porto,Norte,-8.604254,41.174248
25112435,Sesimbra (Castelo),Península de Setúbal,311,2025-03-19T23:50:00Z,25112435,Em curso,3301,Queda de árvore,0,1,0,3,2025-03-19T23:50:00Z,Sesimbra,Setúbal,Área Metropolitana De Lisboa,-9.101463,38.479751
25112436,Lagos (São Sebastião e Santa Maria),Algarve,313,2025-03-19T23:39:00Z,25112436,Em despacho,3301,Queda de árvore,0,1,0,3,2025-03-19T23:39:00Z,Lagos,Faro,Algarve,-8.668524,37.100485
25112421,Fânzeres e São Pedro da Cova,Area M. Porto,309,2025-03-19T23:44:00Z,25112421,Em despacho,3311,Queda de elementos de estruturas edificados,0,1,0,1,2025-03-19T23:44:00Z,Gondomar,Porto,Norte,-8.511531,41.155311
25112430,"Camarate, Unhos e Apelação",Grande Lisboa,311,2025-03-19T23:51:00Z,25112430,Em despacho,3301,Queda de árvore,0,0,0,0,2025-03-19T23:51:00Z,Loures,Lisboa,Área Metropolitana De Lisboa,-9.13436,38.81926
25112439,Cartaxo e Vale da Pinta,Lezíria do Tejo,311,2025-03-19T23:51:00Z,25112439,Em despacho,3329,Queda de estruturas temporárias ou móveis,0,2,0,6,2025-03-19T23:51:00Z,Cartaxo,Santarém,Alentejo,-8.794948,39.166481
25112441,"Amoreira da Gândara, Paredes do Bairro e Ancas",Região de Aveiro,310,2025-03-19T23:52:00Z,25112441,Em despacho,3301,Queda de árvore,0,0,0,0,2025-03-19T23:52:00Z,Anadia,Aveiro,Centro,-8.500988,40.464701
25112455,"Algés, Linda-a-Velha e Cruz Quebrada-Dafundo",Grande Lisboa,311,2025-03-19T23:48:00Z,25112455,Em despacho,3329,Queda de estruturas temporárias ou móveis,0,1,0,6,2025-03-19T23:48:00Z,Oeiras,Lisboa,Área Metropolitana De Lisboa,-9.244903,38.715384
