id,address,subregion,neighborhood,date,id.1,state,nature,nature_description,aerial_means,terrestrial_means,aquatic_means,operational,date.1,Concelho,Distrito,NUTII_DSG,longitude,latitude
24875937,Açores e Velosa,Beiras e Serra da Estrela,310,2025-01-27T09:15:00Z,24875937,Em despacho,3301,Queda de árvore,0,2,0,4,2025-01-27T09:15:00Z,Celorico Da Beira,Guarda,Centro,-7.293622,40.654959
24876436,Beja (Santiago Maior e São João Baptista),Baixo Alentejo,312,2025-01-27T10:20:00Z,24876436,Em conclusão,3301,Queda de árvore,0,2,0,3,2025-01-27T10:20:00Z,Beja,Beja,Alentejo,-7.858232,38.009245
24877623,Ega,Região de Coimbra,310,2025-01-27T13:34:00Z,24877623,Em conclusão,3301,Queda de árvore,0,2,0,4,2025-01-27T13:34:00Z,Condeixa-a-Nova,Coimbra,Centro,-8.53647,40.09942
24877710,"Seixal, Arrentela e Aldeia de Paio Pires",Península de Setúbal,311,2025-01-27T13:48:00Z,24877710,Em despacho,3315,Inundação de estruturas por precipitação intensa,0,1,0,2,2025-01-27T13:48:00Z,Seixal,Setúbal,Área Metropolitana De Lisboa,-9.09472,38.63538
24877907,"Barcelos, V. Boa e V. Frescainha",Cávado,309,2025-01-27T14:15:00Z,24877907,Em curso,3309,Desabamento de estruturas edificadas,0,0,0,0,2025-01-27T14:15:00Z,Barcelos,Braga,Norte,-8.61958,41.532406
24877910,Constantim e Vale de Nogueiras,Douro,309,2025-01-27T14:24:00Z,24877910,Em despacho,3309,Desabamento de estruturas edificadas,0,0,0,0,2025-01-27T14:24:00Z,Vila Real,Vila Real,Norte,-7.711022,41.27386
24878043,Salto,Alto Tâmega e Barroso,309,2025-01-27T14:30:00Z,24878043,Em despacho,3301,Queda de árvore,0,1,0,4,2025-01-27T14:30:00Z,Montalegre,Vila Real,Norte,-7.930242,41.659104
24851780,"São Miguel, Santa Eufémia e Rabaçal",Região de Coimbra,310,2025-01-21T23:25:00Z,24851780,Em curso,3315,Inundação de estruturas por precipitação intensa,0,0,0,0,2025-01-21T23:25:00Z,Penela,Coimbra,Centro,-8.399036,40.025502
24875677,Mondim de Basto,Ave,309,2025-01-27T08:25:00Z,24875677,Em despacho,3301,Queda de árvore,0,2,0,6,2025-01-27T08:25:00Z,Mondim De Basto,Vila Real,Norte,-7.962111,41.409753
24875862,Ramela,Beiras e Serra da Estrela,310,2025-01-27T09:01:00Z,24875862,Em despacho,3329,Queda de estruturas temporárias ou móveis,0,2,0,4,2025-01-27T09:01:00Z,Guarda,Guarda,Centro,-7.258056,40.46528
24875911,Tavarede,Região de Coimbra,310,2025-01-27T08:50:00Z,24875911,Em despacho,3315,Inundação de estruturas por precipitação intensa,0,0,0,0,2025-01-27T08:50:00Z,Figueira Da Foz,Coimbra,Centro,-8.853871,40.165854
24876130,Bornes de Aguiar,Alto Tâmega e Barroso,309,2025-01-27T09:37:00Z,24876130,Em curso,3315,Inundação de estruturas por precipitação intensa,0,1,0,5,2025-01-27T09:37:00Z,Vila Pouca De Aguiar,Vila Real,Norte,-7.60702,41.543737
24877818,Chamusca e Pinheiro Grande,Lezíria do Tejo,311,2025-01-27T14:04:00Z,24877818,Em curso,3301,Queda de árvore,0,1,0,2,2025-01-27T14:04:00Z,Porto De Mós,Leiria,Centro,-8.82724,39.561155
24874428,Donai,Terras de Trás-os-Montes,309,2025-01-26T21:18:00Z,24874428,Em curso,3315,Inundação de estruturas por precipitação intensa,0,1,0,2,2025-01-26T21:18:00Z,Bragança,Bragança,Norte,-6.805385,41.830788
24874564,"Sé, Santa Maria e Meixedo",Terras de Trás-os-Montes,309,2025-01-26T21:55:00Z,24874564,Em curso,3315,Inundação de estruturas por precipitação intensa,0,1,0,2,2025-01-26T21:55:00Z,Bragança,Bragança,Norte,-6.761223,41.813164
24875382,Pampilhosa da Serra,Região de Coimbra,310,2025-01-27T06:56:00Z,24875382,Em despacho,3315,Inundação de estruturas por precipitação intensa,0,4,0,8,2025-01-27T06:56:00Z,Pampilhosa Da Serra,Coimbra,Centro,-7.953077,40.054967
24875591,Serpins,Região de Coimbra,310,2025-01-27T08:05:00Z,24875591,Em curso,3315,Inundação de estruturas por precipitação intensa,0,1,0,1,2025-01-27T08:05:00Z,Lousã,Coimbra,Centro,-8.200016,40.156377
24876200,Ceira,Região de Coimbra,310,2025-01-27T09:56:00Z,24876200,Em despacho,3315,Inundação de estruturas por precipitação intensa,0,1,0,2,2025-01-27T09:56:00Z,Coimbra,Coimbra,Centro,-8.376144,40.175952
24876277,Alhadas,Região de Coimbra,310,2025-01-27T10:00:00Z,24876277,Em despacho,3301,Queda de árvore,0,0,0,0,2025-01-27T10:00:00Z,Figueira Da Foz,Coimbra,Centro,-8.808093,40.16613
24876461,Buarcos,Região de Coimbra,310,2025-01-27T10:20:00Z,24876461,Em despacho,3315,Inundação de estruturas por precipitação intensa,0,2,0,5,2025-01-27T10:20:00Z,Figueira Da Foz,Coimbra,Centro,-8.880897,40.168384
24876802,Paião,Região de Coimbra,310,2025-01-27T11:17:00Z,24876802,Em despacho,3301,Queda de árvore,0,1,0,5,2025-01-27T11:17:00Z,Figueira Da Foz,Coimbra,Centro,-8.771908,40.062768
24878044,Alvorninha,Oeste,311,2025-01-27T14:34:00Z,24878044,Em curso,3301,Queda de árvore,0,3,0,9,2025-01-27T14:34:00Z,Caldas Da Rainha,Leiria,Centro,-9.045749,39.412477
24878060,"Sé, Santa Maria e Meixedo",Terras de Trás-os-Montes,309,2025-01-27T14:20:00Z,24878060,Em despacho,3315,Inundação de estruturas por precipitação intensa,0,1,0,2,2025-01-27T14:20:00Z,Bragança,Bragança,Norte,-6.761223,41.813164
24878128,Vila Nova de Foz Côa,Douro,309,2025-01-27T14:56:00Z,24878128,Em despacho,3301,Queda de árvore,0,2,0,4,2025-01-27T14:56:00Z,Vila Nova De Foz Côa,Guarda,Norte,-7.133474,41.085004
24878160,Montenegro,Algarve,313,2025-01-27T15:04:00Z,24878160,Em despacho,3301,Queda de árvore,0,2,0,2,2025-01-27T15:04:00Z,Faro,Faro,Algarve,-7.970098,37.0242
24878228,Cuba,Baixo Alentejo,312,2025-01-27T15:12:00Z,24878228,Em conclusão,3301,Queda de árvore,0,1,0,4,2025-01-27T15:12:00Z,Cuba,Beja,Alentejo,-7.896864,38.169124
24878294,Abrantes (São Vicente e São João) e Alferrarede,Médio Tejo,311,2025-01-27T15:42:00Z,24878294,Em resolução,3301,Queda de árvore,0,1,0,5,2025-01-27T15:42:00Z,Abrantes,Santarém,Centro,-8.195112,39.499466
24878309,Raposa,Lezíria do Tejo,311,2025-01-27T15:44:00Z,24878309,Em resolução,3301,Queda de árvore,0,1,0,3,2025-01-27T15:44:00Z,Almeirim,Santarém,Alentejo,-8.608447,39.134967
24878001,Fazendas de Almeirim,Lezíria do Tejo,311,2025-01-27T14:38:00Z,24878001,Em resolução,3301,Queda de árvore,0,3,0,9,2025-01-27T14:38:00Z,Almeirim,Santarém,Alentejo,-8.468478,39.17567
24878069,Sesimbra (Castelo),Península de Setúbal,311,2025-01-27T14:48:00Z,24878069,Em curso,3301,Queda de árvore,0,1,0,5,2025-01-27T14:48:00Z,Sesimbra,Setúbal,Área Metropolitana De Lisboa,-9.095542,38.465387
24878134,Friúmes e Paradela,Região de Coimbra,310,2025-01-27T14:57:00Z,24878134,Em despacho,3313,Deslizamento de terras,0,1,0,2,2025-01-27T14:57:00Z,Penacova,Coimbra,Centro,-8.244833,40.286025
24878167,Mujães,Alto Minho,309,2025-01-27T14:58:00Z,24878167,Em curso,3301,Queda de árvore,0,0,0,0,2025-01-27T14:58:00Z,Viana Do Castelo,Viana Do Castelo,Norte,-8.705645,41.659904
24878184,Arca e Varzielas,Viseu Dão Lafões,310,2025-01-27T14:57:00Z,24878184,Em despacho,3301,Queda de árvore,0,1,0,2,2025-01-27T14:57:00Z,Oliveira De Frades,Viseu,Centro,-8.196922,40.601252
24878200,Gouveia (São Pedro e São Julião),Beiras e Serra da Estrela,310,2025-01-27T15:13:00Z,24878200,Em despacho,3315,Inundação de estruturas por precipitação intensa,0,1,0,3,2025-01-27T15:13:00Z,Gouveia,Guarda,Centro,-7.586951,40.497325
24878217,Alfragide,Grande Lisboa,311,2025-01-27T14:57:00Z,24878217,Em curso,3301,Queda de árvore,0,1,0,6,2025-01-27T14:57:00Z,Amadora,Lisboa,Área Metropolitana De Lisboa,-9.225704,38.738085
24878218,Mujães,Alto Minho,309,2025-01-27T15:18:00Z,24878218,Em despacho,3301,Queda de árvore,0,1,0,3,2025-01-27T15:18:00Z,Viana Do Castelo,Viana Do Castelo,Norte,-8.705645,41.659904
24878266,Vila Chã,Area M. Porto,309,2025-01-27T15:24:00Z,24878266,Em despacho,3321,Dano na rede de fornecimento de eletricidade ,0,0,0,0,2025-01-27T15:24:00Z,Vila Do Conde,Porto,Norte,-8.723164,41.296654
24876893,"Sé, Santa Maria e Meixedo",Terras de Trás-os-Montes,309,2025-01-27T11:22:00Z,24876893,Em curso,3315,Inundação de estruturas por precipitação intensa,0,1,0,1,2025-01-27T11:22:00Z,Bragança,Bragança,Norte,-6.761223,41.813164
24878090,Pousaflores,Região de Leiria,310,2025-01-27T14:48:00Z,24878090,Em despacho,3301,Queda de árvore,0,1,0,4,2025-01-27T14:48:00Z,Ansião,Leiria,Centro,-8.424547,39.876158
24878106,São Pedro de Sarracenos,Terras de Trás-os-Montes,309,2025-01-27T14:44:00Z,24878106,Em despacho,3315,Inundação de estruturas por precipitação intensa,0,1,0,2,2025-01-27T14:44:00Z,Bragança,Bragança,Norte,-6.751439,41.76443
24878195,Lordelo do Ouro e Massarelos,Area M. Porto,309,2025-01-27T14:45:00Z,24878195,Em despacho,3301,Queda de árvore,0,1,0,2,2025-01-27T14:45:00Z,Porto,Porto,Norte,-8.644953,41.152973
24878360,Igreja Nova e Cheleiros,Grande Lisboa,311,2025-01-27T15:50:00Z,24878360,Em despacho,3321,Dano na rede de fornecimento de eletricidade ,0,1,0,5,2025-01-27T15:50:00Z,Mafra,Lisboa,Área Metropolitana De Lisboa,-9.309442,38.934536
24878394,Gafanha da Boa Hora,Região de Aveiro,310,2025-01-27T15:51:00Z,24878394,Em despacho,3301,Queda de árvore,0,0,0,0,2025-01-27T15:51:00Z,Vagos,Aveiro,Centro,-8.750652,40.560891
24878443,Buarcos,Região de Coimbra,310,2025-01-27T15:54:00Z,24878443,Em despacho,3315,Inundação de estruturas por precipitação intensa,0,1,0,3,2025-01-27T15:54:00Z,Figueira Da Foz,Coimbra,Centro,-8.880897,40.168384
24878284,Praia de Mira,Região de Coimbra,310,2025-01-27T15:28:00Z,24878284,Em despacho,3301,Queda de árvore,0,1,0,3,2025-01-27T15:28:00Z,Mira,Coimbra,Centro,-8.8004270000000009,40.460655
24878353,Santo António Dos Olivais,Região de Coimbra,310,2025-01-27T15:51:00Z,24878353,Em despacho,3301,Queda de árvore,0,0,0,0,2025-01-27T15:51:00Z,Coimbra,Coimbra,Centro,-8.392808,40.235354
24878401,Costa da Caparica,Península de Setúbal,311,2025-01-27T15:45:00Z,24878401,Em despacho,3329,Queda de estruturas temporárias ou móveis,0,0,0,0,2025-01-27T15:45:00Z,Almada,Setúbal,Área Metropolitana De Lisboa,-9.227696,38.642583
24875531,Silveira,Oeste,311,2025-01-27T07:52:00Z,24875531,Em despacho,3313,Deslizamento de terras,0,1,0,2,2025-01-27T07:52:00Z,Torres Vedras,Lisboa,Centro,-9.3555,39.09169
24875758,Valhelhas,Beiras e Serra da Estrela,310,2025-01-27T08:41:00Z,24875758,Em curso,3301,Queda de árvore,0,1,0,2,2025-01-27T08:41:00Z,Guarda,Guarda,Centro,-7.405093,40.406271
24876669,Bilhó,Ave,309,2025-01-27T11:00:00Z,24876669,Em despacho,3311,Queda de elementos de estruturas edificados,0,1,0,2,2025-01-27T11:00:00Z,Mondim De Basto,Vila Real,Norte,-7.839872,41.409996
24876708,Montaria,Alto Minho,309,2025-01-27T10:59:00Z,24876708,Em curso,3301,Queda de árvore,0,2,0,4,2025-01-27T10:59:00Z,Viana Do Castelo,Viana Do Castelo,Norte,-8.694724,41.798689
24876783,Santo António Dos Olivais,Região de Coimbra,310,2025-01-27T10:56:00Z,24876783,Em despacho,3315,Inundação de estruturas por precipitação intensa,0,1,0,2,2025-01-27T10:56:00Z,Coimbra,Coimbra,Centro,-8.426807,40.217261
24877003,Malagueira e Horta Das Figueiras,Alentejo Central,312,2025-01-27T11:41:00Z,24877003,Em conclusão,3315,Inundação de estruturas por precipitação intensa,0,1,0,2,2025-01-27T11:41:00Z,Évora,Évora,Alentejo,-7.924277,38.57285
24877026,Buarcos,Região de Coimbra,310,2025-01-27T11:50:00Z,24877026,Em despacho,3317,Inundação de estruturas por água canalizada,0,1,0,3,2025-01-27T11:50:00Z,Figueira Da Foz,Coimbra,Centro,-8.880897,40.168384
24877228,Eiras e São Paulo de Frades,Região de Coimbra,310,2025-01-27T12:14:00Z,24877228,Em despacho,3301,Queda de árvore,0,1,0,2,2025-01-27T12:14:00Z,Coimbra,Coimbra,Centro,-8.392843,40.24436
24878222,"Oeiras e S. Julião da Barra, Paço de Arcos e Caxias",Grande Lisboa,311,2025-01-27T15:15:00Z,24878222,Em curso,3329,Queda de estruturas temporárias ou móveis,0,2,0,7,2025-01-27T15:15:00Z,Oeiras,Lisboa,Área Metropolitana De Lisboa,-9.310159,38.698531
24878229,Braga (São Vicente),Cávado,309,2025-01-27T15:18:00Z,24878229,Em despacho,3301,Queda de árvore,0,1,0,4,2025-01-27T15:18:00Z,Braga,Braga,Norte,-8.419631,41.563364
24878281,Vila Praia de Âncora,Alto Minho,309,2025-01-27T15:18:00Z,24878281,Em curso,3301,Queda de árvore,0,0,0,0,2025-01-27T15:18:00Z,Caminha,Viana Do Castelo,Norte,-8.853052,41.820795
24878297,"Ardegão, Freixo e Mato",Alto Minho,309,2025-01-27T15:32:00Z,24878297,Em curso,3329,Queda de estruturas temporárias ou móveis,0,1,0,3,2025-01-27T15:32:00Z,Ponte De Lima,Viana Do Castelo,Norte,-8.588227,41.656012
24878299,Nossa Senhora de Fátima,Médio Tejo,311,2025-01-27T15:26:00Z,24878299,Em resolução,3301,Queda de árvore,0,3,0,7,2025-01-27T15:26:00Z,Entroncamento,Santarém,Centro,-8.485202,39.466869
24878347,Vilarinho Das Cambas,Ave,309,2025-01-27T15:49:00Z,24878347,Em despacho,3301,Queda de árvore,0,1,0,2,2025-01-27T15:49:00Z,Vila Nova De Famalicão,Braga,Norte,-8.559497,41.386671
24878388,Peniche,Oeste,311,2025-01-27T15:46:00Z,24878388,Em despacho,3301,Queda de árvore,0,1,0,1,2025-01-27T15:46:00Z,Peniche,Leiria,Centro,-9.376833,39.357166
24878406,Santa Maria Maior,Alto Tâmega e Barroso,309,2025-01-27T15:49:00Z,24878406,Em despacho,3315,Inundação de estruturas por precipitação intensa,0,1,0,3,2025-01-27T15:49:00Z,Chaves,Vila Real,Norte,-7.464751,41.742877
24878415,"Esqueiros, Nevogilde e Travassós",Cávado,309,2025-01-27T15:57:00Z,24878415,Em despacho,3301,Queda de árvore,0,1,0,3,2025-01-27T15:57:00Z,Vila Verde,Braga,Norte,-8.460355,41.663657
24877462,Canelas,Area M. Porto,309,2025-01-27T13:06:00Z,24877462,Em curso,3301,Queda de árvore,0,1,0,3,2025-01-27T13:06:00Z,Vila Nova De Gaia,Porto,Norte,-8.593513,41.08389
24877871,Cepos e Teixeira,Região de Coimbra,310,2025-01-27T14:07:00Z,24877871,Em despacho,3301,Queda de árvore,0,1,0,4,2025-01-27T14:07:00Z,Arganil,Coimbra,Centro,-7.973479,40.160791
24878055,"Cedofeita, Ildefonso, Sé, Miragaia, Nicolau e Vitória",Area M. Porto,309,2025-01-27T13:54:00Z,24878055,Em despacho,3329,Queda de estruturas temporárias ou móveis,0,1,0,5,2025-01-27T13:54:00Z,Porto,Porto,Norte,-8.615939,41.15359
24878057,Salto,Alto Tâmega e Barroso,309,2025-01-27T14:42:00Z,24878057,Em despacho,3301,Queda de árvore,0,1,0,4,2025-01-27T14:42:00Z,Montalegre,Vila Real,Norte,-7.929191,41.611383
24878071,Seixas,Alto Minho,309,2025-01-27T14:45:00Z,24878071,Em curso,3301,Queda de árvore,0,1,0,4,2025-01-27T14:45:00Z,Caminha,Viana Do Castelo,Norte,-8.814663,41.879613
24878139,"Sé, Santa Maria e Meixedo",Terras de Trás-os-Montes,309,2025-01-27T14:59:00Z,24878139,Em despacho,3315,Inundação de estruturas por precipitação intensa,0,1,0,2,2025-01-27T14:59:00Z,Bragança,Bragança,Norte,-6.761223,41.813164
24878148,Âncora,Alto Minho,309,2025-01-27T14:58:00Z,24878148,Em curso,3301,Queda de árvore,0,0,0,0,2025-01-27T14:58:00Z,Caminha,Viana Do Castelo,Norte,-8.865007,41.797027
24878182,Manteigas (São Pedro),Beiras e Serra da Estrela,310,2025-01-27T15:09:00Z,24878182,Em despacho,3301,Queda de árvore,0,1,0,2,2025-01-27T15:09:00Z,Manteigas,Guarda,Centro,-7.537096,40.398921
24878280,Barroselas e Carvoeiro,Alto Minho,309,2025-01-27T15:16:00Z,24878280,Em despacho,3311,Queda de elementos de estruturas edificados,0,1,0,2,2025-01-27T15:16:00Z,Viana Do Castelo,Viana Do Castelo,Norte,-8.673486,41.654026
24878305,Lavradas,Alto Minho,309,2025-01-27T15:46:00Z,24878305,Em despacho,3301,Queda de árvore,0,1,0,3,2025-01-27T15:46:00Z,Ponte Da Barca,Viana Do Castelo,Norte,-8.46494,41.783079
24878448,"Marvila, Ribeira Santarém, S.salvador, S.nicolau",Lezíria do Tejo,311,2025-01-27T16:03:00Z,24878448,Em despacho,3301,Queda de árvore,0,1,0,1,2025-01-27T16:03:00Z,Santarém,Santarém,Alentejo,-8.678591,39.231938
