id,address,subregion,neighborhood,date,id.1,state,nature,nature_description,aerial_means,terrestrial_means,aquatic_means,operational,date.1,Concelho,Distrito,NUTII_DSG,longitude,latitude,state_2
25636341,Navió e Vitorino Dos Piães,Alto Minho,309,2025-07-06T13:36:00Z,25636341,Em Resolução/Conclusão,3103,Incêndio rural,0,22,0,65,2025-07-06T13:36:00Z,Ponte De Lima,Viana Do Castelo,Norte,-8.636015,41.674557,Resolução/Conclusão
25636995,Graça,Região de Leiria,310,2025-07-06T16:00:00Z,25636995,Em Resolução/Conclusão,3101,Incêndio rural,0,2,0,7,2025-07-06T16:00:00Z,Pedrógão Grande,Leiria,Centro,-8.220789,39.883478,Resolução/Conclusão
25637334,São Miguel de Acha,Beira Baixa,310,2025-07-06T17:22:00Z,25637334,Em Resolução/Conclusão,3105,Incêndio rural,0,3,0,15,2025-07-06T17:22:00Z,Idanha-a-Nova,Castelo Branco,Centro,-7.277732,39.997078,Resolução/Conclusão
25640886,Póvoa do Concelho,Beiras e Serra da Estrela,310,2025-07-07T11:39:00Z,25640886,Em Curso,3103,Incêndio rural,1,4,0,26,2025-07-07T11:39:00Z,Trancoso,Guarda,Centro,-7.265382,40.770737,Curso
25640911,Alvarenga,Area M. Porto,309,2025-07-07T11:35:00Z,25640911,Em Despacho,3101,Incêndio rural,1,4,0,24,2025-07-07T11:35:00Z,Arouca,Aveiro,Norte,-8.144899,40.967288,Despacho
25640880,Loureira,Cávado,309,2025-07-07T11:39:00Z,25640880,Em Despacho,3103,Incêndio rural,1,3,0,21,2025-07-07T11:39:00Z,Vila Verde,Braga,Norte,-8.424955,41.626378,Despacho
25640248,Lavradas,Alto Minho,309,2025-07-07T10:00:00Z,25640248,Em Resolução/Conclusão,3103,Incêndio rural,0,1,0,5,2025-07-07T10:00:00Z,Ponte Da Barca,Viana Do Castelo,Norte,-8.469045,41.795428,Resolução/Conclusão
25639989,Luso,Região de Coimbra,310,2025-07-07T09:24:00Z,25639989,Em Resolução/Conclusão,3101,Incêndio rural,0,9,0,36,2025-07-07T09:24:00Z,Mealhada,Aveiro,Centro,-8.36167,40.38667,Resolução/Conclusão
25640258,Andrães,Douro,309,2025-07-07T10:02:00Z,25640258,Em Resolução/Conclusão,3103,Incêndio rural,0,11,0,33,2025-07-07T10:02:00Z,Vila Real,Vila Real,Norte,-7.719448,41.248428,Resolução/Conclusão
25640458,Duas Igrejas,Area M. Porto,309,2025-07-07T10:26:00Z,25640458,Em Resolução/Conclusão,3103,Incêndio rural,0,1,0,5,2025-07-07T10:26:00Z,Paredes,Porto,Norte,-8.374952,41.233638,Resolução/Conclusão
25640893,Conceição e Estoi,Algarve,313,2025-07-07T11:40:00Z,25640893,Em Curso,3103,Incêndio rural,1,4,0,19,2025-07-07T11:40:00Z,Faro,Faro,Algarve,-7.91049,37.045627,Curso
