id,address,subregion,neighborhood,date,id.1,state,nature,nature_description,aerial_means,terrestrial_means,aquatic_means,operational,date.1,Concelho,Distrito,NUTII_DSG,longitude,latitude
25071496,São Manços e São Vicente do Pigeiro,Alentejo Central,312,2025-03-11T13:18:00Z,25071496,Em conclusão,1101,Cheia,0,0,0,0,2025-03-11T13:18:00Z,Évora,Évora,Alentejo,-7.713313,38.513673
25271969,São João de Tarouca,Douro,309,2025-04-22T13:44:00Z,25271969,Em despacho,3301,Queda de árvore,0,2,0,2,2025-04-22T13:44:00Z,Tarouca,Viseu,Norte,-7.745676,40.997737
25272237,Quinta do Anjo,Península de Setúbal,311,2025-04-22T14:34:00Z,25272237,Em despacho,3321,Dano na rede de fornecimento de eletricidade ,0,1,0,2,2025-04-22T14:34:00Z,Palmela,Setúbal,Área Metropolitana De Lisboa,-8.953347,38.59354
25272444,Pombal,Região de Leiria,310,2025-04-22T15:00:00Z,25272444,Em despacho,3301,Queda de árvore,0,1,0,2,2025-04-22T15:00:00Z,Pombal,Leiria,Centro,-8.706358,39.933425
25272405,Ramalde,Area M. Porto,309,2025-04-22T14:50:00Z,25272405,Em despacho,3301,Queda de árvore,0,1,0,5,2025-04-22T14:50:00Z,Porto,Porto,Norte,-8.642922,41.17139
