id,address,subregion,neighborhood,date,id.1,state,nature,nature_description,aerial_means,terrestrial_means,aquatic_means,operational,date.1,Concelho,Distrito,NUTII_DSG,longitude,latitude,state_2
25599382,Almaceda,Beira Baixa,310,2025-06-29T17:03:00Z,25599382,Em Resolução/Conclusão,3101,Incêndio rural,0,13,0,39,2025-06-29T17:03:00Z,Castelo Branco,Castelo Branco,Centro,-7.645695,39.962858,Resolução/Conclusão
25612309,Portela e Extremo,Alto Minho,309,2025-07-01T23:31:00Z,25612309,Em Resolução/Conclusão,3103,Incêndio rural,0,2,0,6,2025-07-01T23:31:00Z,Arcos De Valdevez,Viana Do Castelo,Norte,-8.46703,41.947547,Resolução/Conclusão
25615369,Alvega e Concavada,Médio Tejo,311,2025-07-02T14:26:00Z,25615369,Em Resolução/Conclusão,3103,Incêndio rural,0,1,0,3,2025-07-02T14:26:00Z,Abrantes,Santarém,Centro,-8.065718,39.452075,Resolução/Conclusão
25615474,Pego,Médio Tejo,311,2025-07-02T14:41:00Z,25615474,Em Resolução/Conclusão,3103,Incêndio rural,1,8,0,29,2025-07-02T14:41:00Z,Abrantes,Santarém,Centro,-8.128793,39.449722,Resolução/Conclusão
25616480,Tó,Terras de Trás-os-Montes,309,2025-07-02T17:59:00Z,25616480,Em Resolução/Conclusão,3103,Incêndio rural,1,9,0,38,2025-07-02T17:59:00Z,Mogadouro,Bragança,Norte,-6.558468,41.325515,Resolução/Conclusão
25611301,"Algodres, Vale de Afonsinho e Vilar de Amargo",Beiras e Serra da Estrela,310,2025-07-01T19:25:00Z,25611301,Em Resolução/Conclusão,3103,Incêndio rural,0,12,0,49,2025-07-01T19:25:00Z,Figueira De Castelo Rodrigo,Guarda,Centro,-7.002512,40.960853,Resolução/Conclusão
25615264,Gondarém,Alto Minho,309,2025-07-02T14:08:00Z,25615264,Em Resolução/Conclusão,3103,Incêndio rural,0,2,0,6,2025-07-02T14:08:00Z,Vila Nova De Cerveira,Viana Do Castelo,Norte,-8.733052,41.91415,Resolução/Conclusão
25616581,Peral,Oeste,311,2025-07-02T18:15:00Z,25616581,Em Despacho,3105,Incêndio rural,0,1,0,5,2025-07-02T18:15:00Z,Cadaval,Lisboa,Centro,-9.051808,39.254808,Despacho
25603618,Messejana,Baixo Alentejo,312,2025-06-30T13:09:00Z,25603618,Em Resolução/Conclusão,3101,Incêndio rural,0,7,0,17,2025-06-30T13:09:00Z,Aljustrel,Beja,Alentejo,-8.169013,37.814978,Resolução/Conclusão
25605147,Vale do Côa,Beiras e Serra da Estrela,310,2025-06-30T17:42:00Z,25605147,Em Resolução/Conclusão,3103,Incêndio rural,0,5,0,16,2025-06-30T17:42:00Z,Pinhel,Guarda,Centro,-7.114995,40.946045,Resolução/Conclusão
25610143,Nossa Senhora Das Misericórdias,Médio Tejo,311,2025-07-01T15:32:00Z,25610143,Em Resolução/Conclusão,3103,Incêndio rural,0,1,0,5,2025-07-01T15:32:00Z,Ourém,Santarém,Centro,-8.600277,39.655883,Resolução/Conclusão
25614914,Serpa (Salvador e Santa Maria),Baixo Alentejo,312,2025-07-02T12:58:00Z,25614914,Em Resolução/Conclusão,3105,Incêndio rural,0,3,0,5,2025-07-02T12:58:00Z,Serpa,Beja,Alentejo,-7.613587,37.988957,Resolução/Conclusão
25616134,Penafiel,Tâmega e Sousa,309,2025-07-02T16:51:00Z,25616134,Em Resolução/Conclusão,3103,Incêndio rural,0,1,0,5,2025-07-02T16:51:00Z,Penafiel,Porto,Norte,-8.269347,41.215623,Resolução/Conclusão
25613433,Távora e Pereiro,Douro,309,2025-07-02T09:03:00Z,25613433,Em Resolução/Conclusão,3103,Incêndio rural,0,3,0,9,2025-07-02T09:03:00Z,Tabuaço,Viseu,Norte,-7.555308,41.108568,Resolução/Conclusão
25615756,Brinches,Baixo Alentejo,312,2025-07-02T15:23:00Z,25615756,Em Resolução/Conclusão,3103,Incêndio rural,0,8,0,19,2025-07-02T15:23:00Z,Serpa,Beja,Alentejo,-7.617565,38.05776,Resolução/Conclusão
25615771,Serpa (Salvador e Santa Maria),Baixo Alentejo,312,2025-07-02T15:34:00Z,25615771,Em Resolução/Conclusão,3105,Incêndio rural,0,5,0,12,2025-07-02T15:34:00Z,Serpa,Beja,Alentejo,-7.568214,37.90113,Resolução/Conclusão
25616570,Croca,Tâmega e Sousa,309,2025-07-02T18:19:00Z,25616570,Em Despacho,3103,Incêndio rural,0,3,0,11,2025-07-02T18:19:00Z,Penafiel,Porto,Norte,-8.248084,41.21823,Despacho
25616107,Baguim do Monte (Rio Tinto),Area M. Porto,309,2025-07-02T16:38:00Z,25616107,Em Resolução/Conclusão,3103,Incêndio rural,0,7,0,22,2025-07-02T16:38:00Z,Gondomar,Porto,Norte,-8.526005,41.196837,Resolução/Conclusão
25616157,Sobrosa,Area M. Porto,309,2025-07-02T16:47:00Z,25616157,Em Resolução/Conclusão,3103,Incêndio rural,0,1,0,5,2025-07-02T16:47:00Z,Paredes,Porto,Norte,-8.35807,41.25644,Resolução/Conclusão
25616205,Três Povos,Beiras e Serra da Estrela,310,2025-07-02T16:57:00Z,25616205,Em Resolução/Conclusão,3103,Incêndio rural,0,13,0,40,2025-07-02T16:57:00Z,Fundão,Castelo Branco,Centro,-7.30787,40.216883,Resolução/Conclusão
25616290,Venade e Azevedo,Alto Minho,309,2025-07-02T17:15:00Z,25616290,Em Resolução/Conclusão,3103,Incêndio rural,0,5,0,19,2025-07-02T17:15:00Z,Caminha,Viana Do Castelo,Norte,-8.81323,41.84877,Resolução/Conclusão
