id,address,subregion,neighborhood,date,id.1,state,nature,nature_description,aerial_means,terrestrial_means,aquatic_means,operational,date.1,Concelho,Distrito,NUTII_DSG,longitude,latitude
24777071,Pedrógão Grande,Região de Leiria,310,2025-01-05T13:18:00Z,24777071,Em conclusão,3309,Desabamento de estruturas edificadas,0,1,0,1,2025-01-05T13:18:00Z,Pedrógão Grande,Leiria,Centro,-8.177567,39.933038
24779877,Gouveia (São Pedro e São Julião),Beiras e Serra da Estrela,310,2025-01-06T06:52:00Z,24779877,Em despacho,3301,Queda de árvore,0,1,0,4,2025-01-06T06:52:00Z,Gouveia,Guarda,Centro,-7.586951,40.497325
24779817,Cinfães,Tâmega e Sousa,309,2025-01-06T05:57:00Z,24779817,Em despacho,3301,Queda de árvore,0,1,0,2,2025-01-06T05:57:00Z,Cinfães,Viseu,Norte,-8.086727,41.072213
24779825,Lamego (Almacave e Sé),Douro,309,2025-01-06T06:07:00Z,24779825,Em despacho,3301,Queda de árvore,0,2,0,4,2025-01-06T06:07:00Z,Lamego,Viseu,Norte,-7.831513,41.089023
24779883,Bacelo e Senhora da Saúde,Alentejo Central,312,2025-01-06T06:56:00Z,24779883,Em curso,3301,Queda de árvore,0,2,0,5,2025-01-06T06:56:00Z,Évora,Évora,Alentejo,-7.869122,38.593644
