id,address,subregion,neighborhood,date,id.1,state,nature,nature_description,aerial_means,terrestrial_means,aquatic_means,operational,date.1,Concelho,Distrito,NUTII_DSG,longitude,latitude,state_2
25735962,Recarei,Area M. Porto,309,2025-07-26T11:44:00Z,25735962,Em Resolução/Conclusão,3101,Incêndio rural,0,1,0,5,2025-07-26T11:44:00Z,Paredes,Porto,Norte,-8.430078,41.15653,Resolução/Conclusão
25736610,Guilhadeses e Santar,Alto Minho,309,2025-07-26T14:00:00Z,25736610,Em Resolução/Conclusão,3103,Incêndio rural,0,1,0,5,2025-07-26T14:00:00Z,Arcos De Valdevez,Viana Do Castelo,Norte,-8.437177,41.834698,Resolução/Conclusão
25736728,Silveira,Oeste,311,2025-07-26T14:24:00Z,25736728,Em Resolução/Conclusão,3105,Incêndio rural,0,5,0,22,2025-07-26T14:24:00Z,Torres Vedras,Lisboa,Centro,-9.35816,39.11463,Resolução/Conclusão
25736879,Válega,Região de Aveiro,310,2025-07-26T14:57:00Z,25736879,Em Resolução/Conclusão,3101,Incêndio rural,1,3,0,21,2025-07-26T14:57:00Z,Ovar,Aveiro,Centro,-8.60661,40.822318,Resolução/Conclusão
25737064,Calde,Viseu Dão Lafões,310,2025-07-26T15:40:00Z,25737064,Em Despacho,3103,Incêndio rural,1,4,0,23,2025-07-26T15:40:00Z,Viseu,Viseu,Centro,-7.902173,40.765834,Despacho
25729082,São Jorge e Ermelo,Alto Minho,309,2025-07-25T04:45:00Z,25729082,Em Resolução/Conclusão,3101,Incêndio rural,0,19,0,60,2025-07-25T04:45:00Z,Arcos De Valdevez,Viana Do Castelo,Norte,-8.356835,41.818005,Resolução/Conclusão
25735885,Miranda do Douro,Terras de Trás-os-Montes,309,2025-07-26T11:25:00Z,25735885,Em Resolução/Conclusão,3103,Incêndio rural,0,14,0,45,2025-07-26T11:25:00Z,Miranda Do Douro,Bragança,Norte,-6.245727,41.563985,Resolução/Conclusão
25736470,Viade de Baixo e Fervidelas,Alto Tâmega e Barroso,309,2025-07-26T13:30:00Z,25736470,Em Resolução/Conclusão,3103,Incêndio rural,0,4,0,16,2025-07-26T13:30:00Z,Montalegre,Vila Real,Norte,-7.842118,41.75869,Resolução/Conclusão
25736485,São Lourenço do Bairro,Região de Aveiro,310,2025-07-26T13:34:00Z,25736485,Em Resolução/Conclusão,3103,Incêndio rural,0,9,0,28,2025-07-26T13:34:00Z,Anadia,Aveiro,Centro,-8.499215,40.440983,Resolução/Conclusão
25736569,Turcifal,Oeste,311,2025-07-26T13:49:00Z,25736569,Em Resolução/Conclusão,3103,Incêndio rural,0,6,0,20,2025-07-26T13:49:00Z,Torres Vedras,Lisboa,Centro,-9.240779,39.019309,Resolução/Conclusão
25736820,Âncora,Alto Minho,309,2025-07-26T14:43:00Z,25736820,Em Resolução/Conclusão,3105,Incêndio rural,0,3,0,13,2025-07-26T14:43:00Z,Caminha,Viana Do Castelo,Norte,-8.860453,41.800523,Resolução/Conclusão
25736989,Adorigo,Douro,309,2025-07-26T15:20:00Z,25736989,Em Curso,3103,Incêndio rural,0,1,0,5,2025-07-26T15:20:00Z,Tabuaço,Viseu,Norte,-7.637473,41.15571,Curso
25727257,Santiago de Piães,Tâmega e Sousa,309,2025-07-24T17:40:00Z,25727257,Em Resolução/Conclusão,3103,Incêndio rural,0,1,0,5,2025-07-24T17:40:00Z,Cinfães,Viseu,Norte,-8.173138,41.025392,Resolução/Conclusão
25736199,Pedralva,Cávado,309,2025-07-26T12:35:00Z,25736199,Em Resolução/Conclusão,3103,Incêndio rural,0,2,0,5,2025-07-26T12:35:00Z,Braga,Braga,Norte,-8.315075,41.553187,Resolução/Conclusão
25736206,Amareleja,Baixo Alentejo,312,2025-07-26T12:36:00Z,25736206,Em Resolução/Conclusão,3105,Incêndio rural,0,5,0,10,2025-07-26T12:36:00Z,Moura,Beja,Alentejo,-7.23858,38.250643,Resolução/Conclusão
25736399,Soalhães,Tâmega e Sousa,309,2025-07-26T13:21:00Z,25736399,Em Resolução/Conclusão,3103,Incêndio rural,0,2,0,7,2025-07-26T13:21:00Z,Marco De Canaveses,Porto,Norte,-8.108108,41.151265,Resolução/Conclusão
25736515,São Pedro Fins,Area M. Porto,309,2025-07-26T13:37:00Z,25736515,Em Resolução/Conclusão,3103,Incêndio rural,0,5,0,20,2025-07-26T13:37:00Z,Maia,Porto,Norte,-8.555517,41.2474,Resolução/Conclusão
25736835,Couço,Lezíria do Tejo,311,2025-07-26T14:48:00Z,25736835,Em Resolução/Conclusão,3105,Incêndio rural,1,14,0,54,2025-07-26T14:48:00Z,Coruche,Santarém,Alentejo,-8.14717,38.785778,Resolução/Conclusão
25737039,Pessegueiro do Vouga,Região de Aveiro,310,2025-07-26T15:33:00Z,25737039,Em Despacho,3101,Incêndio rural,1,4,0,26,2025-07-26T15:33:00Z,Sever Do Vouga,Aveiro,Centro,-8.41221,40.68979,Despacho
25737071,Encarnação,Grande Lisboa,311,2025-07-26T15:36:00Z,25737071,Em Despacho,3103,Incêndio rural,0,7,0,28,2025-07-26T15:36:00Z,Mafra,Lisboa,Área Metropolitana De Lisboa,-9.365289,39.029436,Despacho
25730832,Aveleda e Rio de Onor,Terras de Trás-os-Montes,309,2025-07-25T12:07:00Z,25730832,Em Resolução/Conclusão,3103,Incêndio rural,0,21,0,73,2025-07-25T12:07:00Z,Bragança,Bragança,Norte,-6.707873,41.891435,Resolução/Conclusão
25734678,Quintiães e Aguiar,Cávado,309,2025-07-26T06:15:00Z,25734678,Em Resolução/Conclusão,3103,Incêndio rural,0,3,0,10,2025-07-26T06:15:00Z,Barcelos,Braga,Norte,-8.660918,41.629673,Resolução/Conclusão
25736248,Azambujeira e Malaqueijo,Lezíria do Tejo,311,2025-07-26T12:46:00Z,25736248,Em Resolução/Conclusão,3105,Incêndio rural,0,0,0,0,2025-07-26T12:46:00Z,Rio Maior,Santarém,Alentejo,-8.84,39.297432,Resolução/Conclusão
25736775,Poiares e Canelas,Douro,309,2025-07-26T14:33:00Z,25736775,Em Resolução/Conclusão,3103,Incêndio rural,1,6,0,31,2025-07-26T14:33:00Z,Peso Da Régua,Vila Real,Norte,-7.724475,41.19404,Resolução/Conclusão
25736784,Alfena,Area M. Porto,309,2025-07-26T14:29:00Z,25736784,Em Resolução/Conclusão,3103,Incêndio rural,0,1,0,3,2025-07-26T14:29:00Z,Valongo,Porto,Norte,-8.538704,41.238083,Resolução/Conclusão
25736793,"Romãs, Decermilo e Vila Longa",Viseu Dão Lafões,310,2025-07-26T14:37:00Z,25736793,Em Resolução/Conclusão,3103,Incêndio rural,0,4,0,17,2025-07-26T14:37:00Z,Sátão,Viseu,Centro,-7.648553,40.76131,Resolução/Conclusão
25736858,Constance,Tâmega e Sousa,309,2025-07-26T14:55:00Z,25736858,Em Resolução/Conclusão,3103,Incêndio rural,0,1,0,6,2025-07-26T14:55:00Z,Marco De Canaveses,Porto,Norte,-8.177573,41.201922,Resolução/Conclusão
25736915,Vacalar,Douro,309,2025-07-26T15:04:00Z,25736915,Em Curso,3103,Incêndio rural,1,3,0,21,2025-07-26T15:04:00Z,Peso Da Régua,Vila Real,Norte,-7.708598,41.143832,Curso
25737026,Penamacor,Beira Baixa,310,2025-07-26T15:29:00Z,25737026,Em Curso,3105,Incêndio rural,4,14,0,64,2025-07-26T15:29:00Z,Penamacor,Castelo Branco,Centro,-7.165826,40.167676,Curso
25737100,Portel,Alentejo Central,312,2025-07-26T15:46:00Z,25737100,Em Despacho,3103,Incêndio rural,0,1,0,5,2025-07-26T15:46:00Z,Portel,Évora,Alentejo,-7.710267,38.303435,Despacho
