id,address,subregion,neighborhood,date,id.1,state,nature,nature_description,aerial_means,terrestrial_means,aquatic_means,operational,date.1,Concelho,Distrito,NUTII_DSG,longitude,latitude
24867127,Santo António Dos Olivais,Região de Coimbra,310,2025-01-25T09:00:00Z,24867127,Em conclusão,3311,Queda de elementos de estruturas edificados,0,2,0,4,2025-01-25T09:00:00Z,Coimbra,Coimbra,Centro,-8.426807,40.217261
24867207,Fafe,Ave,309,2025-01-25T09:26:00Z,24867207,Em despacho,3315,Inundação de estruturas por precipitação intensa,0,2,0,5,2025-01-25T09:26:00Z,Fafe,Braga,Norte,-8.175239,41.449617
24867366,Loures,Grande Lisboa,311,2025-01-25T09:45:00Z,24867366,Em despacho,3301,Queda de árvore,0,1,0,5,2025-01-25T09:45:00Z,Loures,Lisboa,Área Metropolitana De Lisboa,-9.169276,38.838808
24867393,Abade de Neiva,Cávado,309,2025-01-25T10:09:00Z,24867393,Em despacho,3315,Inundação de estruturas por precipitação intensa,0,1,0,2,2025-01-25T10:09:00Z,Barcelos,Braga,Norte,-8.640975,41.554651
24866996,Caparica e Trafaria,Península de Setúbal,311,2025-01-25T08:29:00Z,24866996,Em despacho,3301,Queda de árvore,0,1,0,5,2025-01-25T08:29:00Z,Almada,Setúbal,Área Metropolitana De Lisboa,-9.210835,38.667061
24867094,Santa Catarina da Serra e Chainça,Região de Leiria,310,2025-01-25T08:59:00Z,24867094,Em despacho,3313,Deslizamento de terras,0,1,0,2,2025-01-25T08:59:00Z,Leiria,Leiria,Centro,-8.666951,39.679634
24867330,Areias e Pias,Médio Tejo,311,2025-01-25T09:57:00Z,24867330,Em despacho,3309,Desabamento de estruturas edificadas,0,4,0,6,2025-01-25T09:57:00Z,Ferreira Do Zêzere,Santarém,Centro,-8.361843,39.763499
24851780,"São Miguel, Santa Eufémia e Rabaçal",Região de Coimbra,310,2025-01-21T23:25:00Z,24851780,Em curso,3315,Inundação de estruturas por precipitação intensa,0,0,0,0,2025-01-21T23:25:00Z,Penela,Coimbra,Centro,-8.399036,40.025502
24867403,Castelo Branco,Beira Baixa,310,2025-01-25T10:05:00Z,24867403,Em curso,3301,Queda de árvore,0,2,0,7,2025-01-25T10:05:00Z,Castelo Branco,Castelo Branco,Centro,-7.490756,39.816895
