id,address,subregion,neighborhood,date,id.1,state,nature,nature_description,aerial_means,terrestrial_means,aquatic_means,operational,date.1,Concelho,Distrito,NUTII_DSG,longitude,latitude
25053142,Barcarena,Grande Lisboa,311,2025-03-07T13:40:00Z,25053142,Em curso,3301,Queda de árvore,0,2,0,7,2025-03-07T13:40:00Z,Oeiras,Lisboa,Área Metropolitana De Lisboa,-9.277392,38.733987
25053167,São Domingos de Rana,Grande Lisboa,311,2025-03-07T13:53:00Z,25053167,Em despacho,3321,Dano na rede de fornecimento de eletricidade ,0,1,0,3,2025-03-07T13:53:00Z,Cascais,Lisboa,Área Metropolitana De Lisboa,-9.33557,38.72674
25053203,Miragaia e Marteleira,Oeste,311,2025-03-07T13:59:00Z,25053203,Em curso,3301,Queda de árvore,0,3,0,4,2025-03-07T13:59:00Z,Lourinhã,Lisboa,Centro,-9.262346,39.235841
25053269,Colmeias e Memória,Região de Leiria,310,2025-03-07T14:07:00Z,25053269,Em despacho,3309,Desabamento de estruturas edificadas,0,1,0,5,2025-03-07T14:07:00Z,Leiria,Leiria,Centro,-8.70875,39.800121
25053562,Montijo e Afonsoeiro,Península de Setúbal,311,2025-03-07T14:31:00Z,25053562,Em despacho,3321,Dano na rede de fornecimento de eletricidade ,0,1,0,4,2025-03-07T14:31:00Z,Montijo,Setúbal,Área Metropolitana De Lisboa,-8.975715,38.702323
25053712,"Alto do Seixalinho, Santo André e Verderena",Península de Setúbal,311,2025-03-07T15:10:00Z,25053712,Em despacho,3315,Inundação de estruturas por precipitação intensa,0,1,0,4,2025-03-07T15:10:00Z,Barreiro,Setúbal,Área Metropolitana De Lisboa,-9.072252,38.651508
25053812,"S.julião, N.s. da Anunciada e S. Maria da Graça",Península de Setúbal,311,2025-03-07T15:29:00Z,25053812,Em despacho,3301,Queda de árvore,0,1,0,4,2025-03-07T15:29:00Z,Setúbal,Setúbal,Área Metropolitana De Lisboa,-8.889983,38.529955
25053921,Mafamude e Vilar do Paraíso,Area M. Porto,309,2025-03-07T15:48:00Z,25053921,Em despacho,3311,Queda de elementos de estruturas edificados,0,1,0,3,2025-03-07T15:48:00Z,Vila Nova De Gaia,Porto,Norte,-8.601126,41.126193
25054005,Almeirim,Lezíria do Tejo,311,2025-03-07T16:10:00Z,25054005,Em despacho,3315,Inundação de estruturas por precipitação intensa,0,1,0,2,2025-03-07T16:10:00Z,Almeirim,Santarém,Alentejo,-8.588832,39.142251
25054046,Aldeia da Mata,Alto Alentejo,312,2025-03-07T16:16:00Z,25054046,Em despacho,3301,Queda de árvore,0,2,0,5,2025-03-07T16:16:00Z,Crato,Portalegre,Alentejo,-7.719737,39.327575
25053087,Rio de Mouro,Grande Lisboa,311,2025-03-07T13:39:00Z,25053087,Em despacho,3311,Queda de elementos de estruturas edificados,0,1,0,5,2025-03-07T13:39:00Z,Sintra,Lisboa,Área Metropolitana De Lisboa,-9.31194,38.78508
25053154,"S.maria, S.miguel, S.martinho, S.pedro Penaferrim",Grande Lisboa,311,2025-03-07T13:48:00Z,25053154,Em despacho,3315,Inundação de estruturas por precipitação intensa,0,1,0,5,2025-03-07T13:48:00Z,Sintra,Lisboa,Área Metropolitana De Lisboa,-9.40542,38.820035
25053221,"Almargem do Bispo, Pêro Pinheiro e Montelavar",Grande Lisboa,311,2025-03-07T14:02:00Z,25053221,Em despacho,3313,Deslizamento de terras,0,3,0,5,2025-03-07T14:02:00Z,Sintra,Lisboa,Área Metropolitana De Lisboa,-9.279282,38.82106
25053241,Bombarral e Vale Covo,Oeste,311,2025-03-07T13:55:00Z,25053241,Em resolução,3311,Queda de elementos de estruturas edificados,0,2,0,6,2025-03-07T13:55:00Z,Bombarral,Leiria,Centro,-9.171316,39.267313
25053308,Ermidas-Sado,Alentejo Litoral,312,2025-03-07T14:02:00Z,25053308,Em despacho,3301,Queda de árvore,0,1,0,2,2025-03-07T14:02:00Z,Santiago Do Cacém,Setúbal,Alentejo,-8.366897,38.010808
25053465,Fernão Ferro,Península de Setúbal,311,2025-03-07T14:37:00Z,25053465,Em despacho,3301,Queda de árvore,0,1,0,3,2025-03-07T14:37:00Z,Seixal,Setúbal,Área Metropolitana De Lisboa,-9.058636,38.55485
25053566,Miragaia e Marteleira,Oeste,311,2025-03-07T14:51:00Z,25053566,Em conclusão,3313,Deslizamento de terras,0,1,0,2,2025-03-07T14:51:00Z,Lourinhã,Lisboa,Centro,-9.275912,39.197494
25053734,Campolide,Grande Lisboa,311,2025-03-07T15:05:00Z,25053734,Em conclusão,3301,Queda de árvore,0,1,0,5,2025-03-07T15:05:00Z,Lisboa,Lisboa,Área Metropolitana De Lisboa,-9.165804,38.731424
25053797,Loureiro,Area M. Porto,309,2025-03-07T15:08:00Z,25053797,Em despacho,3301,Queda de árvore,0,1,0,2,2025-03-07T15:08:00Z,Oliveira De Azeméis,Aveiro,Norte,-8.52728,40.811025
25053801,Azeitão (São Lourenço e São Simão),Península de Setúbal,311,2025-03-07T15:31:00Z,25053801,Em despacho,3301,Queda de árvore,0,1,0,5,2025-03-07T15:31:00Z,Setúbal,Setúbal,Área Metropolitana De Lisboa,-9.033171,38.51723
25053881,Benedita,Oeste,311,2025-03-07T15:30:00Z,25053881,Em curso,3321,Dano na rede de fornecimento de eletricidade ,0,3,0,6,2025-03-07T15:30:00Z,Alcobaça,Leiria,Centro,-8.979714,39.424686
25053931,"Algés, Linda-a-Velha e Cruz Quebrada-Dafundo",Grande Lisboa,311,2025-03-07T15:55:00Z,25053931,Em despacho,3301,Queda de árvore,0,1,0,5,2025-03-07T15:55:00Z,Oeiras,Lisboa,Área Metropolitana De Lisboa,-9.22967,38.696612
25053870,Parreira e Chouto,Lezíria do Tejo,311,2025-03-07T15:44:00Z,25053870,Em despacho,3301,Queda de árvore,0,2,0,4,2025-03-07T15:44:00Z,Chamusca,Santarém,Alentejo,-8.327738,39.256475
25053911,"Freixianda, Ribeira do Fárrio e Formigais",Médio Tejo,311,2025-03-07T15:54:00Z,25053911,Em resolução,3321,Dano na rede de fornecimento de eletricidade ,0,1,0,5,2025-03-07T15:54:00Z,Ourém,Santarém,Centro,-8.495268,39.757423
25053927,Ceira,Região de Coimbra,310,2025-03-07T15:53:00Z,25053927,Em despacho,3301,Queda de árvore,0,1,0,2,2025-03-07T15:53:00Z,Coimbra,Coimbra,Centro,-8.389014,40.164217
25053977,Alpiarça,Lezíria do Tejo,311,2025-03-07T16:05:00Z,25053977,Em conclusão,3315,Inundação de estruturas por precipitação intensa,0,1,0,4,2025-03-07T16:05:00Z,Alpiarça,Santarém,Alentejo,-8.562742,39.270968
25053986,Miranda do Corvo,Região de Coimbra,310,2025-03-07T16:00:00Z,25053986,Em despacho,3313,Deslizamento de terras,0,1,0,2,2025-03-07T16:00:00Z,Miranda Do Corvo,Coimbra,Centro,-8.328159,40.098029
25053934,Barcarena,Grande Lisboa,311,2025-03-07T15:54:00Z,25053934,Em despacho,3301,Queda de árvore,0,1,0,5,2025-03-07T15:54:00Z,Oeiras,Lisboa,Área Metropolitana De Lisboa,-9.277392,38.733987
25053948,Paranhos,Area M. Porto,309,2025-03-07T15:50:00Z,25053948,Em despacho,3311,Queda de elementos de estruturas edificados,0,1,0,3,2025-03-07T15:50:00Z,Porto,Porto,Norte,-8.607437,41.17569
25053999,Santa Maria Maior e Monserrate e Meadela,Alto Minho,309,2025-03-07T16:13:00Z,25053999,Em despacho,3311,Queda de elementos de estruturas edificados,0,1,0,2,2025-03-07T16:13:00Z,Viana Do Castelo,Viana Do Castelo,Norte,-8.82417,41.69347
25054016,Santa Maria Maior e Monserrate e Meadela,Alto Minho,309,2025-03-07T16:09:00Z,25054016,Em despacho,3311,Queda de elementos de estruturas edificados,0,1,0,2,2025-03-07T16:09:00Z,Viana Do Castelo,Viana Do Castelo,Norte,-8.81652,41.703882
25054032,Condeixa-a-Velha e Condeixa-a-Nova,Região de Coimbra,310,2025-03-07T16:03:00Z,25054032,Em despacho,3315,Inundação de estruturas por precipitação intensa,0,1,0,3,2025-03-07T16:03:00Z,Condeixa-a-Nova,Coimbra,Centro,-8.482693,40.119842
25053372,"S.julião, N.s. da Anunciada e S. Maria da Graça",Península de Setúbal,311,2025-03-07T14:21:00Z,25053372,Em despacho,3301,Queda de árvore,0,2,0,7,2025-03-07T14:21:00Z,Setúbal,Setúbal,Área Metropolitana De Lisboa,-8.889983,38.529955
25053425,Tornada e Salir do Porto,Oeste,311,2025-03-07T14:27:00Z,25053425,Em conclusão,3329,Queda de estruturas temporárias ou móveis,0,1,0,2,2025-03-07T14:27:00Z,Caldas Da Rainha,Leiria,Centro,-9.151736,39.435014
25053491,Encarnação,Grande Lisboa,311,2025-03-07T14:25:00Z,25053491,Em despacho,3301,Queda de árvore,0,1,0,5,2025-03-07T14:25:00Z,Mafra,Lisboa,Área Metropolitana De Lisboa,-9.365289,39.029436
25053605,São Vicente do Paul e Vale de Figueira,Lezíria do Tejo,311,2025-03-07T14:56:00Z,25053605,Em conclusão,3301,Queda de árvore,0,1,0,5,2025-03-07T14:56:00Z,Santarém,Santarém,Alentejo,-8.59935,39.373658
25053692,"Alto do Seixalinho, Santo André e Verderena",Península de Setúbal,311,2025-03-07T14:50:00Z,25053692,Em despacho,3311,Queda de elementos de estruturas edificados,0,2,0,6,2025-03-07T14:50:00Z,Barreiro,Setúbal,Área Metropolitana De Lisboa,-9.072252,38.651508
25053709,Marinhais,Lezíria do Tejo,311,2025-03-07T15:17:00Z,25053709,Em conclusão,3301,Queda de árvore,0,2,0,8,2025-03-07T15:17:00Z,Salvaterra De Magos,Santarém,Alentejo,-8.700473,39.048435
25053776,Campanhã,Area M. Porto,309,2025-03-07T15:21:00Z,25053776,Em despacho,3329,Queda de estruturas temporárias ou móveis,0,1,0,5,2025-03-07T15:21:00Z,Porto,Porto,Norte,-8.58392,41.16637
25053889,Santa Catarina da Serra e Chainça,Região de Leiria,310,2025-03-07T15:44:00Z,25053889,Em despacho,3301,Queda de árvore,0,1,0,5,2025-03-07T15:44:00Z,Leiria,Leiria,Centro,-8.698656,39.708305
25053890,São Miguel do Rio Torto e Rossio Ao Sul do Tejo,Médio Tejo,311,2025-03-07T15:48:00Z,25053890,Em conclusão,3301,Queda de árvore,0,3,0,6,2025-03-07T15:48:00Z,Abrantes,Santarém,Centro,-8.178763,39.421217
25054004,"S.julião, N.s. da Anunciada e S. Maria da Graça",Península de Setúbal,311,2025-03-07T16:08:00Z,25054004,Em despacho,3301,Queda de árvore,0,1,0,5,2025-03-07T16:08:00Z,Setúbal,Setúbal,Área Metropolitana De Lisboa,-8.889983,38.529955
25054104,Olhão,Algarve,313,2025-03-07T16:20:00Z,25054104,Em despacho,3329,Queda de estruturas temporárias ou móveis,0,1,0,2,2025-03-07T16:20:00Z,Olhão,Faro,Algarve,-7.843133,37.022054
25053908,"S.maria, S.miguel, S.martinho, S.pedro Penaferrim",Grande Lisboa,311,2025-03-07T15:48:00Z,25053908,Em curso,3301,Queda de árvore,0,1,0,4,2025-03-07T15:48:00Z,Sintra,Lisboa,Área Metropolitana De Lisboa,-9.380105,38.790996
25053973,Glória e Vera Cruz,Região de Aveiro,310,2025-03-07T16:08:00Z,25053973,Em curso,3301,Queda de árvore,0,1,0,2,2025-03-07T16:08:00Z,Aveiro,Aveiro,Centro,-8.647359,40.640643
25053974,Monchique,Algarve,313,2025-03-07T16:00:00Z,25053974,Em despacho,3313,Deslizamento de terras,0,1,0,3,2025-03-07T16:00:00Z,Monchique,Faro,Algarve,-8.589695,37.272914
25053975,Serzedo e Perosinho,Area M. Porto,309,2025-03-07T15:52:00Z,25053975,Em despacho,3301,Queda de árvore,0,1,0,4,2025-03-07T15:52:00Z,Vila Nova De Gaia,Porto,Norte,-8.616017,41.045992
25054008,Alcanede,Lezíria do Tejo,311,2025-03-07T16:13:00Z,25054008,Em conclusão,3301,Queda de árvore,0,1,0,4,2025-03-07T16:13:00Z,Santarém,Santarém,Alentejo,-8.793268,39.357442
25054009,Moita,Península de Setúbal,311,2025-03-07T16:05:00Z,25054009,Em despacho,3321,Dano na rede de fornecimento de eletricidade ,0,1,0,4,2025-03-07T16:05:00Z,Moita,Setúbal,Área Metropolitana De Lisboa,-8.985364,38.643702
25054010,Lagoa e Carvoeiro,Algarve,313,2025-03-07T16:04:00Z,25054010,Em curso,3301,Queda de árvore,0,1,0,3,2025-03-07T16:04:00Z,Lagoa,Faro,Algarve,-8.449174,37.102176
25054041,Lousã e Vilarinho,Região de Coimbra,310,2025-03-07T16:15:00Z,25054041,Em despacho,3315,Inundação de estruturas por precipitação intensa,0,1,0,2,2025-03-07T16:15:00Z,Lousã,Coimbra,Centro,-8.180017,40.090644
25054043,Ramalde,Area M. Porto,309,2025-03-07T16:19:00Z,25054043,Em despacho,3321,Dano na rede de fornecimento de eletricidade ,0,0,0,0,2025-03-07T16:19:00Z,Porto,Porto,Norte,-8.6417,41.17531
25054059,"Torres Novas (São Pedro), Lapas e Ribeira Branca",Médio Tejo,311,2025-03-07T16:21:00Z,25054059,Em despacho,3301,Queda de árvore,0,1,0,2,2025-03-07T16:21:00Z,Torres Novas,Santarém,Centro,-8.551616,39.496371
25054033,Gondufe,Alto Minho,309,2025-03-07T16:16:00Z,25054033,Em despacho,3301,Queda de árvore,0,1,0,2,2025-03-07T16:16:00Z,Ponte De Lima,Viana Do Castelo,Norte,-8.51798,41.767574
25054050,São Félix da Marinha,Area M. Porto,309,2025-03-07T16:12:00Z,25054050,Em despacho,3311,Queda de elementos de estruturas edificados,0,1,0,3,2025-03-07T16:12:00Z,Vila Nova De Gaia,Porto,Norte,-8.627823,41.034236
25054099,Zebreira e Segura,Beira Baixa,310,2025-03-07T16:29:00Z,25054099,Em despacho,3301,Queda de árvore,0,0,0,0,2025-03-07T16:29:00Z,Idanha-a-Nova,Castelo Branco,Centro,-7.03044,39.86177
25054060,"Aldoar, Foz do Douro e Nevogilde",Area M. Porto,309,2025-03-07T16:21:00Z,25054060,Em despacho,3311,Queda de elementos de estruturas edificados,0,1,0,3,2025-03-07T16:21:00Z,Porto,Porto,Norte,-8.672794,41.152891
25054090,Ílhavo (São Salvador),Região de Aveiro,310,2025-03-07T16:28:00Z,25054090,Em despacho,3301,Queda de árvore,0,0,0,0,2025-03-07T16:28:00Z,Ílhavo,Aveiro,Centro,-8.64684,40.58738
