id,address,subregion,neighborhood,date,id.1,state,nature,nature_description,aerial_means,terrestrial_means,aquatic_means,operational,date.1,Concelho,Distrito,NUTII_DSG,longitude,latitude
25571026,Frazão Arreigada,Tâmega e Sousa,309,2025-06-24T01:57:00Z,25571026,Em conclusão,3103,Incêndio rural,0,0,0,0,2025-06-24T01:57:00Z,Paços De Ferreira,Porto,Norte,-8.402613,41.244933
25571257,Macieira da Lixa e Caramos,Tâmega e Sousa,309,2025-06-24T04:30:00Z,25571257,Em conclusão,3103,Incêndio rural,0,0,0,0,2025-06-24T04:30:00Z,Felgueiras,Porto,Norte,-8.162558,41.335852
25571309,Mafamude e Vilar do Paraíso,Area M. Porto,309,2025-06-24T05:40:00Z,25571309,Em despacho,3103,Incêndio rural,0,2,0,7,2025-06-24T05:40:00Z,Vila Nova De Gaia,Porto,Norte,-8.62584,41.08684
25571344,"Almada, Cova da Piedade, Pragal e Cacilhas",Península de Setúbal,311,2025-06-24T06:02:00Z,25571344,Em despacho,3103,Incêndio rural,0,0,0,0,2025-06-24T06:02:00Z,Almada,Setúbal,Área Metropolitana De Lisboa,-9.164498,38.675268
25571290,"Cedofeita, Ildefonso, Sé, Miragaia, Nicolau e Vitória",Area M. Porto,309,2025-06-24T05:07:00Z,25571290,Em despacho,3201,Detritos não confinados,0,1,0,4,2025-06-24T05:07:00Z,Porto,Porto,Norte,-8.615939,41.15359
