id,address,subregion,neighborhood,date,id.1,state,nature,nature_description,aerial_means,terrestrial_means,aquatic_means,operational,date.1,Concelho,Distrito,NUTII_DSG,longitude,latitude
25057015,Santa Maria do Castelo e Santiago e Santa Susana,Alentejo Litoral,312,2025-03-08T10:20:00Z,25057015,Em curso,1101,Cheia,0,2,0,3,2025-03-08T10:20:00Z,Alcácer Do Sal,Setúbal,Alentejo,-8.432801,38.398147
25062800,Melides,Alentejo Litoral,312,2025-03-09T16:35:00Z,25062800,Em curso,1101,Cheia,0,4,0,6,2025-03-09T16:35:00Z,Grândola,Setúbal,Alentejo,-8.76281,38.13827
25063118,Paderne,Algarve,313,2025-03-09T18:24:00Z,25063118,Em despacho,3301,Queda de árvore,0,0,0,0,2025-03-09T18:24:00Z,Albufeira,Faro,Algarve,-8.21086,37.17849
25059714,Torrão,Alentejo Litoral,312,2025-03-08T22:10:00Z,25059714,Em curso,1101,Cheia,0,0,0,0,2025-03-08T22:10:00Z,Alcácer Do Sal,Setúbal,Alentejo,-8.359133,38.252053
25060596,Santo André,Alentejo Litoral,312,2025-03-09T07:42:00Z,25060596,Em curso,1101,Cheia,0,2,0,3,2025-03-09T07:42:00Z,Santiago Do Cacém,Setúbal,Alentejo,-8.766964,38.100976
25063122,"S.maria, S.miguel, S.martinho, S.pedro Penaferrim",Grande Lisboa,311,2025-03-09T18:15:00Z,25063122,Em despacho,3301,Queda de árvore,0,1,0,5,2025-03-09T18:15:00Z,Sintra,Lisboa,Área Metropolitana De Lisboa,-9.372641,38.788861
