id,address,subregion,neighborhood,date,id.1,state,nature,nature_description,aerial_means,terrestrial_means,aquatic_means,operational,date.1,Concelho,Distrito,NUTII_DSG,longitude,latitude
25580545,Candosa,Região de Coimbra,310,2025-06-25T23:34:00Z,25580545,Em conclusão,2301,Incêndio em transporte rodoviário,0,4,0,11,2025-06-25T23:34:00Z,Tábua,Coimbra,Centro,-7.974388,40.34456
25580430,Laundos,Area M. Porto,309,2025-06-25T22:49:00Z,25580430,Em conclusão,3103,Incêndio rural,0,0,0,0,2025-06-25T22:49:00Z,Póvoa De Varzim,Porto,Norte,-8.72895,41.441865
25580498,"Santa Iria de Azoia, São João da Talha e Bobadela",Grande Lisboa,311,2025-06-25T23:13:00Z,25580498,Em conclusão,3201,Detritos não confinados,0,3,0,9,2025-06-25T23:13:00Z,Loures,Lisboa,Área Metropolitana De Lisboa,-9.09398,38.823408
25580589,Lagoa e Carvoeiro,Algarve,313,2025-06-25T23:52:00Z,25580589,Em resolução,3103,Incêndio rural,0,5,0,18,2025-06-25T23:52:00Z,Lagoa,Faro,Algarve,-8.422313,37.138287
25580596,"Sandim, Olival, Lever e Crestuma",Area M. Porto,309,2025-06-25T23:50:00Z,25580596,Em conclusão,2101,Incêndio em edifícios habitacionais,0,6,0,18,2025-06-25T23:50:00Z,Vila Nova De Gaia,Porto,Norte,-8.493842,41.02543
25580612,Coura,Alto Minho,309,2025-06-26T00:01:00Z,25580612,Em conclusão,3101,Incêndio rural,0,1,0,5,2025-06-26T00:01:00Z,Paredes De Coura,Viana Do Castelo,Norte,-8.651933,41.888888
25580637,"Barcelos, V. Boa e V. Frescainha",Cávado,309,2025-06-25T23:55:00Z,25580637,Em conclusão,3201,Detritos não confinados,0,2,0,10,2025-06-25T23:55:00Z,Barcelos,Braga,Norte,-8.634022,41.543118
25580643,Silva Escura e Dornelas,Região de Aveiro,310,2025-06-26T00:17:00Z,25580643,Em curso,3201,Detritos não confinados,0,1,0,5,2025-06-26T00:17:00Z,Sever Do Vouga,Aveiro,Centro,-8.407672,40.754613
25580659,Gulpilhares e Valadares,Area M. Porto,309,2025-06-26T00:20:00Z,25580659,Em despacho,3103,Incêndio rural,0,2,0,7,2025-06-26T00:20:00Z,Vila Nova De Gaia,Porto,Norte,-8.635397,41.091832
