id,address,subregion,neighborhood,date,id.1,state,nature,nature_description,aerial_means,terrestrial_means,aquatic_means,operational,date.1,Concelho,Distrito,NUTII_DSG,longitude,latitude
25503556,Portela e Extremo,Alto Minho,309,2025-06-10T00:57:00Z,25503556,Em conclusão,3103,Incêndio rural,0,6,0,24,2025-06-10T00:57:00Z,Arcos De Valdevez,Viana Do Castelo,Norte,-8.464202,41.960325
25504093,Landim,Ave,309,2025-06-10T08:09:00Z,25504093,Em conclusão,2101,Incêndio em edifícios habitacionais,0,2,0,7,2025-06-10T08:09:00Z,Vila Nova De Famalicão,Braga,Norte,-8.47016,41.390687
25504050,Cibões e Brufe,Cávado,309,2025-06-10T07:52:00Z,25504050,Em despacho,3111,Queima,0,1,0,5,2025-06-10T07:52:00Z,Terras De Bouro,Braga,Norte,-8.26342,41.76663
25503979,Vieira de Leiria,Região de Leiria,310,2025-06-10T07:20:00Z,25503979,Em conclusão,2119,Incêndio em edifícios e recintos desportivos e de lazer,0,3,0,9,2025-06-10T07:20:00Z,Marinha Grande,Leiria,Centro,-8.965245,39.87512
25504047,Monte Redondo,Alto Minho,309,2025-06-10T07:50:00Z,25504047,Em curso,3103,Incêndio rural,0,1,0,3,2025-06-10T07:50:00Z,Arcos De Valdevez,Viana Do Castelo,Norte,-8.455758,41.829888
