id,address,subregion,neighborhood,date,id.1,state,nature,nature_description,aerial_means,terrestrial_means,aquatic_means,operational,date.1,Concelho,Distrito,NUTII_DSG,longitude,latitude,state_2
25832672,Piódão,Região de Coimbra,310,2025-08-13T05:08:00Z,25832672,Em Resolução/Conclusão,3103,Incêndio rural,0,0,0,0,2025-08-13T05:08:00Z,Arganil,Coimbra,Centro,-7.81972,40.23083,Resolução/Conclusão
25989850,Povolide,Viseu Dão Lafões,310,2025-09-14T16:49:00Z,25989850,Em Resolução/Conclusão,3103,Incêndio rural,0,1,0,5,2025-09-14T16:49:00Z,Viseu,Viseu,Centro,-7.785413,40.67811,Resolução/Conclusão
25993337,Folhadela,Douro,309,2025-09-15T12:03:00Z,25993337,Em Resolução/Conclusão,3103,Incêndio rural,0,6,0,16,2025-09-15T12:03:00Z,Vila Real,Vila Real,Norte,-7.727857,41.272708,Resolução/Conclusão
25993973,Santo André,Alto Tâmega e Barroso,309,2025-09-15T14:14:00Z,25993973,Em Resolução/Conclusão,3103,Incêndio rural,2,7,0,43,2025-09-15T14:14:00Z,Montalegre,Vila Real,Norte,-7.692303,41.87752,Resolução/Conclusão
25993263,Quirás e Pinheiro Novo,Terras de Trás-os-Montes,309,2025-09-15T11:48:00Z,25993263,Em Resolução/Conclusão,3103,Incêndio rural,0,18,0,61,2025-09-15T11:48:00Z,Vinhais,Bragança,Norte,-7.145422,41.911408,Resolução/Conclusão
25993463,Silvares,Beiras e Serra da Estrela,310,2025-09-15T12:29:00Z,25993463,Em Resolução/Conclusão,3103,Incêndio rural,0,9,0,28,2025-09-15T12:29:00Z,Fundão,Castelo Branco,Centro,-7.674648,40.143207,Resolução/Conclusão
25994115,Barcarena,Grande Lisboa,311,2025-09-15T14:38:00Z,25994115,Em Resolução/Conclusão,3103,Incêndio rural,0,3,0,15,2025-09-15T14:38:00Z,Oeiras,Lisboa,Área Metropolitana De Lisboa,-9.298614,38.7367,Resolução/Conclusão
25994215,Bombarral e Vale Covo,Oeste,311,2025-09-15T14:50:00Z,25994215,Em Resolução/Conclusão,3111,Queima,0,0,0,0,2025-09-15T14:50:00Z,Bombarral,Leiria,Centro,-9.188369,39.245543,Resolução/Conclusão
25994257,Malagueira e Horta Das Figueiras,Alentejo Central,312,2025-09-15T15:02:00Z,25994257,Em Despacho,3103,Incêndio rural,1,4,0,22,2025-09-15T15:02:00Z,Évora,Évora,Alentejo,-7.942578,38.581802,Despacho
25951176,Sandomil,Beiras e Serra da Estrela,310,2025-09-06T10:29:00Z,25951176,Em Resolução/Conclusão,3103,Incêndio rural,0,6,0,30,2025-09-06T10:29:00Z,Seia,Guarda,Centro,-7.76001,40.351547,Resolução/Conclusão
25989064,Vila de Rei,Beira Baixa,310,2025-09-14T13:32:00Z,25989064,Em Resolução/Conclusão,3101,Incêndio rural,0,7,0,24,2025-09-14T13:32:00Z,Vila De Rei,Castelo Branco,Centro,-8.152412,39.660802,Resolução/Conclusão
25993557,Silvares,Beiras e Serra da Estrela,310,2025-09-15T12:43:00Z,25993557,Em Resolução/Conclusão,3103,Incêndio rural,0,0,0,0,2025-09-15T12:43:00Z,Covilhã,Castelo Branco,Centro,-7.675428,40.138862,Resolução/Conclusão
25980131,Carva e Vilares,Douro,309,2025-09-12T14:27:00Z,25980131,Em Resolução/Conclusão,3103,Incêndio rural,0,17,0,54,2025-09-12T14:27:00Z,Murça,Vila Real,Norte,-7.55901,41.401343,Resolução/Conclusão
25980930,Santo André Das Tojeiras,Beira Baixa,310,2025-09-12T17:08:00Z,25980930,Em Resolução/Conclusão,3101,Incêndio rural,0,1,0,5,2025-09-12T17:08:00Z,Castelo Branco,Castelo Branco,Centro,-7.72701,39.809058,Resolução/Conclusão
25990708,Vialonga,Grande Lisboa,311,2025-09-14T20:34:00Z,25990708,Em Resolução/Conclusão,3103,Incêndio rural,0,1,0,5,2025-09-14T20:34:00Z,Vila Franca De Xira,Lisboa,Área Metropolitana De Lisboa,-9.07461,38.888188,Resolução/Conclusão
25993733,Covilhã e Canhoso,Beiras e Serra da Estrela,310,2025-09-15T13:28:00Z,25993733,Em Resolução/Conclusão,3103,Incêndio rural,0,7,0,20,2025-09-15T13:28:00Z,Covilhã,Castelo Branco,Centro,-7.482463,40.263355,Resolução/Conclusão
25994117,Fortios,Alto Alentejo,312,2025-09-15T14:38:00Z,25994117,Em Curso,3103,Incêndio rural,3,24,0,100,2025-09-15T14:38:00Z,Portalegre,Portalegre,Alentejo,-7.466533,39.283056,Curso
