id,address,subregion,neighborhood,date,id.1,state,nature,nature_description,aerial_means,terrestrial_means,aquatic_means,operational,date.1,Concelho,Distrito,NUTII_DSG,longitude,latitude
25059714,Torrão,Alentejo Litoral,312,2025-03-08T22:10:00Z,25059714,Em curso,1101,Cheia,0,1,0,2,2025-03-08T22:10:00Z,Alcácer Do Sal,Setúbal,Alentejo,-8.359133,38.252053
25070044,Praia do Ribatejo,Médio Tejo,311,2025-03-10T19:30:00Z,25070044,Em curso,1101,Cheia,0,0,0,0,2025-03-10T19:30:00Z,Vila Nova Da Barquinha,Santarém,Centro,-8.357309,39.485638
25071496,São Manços e São Vicente do Pigeiro,Alentejo Central,312,2025-03-11T13:18:00Z,25071496,Em curso,1101,Cheia,0,2,0,4,2025-03-11T13:18:00Z,Évora,Évora,Alentejo,-7.713313,38.513673
25096986,São Teotónio,Alentejo Litoral,312,2025-03-16T22:54:00Z,25096986,Em resolução,3309,Desabamento de estruturas edificadas,0,0,0,0,2025-03-16T22:54:00Z,Odemira,Beja,Alentejo,-8.803445,37.599856
25101128,São Marcos da Serra,Algarve,313,2025-03-17T18:27:00Z,25101128,Em resolução,3313,Deslizamento de terras,0,3,0,6,2025-03-17T18:27:00Z,Silves,Faro,Algarve,-8.358714,37.371558
25101162,Lagos (São Sebastião e Santa Maria),Algarve,313,2025-03-17T18:20:00Z,25101162,Em despacho,3315,Inundação de estruturas por precipitação intensa,0,1,0,2,2025-03-17T18:20:00Z,Lagos,Faro,Algarve,-8.668524,37.100485
25068300,Almeirim,Lezíria do Tejo,311,2025-03-10T20:52:00Z,25068300,Em curso,1101,Cheia,0,0,0,0,2025-03-10T20:52:00Z,Almeirim,Santarém,Alentejo,-8.635002,39.187436
25087870,Luzianes-Gare,Alentejo Litoral,312,2025-03-14T18:49:00Z,25087870,Em despacho,3313,Deslizamento de terras,0,1,0,1,2025-03-14T18:49:00Z,Odemira,Beja,Alentejo,-8.48633,37.589522
25096664,Santa Maria do Castelo e Santiago e Santa Susana,Alentejo Litoral,312,2025-03-16T20:53:00Z,25096664,Em resolução,1101,Cheia,0,1,0,1,2025-03-16T20:53:00Z,Alcácer Do Sal,Setúbal,Alentejo,-8.390827,38.447443
25101260,São Bartolomeu de Messines,Algarve,313,2025-03-17T18:47:00Z,25101260,Em curso,3313,Deslizamento de terras,0,2,0,5,2025-03-17T18:47:00Z,Silves,Faro,Algarve,-8.295385,37.254765
25101317,Silves,Algarve,313,2025-03-17T18:59:00Z,25101317,Em conclusão,3309,Desabamento de estruturas edificadas,0,2,0,5,2025-03-17T18:59:00Z,Silves,Faro,Algarve,-8.443919,37.192295
25101376,Monchique,Algarve,313,2025-03-17T19:20:00Z,25101376,Em despacho,3301,Queda de árvore,0,1,0,3,2025-03-17T19:20:00Z,Monchique,Faro,Algarve,-8.567422,37.320753
25087162,Pedrógão,Baixo Alentejo,312,2025-03-14T17:00:00Z,25087162,Em curso,1101,Cheia,0,1,0,2,2025-03-14T17:00:00Z,Vidigueira,Beja,Alentejo,-7.630327,38.110775
25101482,Mexilhoeira Grande,Algarve,313,2025-03-17T18:12:00Z,25101482,Em despacho,3313,Deslizamento de terras,0,1,0,2,2025-03-17T18:12:00Z,Portimão,Faro,Algarve,-8.617177,37.162879
25063232,Santa Maria do Castelo e Santiago e Santa Susana,Alentejo Litoral,312,2025-03-09T19:02:00Z,25063232,Em conclusão,1101,Cheia,0,0,0,0,2025-03-09T19:02:00Z,Alcácer Do Sal,Setúbal,Alentejo,-8.48167,38.29806
25100453,Alpiarça,Lezíria do Tejo,311,2025-03-17T16:03:00Z,25100453,Em resolução,3315,Inundação de estruturas por precipitação intensa,0,1,0,2,2025-03-17T16:03:00Z,Alpiarça,Santarém,Alentejo,-8.595402,39.262022
25100935,São Bartolomeu de Messines,Algarve,313,2025-03-17T17:39:00Z,25100935,Em conclusão,3315,Inundação de estruturas por precipitação intensa,0,0,0,0,2025-03-17T17:39:00Z,Silves,Faro,Algarve,-8.324695,37.255622
25101139,Santana da Serra,Baixo Alentejo,312,2025-03-17T18:30:00Z,25101139,Em resolução,3315,Inundação de estruturas por precipitação intensa,0,4,0,6,2025-03-17T18:30:00Z,Ourique,Beja,Alentejo,-8.323558,37.452058
25101288,Monchique,Algarve,313,2025-03-17T18:59:00Z,25101288,Em despacho,3313,Deslizamento de terras,0,1,0,1,2025-03-17T18:59:00Z,Monchique,Faro,Algarve,-8.567422,37.320753
25101337,Pinhal Novo,Península de Setúbal,311,2025-03-17T19:06:00Z,25101337,Em despacho,3315,Inundação de estruturas por precipitação intensa,0,1,0,3,2025-03-17T19:06:00Z,Palmela,Setúbal,Área Metropolitana De Lisboa,-8.898349,38.639295
