id,address,subregion,neighborhood,date,id.1,state,nature,nature_description,aerial_means,terrestrial_means,aquatic_means,operational,date.1,Concelho,Distrito,NUTII_DSG,longitude,latitude,state_2
26153629,Ventosa e Cova,Ave,309,2025-10-18T01:49:00Z,26153629,Em Resolução/Conclusão,3103,Incêndio rural,0,2,0,7,2025-10-18T01:49:00Z,Vieira Do Minho,Braga,Norte,-8.155333,41.672683,Resolução/Conclusão
26153832,"Santa Maria da Feira, Travanca, Sanfins e Espargo",Area M. Porto,309,2025-10-18T04:47:00Z,26153832,Em Despacho,3103,Incêndio rural,0,1,0,4,2025-10-18T04:47:00Z,Santa Maria Da Feira,Aveiro,Norte,-8.581871,40.921868,Despacho
26153644,Senharei,Alto Minho,309,2025-10-18T02:03:00Z,26153644,Em Curso,3103,Incêndio rural,0,1,0,3,2025-10-18T02:03:00Z,Arcos De Valdevez,Viana Do Castelo,Norte,-8.470922,41.8851,Curso
26153688,"O. Azeméis, Riba-Ul, Ul, Macinhata Seixa, Madail",Area M. Porto,309,2025-10-18T02:32:00Z,26153688,Em Resolução/Conclusão,3101,Incêndio rural,0,4,0,16,2025-10-18T02:32:00Z,Oliveira De Azeméis,Aveiro,Norte,-8.505532,40.854747,Resolução/Conclusão
26153689,"Pinheiro da Bemposta, Travanca e Palmaz",Area M. Porto,309,2025-10-18T02:42:00Z,26153689,Em Resolução/Conclusão,3103,Incêndio rural,0,3,0,9,2025-10-18T02:42:00Z,Oliveira De Azeméis,Aveiro,Norte,-8.505233,40.784895,Resolução/Conclusão
26153820,Maceda,Região de Aveiro,310,2025-10-18T04:33:00Z,26153820,Em Despacho,3103,Incêndio rural,0,1,0,5,2025-10-18T04:33:00Z,Ovar,Aveiro,Centro,-8.614021,40.935245,Despacho
