id,address,subregion,neighborhood,date,id.1,state,nature,nature_description,aerial_means,terrestrial_means,aquatic_means,operational,date.1,Concelho,Distrito,NUTII_DSG,longitude,latitude,state_2
25832672,Piódão,Região de Coimbra,310,2025-08-13T05:08:00Z,25832672,Em Resolução/Conclusão,3103,Incêndio rural,0,0,0,0,2025-08-13T05:08:00Z,Arganil,Coimbra,Centro,-7.81972,40.23083,Resolução/Conclusão
26013902,Penacova,Região de Coimbra,310,2025-09-19T13:28:00Z,26013902,Em Resolução/Conclusão,3103,Incêndio rural,0,5,0,14,2025-09-19T13:28:00Z,Penacova,Coimbra,Centro,-8.32583,40.32722,Resolução/Conclusão
26016785,Gralhas,Alto Tâmega e Barroso,309,2025-09-20T01:20:00Z,26016785,Em Resolução/Conclusão,3103,Incêndio rural,0,56,0,201,2025-09-20T01:20:00Z,Montalegre,Vila Real,Norte,-7.720897,41.880163,Resolução/Conclusão
26019877,Guardão,Viseu Dão Lafões,310,2025-09-20T17:50:00Z,26019877,Em Resolução/Conclusão,3103,Incêndio rural,0,6,0,22,2025-09-20T17:50:00Z,Tondela,Viseu,Centro,-8.148484,40.610274,Resolução/Conclusão
26024055,Antas,Cávado,309,2025-09-21T16:22:00Z,26024055,Em Curso,3103,Incêndio rural,1,3,0,21,2025-09-21T16:22:00Z,Esposende,Braga,Norte,-8.769889,41.599747,Curso
26024064,Cimo de Vila da Castanheira,Alto Tâmega e Barroso,309,2025-09-21T16:22:00Z,26024064,Em Despacho,3103,Incêndio rural,1,5,0,30,2025-09-21T16:22:00Z,Chaves,Vila Real,Norte,-7.294467,41.810837,Despacho
25951176,Sandomil,Beiras e Serra da Estrela,310,2025-09-06T10:29:00Z,25951176,Em Resolução/Conclusão,3103,Incêndio rural,0,2,0,10,2025-09-06T10:29:00Z,Seia,Guarda,Centro,-7.76001,40.351547,Resolução/Conclusão
26020631,"Tavares (Chãs, Várzea e Travanca)",Viseu Dão Lafões,310,2025-09-20T21:15:00Z,26020631,Em Resolução/Conclusão,3103,Incêndio rural,0,1,0,5,2025-09-20T21:15:00Z,Mangualde,Viseu,Centro,-7.639468,40.609133,Resolução/Conclusão
26023007,Viade de Baixo e Fervidelas,Alto Tâmega e Barroso,309,2025-09-21T12:25:00Z,26023007,Em Resolução/Conclusão,3103,Incêndio rural,0,2,0,8,2025-09-21T12:25:00Z,Montalegre,Vila Real,Norte,-7.82553,41.732438,Resolução/Conclusão
26023742,Nadadouro,Oeste,311,2025-09-21T15:07:00Z,26023742,Em Resolução/Conclusão,3101,Incêndio rural,0,14,0,51,2025-09-21T15:07:00Z,Caldas Da Rainha,Leiria,Centro,-9.189082,39.41462,Resolução/Conclusão
26023772,Rossas,Ave,309,2025-09-21T15:12:00Z,26023772,Em Curso,3103,Incêndio rural,2,11,0,56,2025-09-21T15:12:00Z,Vieira Do Minho,Braga,Norte,-8.091527,41.58864,Curso
26023993,Castro Marim,Algarve,313,2025-09-21T16:04:00Z,26023993,Em Resolução/Conclusão,3103,Incêndio rural,1,7,0,33,2025-09-21T16:04:00Z,Vila Real De Santo António,Faro,Algarve,-7.535302,37.24853,Resolução/Conclusão
26003298,Barreiros e Cepões,Viseu Dão Lafões,310,2025-09-17T12:05:00Z,26003298,Em Resolução/Conclusão,3101,Incêndio rural,0,1,0,2,2025-09-17T12:05:00Z,Viseu,Viseu,Centro,-7.825281,40.745844,Resolução/Conclusão
26013065,Mezio e Moura Morta,Viseu Dão Lafões,310,2025-09-19T11:05:00Z,26013065,Em Resolução/Conclusão,3103,Incêndio rural,1,32,0,161,2025-09-19T11:05:00Z,Castro Daire,Viseu,Centro,-7.878187,40.98632,Resolução/Conclusão
26013919,Ervedal e Vila Franca da Beira,Região de Coimbra,310,2025-09-19T13:25:00Z,26013919,Em Resolução/Conclusão,3103,Incêndio rural,1,23,0,82,2025-09-19T13:25:00Z,Oliveira Do Hospital,Coimbra,Centro,-7.90472,40.43917,Resolução/Conclusão
26022857,NA,NA,0,2025-09-21T08:20:00Z,26022857,Em Curso,3103,Incêndio rural,0,5,0,15,2025-09-21T08:20:00Z,NA,NA,NA,-8.10654,41.86587,Curso
26013405,Barreiros e Cepões,Viseu Dão Lafões,310,2025-09-19T11:56:00Z,26013405,Em Resolução/Conclusão,3103,Incêndio rural,0,9,0,36,2025-09-19T11:56:00Z,Viseu,Viseu,Centro,-7.786007,40.76602,Resolução/Conclusão
26022995,Bordeira,Algarve,313,2025-09-21T12:21:00Z,26022995,Em Curso,3103,Incêndio rural,8,117,0,345,2025-09-21T12:21:00Z,Aljezur,Faro,Algarve,-8.825374,37.23495,Curso
26023264,Arnóia,Tâmega e Sousa,309,2025-09-21T13:33:00Z,26023264,Em Resolução/Conclusão,3103,Incêndio rural,0,7,0,25,2025-09-21T13:33:00Z,Celorico De Basto,Braga,Norte,-8.005322,41.357533,Resolução/Conclusão
26023566,Infias,Ave,309,2025-09-21T14:34:00Z,26023566,Em Resolução/Conclusão,3103,Incêndio rural,0,5,0,15,2025-09-21T14:34:00Z,Vizela,Braga,Norte,-8.313485,41.399695,Resolução/Conclusão
26024116,Termas de São Vicente,Tâmega e Sousa,309,2025-09-21T16:38:00Z,26024116,Em Despacho,3103,Incêndio rural,0,1,0,5,2025-09-21T16:38:00Z,Penafiel,Porto,Norte,-8.31579,41.11538,Despacho
