id,address,subregion,neighborhood,date,id.1,state,nature,nature_description,aerial_means,terrestrial_means,aquatic_means,operational,date.1,Concelho,Distrito,NUTII_DSG,longitude,latitude
25485959,Póvoa de São Miguel,Baixo Alentejo,312,2025-06-06T13:18:00Z,25485959,Em conclusão,3105,Incêndio rural,0,0,0,0,2025-06-06T13:18:00Z,Moura,Beja,Alentejo,-7.34096,38.226317
25486174,Monsanto e Idanha-a-Velha,Beira Baixa,310,2025-06-06T14:09:00Z,25486174,Em conclusão,3103,Incêndio rural,0,9,0,29,2025-06-06T14:09:00Z,Idanha-a-Nova,Castelo Branco,Centro,-7.109505,40.022182
25486449,Faro (Sé e São Pedro),Algarve,313,2025-06-06T14:56:00Z,25486449,Em conclusão,3201,Detritos não confinados,0,4,0,10,2025-06-06T14:56:00Z,Faro,Faro,Algarve,-7.91773,37.01212
25486881,"Oeiras e S. Julião da Barra, Paço de Arcos e Caxias",Grande Lisboa,311,2025-06-06T16:17:00Z,25486881,Em conclusão,3103,Incêndio rural,0,0,0,0,2025-06-06T16:17:00Z,Oeiras,Lisboa,Área Metropolitana De Lisboa,-9.29778,38.70472
25486890,Samouco,Península de Setúbal,311,2025-06-06T16:20:00Z,25486890,Em despacho,3107,Consolidação de rescaldo de incêndio rural,0,1,0,5,2025-06-06T16:20:00Z,Alcochete,Setúbal,Área Metropolitana De Lisboa,-9.006298,38.728442
25486917,Caparica e Trafaria,Península de Setúbal,311,2025-06-06T16:21:00Z,25486917,Em despacho,3201,Detritos não confinados,0,1,0,5,2025-06-06T16:21:00Z,Almada,Setúbal,Área Metropolitana De Lisboa,-9.231582,38.671372
25486557,Montemor-o-Velho e Gatões,Região de Coimbra,310,2025-06-06T15:19:00Z,25486557,Em resolução,2101,Incêndio em edifícios habitacionais,0,3,0,12,2025-06-06T15:19:00Z,Montemor-o-Velho,Coimbra,Centro,-8.696843,40.198246
25486753,Azambuja,Lezíria do Tejo,311,2025-06-06T15:57:00Z,25486753,Em conclusão,2301,Incêndio em transporte rodoviário,0,5,0,13,2025-06-06T15:57:00Z,Azambuja,Lisboa,Alentejo,-8.93022,39.09086
25486787,Barreiro e Lavradio,Península de Setúbal,311,2025-06-06T16:06:00Z,25486787,Em conclusão,3103,Incêndio rural,0,2,0,10,2025-06-06T16:06:00Z,Barreiro,Setúbal,Área Metropolitana De Lisboa,-9.062184,38.667355
