id,address,subregion,neighborhood,date,id.1,state,nature,nature_description,aerial_means,terrestrial_means,aquatic_means,operational,date.1,Concelho,Distrito,NUTII_DSG,longitude,latitude,state_2
25750701,Capela,Tâmega e Sousa,309,2025-07-29T09:26:00Z,25750701,Em Resolução/Conclusão,3103,Incêndio rural,0,9,0,32,2025-07-29T09:26:00Z,Penafiel,Porto,Norte,-8.345202,41.09353,Resolução/Conclusão
25773830,Andrães,Douro,309,2025-08-02T14:23:00Z,25773830,Em Resolução/Conclusão,3103,Incêndio rural,0,42,0,138,2025-08-02T14:23:00Z,Vila Real,Vila Real,Norte,-7.671293,41.267593,Resolução/Conclusão
25774883,Arnóia,Tâmega e Sousa,309,2025-08-02T18:20:00Z,25774883,Em Resolução/Conclusão,3103,Incêndio rural,2,90,0,262,2025-08-02T18:20:00Z,Celorico De Basto,Braga,Norte,-7.998983,41.348727,Resolução/Conclusão
25775734,Sequeiros e Gradiz,Viseu Dão Lafões,310,2025-08-02T21:35:00Z,25775734,Em Resolução/Conclusão,3103,Incêndio rural,0,1,0,2,2025-08-02T21:35:00Z,Aguiar Da Beira,Guarda,Centro,-7.564515,40.858278,Resolução/Conclusão
25781884,Graça,Região de Leiria,310,2025-08-04T04:33:00Z,25781884,Em Resolução/Conclusão,3101,Incêndio rural,0,3,0,4,2025-08-04T04:33:00Z,Pedrógão Grande,Leiria,Centro,-8.204434,39.895198,Resolução/Conclusão
25784427,"Perafita, Lavra e Santa Cruz do Bispo",Area M. Porto,309,2025-08-04T13:47:00Z,25784427,Em Resolução/Conclusão,3103,Incêndio rural,0,2,0,7,2025-08-04T13:47:00Z,Matosinhos,Porto,Norte,-8.697254,41.226608,Resolução/Conclusão
25784558,Portela e Extremo,Alto Minho,309,2025-08-04T14:10:00Z,25784558,Em Resolução/Conclusão,3103,Incêndio rural,0,6,0,21,2025-08-04T14:10:00Z,Arcos De Valdevez,Viana Do Castelo,Norte,-8.473775,41.956602,Resolução/Conclusão
25785063,Duas Igrejas,Area M. Porto,309,2025-08-04T15:20:00Z,25785063,Em Resolução/Conclusão,3103,Incêndio rural,0,4,0,17,2025-08-04T15:20:00Z,Paredes,Porto,Norte,-8.370367,41.222178,Resolução/Conclusão
25785162,Rendufe,Cávado,309,2025-08-04T15:44:00Z,25785162,Em Resolução/Conclusão,3103,Incêndio rural,0,0,0,0,2025-08-04T15:44:00Z,Amares,Braga,Norte,-8.406845,41.623125,Resolução/Conclusão
25785329,Caíde de Rei,Tâmega e Sousa,309,2025-08-04T16:20:00Z,25785329,Em Resolução/Conclusão,3103,Incêndio rural,0,2,0,10,2025-08-04T16:20:00Z,Lousada,Porto,Norte,-8.220153,41.274343,Resolução/Conclusão
25785662,Urgezes,Ave,309,2025-08-04T17:20:00Z,25785662,Em Resolução/Conclusão,3103,Incêndio rural,0,4,0,17,2025-08-04T17:20:00Z,Guimarães,Braga,Norte,-8.28556,41.42424,Resolução/Conclusão
25763650,Milagres,Região de Leiria,310,2025-07-31T15:58:00Z,25763650,Em Resolução/Conclusão,3101,Incêndio rural,0,1,0,2,2025-07-31T15:58:00Z,Leiria,Leiria,Centro,-8.792217,39.793427,Resolução/Conclusão
25781305,Tamel (Santa Leocádia) e Vilar do Monte,Cávado,309,2025-08-03T23:17:00Z,25781305,Em Resolução/Conclusão,3103,Incêndio rural,0,4,0,11,2025-08-03T23:17:00Z,Barcelos,Braga,Norte,-8.66043,41.566023,Resolução/Conclusão
25782109,Monte e Queimadela,Ave,309,2025-08-04T07:12:00Z,25782109,Em Resolução/Conclusão,3103,Incêndio rural,1,4,0,22,2025-08-04T07:12:00Z,Fafe,Braga,Norte,-8.133707,41.507367,Resolução/Conclusão
25784106,Negrelos (São Tomé),Area M. Porto,309,2025-08-04T12:50:00Z,25784106,Em Resolução/Conclusão,3103,Incêndio rural,0,1,0,5,2025-08-04T12:50:00Z,Santo Tirso,Porto,Norte,-8.406756,41.347422,Resolução/Conclusão
25784172,Lagoa,Terras de Trás-os-Montes,309,2025-08-04T13:01:00Z,25784172,Em Resolução/Conclusão,3103,Incêndio rural,0,4,0,10,2025-08-04T13:01:00Z,Macedo De Cavaleiros,Bragança,Norte,-6.771173,41.446867,Resolução/Conclusão
25784329,Vilar da Veiga,Cávado,309,2025-08-04T13:40:00Z,25784329,Em Resolução/Conclusão,3103,Incêndio rural,0,6,0,18,2025-08-04T13:40:00Z,Terras De Bouro,Braga,Norte,-8.151667,41.750973,Resolução/Conclusão
25784449,Lustosa e Barrosas (Santo Estêvão),Tâmega e Sousa,309,2025-08-04T13:51:00Z,25784449,Em Resolução/Conclusão,3103,Incêndio rural,0,6,0,16,2025-08-04T13:51:00Z,Lousada,Porto,Norte,-8.311747,41.327727,Resolução/Conclusão
25785031,Faíl e Vila Chã de Sá,Viseu Dão Lafões,310,2025-08-04T15:23:00Z,25785031,Em Resolução/Conclusão,3103,Incêndio rural,0,14,0,53,2025-08-04T15:23:00Z,Viseu,Viseu,Centro,-7.987987,40.601503,Resolução/Conclusão
25785117,Caldas de São Jorge e Pigeiros,Area M. Porto,309,2025-08-04T15:39:00Z,25785117,Em Resolução/Conclusão,3103,Incêndio rural,0,4,0,17,2025-08-04T15:39:00Z,Santa Maria Da Feira,Aveiro,Norte,-8.499524,40.95711,Resolução/Conclusão
25785308,"Bagunte, Ferreiró, Outeiro Maior e Parada",Area M. Porto,309,2025-08-04T16:11:00Z,25785308,Em Resolução/Conclusão,3103,Incêndio rural,0,3,0,7,2025-08-04T16:11:00Z,Vila Do Conde,Porto,Norte,-8.67908,41.356603,Resolução/Conclusão
25785517,Asseiceira,Médio Tejo,311,2025-08-04T16:54:00Z,25785517,Em Resolução/Conclusão,3103,Incêndio rural,0,1,0,5,2025-08-04T16:54:00Z,Tomar,Santarém,Centro,-8.403625,39.509738,Resolução/Conclusão
25785774,Asseiceira,Médio Tejo,311,2025-08-04T17:36:00Z,25785774,Em Resolução/Conclusão,3103,Incêndio rural,0,11,0,33,2025-08-04T17:36:00Z,Tomar,Santarém,Centro,-8.39047,39.512777,Resolução/Conclusão
25785844,Caparica e Trafaria,Península de Setúbal,311,2025-08-04T17:57:00Z,25785844,Em Resolução/Conclusão,3103,Incêndio rural,1,9,0,37,2025-08-04T17:57:00Z,Almada,Setúbal,Área Metropolitana De Lisboa,-9.22772,38.66263,Resolução/Conclusão
25738747,Lindoso,Alto Minho,309,2025-07-26T21:47:00Z,25738747,Em Resolução/Conclusão,3103,Incêndio rural,0,113,0,300,2025-07-26T21:47:00Z,Ponte Da Barca,Viana Do Castelo,Norte,-8.220528,41.865272,Resolução/Conclusão
25747773,Aranhas,Beira Baixa,310,2025-07-28T16:36:00Z,25747773,Em Resolução/Conclusão,3103,Incêndio rural,0,3,0,8,2025-07-28T16:36:00Z,Penamacor,Castelo Branco,Centro,-7.14438,40.117542,Resolução/Conclusão
25752083,Alcanede,Lezíria do Tejo,311,2025-07-29T13:12:00Z,25752083,Em Resolução/Conclusão,3103,Incêndio rural,0,0,0,0,2025-07-29T13:12:00Z,Santarém,Santarém,Alentejo,-8.802682,39.405543,Resolução/Conclusão
25775263,Torgueda,Douro,309,2025-08-02T19:49:00Z,25775263,Em Resolução/Conclusão,3101,Incêndio rural,0,11,0,38,2025-08-02T19:49:00Z,Vila Real,Vila Real,Norte,-7.785983,41.274952,Resolução/Conclusão
25778337,Senhorim,Viseu Dão Lafões,310,2025-08-03T11:59:00Z,25778337,Em Resolução/Conclusão,3103,Incêndio rural,0,0,0,0,2025-08-03T11:59:00Z,Nelas,Viseu,Centro,-7.825723,40.54384,Resolução/Conclusão
25780418,Pias,Alto Minho,309,2025-08-03T19:32:00Z,25780418,Em Resolução/Conclusão,3103,Incêndio rural,0,7,0,16,2025-08-03T19:32:00Z,Monção,Viana Do Castelo,Norte,-8.529693,42.015753,Resolução/Conclusão
25780604,Rio Frio,Alto Minho,309,2025-08-03T20:13:00Z,25780604,Em Curso,3103,Incêndio rural,2,20,0,61,2025-08-03T20:13:00Z,Arcos De Valdevez,Viana Do Castelo,Norte,-8.492232,41.868325,Curso
25781822,São Gens,Ave,309,2025-08-04T03:44:00Z,25781822,Em Resolução/Conclusão,3103,Incêndio rural,1,35,0,112,2025-08-04T03:44:00Z,Fafe,Braga,Norte,-8.101607,41.44259,Resolução/Conclusão
25748118,Canelas e Espiunca,Area M. Porto,309,2025-07-28T17:16:00Z,25748118,Em Resolução/Conclusão,3101,Incêndio rural,0,30,0,77,2025-07-28T17:16:00Z,Arouca,Aveiro,Norte,-8.212231,40.969918,Resolução/Conclusão
25749320,Rebordões (Santa Maria),Alto Minho,309,2025-07-28T22:47:00Z,25749320,Em Resolução/Conclusão,3103,Incêndio rural,0,1,0,1,2025-07-28T22:47:00Z,Ponte De Lima,Viana Do Castelo,Norte,-8.588365,41.729993,Resolução/Conclusão
25749641,Silva Escura e Dornelas,Região de Aveiro,310,2025-07-29T01:02:00Z,25749641,Em Resolução/Conclusão,3101,Incêndio rural,0,5,0,22,2025-07-29T01:02:00Z,Sever Do Vouga,Aveiro,Centro,-8.399623,40.769354,Resolução/Conclusão
25756006,Pinhanços,Beiras e Serra da Estrela,310,2025-07-30T09:07:00Z,25756006,Em Resolução/Conclusão,3103,Incêndio rural,0,1,0,5,2025-07-30T09:07:00Z,Seia,Guarda,Centro,-7.708132,40.473517,Resolução/Conclusão
25776263,"Pena, Quintã e Vila Cova",Douro,309,2025-08-02T23:45:00Z,25776263,Em Curso,3103,Incêndio rural,8,164,0,510,2025-08-02T23:45:00Z,Vila Real,Vila Real,Norte,-7.811902,41.317355,Curso
25779639,Senhorim,Viseu Dão Lafões,310,2025-08-03T16:28:00Z,25779639,Em Resolução/Conclusão,3103,Incêndio rural,0,2,0,6,2025-08-03T16:28:00Z,Nelas,Viseu,Centro,-7.81226,40.511713,Resolução/Conclusão
25781308,Beiral do Lima,Alto Minho,309,2025-08-03T23:18:00Z,25781308,Em Resolução/Conclusão,3103,Incêndio rural,0,3,0,6,2025-08-03T23:18:00Z,Ponte De Lima,Viana Do Castelo,Norte,-8.480692,41.758943,Resolução/Conclusão
25783717,Cunha Baixa,Viseu Dão Lafões,310,2025-08-04T11:48:00Z,25783717,Em Resolução/Conclusão,3101,Incêndio rural,0,8,0,26,2025-08-04T11:48:00Z,Mangualde,Viseu,Centro,-7.764411,40.559738,Resolução/Conclusão
25784751,"São Pedro do Sul, Várzea e Baiões",Viseu Dão Lafões,310,2025-08-04T14:36:00Z,25784751,Em Resolução/Conclusão,3103,Incêndio rural,0,1,0,1,2025-08-04T14:36:00Z,São Pedro Do Sul,Viseu,Centro,-8.098667,40.75791,Resolução/Conclusão
25784785,Fregim,Tâmega e Sousa,309,2025-08-04T14:43:00Z,25784785,Em Resolução/Conclusão,3103,Incêndio rural,0,4,0,17,2025-08-04T14:43:00Z,Amarante,Porto,Norte,-8.13145,41.27191,Resolução/Conclusão
25783846,"Provesende, Gouvães Douro, S.cristóvão Douro",Douro,309,2025-08-04T12:08:00Z,25783846,Em Resolução/Conclusão,3103,Incêndio rural,0,3,0,12,2025-08-04T12:08:00Z,Sabrosa,Vila Real,Norte,-7.569948,41.205103,Resolução/Conclusão
25784337,"Veade, Gagos e Molares",Tâmega e Sousa,309,2025-08-04T13:36:00Z,25784337,Em Resolução/Conclusão,3103,Incêndio rural,0,1,0,2,2025-08-04T13:36:00Z,Celorico De Basto,Braga,Norte,-7.989476,41.42279,Resolução/Conclusão
25784639,Alvite,Douro,309,2025-08-04T14:19:00Z,25784639,Em Resolução/Conclusão,3103,Incêndio rural,0,3,0,12,2025-08-04T14:19:00Z,Moimenta Da Beira,Viseu,Norte,-7.710325,40.981452,Resolução/Conclusão
25784932,Vila Boa de Quires e Maureles,Tâmega e Sousa,309,2025-08-04T15:05:00Z,25784932,Em Resolução/Conclusão,3103,Incêndio rural,0,5,0,16,2025-08-04T15:05:00Z,Marco De Canaveses,Porto,Norte,-8.210305,41.183845,Resolução/Conclusão
25784984,Vila Flor e Nabo,Terras de Trás-os-Montes,309,2025-08-04T15:13:00Z,25784984,Em Resolução/Conclusão,3103,Incêndio rural,0,3,0,9,2025-08-04T15:13:00Z,Vila Flor,Bragança,Norte,-7.150475,41.312447,Resolução/Conclusão
25785084,Vade,Cávado,309,2025-08-04T15:35:00Z,25785084,Em Resolução/Conclusão,3103,Incêndio rural,0,4,0,13,2025-08-04T15:35:00Z,Vila Verde,Braga,Norte,-8.407063,41.712585,Resolução/Conclusão
25785166,Correlhã,Alto Minho,309,2025-08-04T15:49:00Z,25785166,Em Resolução/Conclusão,3103,Incêndio rural,0,4,0,13,2025-08-04T15:49:00Z,Ponte De Lima,Viana Do Castelo,Norte,-8.607378,41.735812,Resolução/Conclusão
25785214,Ferreira do Alentejo e Canhestros,Baixo Alentejo,312,2025-08-04T15:57:00Z,25785214,Em Resolução/Conclusão,3105,Incêndio rural,0,0,0,0,2025-08-04T15:57:00Z,Ferreira Do Alentejo,Beja,Alentejo,-8.29024,38.029573,Resolução/Conclusão
25785250,Figueiró (Santiago e Santa Cristina),Tâmega e Sousa,309,2025-08-04T15:58:00Z,25785250,Em Resolução/Conclusão,3103,Incêndio rural,0,1,0,5,2025-08-04T15:58:00Z,Amarante,Porto,Norte,-8.176117,41.297319,Resolução/Conclusão
25785466,Caçarilhe e Infesta,Tâmega e Sousa,309,2025-08-04T16:48:00Z,25785466,Em Curso,3103,Incêndio rural,1,2,0,12,2025-08-04T16:48:00Z,Celorico De Basto,Braga,Norte,-8.042718,41.424061,Curso
25785502,Figueiras e Covas,Tâmega e Sousa,309,2025-08-04T16:47:00Z,25785502,Em Resolução/Conclusão,3103,Incêndio rural,0,2,0,6,2025-08-04T16:47:00Z,Lousada,Porto,Norte,-8.328885,41.28591,Resolução/Conclusão
25785702,Lordelo,Area M. Porto,309,2025-08-04T17:19:00Z,25785702,Em Resolução/Conclusão,3103,Incêndio rural,0,2,0,9,2025-08-04T17:19:00Z,Paredes,Porto,Norte,-8.41983,41.24501,Resolução/Conclusão
25785866,Encosta do Sol,Grande Lisboa,311,2025-08-04T18:00:00Z,25785866,Em Resolução/Conclusão,3103,Incêndio rural,0,5,0,22,2025-08-04T18:00:00Z,Amadora,Lisboa,Área Metropolitana De Lisboa,-9.22128,38.77849,Resolução/Conclusão
25784902,Alcanede,Lezíria do Tejo,311,2025-08-04T15:02:00Z,25784902,Em Resolução/Conclusão,3103,Incêndio rural,0,6,0,27,2025-08-04T15:02:00Z,Santarém,Santarém,Alentejo,-8.806058,39.387255,Resolução/Conclusão
25784920,Castro Daire,Viseu Dão Lafões,310,2025-08-04T15:03:00Z,25784920,Em Resolução/Conclusão,3103,Incêndio rural,0,6,0,21,2025-08-04T15:03:00Z,Castro Daire,Viseu,Centro,-7.945405,40.912732,Resolução/Conclusão
25785204,Ribas,Tâmega e Sousa,309,2025-08-04T16:03:00Z,25785204,Em Curso,3103,Incêndio rural,1,13,0,45,2025-08-04T16:03:00Z,Celorico De Basto,Braga,Norte,-8.022547,41.449583,Curso
25785386,Samora Correia,Lezíria do Tejo,311,2025-08-04T16:29:00Z,25785386,Em Resolução/Conclusão,3103,Incêndio rural,0,0,0,0,2025-08-04T16:29:00Z,Benavente,Santarém,Alentejo,-8.881263,38.894005,Resolução/Conclusão
25785872,Quirás e Pinheiro Novo,Terras de Trás-os-Montes,309,2025-08-04T18:01:00Z,25785872,Em Resolução/Conclusão,3103,Incêndio rural,0,4,0,13,2025-08-04T18:01:00Z,Vinhais,Bragança,Norte,-7.173401,41.933482,Resolução/Conclusão
25785923,Andrães,Douro,309,2025-08-04T18:11:00Z,25785923,Em Despacho,3103,Incêndio rural,0,0,0,0,2025-08-04T18:11:00Z,Vila Real,Vila Real,Norte,-7.668173,41.24259,Despacho
