id,address,subregion,neighborhood,date,id.1,state,nature,nature_description,aerial_means,terrestrial_means,aquatic_means,operational,date.1,Concelho,Distrito,NUTII_DSG,longitude,latitude
24844670,Buarcos,Região de Coimbra,310,2025-01-20T13:42:00Z,24844670,Em despacho,3315,Inundação de estruturas por precipitação intensa,0,1,0,2,2025-01-20T13:42:00Z,Figueira Da Foz,Coimbra,Centro,-8.880897,40.168384
24844813,Vendas Novas,Alentejo Central,312,2025-01-20T14:15:00Z,24844813,Em despacho,3315,Inundação de estruturas por precipitação intensa,0,1,0,2,2025-01-20T14:15:00Z,Vendas Novas,Évora,Alentejo,-8.467471,38.671556
24844940,Alcobaça e Vestiaria,Oeste,311,2025-01-20T14:35:00Z,24844940,Em conclusão,3301,Queda de árvore,0,4,0,7,2025-01-20T14:35:00Z,Alcobaça,Leiria,Centro,-8.970766,39.549944000000004
24845058,Buarcos,Região de Coimbra,310,2025-01-20T14:58:00Z,24845058,Em despacho,3315,Inundação de estruturas por precipitação intensa,0,1,0,6,2025-01-20T14:58:00Z,Figueira Da Foz,Coimbra,Centro,-8.880897,40.168384
24844951,Tavira (Santa Maria e Santiago),Algarve,313,2025-01-20T14:20:00Z,24844951,Em despacho,3315,Inundação de estruturas por precipitação intensa,0,1,0,2,2025-01-20T14:20:00Z,Tavira,Faro,Algarve,-7.64691,37.130442
24845157,Monchique,Algarve,313,2025-01-20T15:11:00Z,24845157,Em despacho,3313,Deslizamento de terras,0,1,0,3,2025-01-20T15:11:00Z,Monchique,Faro,Algarve,-8.567422,37.320753
24845166,Avelãs de Caminho,Região de Aveiro,310,2025-01-20T15:22:00Z,24845166,Em despacho,3315,Inundação de estruturas por precipitação intensa,0,0,0,0,2025-01-20T15:22:00Z,Anadia,Aveiro,Centro,-8.45377,40.47764
24844876,Lagoa e Carvoeiro,Algarve,313,2025-01-20T14:22:00Z,24844876,Em despacho,3315,Inundação de estruturas por precipitação intensa,0,1,0,2,2025-01-20T14:22:00Z,Lagoa,Faro,Algarve,-8.449309,37.134614
24844893,Alverca do Ribatejo e Sobralinho,Grande Lisboa,311,2025-01-20T14:27:00Z,24844893,Em despacho,3315,Inundação de estruturas por precipitação intensa,0,1,0,5,2025-01-20T14:27:00Z,Vila Franca De Xira,Lisboa,Área Metropolitana De Lisboa,-9.036827,38.899136
24845142,Pataias e Martingança,Oeste,311,2025-01-20T15:15:00Z,24845142,Em despacho,3315,Inundação de estruturas por precipitação intensa,0,2,0,5,2025-01-20T15:15:00Z,Alcobaça,Leiria,Centro,-9.005079,39.688392
24845160,Quarteira,Algarve,313,2025-01-20T15:10:00Z,24845160,Em despacho,3315,Inundação de estruturas por precipitação intensa,0,1,0,5,2025-01-20T15:10:00Z,Loulé,Faro,Algarve,-8.12969,37.102601
