id,address,subregion,neighborhood,date,id.1,state,nature,nature_description,aerial_means,terrestrial_means,aquatic_means,operational,date.1,Concelho,Distrito,NUTII_DSG,longitude,latitude,state_2
25729093,Vila de Cucujães,Area M. Porto,309,2025-07-25T04:57:00Z,25729093,Em Resolução/Conclusão,3103,Incêndio rural,0,1,0,5,2025-07-25T04:57:00Z,Oliveira De Azeméis,Aveiro,Norte,-8.495097,40.865157,Resolução/Conclusão
25729159,Vila Facaia,Região de Leiria,310,2025-07-25T05:56:00Z,25729159,Em Resolução/Conclusão,3103,Incêndio rural,0,1,0,2,2025-07-25T05:56:00Z,Pedrógão Grande,Leiria,Centro,-8.207428,39.928542,Resolução/Conclusão
25730413,"Perafita, Lavra e Santa Cruz do Bispo",Area M. Porto,309,2025-07-25T10:55:00Z,25730413,Em Resolução/Conclusão,3103,Incêndio rural,0,1,0,5,2025-07-25T10:55:00Z,Matosinhos,Porto,Norte,-8.68115,41.22108,Resolução/Conclusão
25730461,Dardavaz,Viseu Dão Lafões,310,2025-07-25T11:01:00Z,25730461,Em Despacho,3105,Incêndio rural,1,6,0,33,2025-07-25T11:01:00Z,Tondela,Viseu,Centro,-8.127225,40.463489,Despacho
25728646,Vila Fernando,Beiras e Serra da Estrela,310,2025-07-24T23:39:00Z,25728646,Em Resolução/Conclusão,3103,Incêndio rural,0,6,0,26,2025-07-24T23:39:00Z,Guarda,Guarda,Centro,-7.135077,40.484042,Resolução/Conclusão
25728989,Valadares,Tâmega e Sousa,309,2025-07-25T03:08:00Z,25728989,Em Resolução/Conclusão,3103,Incêndio rural,0,6,0,26,2025-07-25T03:08:00Z,Baião,Porto,Norte,-7.944105,41.158087,Resolução/Conclusão
25729105,"Pinheiro da Bemposta, Travanca e Palmaz",Area M. Porto,309,2025-07-25T05:08:00Z,25729105,Em Resolução/Conclusão,3101,Incêndio rural,0,2,0,7,2025-07-25T05:08:00Z,Oliveira De Azeméis,Aveiro,Norte,-8.47228,40.805608,Resolução/Conclusão
25729514,Azias,Alto Minho,309,2025-07-25T08:28:00Z,25729514,Em Resolução/Conclusão,3103,Incêndio rural,0,2,0,6,2025-07-25T08:28:00Z,Ponte Da Barca,Viana Do Castelo,Norte,-8.35944,41.773635,Resolução/Conclusão
25730132,Santa Clara,Grande Lisboa,311,2025-07-25T10:16:00Z,25730132,Em Resolução/Conclusão,3103,Incêndio rural,0,5,0,20,2025-07-25T10:16:00Z,Lisboa,Lisboa,Área Metropolitana De Lisboa,-9.149887,38.783817,Resolução/Conclusão
25712338,Cercal,Alentejo Litoral,312,2025-07-21T17:38:00Z,25712338,Em Resolução/Conclusão,3103,Incêndio rural,0,7,0,18,2025-07-21T17:38:00Z,Santiago Do Cacém,Setúbal,Alentejo,-8.682272,37.791582,Resolução/Conclusão
25725056,Pedrógão Pequeno,Beira Baixa,310,2025-07-24T10:16:00Z,25725056,Em Resolução/Conclusão,3101,Incêndio rural,0,1,0,5,2025-07-24T10:16:00Z,Sertã,Castelo Branco,Centro,-8.093663,39.879797,Resolução/Conclusão
25728500,Vila Fernando,Beiras e Serra da Estrela,310,2025-07-24T22:48:00Z,25728500,Em Resolução/Conclusão,3103,Incêndio rural,0,5,0,19,2025-07-24T22:48:00Z,Guarda,Guarda,Centro,-7.165667,40.491237,Resolução/Conclusão
25729082,São Jorge e Ermelo,Alto Minho,309,2025-07-25T04:45:00Z,25729082,Em Resolução/Conclusão,3101,Incêndio rural,0,18,0,62,2025-07-25T04:45:00Z,Arcos De Valdevez,Viana Do Castelo,Norte,-8.356835,41.818005,Resolução/Conclusão
25729185,Pedrógão Grande,Região de Leiria,310,2025-07-25T06:14:00Z,25729185,Em Resolução/Conclusão,3101,Incêndio rural,0,1,0,2,2025-07-25T06:14:00Z,Pedrógão Grande,Leiria,Centro,-8.17945,39.916067,Resolução/Conclusão
25729252,Vila Facaia,Região de Leiria,310,2025-07-25T07:06:00Z,25729252,Em Resolução/Conclusão,3103,Incêndio rural,0,3,0,5,2025-07-25T07:06:00Z,Pedrógão Grande,Leiria,Centro,-8.240883,39.95543,Resolução/Conclusão
25729936,Setúbal (São Sebastião),Península de Setúbal,311,2025-07-25T09:44:00Z,25729936,Em Resolução/Conclusão,3103,Incêndio rural,0,4,0,17,2025-07-25T09:44:00Z,Setúbal,Setúbal,Área Metropolitana De Lisboa,-8.865207,38.516665,Resolução/Conclusão
25721382,Unhais da Serra,Beiras e Serra da Estrela,310,2025-07-23T14:29:00Z,25721382,Em Resolução/Conclusão,3105,Incêndio rural,0,1,0,5,2025-07-23T14:29:00Z,Covilhã,Castelo Branco,Centro,-7.61948,40.25114,Resolução/Conclusão
25725153,Troviscal,Beira Baixa,310,2025-07-24T10:31:00Z,25725153,Em Resolução/Conclusão,3101,Incêndio rural,0,1,0,5,2025-07-24T10:31:00Z,Sertã,Castelo Branco,Centro,-8.084768,39.877972,Resolução/Conclusão
25725251,Pedrógão Pequeno,Beira Baixa,310,2025-07-24T10:52:00Z,25725251,Em Resolução/Conclusão,3101,Incêndio rural,0,8,0,28,2025-07-24T10:52:00Z,Sertã,Castelo Branco,Centro,-8.084635,39.925647,Resolução/Conclusão
25727257,Santiago de Piães,Tâmega e Sousa,309,2025-07-24T17:40:00Z,25727257,Em Curso,3103,Incêndio rural,6,35,0,125,2025-07-24T17:40:00Z,Cinfães,Viseu,Norte,-8.173138,41.025392,Curso
25729665,Pedreiras,Região de Leiria,310,2025-07-25T08:51:00Z,25729665,Em Resolução/Conclusão,3103,Incêndio rural,0,3,0,9,2025-07-25T08:51:00Z,Porto De Mós,Leiria,Centro,-8.861839,39.591209,Resolução/Conclusão
25730040,Alvite,Douro,309,2025-07-25T10:03:00Z,25730040,Em Resolução/Conclusão,3103,Incêndio rural,0,8,0,30,2025-07-25T10:03:00Z,Moimenta Da Beira,Viseu,Norte,-7.707402,40.97713,Resolução/Conclusão
25730056,Santiago de Piães,Tâmega e Sousa,309,2025-07-25T10:05:00Z,25730056,Em Curso,3103,Incêndio rural,3,6,0,28,2025-07-25T10:05:00Z,Cinfães,Viseu,Norte,-8.167988,41.04848,Curso
25730368,Dois Portos e Runa,Oeste,311,2025-07-25T10:54:00Z,25730368,Em Curso,3101,Incêndio rural,1,7,0,29,2025-07-25T10:54:00Z,Torres Vedras,Lisboa,Centro,-9.193442,39.043737,Curso
25730402,Meixedo e Padornelos,Alto Tâmega e Barroso,309,2025-07-25T10:50:00Z,25730402,Em Despacho,3103,Incêndio rural,1,6,0,32,2025-07-25T10:50:00Z,Montalegre,Vila Real,Norte,-7.740917,41.875918,Despacho
25730552,"Torres Novas (Santa Maria, Salvador e Santiago)",Médio Tejo,311,2025-07-25T11:16:00Z,25730552,Em Despacho,3103,Incêndio rural,0,3,0,8,2025-07-25T11:16:00Z,Torres Novas,Santarém,Centro,-8.539335,39.476394,Despacho
25730292,Quinta do Conde,Península de Setúbal,311,2025-07-25T10:39:00Z,25730292,Em Resolução/Conclusão,3103,Incêndio rural,0,2,0,8,2025-07-25T10:39:00Z,Sesimbra,Setúbal,Área Metropolitana De Lisboa,-9.043889,38.55444,Resolução/Conclusão
25730439,Romeira e Várzea,Lezíria do Tejo,311,2025-07-25T11:01:00Z,25730439,Em Curso,3103,Incêndio rural,0,3,0,12,2025-07-25T11:01:00Z,Santarém,Santarém,Alentejo,-8.72631,39.26376,Curso
