id,address,subregion,neighborhood,date,id.1,state,nature,nature_description,aerial_means,terrestrial_means,aquatic_means,operational,date.1,Concelho,Distrito,NUTII_DSG,longitude,latitude
25059714,Torrão,Alentejo Litoral,312,2025-03-08T22:10:00Z,25059714,Em curso,1101,Cheia,0,1,0,2,2025-03-08T22:10:00Z,Alcácer Do Sal,Setúbal,Alentejo,-8.359133,38.252053
25070044,Praia do Ribatejo,Médio Tejo,311,2025-03-10T19:30:00Z,25070044,Em curso,1101,Cheia,0,0,0,0,2025-03-10T19:30:00Z,Vila Nova Da Barquinha,Santarém,Centro,-8.357309,39.485638
25071496,São Manços e São Vicente do Pigeiro,Alentejo Central,312,2025-03-11T13:18:00Z,25071496,Em curso,1101,Cheia,0,2,0,4,2025-03-11T13:18:00Z,Évora,Évora,Alentejo,-7.713313,38.513673
25112444,"S.maria, S.miguel, S.martinho, S.pedro Penaferrim",Grande Lisboa,311,2025-03-19T23:45:00Z,25112444,Em curso,3301,Queda de árvore,0,2,0,9,2025-03-19T23:45:00Z,Sintra,Lisboa,Área Metropolitana De Lisboa,-9.414924,38.772191
25112562,"S.julião, N.s. da Anunciada e S. Maria da Graça",Península de Setúbal,311,2025-03-20T00:12:00Z,25112562,Em curso,3329,Queda de estruturas temporárias ou móveis,0,0,0,0,2025-03-20T00:12:00Z,Setúbal,Setúbal,Área Metropolitana De Lisboa,-8.90758,38.52468
25112595,Maiorca,Região de Coimbra,310,2025-03-20T00:16:00Z,25112595,Em despacho,3301,Queda de árvore,0,0,0,0,2025-03-20T00:16:00Z,Figueira Da Foz,Coimbra,Centro,-8.749227,40.16851
25112628,"Sé Nova, Santa Cruz, Almedina e São Bartolomeu",Região de Coimbra,310,2025-03-20T00:10:00Z,25112628,Em despacho,3311,Queda de elementos de estruturas edificados,0,0,0,0,2025-03-20T00:10:00Z,Coimbra,Coimbra,Centro,-8.425582,40.205556
25112662,Setúbal (São Sebastião),Península de Setúbal,311,2025-03-20T00:27:00Z,25112662,Em curso,3329,Queda de estruturas temporárias ou móveis,0,0,0,0,2025-03-20T00:27:00Z,Setúbal,Setúbal,Área Metropolitana De Lisboa,-8.86899,38.52164
25112796,"S.julião, N.s. da Anunciada e S. Maria da Graça",Península de Setúbal,311,2025-03-20T00:42:00Z,25112796,Em curso,3311,Queda de elementos de estruturas edificados,0,0,0,0,2025-03-20T00:42:00Z,Setúbal,Setúbal,Área Metropolitana De Lisboa,-8.890614,38.52599
25112829,Bucelas,Grande Lisboa,311,2025-03-20T00:44:00Z,25112829,Em curso,3301,Queda de árvore,0,1,0,4,2025-03-20T00:44:00Z,Loures,Lisboa,Área Metropolitana De Lisboa,-9.121038,38.903857
25112876,Corroios,Península de Setúbal,311,2025-03-20T00:52:00Z,25112876,Em curso,3301,Queda de árvore,0,0,0,0,2025-03-20T00:52:00Z,Seixal,Setúbal,Área Metropolitana De Lisboa,-9.157211,38.5818
25112944,Longueira/Almograve,Alentejo Litoral,312,2025-03-20T00:20:00Z,25112944,Em conclusão,3301,Queda de árvore,0,4,0,9,2025-03-20T00:20:00Z,Odemira,Beja,Alentejo,-8.752532,37.635323
25113011,Cascais e Estoril,Grande Lisboa,311,2025-03-20T01:09:00Z,25113011,Em despacho,3301,Queda de árvore,0,0,0,0,2025-03-20T01:09:00Z,Cascais,Lisboa,Área Metropolitana De Lisboa,-9.398759,38.70391
25113012,Cacém e São Marcos,Grande Lisboa,311,2025-03-20T01:09:00Z,25113012,Em despacho,3311,Queda de elementos de estruturas edificados,0,0,0,0,2025-03-20T01:09:00Z,Sintra,Lisboa,Área Metropolitana De Lisboa,-9.3115,38.76819
25113095,Amora,Península de Setúbal,311,2025-03-20T01:17:00Z,25113095,Em curso,3311,Queda de elementos de estruturas edificados,0,0,0,0,2025-03-20T01:17:00Z,Seixal,Setúbal,Área Metropolitana De Lisboa,-9.124338,38.61855
25113160,Corroios,Península de Setúbal,311,2025-03-20T01:24:00Z,25113160,Em curso,3311,Queda de elementos de estruturas edificados,0,0,0,0,2025-03-20T01:24:00Z,Seixal,Setúbal,Área Metropolitana De Lisboa,-9.14678,38.62745
25113162,São Domingos de Rana,Grande Lisboa,311,2025-03-20T01:24:00Z,25113162,Em despacho,3301,Queda de árvore,0,0,0,0,2025-03-20T01:24:00Z,Cascais,Lisboa,Área Metropolitana De Lisboa,-9.3553,38.70397
25113163,São Domingos de Rana,Grande Lisboa,311,2025-03-20T01:18:00Z,25113163,Em despacho,3311,Queda de elementos de estruturas edificados,0,0,0,0,2025-03-20T01:18:00Z,Cascais,Lisboa,Área Metropolitana De Lisboa,-9.341509,38.701875
25113177,Amora,Península de Setúbal,311,2025-03-20T01:25:00Z,25113177,Em curso,3311,Queda de elementos de estruturas edificados,0,0,0,0,2025-03-20T01:25:00Z,Seixal,Setúbal,Área Metropolitana De Lisboa,-9.11848,38.61897
25113194,Alverca do Ribatejo e Sobralinho,Grande Lisboa,311,2025-03-20T01:27:00Z,25113194,Em despacho,3311,Queda de elementos de estruturas edificados,0,0,0,0,2025-03-20T01:27:00Z,Vila Franca De Xira,Lisboa,Área Metropolitana De Lisboa,-9.0484000000000009,38.90376
25113227,Charneca de Caparica e Sobreda,Península de Setúbal,311,2025-03-20T01:31:00Z,25113227,Em curso,3301,Queda de árvore,0,0,0,0,2025-03-20T01:31:00Z,Almada,Setúbal,Área Metropolitana De Lisboa,-9.176084,38.58879
25113229,Charneca de Caparica e Sobreda,Península de Setúbal,311,2025-03-20T01:31:00Z,25113229,Em curso,3301,Queda de árvore,0,0,0,0,2025-03-20T01:31:00Z,Almada,Setúbal,Área Metropolitana De Lisboa,-9.182356,38.58913
25113294,Algueirão-Mem Martins,Grande Lisboa,311,2025-03-20T01:37:00Z,25113294,Em despacho,3311,Queda de elementos de estruturas edificados,0,0,0,0,2025-03-20T01:37:00Z,Sintra,Lisboa,Área Metropolitana De Lisboa,-9.324166,38.79472
25113313,Alverca do Ribatejo e Sobralinho,Grande Lisboa,311,2025-03-20T01:39:00Z,25113313,Em despacho,3311,Queda de elementos de estruturas edificados,0,0,0,0,2025-03-20T01:39:00Z,Vila Franca De Xira,Lisboa,Área Metropolitana De Lisboa,-9.05384,38.90527
25113329,Falagueira-Venda Nova,Grande Lisboa,311,2025-03-20T01:40:00Z,25113329,Em despacho,3301,Queda de árvore,0,0,0,0,2025-03-20T01:40:00Z,Amadora,Lisboa,Área Metropolitana De Lisboa,-9.223747,38.760622
25087162,Pedrógão,Baixo Alentejo,312,2025-03-14T17:00:00Z,25087162,Em curso,1101,Cheia,0,0,0,0,2025-03-14T17:00:00Z,Vidigueira,Beja,Alentejo,-7.630327,38.110775
25112462,Costa da Caparica,Península de Setúbal,311,2025-03-19T23:45:00Z,25112462,Em curso,3301,Queda de árvore,0,0,0,0,2025-03-19T23:45:00Z,Almada,Setúbal,Área Metropolitana De Lisboa,-9.227696,38.642583
25112466,Colares,Grande Lisboa,311,2025-03-19T23:50:00Z,25112466,Em curso,3321,Dano na rede de fornecimento de eletricidade ,0,2,0,7,2025-03-19T23:50:00Z,Sintra,Lisboa,Área Metropolitana De Lisboa,-9.470171,38.782676
25112539,"Almargem do Bispo, Pêro Pinheiro e Montelavar",Grande Lisboa,311,2025-03-20T00:02:00Z,25112539,Em curso,3321,Dano na rede de fornecimento de eletricidade ,0,1,0,2,2025-03-20T00:02:00Z,Sintra,Lisboa,Área Metropolitana De Lisboa,-9.297507,38.825783
25112564,Charneca de Caparica e Sobreda,Península de Setúbal,311,2025-03-20T00:13:00Z,25112564,Em curso,3301,Queda de árvore,0,0,0,0,2025-03-20T00:13:00Z,Almada,Setúbal,Área Metropolitana De Lisboa,-9.178229,38.59188
25112639,"S.julião, N.s. da Anunciada e S. Maria da Graça",Península de Setúbal,311,2025-03-20T00:23:00Z,25112639,Em curso,3311,Queda de elementos de estruturas edificados,0,0,0,0,2025-03-20T00:23:00Z,Setúbal,Setúbal,Área Metropolitana De Lisboa,-8.90127,38.52768
25112675,Alhos Vedros,Península de Setúbal,311,2025-03-20T00:28:00Z,25112675,Em curso,3301,Queda de árvore,0,0,0,0,2025-03-20T00:28:00Z,Moita,Setúbal,Área Metropolitana De Lisboa,-9.010387,38.63902
25113330,Cascais e Estoril,Grande Lisboa,311,2025-03-20T01:40:00Z,25113330,Em despacho,3301,Queda de árvore,0,0,0,0,2025-03-20T01:40:00Z,Cascais,Lisboa,Área Metropolitana De Lisboa,-9.398759,38.70391
25113430,Charneca de Caparica e Sobreda,Península de Setúbal,311,2025-03-20T01:50:00Z,25113430,Em curso,3301,Queda de árvore,0,0,0,0,2025-03-20T01:50:00Z,Almada,Setúbal,Área Metropolitana De Lisboa,-9.1789,38.60783
25113461,Beja (Santiago Maior e São João Baptista),Baixo Alentejo,312,2025-03-20T01:54:00Z,25113461,Em despacho,3301,Queda de árvore,0,0,0,0,2025-03-20T01:54:00Z,Beja,Beja,Alentejo,-7.86754,38.00967
25113462,Carregal do Sal,Viseu Dão Lafões,310,2025-03-20T01:52:00Z,25113462,Em despacho,3301,Queda de árvore,0,2,0,5,2025-03-20T01:52:00Z,Carregal Do Sal,Viseu,Centro,-7.999939,40.437298
25113463,"Almada, Cova da Piedade, Pragal e Cacilhas",Península de Setúbal,311,2025-03-20T01:54:00Z,25113463,Em conclusão,3311,Queda de elementos de estruturas edificados,0,0,0,0,2025-03-20T01:54:00Z,Almada,Setúbal,Área Metropolitana De Lisboa,-9.1648,38.67804
25113480,São Domingos de Rana,Grande Lisboa,311,2025-03-20T01:55:00Z,25113480,Em despacho,3301,Queda de árvore,0,0,0,0,2025-03-20T01:55:00Z,Cascais,Lisboa,Área Metropolitana De Lisboa,-9.34564,38.69702
25113498,Charneca de Caparica e Sobreda,Península de Setúbal,311,2025-03-20T01:58:00Z,25113498,Em curso,3301,Queda de árvore,0,0,0,0,2025-03-20T01:58:00Z,Almada,Setúbal,Área Metropolitana De Lisboa,-9.18074,38.58747
25113512,Cascais e Estoril,Grande Lisboa,311,2025-03-20T01:59:00Z,25113512,Em despacho,3301,Queda de árvore,0,0,0,0,2025-03-20T01:59:00Z,Cascais,Lisboa,Área Metropolitana De Lisboa,-9.40005,38.71162
25113513,Cascais e Estoril,Grande Lisboa,311,2025-03-20T01:59:00Z,25113513,Em despacho,3329,Queda de estruturas temporárias ou móveis,0,0,0,0,2025-03-20T01:59:00Z,Cascais,Lisboa,Área Metropolitana De Lisboa,-9.38034,38.70228
25068300,Almeirim,Lezíria do Tejo,311,2025-03-10T20:52:00Z,25068300,Em curso,1101,Cheia,0,0,0,0,2025-03-10T20:52:00Z,Almeirim,Santarém,Alentejo,-8.635002,39.187436
25112472,Caparica e Trafaria,Península de Setúbal,311,2025-03-19T23:57:00Z,25112472,Em curso,3301,Queda de árvore,0,0,0,0,2025-03-19T23:57:00Z,Almada,Setúbal,Área Metropolitana De Lisboa,-9.242559,38.66221
25112524,Pereira,Região de Coimbra,310,2025-03-19T23:55:00Z,25112524,Em despacho,3301,Queda de árvore,0,1,0,2,2025-03-19T23:55:00Z,Montemor-o-Velho,Coimbra,Centro,-8.585186,40.185229
25112622,"S.julião, N.s. da Anunciada e S. Maria da Graça",Península de Setúbal,311,2025-03-20T00:21:00Z,25112622,Em curso,3311,Queda de elementos de estruturas edificados,0,0,0,0,2025-03-20T00:21:00Z,Setúbal,Setúbal,Área Metropolitana De Lisboa,-8.90427,38.528
25112658,Quinta do Anjo,Península de Setúbal,311,2025-03-20T00:26:00Z,25112658,Em curso,3301,Queda de árvore,0,0,0,0,2025-03-20T00:26:00Z,Palmela,Setúbal,Área Metropolitana De Lisboa,-9.02329,38.58032
25112672,Alhos Vedros,Península de Setúbal,311,2025-03-20T00:28:00Z,25112672,Em curso,3311,Queda de elementos de estruturas edificados,0,0,0,0,2025-03-20T00:28:00Z,Moita,Setúbal,Área Metropolitana De Lisboa,-9.02548,38.65708
25112722,Azeitão (São Lourenço e São Simão),Península de Setúbal,311,2025-03-20T00:34:00Z,25112722,Em curso,3321,Dano na rede de fornecimento de eletricidade ,0,1,0,3,2025-03-20T00:34:00Z,Setúbal,Setúbal,Área Metropolitana De Lisboa,-9.01777,38.55323
25063232,Santa Maria do Castelo e Santiago e Santa Susana,Alentejo Litoral,312,2025-03-09T19:02:00Z,25063232,Em curso,1101,Cheia,0,0,0,0,2025-03-09T19:02:00Z,Alcácer Do Sal,Setúbal,Alentejo,-8.48167,38.29806
25112066,Gafanha da Nazaré,Região de Aveiro,310,2025-03-19T22:51:00Z,25112066,Em resolução,3311,Queda de elementos de estruturas edificados,0,0,0,1,2025-03-19T22:51:00Z,Ílhavo,Aveiro,Centro,-8.714699,40.63582
25112569,São Salvador e Santa Maria,Alentejo Litoral,312,2025-03-20T00:01:00Z,25112569,Em despacho,3301,Queda de árvore,0,1,0,4,2025-03-20T00:01:00Z,Odemira,Beja,Alentejo,-8.681094,37.59238
25112651,Setúbal (São Sebastião),Península de Setúbal,311,2025-03-20T00:25:00Z,25112651,Em curso,3301,Queda de árvore,0,0,0,0,2025-03-20T00:25:00Z,Setúbal,Setúbal,Área Metropolitana De Lisboa,-8.872648,38.53292
25112704,Fernão Ferro,Península de Setúbal,311,2025-03-20T00:32:00Z,25112704,Em curso,3321,Dano na rede de fornecimento de eletricidade ,0,0,0,0,2025-03-20T00:32:00Z,Seixal,Setúbal,Área Metropolitana De Lisboa,-9.08671,38.56536
25112718,Alhos Vedros,Península de Setúbal,311,2025-03-20T00:33:00Z,25112718,Em curso,3329,Queda de estruturas temporárias ou móveis,0,0,0,0,2025-03-20T00:33:00Z,Moita,Setúbal,Área Metropolitana De Lisboa,-9.023435,38.65349
25112736,Seixo de Gatões,Região de Coimbra,310,2025-03-20T00:26:00Z,25112736,Em despacho,3309,Desabamento de estruturas edificadas,0,0,0,0,2025-03-20T00:26:00Z,Montemor-o-Velho,Coimbra,Centro,-8.690129,40.238805
25112821,Queluz e Belas,Grande Lisboa,311,2025-03-20T00:05:00Z,25112821,Em curso,3301,Queda de árvore,0,1,0,2,2025-03-20T00:05:00Z,Sintra,Lisboa,Área Metropolitana De Lisboa,-9.270072,38.779997
25112835,"Almada, Cova da Piedade, Pragal e Cacilhas",Península de Setúbal,311,2025-03-20T00:47:00Z,25112835,Em curso,3301,Queda de árvore,0,0,0,0,2025-03-20T00:47:00Z,Almada,Setúbal,Área Metropolitana De Lisboa,-9.15992,38.67447
25113545,Loures,Grande Lisboa,311,2025-03-20T02:02:00Z,25113545,Em despacho,3311,Queda de elementos de estruturas edificados,0,0,0,0,2025-03-20T02:02:00Z,Loures,Lisboa,Área Metropolitana De Lisboa,-9.19531,38.81873
25113548,Charneca de Caparica e Sobreda,Península de Setúbal,311,2025-03-20T02:03:00Z,25113548,Em curso,3301,Queda de árvore,0,0,0,0,2025-03-20T02:03:00Z,Almada,Setúbal,Área Metropolitana De Lisboa,-9.16587,38.58978
25113579,Alfragide,Grande Lisboa,311,2025-03-20T02:05:00Z,25113579,Em despacho,3329,Queda de estruturas temporárias ou móveis,0,0,0,0,2025-03-20T02:05:00Z,Amadora,Lisboa,Área Metropolitana De Lisboa,-9.225704,38.738085
25113645,Rio de Mouro,Grande Lisboa,311,2025-03-20T02:13:00Z,25113645,Em despacho,3311,Queda de elementos de estruturas edificados,0,0,0,0,2025-03-20T02:13:00Z,Sintra,Lisboa,Área Metropolitana De Lisboa,-9.31947,38.78611
25113679,Cascais e Estoril,Grande Lisboa,311,2025-03-20T02:16:00Z,25113679,Em despacho,3301,Queda de árvore,0,0,0,0,2025-03-20T02:16:00Z,Cascais,Lisboa,Área Metropolitana De Lisboa,-9.39155,38.70828
25113746,Falagueira-Venda Nova,Grande Lisboa,311,2025-03-20T02:23:00Z,25113746,Em despacho,3301,Queda de árvore,0,0,0,0,2025-03-20T02:23:00Z,Amadora,Lisboa,Área Metropolitana De Lisboa,-9.22883,38.76062
25113762,Miragaia e Marteleira,Oeste,311,2025-03-20T02:00:00Z,25113762,Em conclusão,3311,Queda de elementos de estruturas edificados,0,0,0,0,2025-03-20T02:00:00Z,Lourinhã,Lisboa,Centro,-9.262811,39.23688
25113765,Queluz e Belas,Grande Lisboa,311,2025-03-20T02:25:00Z,25113765,Em despacho,3301,Queda de árvore,0,0,0,0,2025-03-20T02:25:00Z,Sintra,Lisboa,Área Metropolitana De Lisboa,-9.27879,38.77766
25113781,Ramada e Caneças,Grande Lisboa,311,2025-03-20T02:26:00Z,25113781,Em despacho,3301,Queda de árvore,0,0,0,0,2025-03-20T02:26:00Z,Odivelas,Lisboa,Área Metropolitana De Lisboa,-9.194441,38.801427
25113862,Beja (Santiago Maior e São João Baptista),Baixo Alentejo,312,2025-03-20T01:15:00Z,25113862,Em conclusão,3301,Queda de árvore,0,2,0,4,2025-03-20T01:15:00Z,Beja,Beja,Alentejo,-7.87003,38.014111
25112721,Quinta do Anjo,Península de Setúbal,311,2025-03-20T00:34:00Z,25112721,Em curso,3301,Queda de árvore,0,0,0,0,2025-03-20T00:34:00Z,Palmela,Setúbal,Área Metropolitana De Lisboa,-8.950333,38.56405
25112773,Poceirão e Marateca,Península de Setúbal,311,2025-03-20T00:40:00Z,25112773,Em curso,3301,Queda de árvore,0,0,0,0,2025-03-20T00:40:00Z,Palmela,Setúbal,Área Metropolitana De Lisboa,-8.76661,38.69349
25112875,Palmela,Península de Setúbal,311,2025-03-20T00:52:00Z,25112875,Em curso,3321,Dano na rede de fornecimento de eletricidade ,0,0,0,0,2025-03-20T00:52:00Z,Palmela,Setúbal,Área Metropolitana De Lisboa,-8.87707,38.60478
25112900,Queluz e Belas,Grande Lisboa,311,2025-03-20T00:50:00Z,25112900,Em despacho,3301,Queda de árvore,0,1,0,4,2025-03-20T00:50:00Z,Sintra,Lisboa,Área Metropolitana De Lisboa,-9.270072,38.779997
25112984,"Oeiras e S. Julião da Barra, Paço de Arcos e Caxias",Grande Lisboa,311,2025-03-20T01:06:00Z,25112984,Em despacho,3311,Queda de elementos de estruturas edificados,0,0,0,0,2025-03-20T01:06:00Z,Oeiras,Lisboa,Área Metropolitana De Lisboa,-9.303858,38.70432
25112998,Charneca de Caparica e Sobreda,Península de Setúbal,311,2025-03-20T01:07:00Z,25112998,Em curso,3309,Desabamento de estruturas edificadas,0,0,0,0,2025-03-20T01:07:00Z,Almada,Setúbal,Área Metropolitana De Lisboa,-9.19436,38.64644
25113023,Póvoa de Santa Iria e Forte da Casa,Grande Lisboa,311,2025-03-20T01:10:00Z,25113023,Em despacho,3329,Queda de estruturas temporárias ou móveis,0,0,0,0,2025-03-20T01:10:00Z,Vila Franca De Xira,Lisboa,Área Metropolitana De Lisboa,-9.055658,38.87217
25113041,Alcabideche,Grande Lisboa,311,2025-03-20T01:12:00Z,25113041,Em despacho,3311,Queda de elementos de estruturas edificados,0,0,0,0,2025-03-20T01:12:00Z,Cascais,Lisboa,Área Metropolitana De Lisboa,-9.422703,38.72363
25113064,"Alhandra, São João Dos Montes e Calhandriz",Grande Lisboa,311,2025-03-20T01:14:00Z,25113064,Em despacho,3301,Queda de árvore,0,0,0,0,2025-03-20T01:14:00Z,Vila Franca De Xira,Lisboa,Área Metropolitana De Lisboa,-9.03587,38.95457
25113073,Corroios,Península de Setúbal,311,2025-03-20T01:15:00Z,25113073,Em curso,3329,Queda de estruturas temporárias ou móveis,0,0,0,0,2025-03-20T01:15:00Z,Seixal,Setúbal,Área Metropolitana De Lisboa,-9.15315,38.64089
25113089,"Almargem do Bispo, Pêro Pinheiro e Montelavar",Grande Lisboa,311,2025-03-20T01:16:00Z,25113089,Em despacho,3311,Queda de elementos de estruturas edificados,0,0,0,0,2025-03-20T01:16:00Z,Sintra,Lisboa,Área Metropolitana De Lisboa,-9.24059,38.80967
25113100,Sesimbra (Castelo),Península de Setúbal,311,2025-03-20T01:17:00Z,25113100,Em curso,3311,Queda de elementos de estruturas edificados,0,0,0,0,2025-03-20T01:17:00Z,Sesimbra,Setúbal,Área Metropolitana De Lisboa,-9.17306,38.47686
25113107,Charneca de Caparica e Sobreda,Península de Setúbal,311,2025-03-20T01:18:00Z,25113107,Em curso,3301,Queda de árvore,0,0,0,0,2025-03-20T01:18:00Z,Almada,Setúbal,Área Metropolitana De Lisboa,-9.177058,38.60883
25113125,Alverca do Ribatejo e Sobralinho,Grande Lisboa,311,2025-03-20T01:20:00Z,25113125,Em despacho,3311,Queda de elementos de estruturas edificados,0,0,0,0,2025-03-20T01:20:00Z,Vila Franca De Xira,Lisboa,Área Metropolitana De Lisboa,-9.03425,38.91567
25113173,Charneca de Caparica e Sobreda,Península de Setúbal,311,2025-03-20T01:25:00Z,25113173,Em curso,3301,Queda de árvore,0,0,0,0,2025-03-20T01:25:00Z,Almada,Setúbal,Área Metropolitana De Lisboa,-9.18059,38.59585
25113198,Charneca de Caparica e Sobreda,Península de Setúbal,311,2025-03-20T01:27:00Z,25113198,Em curso,3301,Queda de árvore,0,0,0,0,2025-03-20T01:27:00Z,Almada,Setúbal,Área Metropolitana De Lisboa,-9.18368,38.58977
25113218,Sapataria,Oeste,311,2025-03-20T01:23:00Z,25113218,Em curso,3301,Queda de árvore,0,2,0,4,2025-03-20T01:23:00Z,Sobral De Monte Agraço,Lisboa,Centro,-9.198053,38.966232
25113241,Odivelas,Grande Lisboa,311,2025-03-20T01:32:00Z,25113241,Em despacho,3311,Queda de elementos de estruturas edificados,0,0,0,0,2025-03-20T01:32:00Z,Odivelas,Lisboa,Área Metropolitana De Lisboa,-9.17906,38.78882
25113243,Odivelas,Grande Lisboa,311,2025-03-20T01:32:00Z,25113243,Em despacho,3311,Queda de elementos de estruturas edificados,0,0,0,0,2025-03-20T01:32:00Z,Odivelas,Lisboa,Área Metropolitana De Lisboa,-9.17332,38.79666
25113275,Charneca de Caparica e Sobreda,Península de Setúbal,311,2025-03-20T01:35:00Z,25113275,Em curso,3301,Queda de árvore,0,0,0,0,2025-03-20T01:35:00Z,Almada,Setúbal,Área Metropolitana De Lisboa,-9.17436,38.59079
25113332,Charneca de Caparica e Sobreda,Península de Setúbal,311,2025-03-20T01:41:00Z,25113332,Em curso,3301,Queda de árvore,0,0,0,0,2025-03-20T01:41:00Z,Almada,Setúbal,Área Metropolitana De Lisboa,-9.18218,38.59689
25113382,Santo Antão e São Julião do Tojal,Grande Lisboa,311,2025-03-20T01:46:00Z,25113382,Em despacho,3321,Dano na rede de fornecimento de eletricidade ,0,0,0,0,2025-03-20T01:46:00Z,Loures,Lisboa,Área Metropolitana De Lisboa,-9.12403,38.86915
25113393,Alfragide,Grande Lisboa,311,2025-03-20T01:46:00Z,25113393,Em despacho,3311,Queda de elementos de estruturas edificados,0,0,0,0,2025-03-20T01:46:00Z,Amadora,Lisboa,Área Metropolitana De Lisboa,-9.225704,38.738085
25113416,Vila Franca de Xira,Grande Lisboa,311,2025-03-20T01:49:00Z,25113416,Em despacho,3321,Dano na rede de fornecimento de eletricidade ,0,0,0,0,2025-03-20T01:49:00Z,Vila Franca De Xira,Lisboa,Área Metropolitana De Lisboa,-8.99117,38.95186
25113425,Carcavelos e Parede,Grande Lisboa,311,2025-03-20T01:49:00Z,25113425,Em despacho,3301,Queda de árvore,0,0,0,0,2025-03-20T01:49:00Z,Cascais,Lisboa,Área Metropolitana De Lisboa,-9.337574,38.688343
25113879,Vila Nova de Tazem,Beiras e Serra da Estrela,310,2025-03-20T02:33:00Z,25113879,Em despacho,3301,Queda de árvore,0,1,0,2,2025-03-20T02:33:00Z,Gouveia,Guarda,Centro,-7.716662,40.505068
25113896,"Torres Novas (Santa Maria, Salvador e Santiago)",Médio Tejo,311,2025-03-20T02:36:00Z,25113896,Em conclusão,3301,Queda de árvore,0,1,0,4,2025-03-20T02:36:00Z,Torres Novas,Santarém,Centro,-8.567173,39.46688
25113913,Mértola,Baixo Alentejo,312,2025-03-20T02:35:00Z,25113913,Em conclusão,3301,Queda de árvore,0,0,0,0,2025-03-20T02:35:00Z,Mértola,Beja,Alentejo,-7.675714,37.658296
25113963,Charneca de Caparica e Sobreda,Península de Setúbal,311,2025-03-20T02:42:00Z,25113963,Em curso,3301,Queda de árvore,0,0,0,0,2025-03-20T02:42:00Z,Almada,Setúbal,Área Metropolitana De Lisboa,-9.19674,38.63034
25113998,Cascais e Estoril,Grande Lisboa,311,2025-03-20T02:44:00Z,25113998,Em curso,3301,Queda de árvore,0,0,0,0,2025-03-20T02:44:00Z,Cascais,Lisboa,Área Metropolitana De Lisboa,-9.419397,38.700982
25114015,"S.pedro e Santiago, S.maria e S.miguel e Matacães",Oeste,311,2025-03-20T02:47:00Z,25114015,Em despacho,3329,Queda de estruturas temporárias ou móveis,0,0,0,0,2025-03-20T02:47:00Z,Torres Vedras,Lisboa,Centro,-9.25368,39.0773
25114146,Brito,Ave,309,2025-03-20T02:59:00Z,25114146,Em despacho,3321,Dano na rede de fornecimento de eletricidade ,0,2,0,4,2025-03-20T02:59:00Z,Guimarães,Braga,Norte,-8.35944,41.45358
25114199,Mafra,Grande Lisboa,311,2025-03-20T03:04:00Z,25114199,Em despacho,3311,Queda de elementos de estruturas edificados,0,0,0,0,2025-03-20T03:04:00Z,Mafra,Lisboa,Área Metropolitana De Lisboa,-9.351689,38.95828
25114283,Sernancelhe e Sarzeda,Douro,309,2025-03-20T03:09:00Z,25114283,Em despacho,3301,Queda de árvore,0,2,0,7,2025-03-20T03:09:00Z,Sernancelhe,Viseu,Norte,-7.511299,40.896763
25114381,Carvalhal Redondo e Aguieira,Viseu Dão Lafões,310,2025-03-20T03:19:00Z,25114381,Em curso,3301,Queda de árvore,0,3,0,5,2025-03-20T03:19:00Z,Nelas,Viseu,Centro,-7.900593,40.538002
25114414,Cela,Oeste,311,2025-03-20T03:20:00Z,25114414,Em curso,3301,Queda de árvore,0,1,0,2,2025-03-20T03:20:00Z,Alcobaça,Leiria,Centro,-9.051565,39.501598
25114548,Queluz e Belas,Grande Lisboa,311,2025-03-20T03:20:00Z,25114548,Em despacho,3301,Queda de árvore,0,1,0,2,2025-03-20T03:20:00Z,Sintra,Lisboa,Área Metropolitana De Lisboa,-9.271667,38.786881
25114565,Vila Franca Das Naves e Feital,Beiras e Serra da Estrela,310,2025-03-20T03:33:00Z,25114565,Em despacho,3301,Queda de árvore,0,2,0,6,2025-03-20T03:33:00Z,Trancoso,Guarda,Centro,-7.258443,40.723136
25114598,Alhos Vedros,Península de Setúbal,311,2025-03-20T00:30:00Z,25114598,Em curso,3301,Queda de árvore,0,1,0,2,2025-03-20T00:30:00Z,Moita,Setúbal,Área Metropolitana De Lisboa,-9.026889,38.657804
25114617,Lousa,Grande Lisboa,311,2025-03-20T03:45:00Z,25114617,Em despacho,3301,Queda de árvore,0,0,0,0,2025-03-20T03:45:00Z,Loures,Lisboa,Área Metropolitana De Lisboa,-9.209783,38.88899
25114701,Fornos de Algodres,Beiras e Serra da Estrela,310,2025-03-20T03:53:00Z,25114701,Em despacho,3301,Queda de árvore,0,2,0,6,2025-03-20T03:53:00Z,Fornos De Algodres,Guarda,Centro,-7.525771,40.610486
25114715,Beja (Santiago Maior e São João Baptista),Baixo Alentejo,312,2025-03-20T03:10:00Z,25114715,Em despacho,3301,Queda de árvore,0,0,0,0,2025-03-20T03:10:00Z,Beja,Beja,Alentejo,-7.902989,38.011769
25114781,Lago,Cávado,309,2025-03-20T04:02:00Z,25114781,Em curso,3311,Queda de elementos de estruturas edificados,0,1,0,2,2025-03-20T04:02:00Z,Amares,Braga,Norte,-8.42077,41.61692
25114815,Buarcos,Região de Coimbra,310,2025-03-20T04:05:00Z,25114815,Em despacho,3301,Queda de árvore,0,1,0,1,2025-03-20T04:05:00Z,Figueira Da Foz,Coimbra,Centro,-8.874837,40.17654
25114835,Cacém e São Marcos,Grande Lisboa,311,2025-03-20T04:07:00Z,25114835,Em despacho,3301,Queda de árvore,0,0,0,0,2025-03-20T04:07:00Z,Sintra,Lisboa,Área Metropolitana De Lisboa,-9.30124,38.75068
25114867,Casal de Cambra,Grande Lisboa,311,2025-03-20T04:00:00Z,25114867,Em curso,3311,Queda de elementos de estruturas edificados,0,1,0,2,2025-03-20T04:00:00Z,Sintra,Lisboa,Área Metropolitana De Lisboa,-9.232552,38.801888
25112887,Sesimbra (Castelo),Península de Setúbal,311,2025-03-20T00:53:00Z,25112887,Em curso,3301,Queda de árvore,0,0,0,0,2025-03-20T00:53:00Z,Sesimbra,Setúbal,Área Metropolitana De Lisboa,-9.093273,38.47523
25112936,Pinhal Novo,Península de Setúbal,311,2025-03-20T00:59:00Z,25112936,Em curso,3329,Queda de estruturas temporárias ou móveis,0,0,0,0,2025-03-20T00:59:00Z,Palmela,Setúbal,Área Metropolitana De Lisboa,-8.93024,38.60548
25112987,Quinta do Anjo,Península de Setúbal,311,2025-03-20T01:06:00Z,25112987,Em curso,3301,Queda de árvore,0,0,0,0,2025-03-20T01:06:00Z,Palmela,Setúbal,Área Metropolitana De Lisboa,-8.94361,38.60282
25113018,Alcochete,Península de Setúbal,311,2025-03-20T01:10:00Z,25113018,Em curso,3321,Dano na rede de fornecimento de eletricidade ,0,0,0,0,2025-03-20T01:10:00Z,Alcochete,Setúbal,Área Metropolitana De Lisboa,-8.93938,38.73429
25113052,São Domingos de Rana,Grande Lisboa,311,2025-03-20T01:13:00Z,25113052,Em despacho,3311,Queda de elementos de estruturas edificados,0,0,0,0,2025-03-20T01:13:00Z,Cascais,Lisboa,Área Metropolitana De Lisboa,-9.32533,38.72599
25113069,Amora,Península de Setúbal,311,2025-03-20T01:15:00Z,25113069,Em curso,3311,Queda de elementos de estruturas edificados,0,0,0,0,2025-03-20T01:15:00Z,Seixal,Setúbal,Área Metropolitana De Lisboa,-9.11034,38.62046
25113085,Santo António Dos Cavaleiros e Frielas,Grande Lisboa,311,2025-03-20T01:14:00Z,25113085,Em despacho,3311,Queda de elementos de estruturas edificados,0,0,0,0,2025-03-20T01:14:00Z,Loures,Lisboa,Área Metropolitana De Lisboa,-9.171619,38.815144
25113086,Quinta do Conde,Península de Setúbal,311,2025-03-20T01:16:00Z,25113086,Em curso,3321,Dano na rede de fornecimento de eletricidade ,0,0,0,0,2025-03-20T01:16:00Z,Sesimbra,Setúbal,Área Metropolitana De Lisboa,-9.04645,38.56296
25113088,Venteira,Grande Lisboa,311,2025-03-20T01:16:00Z,25113088,Em despacho,3311,Queda de elementos de estruturas edificados,0,0,0,0,2025-03-20T01:16:00Z,Amadora,Lisboa,Área Metropolitana De Lisboa,-9.23452,38.75815
25114985,Moita,Península de Setúbal,311,2025-03-20T04:05:00Z,25114985,Em curso,3311,Queda de elementos de estruturas edificados,0,1,0,3,2025-03-20T04:05:00Z,Moita,Setúbal,Área Metropolitana De Lisboa,-8.985364,38.643702
25115150,Torrão,Alentejo Litoral,312,2025-03-20T04:45:00Z,25115150,Em resolução,3301,Queda de árvore,0,3,0,4,2025-03-20T04:45:00Z,Alcácer Do Sal,Setúbal,Alentejo,-8.367086,38.190745
25115169,Alcaria Ruiva,Baixo Alentejo,312,2025-03-20T04:45:00Z,25115169,Em curso,3301,Queda de árvore,0,1,0,2,2025-03-20T04:45:00Z,Mértola,Beja,Alentejo,-7.754772,37.713133
25115235,Poiares,Douro,309,2025-03-20T04:45:00Z,25115235,Em despacho,3301,Queda de árvore,0,1,0,3,2025-03-20T04:45:00Z,Freixo De Espada à Cinta,Bragança,Norte,-6.847067,41.065058
25115249,Alcaria Ruiva,Baixo Alentejo,312,2025-03-20T05:01:00Z,25115249,Em curso,3301,Queda de árvore,0,1,0,5,2025-03-20T05:01:00Z,Mértola,Beja,Alentejo,-7.8655,37.71755
25115269,Chacim,Terras de Trás-os-Montes,309,2025-03-20T05:00:00Z,25115269,Em curso,3311,Queda de elementos de estruturas edificados,0,1,0,2,2025-03-20T05:00:00Z,Macedo De Cavaleiros,Bragança,Norte,-6.903879,41.462748
25115302,"Almargem do Bispo, Pêro Pinheiro e Montelavar",Grande Lisboa,311,2025-03-20T05:07:00Z,25115302,Em despacho,3301,Queda de árvore,0,0,0,0,2025-03-20T05:07:00Z,Sintra,Lisboa,Área Metropolitana De Lisboa,-9.30988,38.83504
25115350,São Martinho de Árvore e Lamarosa,Região de Coimbra,310,2025-03-20T05:13:00Z,25115350,Em despacho,3301,Queda de árvore,0,1,0,3,2025-03-20T05:13:00Z,Coimbra,Coimbra,Centro,-8.551362,40.22228
25115402,Silgueiros,Viseu Dão Lafões,310,2025-03-20T05:21:00Z,25115402,Em despacho,3301,Queda de árvore,0,1,0,2,2025-03-20T05:21:00Z,Viseu,Viseu,Centro,-7.97615,40.55187
25115450,Fontes,Douro,309,2025-03-20T05:24:00Z,25115450,Em despacho,3301,Queda de árvore,0,2,0,4,2025-03-20T05:24:00Z,Santa Marta De Penaguião,Vila Real,Norte,-7.823046,41.226681
25115484,Santo Isidoro,Grande Lisboa,311,2025-03-20T05:31:00Z,25115484,Em despacho,3301,Queda de árvore,0,0,0,0,2025-03-20T05:31:00Z,Mafra,Lisboa,Área Metropolitana De Lisboa,-9.35978,38.99009
25115519,Palhais e Coina,Península de Setúbal,311,2025-03-20T05:35:00Z,25115519,Em curso,3301,Queda de árvore,0,0,0,0,2025-03-20T05:35:00Z,Barreiro,Setúbal,Área Metropolitana De Lisboa,-9.04503,38.59544
25115553,Cascais e Estoril,Grande Lisboa,311,2025-03-20T05:40:00Z,25115553,Em despacho,3301,Queda de árvore,0,0,0,0,2025-03-20T05:40:00Z,Cascais,Lisboa,Área Metropolitana De Lisboa,-9.387946,38.71141
25115567,Carvalhal Benfeito,Oeste,311,2025-03-20T05:40:00Z,25115567,Em despacho,3301,Queda de árvore,0,0,0,0,2025-03-20T05:40:00Z,Caldas Da Rainha,Leiria,Centro,-9.038958,39.42604
25115601,Carvalhal,Oeste,311,2025-03-20T05:24:00Z,25115601,Em curso,3301,Queda de árvore,0,1,0,4,2025-03-20T05:24:00Z,Bombarral,Leiria,Centro,-9.114338,39.316976
25115620,Parada de Ester e Ester,Viseu Dão Lafões,310,2025-03-20T05:32:00Z,25115620,Em curso,3301,Queda de árvore,0,0,0,0,2025-03-20T05:32:00Z,Castro Daire,Viseu,Centro,-8.071387,40.932635
25115637,Espinho,Região de Coimbra,310,2025-03-20T05:50:00Z,25115637,Em despacho,3311,Queda de elementos de estruturas edificados,0,1,0,2,2025-03-20T05:50:00Z,Mortágua,Viseu,Centro,-8.309869,40.422828
25115685,Fanhões,Grande Lisboa,311,2025-03-20T05:55:00Z,25115685,Em despacho,3301,Queda de árvore,0,0,0,0,2025-03-20T05:55:00Z,Loures,Lisboa,Área Metropolitana De Lisboa,-9.189041,38.903262
25115702,Cascais e Estoril,Grande Lisboa,311,2025-03-20T05:59:00Z,25115702,Em despacho,3301,Queda de árvore,0,0,0,0,2025-03-20T05:59:00Z,Cascais,Lisboa,Área Metropolitana De Lisboa,-9.40372,38.7131
25115735,Palmela,Península de Setúbal,311,2025-03-20T06:03:00Z,25115735,Em curso,3301,Queda de árvore,0,0,0,0,2025-03-20T06:03:00Z,Palmela,Setúbal,Área Metropolitana De Lisboa,-8.92673,38.57614
25113434,"Seixal, Arrentela e Aldeia de Paio Pires",Península de Setúbal,311,2025-03-20T01:50:00Z,25113434,Em curso,3311,Queda de elementos de estruturas edificados,0,0,0,0,2025-03-20T01:50:00Z,Seixal,Setúbal,Área Metropolitana De Lisboa,-9.08101,38.61963
25113441,Casal de Cambra,Grande Lisboa,311,2025-03-20T01:51:00Z,25113441,Em despacho,3311,Queda de elementos de estruturas edificados,0,0,0,0,2025-03-20T01:51:00Z,Sintra,Lisboa,Área Metropolitana De Lisboa,-9.22849,38.801
25113466,Azeitão (São Lourenço e São Simão),Península de Setúbal,311,2025-03-20T01:54:00Z,25113466,Em curso,3301,Queda de árvore,0,0,0,0,2025-03-20T01:54:00Z,Setúbal,Setúbal,Área Metropolitana De Lisboa,-9.01947,38.5205
25113482,São João Das Lampas e Terrugem,Grande Lisboa,311,2025-03-20T01:54:00Z,25113482,Em despacho,3301,Queda de árvore,0,0,0,0,2025-03-20T01:54:00Z,Sintra,Lisboa,Área Metropolitana De Lisboa,-9.436253,38.869236
25113527,Fernão Ferro,Península de Setúbal,311,2025-03-20T02:01:00Z,25113527,Em curso,3301,Queda de árvore,0,0,0,0,2025-03-20T02:01:00Z,Seixal,Setúbal,Área Metropolitana De Lisboa,-9.09935,38.56798
25113616,"Enxara do Bispo, Gradil e Vila Franca do Rosário",Grande Lisboa,311,2025-03-20T01:30:00Z,25113616,Em curso,3321,Dano na rede de fornecimento de eletricidade ,0,0,0,0,2025-03-20T01:30:00Z,Mafra,Lisboa,Área Metropolitana De Lisboa,-9.260847,38.962848
25113650,Carcavelos e Parede,Grande Lisboa,311,2025-03-20T02:12:00Z,25113650,Em despacho,3301,Queda de árvore,0,0,0,0,2025-03-20T02:12:00Z,Cascais,Lisboa,Área Metropolitana De Lisboa,-9.325114,38.69928
25113686,Alpiarça,Lezíria do Tejo,311,2025-03-20T02:17:00Z,25113686,Em despacho,3321,Dano na rede de fornecimento de eletricidade ,0,1,0,1,2025-03-20T02:17:00Z,Alpiarça,Santarém,Alentejo,-8.57695,39.25462
25113700,São João Das Lampas e Terrugem,Grande Lisboa,311,2025-03-20T02:19:00Z,25113700,Em despacho,3321,Dano na rede de fornecimento de eletricidade ,0,0,0,0,2025-03-20T02:19:00Z,Sintra,Lisboa,Área Metropolitana De Lisboa,-9.39833,38.92588
25113102,Charneca de Caparica e Sobreda,Península de Setúbal,311,2025-03-20T01:18:00Z,25113102,Em curso,3301,Queda de árvore,0,0,0,0,2025-03-20T01:18:00Z,Almada,Setúbal,Área Metropolitana De Lisboa,-9.17228,38.58738
25113135,Rio de Mouro,Grande Lisboa,311,2025-03-20T01:20:00Z,25113135,Em despacho,3321,Dano na rede de fornecimento de eletricidade ,0,0,0,0,2025-03-20T01:20:00Z,Sintra,Lisboa,Área Metropolitana De Lisboa,-9.317364,38.786733
25113170,Corroios,Península de Setúbal,311,2025-03-20T01:24:00Z,25113170,Em curso,3301,Queda de árvore,0,0,0,0,2025-03-20T01:24:00Z,Seixal,Setúbal,Área Metropolitana De Lisboa,-9.15464,38.58128
25113171,São João Das Lampas e Terrugem,Grande Lisboa,311,2025-03-20T01:24:00Z,25113171,Em despacho,3301,Queda de árvore,0,0,0,0,2025-03-20T01:24:00Z,Sintra,Lisboa,Área Metropolitana De Lisboa,-9.38058,38.91877
25113236,"Almada, Cova da Piedade, Pragal e Cacilhas",Península de Setúbal,311,2025-03-20T01:32:00Z,25113236,Em curso,3311,Queda de elementos de estruturas edificados,0,0,0,0,2025-03-20T01:32:00Z,Almada,Setúbal,Área Metropolitana De Lisboa,-9.15908,38.67736
25113237,Costa da Caparica,Península de Setúbal,311,2025-03-20T01:32:00Z,25113237,Em curso,3311,Queda de elementos de estruturas edificados,0,0,0,0,2025-03-20T01:32:00Z,Almada,Setúbal,Área Metropolitana De Lisboa,-9.23149,38.63755
25113252,Venteira,Grande Lisboa,311,2025-03-20T01:33:00Z,25113252,Em despacho,3311,Queda de elementos de estruturas edificados,0,0,0,0,2025-03-20T01:33:00Z,Amadora,Lisboa,Área Metropolitana De Lisboa,-9.23969,38.75664
25113270,Charneca de Caparica e Sobreda,Península de Setúbal,311,2025-03-20T01:34:00Z,25113270,Em curso,3301,Queda de árvore,0,0,0,0,2025-03-20T01:34:00Z,Almada,Setúbal,Área Metropolitana De Lisboa,-9.17811,38.58586
25115752,Forno Telheiro,Beiras e Serra da Estrela,310,2025-03-20T06:06:00Z,25115752,Em curso,3301,Queda de árvore,0,1,0,2,2025-03-20T06:06:00Z,Celorico Da Beira,Guarda,Centro,-7.389122,40.677411
25115754,Muxagata,Beiras e Serra da Estrela,310,2025-03-20T06:07:00Z,25115754,Em despacho,3301,Queda de árvore,0,1,0,2,2025-03-20T06:07:00Z,Fornos De Algodres,Guarda,Centro,-7.471552,40.647
25115770,Aldeia Galega da Merceana e Aldeia Gavinha,Oeste,311,2025-03-20T05:39:00Z,25115770,Em curso,3301,Queda de árvore,0,1,0,2,2025-03-20T05:39:00Z,Alenquer,Lisboa,Centro,-9.123435,39.075879
25115771,Mafra,Grande Lisboa,311,2025-03-20T06:09:00Z,25115771,Em despacho,3301,Queda de árvore,0,0,0,0,2025-03-20T06:09:00Z,Mafra,Lisboa,Área Metropolitana De Lisboa,-9.33189,38.9307
25115786,"Amarante (São Gonçalo), Madalena, Cepelos e Gatão",Tâmega e Sousa,309,2025-03-20T06:05:00Z,25115786,Em despacho,3301,Queda de árvore,0,2,0,4,2025-03-20T06:05:00Z,Amarante,Porto,Norte,-8.085395,41.273908
25115818,Santiago Dos Velhos,Oeste,311,2025-03-20T06:13:00Z,25115818,Em despacho,3301,Queda de árvore,0,0,0,0,2025-03-20T06:13:00Z,Arruda Dos Vinhos,Lisboa,Centro,-9.118066,38.939012
25115819,Águas Santas,Area M. Porto,309,2025-03-20T06:14:00Z,25115819,Em despacho,3311,Queda de elementos de estruturas edificados,0,0,0,0,2025-03-20T06:14:00Z,Maia,Porto,Norte,-8.57619,41.20257
25115853,Moimenta da Serra e Vinhó,Beiras e Serra da Estrela,310,2025-03-20T06:10:00Z,25115853,Em despacho,3301,Queda de árvore,0,1,0,3,2025-03-20T06:10:00Z,Gouveia,Guarda,Centro,-7.635836,40.485517
25115869,"Abrunheira, Verride e Vila Nova da Barca",Região de Coimbra,310,2025-03-20T06:20:00Z,25115869,Em despacho,3301,Queda de árvore,0,0,0,0,2025-03-20T06:20:00Z,Montemor-o-Velho,Coimbra,Centro,-8.703398,40.139677
25113741,Carregal do Sal,Viseu Dão Lafões,310,2025-03-20T02:17:00Z,25113741,Em despacho,3329,Queda de estruturas temporárias ou móveis,0,2,0,4,2025-03-20T02:17:00Z,Carregal Do Sal,Viseu,Centro,-7.999939,40.437298
25113768,São João Das Lampas e Terrugem,Grande Lisboa,311,2025-03-20T02:26:00Z,25113768,Em despacho,3301,Queda de árvore,0,0,0,0,2025-03-20T02:26:00Z,Sintra,Lisboa,Área Metropolitana De Lisboa,-9.41128,38.85702
25113866,Bensafrim e Barão de São João,Algarve,313,2025-03-20T01:30:00Z,25113866,Em despacho,3301,Queda de árvore,0,1,0,3,2025-03-20T01:30:00Z,Lagos,Faro,Algarve,-8.733104,37.158743
25113875,Charneca de Caparica e Sobreda,Península de Setúbal,311,2025-03-20T02:35:00Z,25113875,Em curso,3321,Dano na rede de fornecimento de eletricidade ,0,0,0,0,2025-03-20T02:35:00Z,Almada,Setúbal,Área Metropolitana De Lisboa,-9.17345,38.58643
25113911,Sapataria,Oeste,311,2025-03-20T02:15:00Z,25113911,Em despacho,3301,Queda de árvore,0,1,0,3,2025-03-20T02:15:00Z,Sobral De Monte Agraço,Lisboa,Centro,-9.198053,38.966232
25113927,"Almada, Cova da Piedade, Pragal e Cacilhas",Península de Setúbal,311,2025-03-20T02:38:00Z,25113927,Em curso,3301,Queda de árvore,0,0,0,0,2025-03-20T02:38:00Z,Almada,Setúbal,Área Metropolitana De Lisboa,-9.16689,38.67327
25113968,Beja (Santiago Maior e São João Baptista),Baixo Alentejo,312,2025-03-20T01:55:00Z,25113968,Em conclusão,3301,Queda de árvore,0,0,0,0,2025-03-20T01:55:00Z,Beja,Beja,Alentejo,-7.87003,38.014111
25113970,Pontinha e Famões,Grande Lisboa,311,2025-03-20T02:43:00Z,25113970,Em despacho,3315,Inundação de estruturas por precipitação intensa,0,0,0,0,2025-03-20T02:43:00Z,Odivelas,Lisboa,Área Metropolitana De Lisboa,-9.19871,38.76359
25113993,Corroios,Península de Setúbal,311,2025-03-20T02:45:00Z,25113993,Em curso,3301,Queda de árvore,0,0,0,0,2025-03-20T02:45:00Z,Seixal,Setúbal,Área Metropolitana De Lisboa,-9.1512,38.58007
25115902,Chave,Area M. Porto,309,2025-03-20T06:21:00Z,25115902,Em despacho,3301,Queda de árvore,0,1,0,2,2025-03-20T06:21:00Z,Arouca,Aveiro,Norte,-8.350782,40.904985
25115903,Caparica e Trafaria,Península de Setúbal,311,2025-03-20T06:24:00Z,25115903,Em curso,3311,Queda de elementos de estruturas edificados,0,0,0,0,2025-03-20T06:24:00Z,Almada,Setúbal,Área Metropolitana De Lisboa,-9.255474,38.66401
25115951,Freixieiro de Soutelo,Alto Minho,309,2025-03-20T06:30:00Z,25115951,Em despacho,3301,Queda de árvore,0,0,0,0,2025-03-20T06:30:00Z,Viana Do Castelo,Viana Do Castelo,Norte,-8.791324,41.79232
25115969,Cartaxo e Vale da Pinta,Lezíria do Tejo,311,2025-03-20T06:32:00Z,25115969,Em resolução,3301,Queda de árvore,0,2,0,9,2025-03-20T06:32:00Z,Cartaxo,Santarém,Alentejo,-8.830043,39.181272
25115970,Comenda,Alto Alentejo,312,2025-03-20T06:33:00Z,25115970,Em resolução,3301,Queda de árvore,0,2,0,6,2025-03-20T06:33:00Z,Gavião,Portalegre,Alentejo,-7.834547,39.404223
25115971,Carvalhal Benfeito,Oeste,311,2025-03-20T06:32:00Z,25115971,Em despacho,3301,Queda de árvore,0,1,0,5,2025-03-20T06:32:00Z,Caldas Da Rainha,Leiria,Centro,-9.044987,39.443106
25116003,Adaúfe,Cávado,309,2025-03-20T05:42:00Z,25116003,Em despacho,3301,Queda de árvore,0,1,0,3,2025-03-20T05:42:00Z,Braga,Braga,Norte,-8.398076,41.589984
25116020,São José da Lamarosa,Lezíria do Tejo,311,2025-03-20T06:38:00Z,25116020,Em curso,3301,Queda de árvore,0,0,0,0,2025-03-20T06:38:00Z,Coruche,Santarém,Alentejo,-8.528322,38.96189
25116038,"Algodres, Vale de Afonsinho e Vilar de Amargo",Beiras e Serra da Estrela,310,2025-03-20T06:40:00Z,25116038,Em curso,3301,Queda de árvore,0,1,0,2,2025-03-20T06:40:00Z,Figueira De Castelo Rodrigo,Guarda,Centro,-7.013253,40.946134
25116054,Gamil e Midões,Cávado,309,2025-03-20T06:40:00Z,25116054,Em curso,3301,Queda de árvore,0,1,0,2,2025-03-20T06:40:00Z,Barcelos,Braga,Norte,-8.591027,41.513648
25116055,Quinta do Conde,Península de Setúbal,311,2025-03-20T06:36:00Z,25116055,Em curso,3301,Queda de árvore,0,1,0,5,2025-03-20T06:36:00Z,Sesimbra,Setúbal,Área Metropolitana De Lisboa,-9.03613,38.570355
25113995,"Oeiras e S. Julião da Barra, Paço de Arcos e Caxias",Grande Lisboa,311,2025-03-20T02:45:00Z,25113995,Em despacho,3301,Queda de árvore,0,0,0,0,2025-03-20T02:45:00Z,Oeiras,Lisboa,Área Metropolitana De Lisboa,-9.272,38.70125
25114000,Aguiar da Beira e Coruche,Viseu Dão Lafões,310,2025-03-20T02:42:00Z,25114000,Em curso,3301,Queda de árvore,0,1,0,2,2025-03-20T02:42:00Z,Aguiar Da Beira,Guarda,Centro,-7.565847,40.766682
25114095,Pinhal Novo,Península de Setúbal,311,2025-03-20T02:30:00Z,25114095,Em curso,3301,Queda de árvore,0,2,0,3,2025-03-20T02:30:00Z,Palmela,Setúbal,Área Metropolitana De Lisboa,-8.91294,38.637902
25114136,Azambuja,Lezíria do Tejo,311,2025-03-20T02:57:00Z,25114136,Em despacho,3301,Queda de árvore,0,1,0,1,2025-03-20T02:57:00Z,Azambuja,Lisboa,Alentejo,-8.864506,39.067885
25114159,"Oeiras e S. Julião da Barra, Paço de Arcos e Caxias",Grande Lisboa,311,2025-03-20T03:00:00Z,25114159,Em despacho,3301,Queda de árvore,0,0,0,0,2025-03-20T03:00:00Z,Oeiras,Lisboa,Área Metropolitana De Lisboa,-9.29439,38.70243
25114184,Ramada e Caneças,Grande Lisboa,311,2025-03-20T03:03:00Z,25114184,Em despacho,3311,Queda de elementos de estruturas edificados,0,0,0,0,2025-03-20T03:03:00Z,Odivelas,Lisboa,Área Metropolitana De Lisboa,-9.18865,38.81316
25114234,Carvalhal,Oeste,311,2025-03-20T03:08:00Z,25114234,Em despacho,3311,Queda de elementos de estruturas edificados,0,0,0,0,2025-03-20T03:08:00Z,Bombarral,Leiria,Centro,-9.12731,39.28677
25114236,Ronfe,Ave,309,2025-03-20T03:08:00Z,25114236,Em despacho,3311,Queda de elementos de estruturas edificados,0,1,0,2,2025-03-20T03:08:00Z,Guimarães,Braga,Norte,-8.38642,41.44113
25116068,Oliveirinha,Região de Aveiro,310,2025-03-20T06:44:00Z,25116068,Em curso,3301,Queda de árvore,0,1,0,4,2025-03-20T06:44:00Z,Aveiro,Aveiro,Centro,-8.6056,40.60578
25116069,São João Das Lampas e Terrugem,Grande Lisboa,311,2025-03-20T06:44:00Z,25116069,Em despacho,3301,Queda de árvore,0,0,0,0,2025-03-20T06:44:00Z,Sintra,Lisboa,Área Metropolitana De Lisboa,-9.412176,38.875807
25116071,Cascais e Estoril,Grande Lisboa,311,2025-03-20T01:02:00Z,25116071,Em curso,3301,Queda de árvore,0,0,0,0,2025-03-20T01:02:00Z,Cascais,Lisboa,Área Metropolitana De Lisboa,-9.431354,38.711316
25116085,Canaviais,Alentejo Central,312,2025-03-20T06:45:00Z,25116085,Em conclusão,3301,Queda de árvore,0,1,0,4,2025-03-20T06:45:00Z,Évora,Évora,Alentejo,-7.892953,38.601032
25116088,Sines,Alentejo Litoral,312,2025-03-20T06:48:00Z,25116088,Em curso,3301,Queda de árvore,0,3,0,6,2025-03-20T06:48:00Z,Sines,Setúbal,Alentejo,-8.862668,37.95764
25116104,Corroios,Península de Setúbal,311,2025-03-20T06:50:00Z,25116104,Em curso,3301,Queda de árvore,0,0,0,0,2025-03-20T06:50:00Z,Seixal,Setúbal,Área Metropolitana De Lisboa,-9.15159,38.58357
25116118,Ramada e Caneças,Grande Lisboa,311,2025-03-20T06:51:00Z,25116118,Em despacho,3301,Queda de árvore,0,0,0,0,2025-03-20T06:51:00Z,Odivelas,Lisboa,Área Metropolitana De Lisboa,-9.18996,38.80133
25116119,Pinheiro de Ázere,Viseu Dão Lafões,310,2025-03-20T06:46:00Z,25116119,Em despacho,3301,Queda de árvore,0,1,0,2,2025-03-20T06:46:00Z,Santa Comba Dão,Viseu,Centro,-8.114283,40.357223
25116135,"Algés, Linda-a-Velha e Cruz Quebrada-Dafundo",Grande Lisboa,311,2025-03-20T06:53:00Z,25116135,Em despacho,3301,Queda de árvore,0,1,0,4,2025-03-20T06:53:00Z,Oeiras,Lisboa,Área Metropolitana De Lisboa,-9.25053,38.70079
25116152,São Brás de Alportel,Algarve,313,2025-03-20T06:46:00Z,25116152,Em despacho,3301,Queda de árvore,0,1,0,5,2025-03-20T06:46:00Z,São Brás De Alportel,Faro,Algarve,-7.890777,37.235711
25112781,Moita,Península de Setúbal,311,2025-03-20T00:35:00Z,25112781,Em curso,3301,Queda de árvore,0,0,0,0,2025-03-20T00:35:00Z,Moita,Setúbal,Área Metropolitana De Lisboa,-8.985364,38.643702
25112838,"Almada, Cova da Piedade, Pragal e Cacilhas",Península de Setúbal,311,2025-03-20T00:47:00Z,25112838,Em curso,3301,Queda de árvore,0,0,0,0,2025-03-20T00:47:00Z,Almada,Setúbal,Área Metropolitana De Lisboa,-9.15927,38.6747
25112933,Febres,Região de Coimbra,310,2025-03-20T00:45:00Z,25112933,Em despacho,3311,Queda de elementos de estruturas edificados,0,0,0,0,2025-03-20T00:45:00Z,Cantanhede,Coimbra,Centro,-8.63492,40.400257
25112974,Corroios,Península de Setúbal,311,2025-03-20T01:04:00Z,25112974,Em curso,3301,Queda de árvore,0,0,0,0,2025-03-20T01:04:00Z,Seixal,Setúbal,Área Metropolitana De Lisboa,-9.1683,38.62225
25113022,São Domingos de Rana,Grande Lisboa,311,2025-03-20T01:10:00Z,25113022,Em despacho,3311,Queda de elementos de estruturas edificados,0,0,0,0,2025-03-20T01:10:00Z,Cascais,Lisboa,Área Metropolitana De Lisboa,-9.3408,38.73652
25113042,Oliveira do Hospital e São Paio de Gramaços,Região de Coimbra,310,2025-03-20T01:10:00Z,25113042,Em despacho,3329,Queda de estruturas temporárias ou móveis,0,1,0,2,2025-03-20T01:10:00Z,Oliveira Do Hospital,Coimbra,Centro,-7.849022,40.355133
25113076,Cascais e Estoril,Grande Lisboa,311,2025-03-20T01:15:00Z,25113076,Em despacho,3311,Queda de elementos de estruturas edificados,0,0,0,0,2025-03-20T01:15:00Z,Cascais,Lisboa,Área Metropolitana De Lisboa,-9.40634,38.72382
25113090,"Alhandra, São João Dos Montes e Calhandriz",Grande Lisboa,311,2025-03-20T01:16:00Z,25113090,Em despacho,3301,Queda de árvore,0,0,0,0,2025-03-20T01:16:00Z,Vila Franca De Xira,Lisboa,Área Metropolitana De Lisboa,-9.02855,38.9405
25116169,Parceiros e Azoia,Região de Leiria,310,2025-03-20T06:54:00Z,25116169,Em despacho,3301,Queda de árvore,0,1,0,5,2025-03-20T06:54:00Z,Leiria,Leiria,Centro,-8.831599,39.709381
25116172,Serra e Junceira,Médio Tejo,311,2025-03-20T06:54:00Z,25116172,Em resolução,3301,Queda de árvore,0,1,0,4,2025-03-20T06:54:00Z,Tomar,Santarém,Centro,-8.313777,39.6063
25116185,Sesimbra (Castelo),Península de Setúbal,311,2025-03-20T06:58:00Z,25116185,Em curso,3301,Queda de árvore,0,0,0,0,2025-03-20T06:58:00Z,Sesimbra,Setúbal,Área Metropolitana De Lisboa,-9.107945,38.48849
25116203,Pinhal Novo,Península de Setúbal,311,2025-03-20T07:00:00Z,25116203,Em curso,3301,Queda de árvore,0,2,0,5,2025-03-20T07:00:00Z,Palmela,Setúbal,Área Metropolitana De Lisboa,-8.88395,38.62085
25116205,Charneca de Caparica e Sobreda,Península de Setúbal,311,2025-03-20T07:00:00Z,25116205,Em curso,3301,Queda de árvore,0,0,0,0,2025-03-20T07:00:00Z,Almada,Setúbal,Área Metropolitana De Lisboa,-9.17532,38.61999
25116219,"Oeiras e S. Julião da Barra, Paço de Arcos e Caxias",Grande Lisboa,311,2025-03-20T07:01:00Z,25116219,Em despacho,3301,Queda de árvore,0,0,0,0,2025-03-20T07:01:00Z,Oeiras,Lisboa,Área Metropolitana De Lisboa,-9.290593,38.696925
25116220,Ameixial,Algarve,313,2025-03-20T07:02:00Z,25116220,Em despacho,3301,Queda de árvore,0,1,0,4,2025-03-20T07:02:00Z,Loulé,Faro,Algarve,-8.034868,37.33531
25116222,Montijo e Afonsoeiro,Península de Setúbal,311,2025-03-20T06:55:00Z,25116222,Em curso,3301,Queda de árvore,0,1,0,5,2025-03-20T06:55:00Z,Montijo,Setúbal,Área Metropolitana De Lisboa,-8.975715,38.702323
25116235,Sanfins Lamoso Codessos,Tâmega e Sousa,309,2025-03-20T06:57:00Z,25116235,Em curso,3311,Queda de elementos de estruturas edificados,0,1,0,2,2025-03-20T06:57:00Z,Paços De Ferreira,Porto,Norte,-8.365787,41.324646
25116236,Laranjeiro e Feijó,Península de Setúbal,311,2025-03-20T07:04:00Z,25116236,Em curso,3311,Queda de elementos de estruturas edificados,0,0,0,0,2025-03-20T07:04:00Z,Almada,Setúbal,Área Metropolitana De Lisboa,-9.15521,38.65175
25116237,Portimão,Algarve,313,2025-03-20T07:04:00Z,25116237,Em despacho,3301,Queda de árvore,0,1,0,3,2025-03-20T07:04:00Z,Portimão,Faro,Algarve,-8.554968,37.14209
25116254,Castanheira do Ribatejo e Cachoeiras,Grande Lisboa,311,2025-03-20T07:03:00Z,25116254,Em despacho,3301,Queda de árvore,0,1,0,5,2025-03-20T07:03:00Z,Vila Franca De Xira,Lisboa,Área Metropolitana De Lisboa,-8.979234,38.999552
25116270,Salir,Algarve,313,2025-03-20T07:07:00Z,25116270,Em despacho,3301,Queda de árvore,0,1,0,2,2025-03-20T07:07:00Z,Loulé,Faro,Algarve,-8.055547,37.2208
25116271,Sanguedo,Area M. Porto,309,2025-03-20T07:07:00Z,25116271,Em conclusão,3321,Dano na rede de fornecimento de eletricidade ,0,1,0,2,2025-03-20T07:07:00Z,Santa Maria Da Feira,Aveiro,Norte,-8.50759,41.00475
25116272,Portimão,Algarve,313,2025-03-20T06:51:00Z,25116272,Em despacho,3311,Queda de elementos de estruturas edificados,0,1,0,3,2025-03-20T06:51:00Z,Portimão,Faro,Algarve,-8.532608,37.137966
25116289,a Dos Francos,Oeste,311,2025-03-20T07:09:00Z,25116289,Em despacho,3301,Queda de árvore,0,1,0,4,2025-03-20T07:09:00Z,Caldas Da Rainha,Leiria,Centro,-9.076736,39.32277
25116304,Vila Franca de Xira,Grande Lisboa,311,2025-03-20T07:10:00Z,25116304,Em despacho,3301,Queda de árvore,0,2,0,5,2025-03-20T07:10:00Z,Vila Franca De Xira,Lisboa,Área Metropolitana De Lisboa,-8.99273,38.97299
25116319,Touvedo (São Lourenço e Salvador),Alto Minho,309,2025-03-20T07:08:00Z,25116319,Em despacho,3301,Queda de árvore,0,2,0,3,2025-03-20T07:08:00Z,Ponte Da Barca,Viana Do Castelo,Norte,-8.360314,41.799475
25116320,Fiscal,Cávado,309,2025-03-20T07:08:00Z,25116320,Em despacho,3301,Queda de árvore,0,1,0,2,2025-03-20T07:08:00Z,Amares,Braga,Norte,-8.393692,41.652878
25116337,"Manique do Intendente, V. N. de São Pedro e Maçussa",Lezíria do Tejo,311,2025-03-20T07:14:00Z,25116337,Em despacho,3301,Queda de árvore,0,0,0,0,2025-03-20T07:14:00Z,Azambuja,Lisboa,Alentejo,-8.866807,39.19454
25116338,Penalva de Alva e São Sebastião da Feira,Região de Coimbra,310,2025-03-20T07:00:00Z,25116338,Em despacho,3301,Queda de árvore,0,1,0,2,2025-03-20T07:00:00Z,Oliveira Do Hospital,Coimbra,Centro,-7.868444,40.307394
25116352,"Cedofeita, Ildefonso, Sé, Miragaia, Nicolau e Vitória",Area M. Porto,309,2025-03-20T06:56:00Z,25116352,Em despacho,3311,Queda de elementos de estruturas edificados,0,1,0,5,2025-03-20T06:56:00Z,Porto,Porto,Norte,-8.615939,41.15359
25116355,Charneca de Caparica e Sobreda,Península de Setúbal,311,2025-03-20T07:16:00Z,25116355,Em curso,3301,Queda de árvore,0,0,0,0,2025-03-20T07:16:00Z,Almada,Setúbal,Área Metropolitana De Lisboa,-9.16489,38.57347
25116370,Benedita,Oeste,311,2025-03-20T07:12:00Z,25116370,Em despacho,3321,Dano na rede de fornecimento de eletricidade ,0,1,0,5,2025-03-20T07:12:00Z,Alcobaça,Leiria,Centro,-8.979714,39.424686
25116371,Asseiceira,Lezíria do Tejo,311,2025-03-20T07:17:00Z,25116371,Em resolução,3301,Queda de árvore,0,1,0,4,2025-03-20T07:17:00Z,Rio Maior,Santarém,Alentejo,-8.929497,39.298043
25116372,Lousã e Vilarinho,Região de Coimbra,310,2025-03-20T07:10:00Z,25116372,Em despacho,3321,Dano na rede de fornecimento de eletricidade ,0,1,0,2,2025-03-20T07:10:00Z,Lousã,Coimbra,Centro,-8.244585,40.136529
25116388,Gondoriz,Cávado,309,2025-03-20T07:06:00Z,25116388,Em conclusão,3301,Queda de árvore,0,1,0,2,2025-03-20T07:06:00Z,Terras De Bouro,Braga,Norte,-8.299035,41.74115
25116402,Pedrógão Grande,Região de Leiria,310,2025-03-20T07:16:00Z,25116402,Em despacho,3301,Queda de árvore,0,2,0,7,2025-03-20T07:16:00Z,Pedrógão Grande,Leiria,Centro,-8.144807,39.916835
25116403,"Algés, Linda-a-Velha e Cruz Quebrada-Dafundo",Grande Lisboa,311,2025-03-20T07:18:00Z,25116403,Em despacho,3301,Queda de árvore,0,1,0,3,2025-03-20T07:18:00Z,Oeiras,Lisboa,Área Metropolitana De Lisboa,-9.22967,38.696612
25116404,Souto,Douro,309,2025-03-20T07:19:00Z,25116404,Em despacho,3301,Queda de árvore,0,1,0,2,2025-03-20T07:19:00Z,Penedono,Viseu,Norte,-7.369697,41.033683
25113288,"N. S. da Vila, N. S. do Bispo e Silveiras",Alentejo Central,312,2025-03-20T01:20:00Z,25113288,Em despacho,3301,Queda de árvore,0,1,0,2,2025-03-20T01:20:00Z,Montemor-o-Novo,Évora,Alentejo,-8.21652,38.662575
25113289,Amora,Península de Setúbal,311,2025-03-20T01:36:00Z,25113289,Em curso,3311,Queda de elementos de estruturas edificados,0,0,0,0,2025-03-20T01:36:00Z,Seixal,Setúbal,Área Metropolitana De Lisboa,-9.14507,38.59622
25113304,São Domingos de Rana,Grande Lisboa,311,2025-03-20T01:38:00Z,25113304,Em despacho,3321,Dano na rede de fornecimento de eletricidade ,0,0,0,0,2025-03-20T01:38:00Z,Cascais,Lisboa,Área Metropolitana De Lisboa,-9.32923,38.71493
25113354,Mina de Água,Grande Lisboa,311,2025-03-20T01:43:00Z,25113354,Em despacho,3311,Queda de elementos de estruturas edificados,0,0,0,0,2025-03-20T01:43:00Z,Amadora,Lisboa,Área Metropolitana De Lisboa,-9.243611,38.76194
25113421,Igreja Nova e Cheleiros,Grande Lisboa,311,2025-03-20T01:49:00Z,25113421,Em despacho,3301,Queda de árvore,0,0,0,0,2025-03-20T01:49:00Z,Mafra,Lisboa,Área Metropolitana De Lisboa,-9.310799,38.93288
25113436,Fernão Ferro,Península de Setúbal,311,2025-03-20T01:51:00Z,25113436,Em curso,3301,Queda de árvore,0,0,0,0,2025-03-20T01:51:00Z,Seixal,Setúbal,Área Metropolitana De Lisboa,-9.09578,38.55292
25113437,Covões e Camarneira,Região de Coimbra,310,2025-03-20T01:48:00Z,25113437,Em despacho,3301,Queda de árvore,0,0,0,0,2025-03-20T01:48:00Z,Cantanhede,Coimbra,Centro,-8.602074,40.443399
25113455,Charneca de Caparica e Sobreda,Península de Setúbal,311,2025-03-20T01:53:00Z,25113455,Em curso,3301,Queda de árvore,0,0,0,0,2025-03-20T01:53:00Z,Almada,Setúbal,Área Metropolitana De Lisboa,-9.17021,38.57797
25113470,Cascais e Estoril,Grande Lisboa,311,2025-03-20T01:54:00Z,25113470,Em despacho,3301,Queda de árvore,0,0,0,0,2025-03-20T01:54:00Z,Cascais,Lisboa,Área Metropolitana De Lisboa,-9.434008,38.71018
25116405,"Lobão, Gião, Louredo e Guisande",Area M. Porto,309,2025-03-20T07:00:00Z,25116405,Em despacho,3301,Queda de árvore,0,1,0,2,2025-03-20T07:00:00Z,Santa Maria Da Feira,Aveiro,Norte,-8.467645,40.981012
25116437,Marinha Das Ondas,Região de Coimbra,310,2025-03-20T07:23:00Z,25116437,Em despacho,3301,Queda de árvore,0,1,0,3,2025-03-20T07:23:00Z,Figueira Da Foz,Coimbra,Centro,-8.826709,40.034534
25116438,Alenquer (Santo Estêvão e Triana),Oeste,311,2025-03-20T07:23:00Z,25116438,Em despacho,3301,Queda de árvore,0,0,0,0,2025-03-20T07:23:00Z,Alenquer,Lisboa,Centro,-8.995652,39.061319
25116455,Gavião e Atalaia,Alto Alentejo,312,2025-03-20T07:19:00Z,25116455,Em despacho,3301,Queda de árvore,0,1,0,2,2025-03-20T07:19:00Z,Gavião,Portalegre,Alentejo,-7.92441,39.457294
25116470,São José da Lamarosa,Lezíria do Tejo,311,2025-03-20T07:27:00Z,25116470,Em resolução,3301,Queda de árvore,0,1,0,5,2025-03-20T07:27:00Z,Coruche,Santarém,Alentejo,-8.503373,39.060417
25116471,Morais,Terras de Trás-os-Montes,309,2025-03-20T07:24:00Z,25116471,Em despacho,3301,Queda de árvore,0,2,0,4,2025-03-20T07:24:00Z,Macedo De Cavaleiros,Bragança,Norte,-6.779973,41.492871
25116489,Cascais e Estoril,Grande Lisboa,311,2025-03-20T07:31:00Z,25116489,Em despacho,3321,Dano na rede de fornecimento de eletricidade ,0,0,0,0,2025-03-20T07:31:00Z,Cascais,Lisboa,Área Metropolitana De Lisboa,-9.423598,38.69581
25116520,Charneca de Caparica e Sobreda,Península de Setúbal,311,2025-03-20T07:31:00Z,25116520,Em curso,3301,Queda de árvore,0,0,0,0,2025-03-20T07:31:00Z,Almada,Setúbal,Área Metropolitana De Lisboa,-9.190193,38.591584
25116521,Rebordosa,Area M. Porto,309,2025-03-20T07:25:00Z,25116521,Em despacho,3311,Queda de elementos de estruturas edificados,0,1,0,2,2025-03-20T07:25:00Z,Paredes,Porto,Norte,-8.413867,41.217556
25116522,Charneca de Caparica e Sobreda,Península de Setúbal,311,2025-03-20T07:34:00Z,25116522,Em curso,3301,Queda de árvore,0,0,0,0,2025-03-20T07:34:00Z,Almada,Setúbal,Área Metropolitana De Lisboa,-9.18201,38.59065
25116537,Monchique,Algarve,313,2025-03-20T07:30:00Z,25116537,Em despacho,3301,Queda de árvore,0,1,0,2,2025-03-20T07:30:00Z,Monchique,Faro,Algarve,-8.601698,37.39
25116539,Albufeira e Olhos de Água,Algarve,313,2025-03-20T07:26:00Z,25116539,Em despacho,3301,Queda de árvore,0,1,0,2,2025-03-20T07:26:00Z,Albufeira,Faro,Algarve,-8.221937,37.103468
25116553,Tornada e Salir do Porto,Oeste,311,2025-03-20T07:33:00Z,25116553,Em despacho,3309,Desabamento de estruturas edificadas,0,1,0,5,2025-03-20T07:33:00Z,Caldas Da Rainha,Leiria,Centro,-9.151736,39.435014
25116554,Urqueira,Médio Tejo,311,2025-03-20T07:36:00Z,25116554,Em curso,3311,Queda de elementos de estruturas edificados,0,2,0,4,2025-03-20T07:36:00Z,Ourém,Santarém,Centro,-8.569334,39.725976
25116555,Corroios,Península de Setúbal,311,2025-03-20T07:37:00Z,25116555,Em curso,3301,Queda de árvore,0,0,0,0,2025-03-20T07:37:00Z,Seixal,Setúbal,Área Metropolitana De Lisboa,-9.14265,38.65118
25116603,"Pinheiro da Bemposta, Travanca e Palmaz",Area M. Porto,309,2025-03-20T07:43:00Z,25116603,Em despacho,3301,Queda de árvore,0,0,0,0,2025-03-20T07:43:00Z,Oliveira De Azeméis,Aveiro,Norte,-8.45001,40.80893
25116605,Semide e Rio Vide,Região de Coimbra,310,2025-03-20T07:25:00Z,25116605,Em despacho,3301,Queda de árvore,0,1,0,3,2025-03-20T07:25:00Z,Miranda Do Corvo,Coimbra,Centro,-8.314965,40.128334
25116606,Estômbar e Parchal,Algarve,313,2025-03-20T07:21:00Z,25116606,Em despacho,3301,Queda de árvore,0,1,0,2,2025-03-20T07:21:00Z,Lagoa,Faro,Algarve,-8.517968,37.136212
25114284,Serpa (Salvador e Santa Maria),Baixo Alentejo,312,2025-03-20T03:05:00Z,25114284,Em despacho,3301,Queda de árvore,0,0,0,0,2025-03-20T03:05:00Z,Serpa,Beja,Alentejo,-7.497192,37.804577
25114293,Lousa,Grande Lisboa,311,2025-03-20T03:13:00Z,25114293,Em despacho,3311,Queda de elementos de estruturas edificados,0,0,0,0,2025-03-20T03:13:00Z,Loures,Lisboa,Área Metropolitana De Lisboa,-9.20461,38.88559
25114345,Charneca de Caparica e Sobreda,Península de Setúbal,311,2025-03-20T03:17:00Z,25114345,Em curso,3301,Queda de árvore,0,0,0,0,2025-03-20T03:17:00Z,Almada,Setúbal,Área Metropolitana De Lisboa,-9.17936,38.61397
25114370,Charneca de Caparica e Sobreda,Península de Setúbal,311,2025-03-20T03:20:00Z,25114370,Em curso,3301,Queda de árvore,0,0,0,0,2025-03-20T03:20:00Z,Almada,Setúbal,Área Metropolitana De Lisboa,-9.17923,38.60275
25114395,Corroios,Península de Setúbal,311,2025-03-20T03:23:00Z,25114395,Em curso,3301,Queda de árvore,0,0,0,0,2025-03-20T03:23:00Z,Seixal,Setúbal,Área Metropolitana De Lisboa,-9.156315,38.57963
25114443,Ericeira,Grande Lisboa,311,2025-03-20T03:27:00Z,25114443,Em despacho,3311,Queda de elementos de estruturas edificados,0,0,0,0,2025-03-20T03:27:00Z,Mafra,Lisboa,Área Metropolitana De Lisboa,-9.41106,38.95243
25114688,Casal de Cinza,Beiras e Serra da Estrela,310,2025-03-20T03:39:00Z,25114688,Em curso,3301,Queda de árvore,0,1,0,2,2025-03-20T03:39:00Z,Guarda,Guarda,Centro,-7.216219,40.521998
25114736,Águas Livres,Grande Lisboa,311,2025-03-20T03:58:00Z,25114736,Em despacho,3301,Queda de árvore,0,0,0,0,2025-03-20T03:58:00Z,Amadora,Lisboa,Área Metropolitana De Lisboa,-9.23008,38.74993
25114863,Arazede,Região de Coimbra,310,2025-03-20T04:09:00Z,25114863,Em despacho,3301,Queda de árvore,0,1,0,2,2025-03-20T04:09:00Z,Montemor-o-Velho,Coimbra,Centro,-8.631626,40.273294
25114881,Sesimbra (Castelo),Península de Setúbal,311,2025-03-20T04:05:00Z,25114881,Em despacho,3301,Queda de árvore,0,1,0,3,2025-03-20T04:05:00Z,Sesimbra,Setúbal,Área Metropolitana De Lisboa,-9.126293,38.535393
25116623,Águas Belas,Médio Tejo,311,2025-03-20T07:44:00Z,25116623,Em despacho,3321,Dano na rede de fornecimento de eletricidade ,0,1,0,2,2025-03-20T07:44:00Z,Ferreira Do Zêzere,Santarém,Centro,-8.304496,39.697851
25116639,Aveiras de Cima,Lezíria do Tejo,311,2025-03-20T07:46:00Z,25116639,Em despacho,3301,Queda de árvore,0,1,0,4,2025-03-20T07:46:00Z,Azambuja,Lisboa,Alentejo,-8.915722,39.14681
25116640,"O. Azeméis, Riba-Ul, Ul, Macinhata Seixa, Madail",Area M. Porto,309,2025-03-20T07:15:00Z,25116640,Em despacho,3309,Desabamento de estruturas edificadas,0,1,0,2,2025-03-20T07:15:00Z,Oliveira De Azeméis,Aveiro,Norte,-8.482939,40.836334
25113504,Mértola,Baixo Alentejo,312,2025-03-20T01:53:00Z,25113504,Em curso,3301,Queda de árvore,0,0,0,0,2025-03-20T01:53:00Z,Mértola,Beja,Alentejo,-7.707997,37.678842
25113554,Charneca de Caparica e Sobreda,Península de Setúbal,311,2025-03-20T02:03:00Z,25113554,Em curso,3301,Queda de árvore,0,0,0,0,2025-03-20T02:03:00Z,Almada,Setúbal,Área Metropolitana De Lisboa,-9.18207,38.59188
25113572,Cascais e Estoril,Grande Lisboa,311,2025-03-20T02:05:00Z,25113572,Em despacho,3301,Queda de árvore,0,0,0,0,2025-03-20T02:05:00Z,Cascais,Lisboa,Área Metropolitana De Lisboa,-9.43971,38.72218
25113606,"N. S. da Vila, N. S. do Bispo e Silveiras",Alentejo Central,312,2025-03-20T01:45:00Z,25113606,Em despacho,3301,Queda de árvore,0,1,0,2,2025-03-20T01:45:00Z,Montemor-o-Novo,Évora,Alentejo,-8.21652,38.662575
25113653,"Oeiras e S. Julião da Barra, Paço de Arcos e Caxias",Grande Lisboa,311,2025-03-20T02:12:00Z,25113653,Em despacho,3301,Queda de árvore,0,0,0,0,2025-03-20T02:12:00Z,Oeiras,Lisboa,Área Metropolitana De Lisboa,-9.275682,38.698873
25113722,Carcavelos e Parede,Grande Lisboa,311,2025-03-20T02:21:00Z,25113722,Em despacho,3311,Queda de elementos de estruturas edificados,0,0,0,0,2025-03-20T02:21:00Z,Cascais,Lisboa,Área Metropolitana De Lisboa,-9.367864,38.69675
25113737,Charneca de Caparica e Sobreda,Península de Setúbal,311,2025-03-20T02:22:00Z,25113737,Em curso,3301,Queda de árvore,0,0,0,0,2025-03-20T02:22:00Z,Almada,Setúbal,Área Metropolitana De Lisboa,-9.17331,38.58715
25113740,"Oeiras e S. Julião da Barra, Paço de Arcos e Caxias",Grande Lisboa,311,2025-03-20T02:22:00Z,25113740,Em despacho,3301,Queda de árvore,0,0,0,0,2025-03-20T02:22:00Z,Oeiras,Lisboa,Área Metropolitana De Lisboa,-9.275682,38.698873
25113807,Alvares,Região de Coimbra,310,2025-03-20T02:29:00Z,25113807,Em curso,3321,Dano na rede de fornecimento de eletricidade ,0,1,0,2,2025-03-20T02:29:00Z,Góis,Coimbra,Centro,-8.14939,40.01864
25113101,Charneca de Caparica e Sobreda,Península de Setúbal,311,2025-03-20T01:18:00Z,25113101,Em curso,3301,Queda de árvore,0,0,0,0,2025-03-20T01:18:00Z,Almada,Setúbal,Área Metropolitana De Lisboa,-9.17264,38.5926
25113117,Charneca de Caparica e Sobreda,Península de Setúbal,311,2025-03-20T01:19:00Z,25113117,Em curso,3301,Queda de árvore,0,0,0,0,2025-03-20T01:19:00Z,Almada,Setúbal,Área Metropolitana De Lisboa,-9.18066,38.59207
25113124,Carnaxide e Queijas,Grande Lisboa,311,2025-03-20T01:20:00Z,25113124,Em despacho,3311,Queda de elementos de estruturas edificados,0,0,0,0,2025-03-20T01:20:00Z,Oeiras,Lisboa,Área Metropolitana De Lisboa,-9.24609,38.72263
25113126,Águas Livres,Grande Lisboa,311,2025-03-20T01:20:00Z,25113126,Em despacho,3311,Queda de elementos de estruturas edificados,0,0,0,0,2025-03-20T01:20:00Z,Amadora,Lisboa,Área Metropolitana De Lisboa,-9.20581,38.74231
25113140,"Almada, Cova da Piedade, Pragal e Cacilhas",Península de Setúbal,311,2025-03-20T01:21:00Z,25113140,Em curso,3311,Queda de elementos de estruturas edificados,0,0,0,0,2025-03-20T01:21:00Z,Almada,Setúbal,Área Metropolitana De Lisboa,-9.16207,38.6795
25113156,Baixa da Banheira e Vale da Amoreira,Península de Setúbal,311,2025-03-20T01:23:00Z,25113156,Em curso,3311,Queda de elementos de estruturas edificados,0,0,0,0,2025-03-20T01:23:00Z,Moita,Setúbal,Área Metropolitana De Lisboa,-9.04162,38.65316
25113158,Santo Antão e São Julião do Tojal,Grande Lisboa,311,2025-03-20T01:23:00Z,25113158,Em despacho,3329,Queda de estruturas temporárias ou móveis,0,0,0,0,2025-03-20T01:23:00Z,Loures,Lisboa,Área Metropolitana De Lisboa,-9.122308,38.86943
25113215,Charneca de Caparica e Sobreda,Península de Setúbal,311,2025-03-20T01:29:00Z,25113215,Em curso,3301,Queda de árvore,0,0,0,0,2025-03-20T01:29:00Z,Almada,Setúbal,Área Metropolitana De Lisboa,-9.16891,38.57109
25113874,Ramada e Caneças,Grande Lisboa,311,2025-03-20T02:35:00Z,25113874,Em despacho,3321,Dano na rede de fornecimento de eletricidade ,0,0,0,0,2025-03-20T02:35:00Z,Odivelas,Lisboa,Área Metropolitana De Lisboa,-9.21026,38.82131
25113888,Odivelas,Grande Lisboa,311,2025-03-20T02:36:00Z,25113888,Em despacho,3311,Queda de elementos de estruturas edificados,0,0,0,0,2025-03-20T02:36:00Z,Odivelas,Lisboa,Área Metropolitana De Lisboa,-9.19047,38.79637
25114056,Azeitão (São Lourenço e São Simão),Península de Setúbal,311,2025-03-20T02:51:00Z,25114056,Em curso,3321,Dano na rede de fornecimento de eletricidade ,0,0,0,0,2025-03-20T02:51:00Z,Setúbal,Setúbal,Área Metropolitana De Lisboa,-9.024796,38.53981
25114074,Charneca de Caparica e Sobreda,Península de Setúbal,311,2025-03-20T02:52:00Z,25114074,Em curso,3301,Queda de árvore,0,0,0,0,2025-03-20T02:52:00Z,Almada,Setúbal,Área Metropolitana De Lisboa,-9.18666,38.59386
25114222,"S.maria, S.miguel, S.martinho, S.pedro Penaferrim",Grande Lisboa,311,2025-03-20T03:05:00Z,25114222,Em despacho,3301,Queda de árvore,0,0,0,0,2025-03-20T03:05:00Z,Sintra,Lisboa,Área Metropolitana De Lisboa,-9.395193,38.762498
25114240,Teixeira e Teixeiró,Tâmega e Sousa,309,2025-03-20T03:08:00Z,25114240,Em conclusão,3311,Queda de elementos de estruturas edificados,0,1,0,1,2025-03-20T03:08:00Z,Baião,Porto,Norte,-7.90901,41.18203
25114257,Cativelos,Beiras e Serra da Estrela,310,2025-03-20T03:09:00Z,25114257,Em despacho,3301,Queda de árvore,0,2,0,3,2025-03-20T03:09:00Z,Gouveia,Guarda,Centro,-7.694037,40.537404
25114389,Palhais e Coina,Península de Setúbal,311,2025-03-20T01:50:00Z,25114389,Em curso,3301,Queda de árvore,0,0,0,0,2025-03-20T01:50:00Z,Barreiro,Setúbal,Área Metropolitana De Lisboa,-9.043332,38.595522
25113256,"Almada, Cova da Piedade, Pragal e Cacilhas",Península de Setúbal,311,2025-03-20T01:33:00Z,25113256,Em curso,3321,Dano na rede de fornecimento de eletricidade ,0,0,0,0,2025-03-20T01:33:00Z,Almada,Setúbal,Área Metropolitana De Lisboa,-9.16659,38.67428
25113281,"Almargem do Bispo, Pêro Pinheiro e Montelavar",Grande Lisboa,311,2025-03-20T01:36:00Z,25113281,Em despacho,3311,Queda de elementos de estruturas edificados,0,0,0,0,2025-03-20T01:36:00Z,Sintra,Lisboa,Área Metropolitana De Lisboa,-9.286858,38.81957
25113292,Charneca de Caparica e Sobreda,Península de Setúbal,311,2025-03-20T01:37:00Z,25113292,Em curso,3301,Queda de árvore,0,0,0,0,2025-03-20T01:37:00Z,Almada,Setúbal,Área Metropolitana De Lisboa,-9.18076,38.56634
25113308,"Seixal, Arrentela e Aldeia de Paio Pires",Península de Setúbal,311,2025-03-20T01:38:00Z,25113308,Em curso,3311,Queda de elementos de estruturas edificados,0,0,0,0,2025-03-20T01:38:00Z,Seixal,Setúbal,Área Metropolitana De Lisboa,-9.0728,38.58636
25113333,Mina de Água,Grande Lisboa,311,2025-03-20T01:41:00Z,25113333,Em despacho,3311,Queda de elementos de estruturas edificados,0,0,0,0,2025-03-20T01:41:00Z,Amadora,Lisboa,Área Metropolitana De Lisboa,-9.24209,38.77874
25113367,Charneca de Caparica e Sobreda,Península de Setúbal,311,2025-03-20T01:45:00Z,25113367,Em curso,3301,Queda de árvore,0,0,0,0,2025-03-20T01:45:00Z,Almada,Setúbal,Área Metropolitana De Lisboa,-9.17951,38.59582
25113376,"Santa Iria de Azoia, São João da Talha e Bobadela",Grande Lisboa,311,2025-03-20T01:45:00Z,25113376,Em despacho,3311,Queda de elementos de estruturas edificados,0,0,0,0,2025-03-20T01:45:00Z,Loures,Lisboa,Área Metropolitana De Lisboa,-9.098026,38.83377
25114390,São Martinho Das Amoreiras,Alentejo Litoral,312,2025-03-20T03:20:00Z,25114390,Em despacho,3301,Queda de árvore,0,1,0,1,2025-03-20T03:20:00Z,Odemira,Beja,Alentejo,-8.423175,37.653664
25114405,Mujães,Alto Minho,309,2025-03-20T03:24:00Z,25114405,Em curso,3311,Queda de elementos de estruturas edificados,0,1,0,2,2025-03-20T03:24:00Z,Viana Do Castelo,Viana Do Castelo,Norte,-8.708787,41.67049
25114424,Vila Nova de Tazem,Beiras e Serra da Estrela,310,2025-03-20T03:25:00Z,25114424,Em despacho,3301,Queda de árvore,0,1,0,2,2025-03-20T03:25:00Z,Gouveia,Guarda,Centro,-7.716662,40.505068
25114509,Avanca,Região de Aveiro,310,2025-03-20T03:27:00Z,25114509,Em curso,3311,Queda de elementos de estruturas edificados,0,2,0,3,2025-03-20T03:27:00Z,Estarreja,Aveiro,Centro,-8.575154,40.804832
25114525,Malveira e São Miguel de Alcainça,Grande Lisboa,311,2025-03-20T03:36:00Z,25114525,Em despacho,3321,Dano na rede de fornecimento de eletricidade ,0,0,0,0,2025-03-20T03:36:00Z,Mafra,Lisboa,Área Metropolitana De Lisboa,-9.279616,38.92011
25114573,Quinta do Conde,Península de Setúbal,311,2025-03-20T03:41:00Z,25114573,Em curso,3301,Queda de árvore,0,0,0,0,2025-03-20T03:41:00Z,Sesimbra,Setúbal,Área Metropolitana De Lisboa,-9.041492,38.55076
25114656,Guarda,Beiras e Serra da Estrela,310,2025-03-20T03:39:00Z,25114656,Em despacho,3301,Queda de árvore,0,2,0,3,2025-03-20T03:39:00Z,Guarda,Guarda,Centro,-7.260869,40.536751
25114673,Vilarinho Dos Freires,Douro,309,2025-03-20T03:44:00Z,25114673,Em despacho,3301,Queda de árvore,0,3,0,6,2025-03-20T03:44:00Z,Peso Da Régua,Vila Real,Norte,-7.748211,41.175132
25114691,Mafra,Grande Lisboa,311,2025-03-20T03:53:00Z,25114691,Em despacho,3321,Dano na rede de fornecimento de eletricidade ,0,0,0,0,2025-03-20T03:53:00Z,Mafra,Lisboa,Área Metropolitana De Lisboa,-9.34026,38.9585
25114708,Cascais e Estoril,Grande Lisboa,311,2025-03-20T03:55:00Z,25114708,Em despacho,3301,Queda de árvore,0,0,0,0,2025-03-20T03:55:00Z,Cascais,Lisboa,Área Metropolitana De Lisboa,-9.43077,38.70064
25114895,Fazendas de Almeirim,Lezíria do Tejo,311,2025-03-20T03:35:00Z,25114895,Em conclusão,3329,Queda de estruturas temporárias ou móveis,0,0,0,0,2025-03-20T03:35:00Z,Alpiarça,Santarém,Alentejo,-8.564325,39.191508
25114913,Barcarena,Grande Lisboa,311,2025-03-20T04:15:00Z,25114913,Em curso,3329,Queda de estruturas temporárias ou móveis,0,3,0,9,2025-03-20T04:15:00Z,Oeiras,Lisboa,Área Metropolitana De Lisboa,-9.27601,38.72112
25114929,Lagoaça e Fornos,Douro,309,2025-03-20T04:17:00Z,25114929,Em despacho,3301,Queda de árvore,0,1,0,3,2025-03-20T04:17:00Z,Freixo De Espada à Cinta,Bragança,Norte,-6.74571,41.20621
25114963,"Coz, Alpedriz e Montes",Oeste,311,2025-03-20T04:11:00Z,25114963,Em curso,3301,Queda de árvore,0,1,0,3,2025-03-20T04:11:00Z,Alcobaça,Leiria,Centro,-8.981807,39.596698
25115011,Cascais e Estoril,Grande Lisboa,311,2025-03-20T04:27:00Z,25115011,Em despacho,3301,Queda de árvore,0,0,0,0,2025-03-20T04:27:00Z,Cascais,Lisboa,Área Metropolitana De Lisboa,-9.4475,38.73306
25115111,Louredo e Fornelos,Douro,309,2025-03-20T04:40:00Z,25115111,Em despacho,3301,Queda de árvore,0,1,0,2,2025-03-20T04:40:00Z,Santa Marta De Penaguião,Vila Real,Norte,-7.827533,41.228123
25115115,Castro Daire,Viseu Dão Lafões,310,2025-03-20T04:41:00Z,25115115,Em despacho,3301,Queda de árvore,0,3,0,4,2025-03-20T04:41:00Z,Castro Daire,Viseu,Centro,-7.90543,40.89685
25115129,Barroselas e Carvoeiro,Alto Minho,309,2025-03-20T04:32:00Z,25115129,Em curso,3329,Queda de estruturas temporárias ou móveis,0,0,0,0,2025-03-20T04:32:00Z,Viana Do Castelo,Viana Do Castelo,Norte,-8.649453,41.6389
25115156,Charneca de Caparica e Sobreda,Península de Setúbal,311,2025-03-20T04:46:00Z,25115156,Em curso,3301,Queda de árvore,0,0,0,0,2025-03-20T04:46:00Z,Almada,Setúbal,Área Metropolitana De Lisboa,-9.199091,38.62959
25113399,"Oeiras e S. Julião da Barra, Paço de Arcos e Caxias",Grande Lisboa,311,2025-03-20T01:47:00Z,25113399,Em despacho,3301,Queda de árvore,0,0,0,0,2025-03-20T01:47:00Z,Oeiras,Lisboa,Área Metropolitana De Lisboa,-9.275682,38.698873
25113426,Queluz e Belas,Grande Lisboa,311,2025-03-20T01:49:00Z,25113426,Em despacho,3311,Queda de elementos de estruturas edificados,0,0,0,0,2025-03-20T01:49:00Z,Sintra,Lisboa,Área Metropolitana De Lisboa,-9.27789,38.76549
25113510,Fernão Ferro,Península de Setúbal,311,2025-03-20T01:59:00Z,25113510,Em curso,3301,Queda de árvore,0,0,0,0,2025-03-20T01:59:00Z,Seixal,Setúbal,Área Metropolitana De Lisboa,-9.10545,38.57734
25113515,Rio de Mouro,Grande Lisboa,311,2025-03-20T01:59:00Z,25113515,Em despacho,3311,Queda de elementos de estruturas edificados,0,0,0,0,2025-03-20T01:59:00Z,Sintra,Lisboa,Área Metropolitana De Lisboa,-9.314418,38.78093
25113769,Quinta do Anjo,Península de Setúbal,311,2025-03-20T02:26:00Z,25113769,Em curso,3301,Queda de árvore,0,0,0,0,2025-03-20T02:26:00Z,Palmela,Setúbal,Área Metropolitana De Lisboa,-8.9956,38.59028
25113776,Algueirão-Mem Martins,Grande Lisboa,311,2025-03-20T02:26:00Z,25113776,Em despacho,3311,Queda de elementos de estruturas edificados,0,0,0,0,2025-03-20T02:26:00Z,Sintra,Lisboa,Área Metropolitana De Lisboa,-9.342778,38.79861
25113794,Ramada e Caneças,Grande Lisboa,311,2025-03-20T02:28:00Z,25113794,Em despacho,3311,Queda de elementos de estruturas edificados,0,0,0,0,2025-03-20T02:28:00Z,Odivelas,Lisboa,Área Metropolitana De Lisboa,-9.209321,38.80893
25113844,Venda do Pinheiro e Santo Estêvão Das Galés,Grande Lisboa,311,2025-03-20T02:32:00Z,25113844,Em despacho,3301,Queda de árvore,0,0,0,0,2025-03-20T02:32:00Z,Mafra,Lisboa,Área Metropolitana De Lisboa,-9.220361,38.92791
25113851,Mina de Água,Grande Lisboa,311,2025-03-20T02:31:00Z,25113851,Em despacho,3311,Queda de elementos de estruturas edificados,0,0,0,0,2025-03-20T02:31:00Z,Amadora,Lisboa,Área Metropolitana De Lisboa,-9.236908,38.777438
25113908,"Seixal, Arrentela e Aldeia de Paio Pires",Península de Setúbal,311,2025-03-20T02:37:00Z,25113908,Em curso,3321,Dano na rede de fornecimento de eletricidade ,0,0,0,0,2025-03-20T02:37:00Z,Seixal,Setúbal,Área Metropolitana De Lisboa,-9.0987,38.62593
25113910,Pó,Oeste,311,2025-03-20T02:27:00Z,25113910,Em curso,3301,Queda de árvore,0,3,0,6,2025-03-20T02:27:00Z,Bombarral,Leiria,Centro,-9.214362,39.309208
25113953,Colares,Grande Lisboa,311,2025-03-20T02:30:00Z,25113953,Em curso,3301,Queda de árvore,0,5,0,12,2025-03-20T02:30:00Z,Sintra,Lisboa,Área Metropolitana De Lisboa,-9.47026,38.772895
25114001,Azeitão (São Lourenço e São Simão),Península de Setúbal,311,2025-03-20T02:46:00Z,25114001,Em curso,3301,Queda de árvore,0,0,0,0,2025-03-20T02:46:00Z,Setúbal,Setúbal,Área Metropolitana De Lisboa,-9.021503,38.53171
25114069,Alcabideche,Grande Lisboa,311,2025-03-20T02:52:00Z,25114069,Em despacho,3315,Inundação de estruturas por precipitação intensa,0,0,0,0,2025-03-20T02:52:00Z,Cascais,Lisboa,Área Metropolitana De Lisboa,-9.45321,38.75341
25114126,"Oeiras e S. Julião da Barra, Paço de Arcos e Caxias",Grande Lisboa,311,2025-03-20T02:57:00Z,25114126,Em despacho,3301,Queda de árvore,0,0,0,0,2025-03-20T02:57:00Z,Oeiras,Lisboa,Área Metropolitana De Lisboa,-9.27078,38.71533
25114219,Corroios,Península de Setúbal,311,2025-03-20T03:06:00Z,25114219,Em curso,3301,Queda de árvore,0,0,0,0,2025-03-20T03:06:00Z,Seixal,Setúbal,Área Metropolitana De Lisboa,-9.15172,38.57536
25114401,Mértola,Baixo Alentejo,312,2025-03-20T03:17:00Z,25114401,Em curso,3301,Queda de árvore,0,0,0,0,2025-03-20T03:17:00Z,Mértola,Beja,Alentejo,-7.720218,37.719977
25114403,Alvaiázere,Região de Leiria,310,2025-03-20T03:18:00Z,25114403,Em despacho,3301,Queda de árvore,0,1,0,2,2025-03-20T03:18:00Z,Alvaiázere,Leiria,Centro,-8.400663,39.842672
25114412,Rio de Mouro,Grande Lisboa,311,2025-03-20T03:24:00Z,25114412,Em despacho,3311,Queda de elementos de estruturas edificados,0,0,0,0,2025-03-20T03:24:00Z,Sintra,Lisboa,Área Metropolitana De Lisboa,-9.3418,38.78651
25114444,Charneca de Caparica e Sobreda,Península de Setúbal,311,2025-03-20T03:27:00Z,25114444,Em curso,3301,Queda de árvore,0,0,0,0,2025-03-20T03:27:00Z,Almada,Setúbal,Área Metropolitana De Lisboa,-9.183841,38.59734
25114619,Corroios,Península de Setúbal,311,2025-03-20T03:45:00Z,25114619,Em curso,3301,Queda de árvore,0,0,0,0,2025-03-20T03:45:00Z,Seixal,Setúbal,Área Metropolitana De Lisboa,-9.144781,38.65383
25114712,Penacova,Tâmega e Sousa,309,2025-03-20T03:40:00Z,25114712,Em despacho,3301,Queda de árvore,0,1,0,2,2025-03-20T03:40:00Z,Felgueiras,Porto,Norte,-8.255061,41.373796
25114771,Queluz e Belas,Grande Lisboa,311,2025-03-20T04:01:00Z,25114771,Em despacho,3301,Queda de árvore,0,0,0,0,2025-03-20T04:01:00Z,Sintra,Lisboa,Área Metropolitana De Lisboa,-9.277519,38.80015
25114780,Lousa,Grande Lisboa,311,2025-03-20T04:02:00Z,25114780,Em despacho,3301,Queda de árvore,0,0,0,0,2025-03-20T04:02:00Z,Loures,Lisboa,Área Metropolitana De Lisboa,-9.20789,38.88816
25114889,Espírito Santo,Baixo Alentejo,312,2025-03-20T04:11:00Z,25114889,Em conclusão,3301,Queda de árvore,0,0,0,0,2025-03-20T04:11:00Z,Mértola,Beja,Alentejo,-7.636103,37.551114
25114944,Adeganha e Cardanha,Douro,309,2025-03-20T04:19:00Z,25114944,Em despacho,3301,Queda de árvore,0,3,0,8,2025-03-20T04:19:00Z,Torre De Moncorvo,Bragança,Norte,-7.09195,41.21715
25115030,Azueira e Sobral da Abelheira,Grande Lisboa,311,2025-03-20T04:31:00Z,25115030,Em despacho,3301,Queda de árvore,0,0,0,0,2025-03-20T04:31:00Z,Mafra,Lisboa,Área Metropolitana De Lisboa,-9.291996,39.00547
25115080,Carnaxide e Queijas,Grande Lisboa,311,2025-03-20T04:37:00Z,25115080,Em despacho,3329,Queda de estruturas temporárias ou móveis,0,0,0,0,2025-03-20T04:37:00Z,Oeiras,Lisboa,Área Metropolitana De Lisboa,-9.21979,38.72683
25115130,Rio de Mouro,Grande Lisboa,311,2025-03-20T04:42:00Z,25115130,Em despacho,3301,Queda de árvore,0,0,0,0,2025-03-20T04:42:00Z,Sintra,Lisboa,Área Metropolitana De Lisboa,-9.35842,38.75712
25115162,Moita,Região de Leiria,310,2025-03-20T04:39:00Z,25115162,Em despacho,3301,Queda de árvore,0,1,0,3,2025-03-20T04:39:00Z,Marinha Grande,Leiria,Centro,-8.94346,39.702349
25115178,Palhais e Coina,Península de Setúbal,311,2025-03-20T04:14:00Z,25115178,Em curso,3301,Queda de árvore,0,0,0,0,2025-03-20T04:14:00Z,Barreiro,Setúbal,Área Metropolitana De Lisboa,-9.043332,38.595522
25115198,Macieira da Lixa e Caramos,Tâmega e Sousa,309,2025-03-20T04:47:00Z,25115198,Em curso,3301,Queda de árvore,0,2,0,3,2025-03-20T04:47:00Z,Felgueiras,Porto,Norte,-8.154645,41.35135
25115212,Arcos,Douro,309,2025-03-20T04:55:00Z,25115212,Em despacho,3301,Queda de árvore,0,4,0,8,2025-03-20T04:55:00Z,Tabuaço,Viseu,Norte,-7.571136,41.04228
25115237,Priscos,Cávado,309,2025-03-20T04:40:00Z,25115237,Em despacho,3311,Queda de elementos de estruturas edificados,0,1,0,2,2025-03-20T04:40:00Z,Braga,Braga,Norte,-8.476427,41.4954
25115248,"Seixal, Arrentela e Aldeia de Paio Pires",Península de Setúbal,311,2025-03-20T05:00:00Z,25115248,Em curso,3329,Queda de estruturas temporárias ou móveis,0,0,0,0,2025-03-20T05:00:00Z,Seixal,Setúbal,Área Metropolitana De Lisboa,-9.08265,38.62702
25115255,Amora,Península de Setúbal,311,2025-03-20T05:01:00Z,25115255,Em curso,3301,Queda de árvore,0,0,0,0,2025-03-20T05:01:00Z,Seixal,Setúbal,Área Metropolitana De Lisboa,-9.13591,38.60274
25115414,São João Das Lampas e Terrugem,Grande Lisboa,311,2025-03-20T02:46:00Z,25115414,Em curso,3301,Queda de árvore,0,3,0,7,2025-03-20T02:46:00Z,Sintra,Lisboa,Área Metropolitana De Lisboa,-9.383123,38.911462
25115421,Malveira e São Miguel de Alcainça,Grande Lisboa,311,2025-03-20T05:22:00Z,25115421,Em despacho,3321,Dano na rede de fornecimento de eletricidade ,0,0,0,0,2025-03-20T05:22:00Z,Mafra,Lisboa,Área Metropolitana De Lisboa,-9.29796,38.9259
25115288,Algueirão-Mem Martins,Grande Lisboa,311,2025-03-20T05:05:00Z,25115288,Em despacho,3301,Queda de árvore,0,0,0,0,2025-03-20T05:05:00Z,Sintra,Lisboa,Área Metropolitana De Lisboa,-9.340934,38.801232
25115313,Azeitão (São Lourenço e São Simão),Península de Setúbal,311,2025-03-20T05:09:00Z,25115313,Em curso,3301,Queda de árvore,0,0,0,0,2025-03-20T05:09:00Z,Setúbal,Setúbal,Área Metropolitana De Lisboa,-9.006082,38.51156
25115320,Travancinha,Beiras e Serra da Estrela,310,2025-03-20T03:51:00Z,25115320,Em curso,3301,Queda de árvore,0,0,0,0,2025-03-20T03:51:00Z,Seia,Guarda,Centro,-7.824191,40.423279
25115347,Santos Evos,Viseu Dão Lafões,310,2025-03-20T05:00:00Z,25115347,Em despacho,3311,Queda de elementos de estruturas edificados,0,1,0,5,2025-03-20T05:00:00Z,Viseu,Viseu,Centro,-7.820935,40.662086
25115365,São Cosmado,Douro,309,2025-03-20T05:15:00Z,25115365,Em despacho,3301,Queda de árvore,0,2,0,6,2025-03-20T05:15:00Z,Armamar,Viseu,Norte,-7.645154,41.06243
25115372,Sobral de Monte Agraço,Oeste,311,2025-03-20T05:10:00Z,25115372,Em curso,3301,Queda de árvore,0,3,0,4,2025-03-20T05:10:00Z,Sobral De Monte Agraço,Lisboa,Centro,-9.191789,39.010425
25115438,Ladoeiro,Beira Baixa,310,2025-03-20T05:25:00Z,25115438,Em conclusão,3301,Queda de árvore,0,0,0,0,2025-03-20T05:25:00Z,Idanha-a-Nova,Castelo Branco,Centro,-7.31475,39.85914
25115506,Corroios,Península de Setúbal,311,2025-03-20T05:33:00Z,25115506,Em curso,3301,Queda de árvore,0,0,0,0,2025-03-20T05:33:00Z,Seixal,Setúbal,Área Metropolitana De Lisboa,-9.159299,38.58192
25115538,Alfeizerão,Oeste,311,2025-03-20T05:35:00Z,25115538,Em curso,3301,Queda de árvore,0,2,0,4,2025-03-20T05:35:00Z,Alcobaça,Leiria,Centro,-9.076635,39.505098
25115574,Azeitão (São Lourenço e São Simão),Península de Setúbal,311,2025-03-20T05:42:00Z,25115574,Em curso,3301,Queda de árvore,0,0,0,0,2025-03-20T05:42:00Z,Setúbal,Setúbal,Área Metropolitana De Lisboa,-9.049025,38.49842
25114740,Vila Verde e Barbudo,Cávado,309,2025-03-20T03:58:00Z,25114740,Em despacho,3311,Queda de elementos de estruturas edificados,0,0,0,0,2025-03-20T03:58:00Z,Vila Verde,Braga,Norte,-8.42563,41.64321
25114759,São João Das Lampas e Terrugem,Grande Lisboa,311,2025-03-20T02:33:00Z,25114759,Em despacho,3301,Queda de árvore,0,0,0,0,2025-03-20T02:33:00Z,Sintra,Lisboa,Área Metropolitana De Lisboa,-9.394403,38.872548
25114809,Vilas Boas e Vilarinho Das Azenhas,Terras de Trás-os-Montes,309,2025-03-20T04:05:00Z,25114809,Em despacho,3301,Queda de árvore,0,2,0,4,2025-03-20T04:05:00Z,Vila Flor,Bragança,Norte,-7.17078,41.3535
25114924,Roliça,Oeste,311,2025-03-20T04:16:00Z,25114924,Em despacho,3301,Queda de árvore,0,0,0,0,2025-03-20T04:16:00Z,Bombarral,Leiria,Centro,-9.18013,39.28817
25114927,"São Miguel, Santa Eufémia e Rabaçal",Região de Coimbra,310,2025-03-20T04:15:00Z,25114927,Em despacho,3301,Queda de árvore,0,1,0,1,2025-03-20T04:15:00Z,Penela,Coimbra,Centro,-8.373242,40.019255
25114957,"Tavares (Chãs, Várzea e Travanca)",Viseu Dão Lafões,310,2025-03-20T04:19:00Z,25114957,Em curso,3301,Queda de árvore,0,4,0,9,2025-03-20T04:19:00Z,Mangualde,Viseu,Centro,-7.614291,40.623523
25114960,Castelo Novo,Beiras e Serra da Estrela,310,2025-03-20T04:01:00Z,25114960,Em curso,3301,Queda de árvore,0,1,0,2,2025-03-20T04:01:00Z,Fundão,Castelo Branco,Centro,-7.475218,40.126525
25114990,Alcanede,Lezíria do Tejo,311,2025-03-20T04:24:00Z,25114990,Em conclusão,3301,Queda de árvore,0,0,0,0,2025-03-20T04:24:00Z,Santarém,Santarém,Alentejo,-8.769388,39.400825
25115060,São Paio,Beiras e Serra da Estrela,310,2025-03-20T04:03:00Z,25115060,Em curso,3301,Queda de árvore,0,1,0,2,2025-03-20T04:03:00Z,Gouveia,Guarda,Centro,-7.578576,40.511694
25115076,Biscainho,Lezíria do Tejo,311,2025-03-20T04:36:00Z,25115076,Em resolução,3301,Queda de árvore,0,0,0,0,2025-03-20T04:36:00Z,Coruche,Santarém,Alentejo,-8.535927,38.953887
25115448,Vilar,Oeste,311,2025-03-20T05:26:00Z,25115448,Em despacho,3301,Queda de árvore,0,1,0,4,2025-03-20T05:26:00Z,Cadaval,Lisboa,Centro,-9.12176,39.17837
25115473,Arazede,Região de Coimbra,310,2025-03-20T05:29:00Z,25115473,Em despacho,3301,Queda de árvore,0,0,0,0,2025-03-20T05:29:00Z,Montemor-o-Velho,Coimbra,Centro,-8.67425,40.25773
25115482,Venda do Pinheiro e Santo Estêvão Das Galés,Grande Lisboa,311,2025-03-20T05:31:00Z,25115482,Em despacho,3301,Queda de árvore,0,0,0,0,2025-03-20T05:31:00Z,Mafra,Lisboa,Área Metropolitana De Lisboa,-9.22384,38.91728
25115557,Âncora,Alto Minho,309,2025-03-20T05:12:00Z,25115557,Em curso,3301,Queda de árvore,0,1,0,3,2025-03-20T05:12:00Z,Caminha,Viana Do Castelo,Norte,-8.85759,41.798285
25115607,Charneca de Caparica e Sobreda,Península de Setúbal,311,2025-03-20T05:47:00Z,25115607,Em curso,3301,Queda de árvore,0,0,0,0,2025-03-20T05:47:00Z,Almada,Setúbal,Área Metropolitana De Lisboa,-9.16378,38.58647
25115623,"Algés, Linda-a-Velha e Cruz Quebrada-Dafundo",Grande Lisboa,311,2025-03-20T05:48:00Z,25115623,Em despacho,3301,Queda de árvore,0,0,0,0,2025-03-20T05:48:00Z,Oeiras,Lisboa,Área Metropolitana De Lisboa,-9.257597,38.706696
25115664,Vimeiro,Oeste,311,2025-03-20T05:43:00Z,25115664,Em despacho,3301,Queda de árvore,0,2,0,5,2025-03-20T05:43:00Z,Alcobaça,Leiria,Centro,-9.022205,39.478409
25115671,Torrão,Alentejo Litoral,312,2025-03-20T05:54:00Z,25115671,Em resolução,3301,Queda de árvore,0,3,0,7,2025-03-20T05:54:00Z,Alcácer Do Sal,Setúbal,Alentejo,-8.32764,38.216
25115673,Alguber,Oeste,311,2025-03-20T05:41:00Z,25115673,Em despacho,3301,Queda de árvore,0,1,0,2,2025-03-20T05:41:00Z,Cadaval,Lisboa,Centro,-9.020804,39.276666
25115689,Vermelha,Oeste,311,2025-03-20T05:41:00Z,25115689,Em despacho,3301,Queda de árvore,0,1,0,1,2025-03-20T05:41:00Z,Cadaval,Lisboa,Centro,-9.113389,39.267816
25115696,Parreira e Chouto,Lezíria do Tejo,311,2025-03-20T05:58:00Z,25115696,Em despacho,3301,Queda de árvore,0,1,0,1,2025-03-20T05:58:00Z,Chamusca,Santarém,Alentejo,-8.327738,39.256475
25115613,Cascais e Estoril,Grande Lisboa,311,2025-03-20T05:47:00Z,25115613,Em despacho,3301,Queda de árvore,0,0,0,0,2025-03-20T05:47:00Z,Cascais,Lisboa,Área Metropolitana De Lisboa,-9.390639,38.70786
25115624,"Sandim, Olival, Lever e Crestuma",Area M. Porto,309,2025-03-20T05:26:00Z,25115624,Em despacho,3301,Queda de árvore,0,1,0,2,2025-03-20T05:26:00Z,Vila Nova De Gaia,Porto,Norte,-8.502382,41.048753
25115631,Conde e Gandarela,Ave,309,2025-03-20T05:49:00Z,25115631,Em despacho,3311,Queda de elementos de estruturas edificados,0,2,0,4,2025-03-20T05:49:00Z,Guimarães,Braga,Norte,-8.34949,41.39653
25115683,Campeã,Douro,309,2025-03-20T05:45:00Z,25115683,Em curso,3301,Queda de árvore,0,1,0,2,2025-03-20T05:45:00Z,Vila Real,Vila Real,Norte,-7.886237,41.295876
25115731,Sado,Península de Setúbal,311,2025-03-20T06:03:00Z,25115731,Em curso,3321,Dano na rede de fornecimento de eletricidade ,0,0,0,0,2025-03-20T06:03:00Z,Setúbal,Setúbal,Área Metropolitana De Lisboa,-8.837657,38.51656
25115740,Alfragide,Grande Lisboa,311,2025-03-20T06:05:00Z,25115740,Em despacho,3329,Queda de estruturas temporárias ou móveis,0,0,0,0,2025-03-20T06:05:00Z,Amadora,Lisboa,Área Metropolitana De Lisboa,-9.2185,38.73116
25115765,"Belazaima do Chão, Castanheira do Vouga e Agadão",Região de Aveiro,310,2025-03-20T06:00:00Z,25115765,Em curso,3301,Queda de árvore,0,1,0,2,2025-03-20T06:00:00Z,Águeda,Aveiro,Centro,-8.368115,40.567709
25115799,"S.julião, N.s. da Anunciada e S. Maria da Graça",Península de Setúbal,311,2025-03-20T06:12:00Z,25115799,Em curso,3301,Queda de árvore,0,0,0,0,2025-03-20T06:12:00Z,Setúbal,Setúbal,Área Metropolitana De Lisboa,-8.88988,38.53046
25115808,São Miguel do Outeiro e Sabugosa,Viseu Dão Lafões,310,2025-03-20T06:10:00Z,25115808,Em despacho,3301,Queda de árvore,0,1,0,2,2025-03-20T06:10:00Z,Tondela,Viseu,Centro,-8.044527,40.590431
25115782,Alcabideche,Grande Lisboa,311,2025-03-20T05:57:00Z,25115782,Em despacho,3301,Queda de árvore,0,1,0,4,2025-03-20T05:57:00Z,Cascais,Lisboa,Área Metropolitana De Lisboa,-9.430066,38.718879
25115839,Antas e Abade de Vermoim,Ave,309,2025-03-20T06:04:00Z,25115839,Em despacho,3329,Queda de estruturas temporárias ou móveis,0,2,0,4,2025-03-20T06:04:00Z,Vila Nova De Famalicão,Braga,Norte,-8.514445,41.41628
25115841,Carnaxide e Queijas,Grande Lisboa,311,2025-03-20T06:05:00Z,25115841,Em conclusão,3301,Queda de árvore,0,1,0,4,2025-03-20T06:05:00Z,Oeiras,Lisboa,Área Metropolitana De Lisboa,-9.25881,38.722457
25115864,Venteira,Grande Lisboa,311,2025-03-20T06:20:00Z,25115864,Em despacho,3301,Queda de árvore,0,0,0,0,2025-03-20T06:20:00Z,Amadora,Lisboa,Área Metropolitana De Lisboa,-9.23751,38.74258
25115882,Palmeira de Faro e Curvos,Cávado,309,2025-03-20T06:21:00Z,25115882,Em despacho,3301,Queda de árvore,0,1,0,5,2025-03-20T06:21:00Z,Esposende,Braga,Norte,-8.738948,41.549993
25115889,Roliça,Oeste,311,2025-03-20T06:11:00Z,25115889,Em despacho,3301,Queda de árvore,0,1,0,2,2025-03-20T06:11:00Z,Bombarral,Leiria,Centro,-9.176338,39.293388
25115900,Falagueira-Venda Nova,Grande Lisboa,311,2025-03-20T06:24:00Z,25115900,Em despacho,3301,Queda de árvore,0,0,0,0,2025-03-20T06:24:00Z,Amadora,Lisboa,Área Metropolitana De Lisboa,-9.22461,38.75611
25115907,"Seia, São Romão e Lapa Dos Dinheiros",Beiras e Serra da Estrela,310,2025-03-20T05:50:00Z,25115907,Em curso,3301,Queda de árvore,0,0,0,0,2025-03-20T05:50:00Z,Seia,Guarda,Centro,-7.683032,40.41759
25115939,Benfica do Ribatejo,Lezíria do Tejo,311,2025-03-20T06:28:00Z,25115939,Em despacho,3301,Queda de árvore,0,1,0,4,2025-03-20T06:28:00Z,Almeirim,Santarém,Alentejo,-8.688346,39.147223
25115948,Cascais e Estoril,Grande Lisboa,311,2025-03-20T02:20:00Z,25115948,Em curso,3301,Queda de árvore,0,0,0,0,2025-03-20T02:20:00Z,Cascais,Lisboa,Área Metropolitana De Lisboa,-9.431354,38.711316
25115959,Charneca de Caparica e Sobreda,Península de Setúbal,311,2025-03-20T06:31:00Z,25115959,Em curso,3301,Queda de árvore,0,0,0,0,2025-03-20T06:31:00Z,Almada,Setúbal,Área Metropolitana De Lisboa,-9.17287,38.57701
25115975,Rio de Loba,Viseu Dão Lafões,310,2025-03-20T06:32:00Z,25115975,Em despacho,3301,Queda de árvore,0,1,0,2,2025-03-20T06:32:00Z,Viseu,Viseu,Centro,-7.877682,40.665827
25116023,Beijós,Viseu Dão Lafões,310,2025-03-20T06:37:00Z,25116023,Em despacho,3301,Queda de árvore,0,1,0,3,2025-03-20T06:37:00Z,Carregal Do Sal,Viseu,Centro,-7.963221,40.510194
25116057,Livração,Tâmega e Sousa,309,2025-03-20T06:43:00Z,25116057,Em conclusão,3301,Queda de árvore,0,1,0,5,2025-03-20T06:43:00Z,Marco De Canaveses,Porto,Norte,-8.155233,41.218368
25116064,Pombal,Região de Leiria,310,2025-03-20T06:35:00Z,25116064,Em despacho,3301,Queda de árvore,0,1,0,2,2025-03-20T06:35:00Z,Pombal,Leiria,Centro,-8.64792,39.940905
25116084,Fornelo do Monte,Viseu Dão Lafões,310,2025-03-20T06:36:00Z,25116084,Em despacho,3301,Queda de árvore,0,1,0,2,2025-03-20T06:36:00Z,Vouzela,Viseu,Centro,-8.108297,40.643592
25116089,Santo António Dos Cavaleiros e Frielas,Grande Lisboa,311,2025-03-20T06:48:00Z,25116089,Em despacho,3301,Queda de árvore,0,0,0,0,2025-03-20T06:48:00Z,Loures,Lisboa,Área Metropolitana De Lisboa,-9.15094,38.80473
25116091,Custóias,Douro,309,2025-03-20T06:48:00Z,25116091,Em despacho,3301,Queda de árvore,0,1,0,5,2025-03-20T06:48:00Z,Vila Nova De Foz Côa,Guarda,Norte,-7.32083,41.10489
25116109,Lagoa e Carvoeiro,Algarve,313,2025-03-20T06:27:00Z,25116109,Em despacho,3301,Queda de árvore,0,1,0,2,2025-03-20T06:27:00Z,Lagoa,Faro,Algarve,-8.476192,37.106606
25116132,"Torres Novas (Santa Maria, Salvador e Santiago)",Médio Tejo,311,2025-03-20T06:52:00Z,25116132,Em conclusão,3301,Queda de árvore,0,2,0,6,2025-03-20T06:52:00Z,Torres Novas,Santarém,Centro,-8.5489,39.473648
25116134,Corroios,Península de Setúbal,311,2025-03-20T01:33:00Z,25116134,Em curso,3301,Queda de árvore,0,0,0,0,2025-03-20T01:33:00Z,Seixal,Setúbal,Área Metropolitana De Lisboa,-9.15139,38.58
25116139,Viseu,Viseu Dão Lafões,310,2025-03-20T06:26:00Z,25116139,Em despacho,3301,Queda de árvore,0,2,0,4,2025-03-20T06:26:00Z,Viseu,Viseu,Centro,-7.908451,40.659587
25116150,Aguiar da Beira e Coruche,Viseu Dão Lafões,310,2025-03-20T06:41:00Z,25116150,Em despacho,3301,Queda de árvore,0,1,0,4,2025-03-20T06:41:00Z,Aguiar Da Beira,Guarda,Centro,-7.577083,40.834966
25116166,Carnaxide e Queijas,Grande Lisboa,311,2025-03-20T06:55:00Z,25116166,Em despacho,3301,Queda de árvore,0,0,0,0,2025-03-20T06:55:00Z,Oeiras,Lisboa,Área Metropolitana De Lisboa,-9.233587,38.727201
25116173,Corroios,Península de Setúbal,311,2025-03-20T06:56:00Z,25116173,Em curso,3301,Queda de árvore,0,0,0,0,2025-03-20T06:56:00Z,Seixal,Setúbal,Área Metropolitana De Lisboa,-9.16884,38.61179
25116175,Vila Nova de Cacela,Algarve,313,2025-03-20T06:50:00Z,25116175,Em despacho,3301,Queda de árvore,0,2,0,7,2025-03-20T06:50:00Z,Vila Real De Santo António,Faro,Algarve,-7.556585,37.169684
25116182,Castanheiro do Norte e Ribalonga,Douro,309,2025-03-20T06:45:00Z,25116182,Em despacho,3301,Queda de árvore,0,1,0,2,2025-03-20T06:45:00Z,Carrazeda De Ansiães,Bragança,Norte,-7.386431,41.236388
25116218,Brinches,Baixo Alentejo,312,2025-03-20T07:02:00Z,25116218,Em despacho,3301,Queda de árvore,0,1,0,2,2025-03-20T07:02:00Z,Serpa,Beja,Alentejo,-7.537486,38.03231
25116225,Carvalhal Benfeito,Oeste,311,2025-03-20T06:47:00Z,25116225,Em despacho,3321,Dano na rede de fornecimento de eletricidade ,0,1,0,5,2025-03-20T06:47:00Z,Caldas Da Rainha,Leiria,Centro,-9.044987,39.443106
25116241,Arganil,Região de Coimbra,310,2025-03-20T07:03:00Z,25116241,Em despacho,3301,Queda de árvore,0,1,0,2,2025-03-20T07:03:00Z,Arganil,Coimbra,Centro,-8.049704,40.220309
25116250,Buarcos,Região de Coimbra,310,2025-03-20T07:02:00Z,25116250,Em despacho,3301,Queda de árvore,0,1,0,5,2025-03-20T07:02:00Z,Figueira Da Foz,Coimbra,Centro,-8.880897,40.168384
25116273,Faro do Alentejo,Baixo Alentejo,312,2025-03-20T06:56:00Z,25116273,Em conclusão,3301,Queda de árvore,0,1,0,5,2025-03-20T06:56:00Z,Cuba,Beja,Alentejo,-7.959181,38.144589
25116275,Oliveira do Bairro,Região de Aveiro,310,2025-03-20T07:03:00Z,25116275,Em despacho,3301,Queda de árvore,0,2,0,6,2025-03-20T07:03:00Z,Oliveira Do Bairro,Aveiro,Centro,-8.49301,40.516056
25116282,Cascais e Estoril,Grande Lisboa,311,2025-03-20T07:08:00Z,25116282,Em despacho,3301,Queda de árvore,0,0,0,0,2025-03-20T07:08:00Z,Cascais,Lisboa,Área Metropolitana De Lisboa,-9.44244,38.69803
25116291,Vilares e Carnicães,Beiras e Serra da Estrela,310,2025-03-20T07:00:00Z,25116291,Em despacho,3301,Queda de árvore,0,1,0,2,2025-03-20T07:00:00Z,Trancoso,Guarda,Centro,-7.291637,40.71888
25116298,Laranjeiro e Feijó,Península de Setúbal,311,2025-03-20T07:10:00Z,25116298,Em curso,3301,Queda de árvore,0,0,0,0,2025-03-20T07:10:00Z,Almada,Setúbal,Área Metropolitana De Lisboa,-9.155,38.65755
25116300,Torreira,Região de Aveiro,310,2025-03-20T05:45:00Z,25116300,Em despacho,3301,Queda de árvore,0,1,0,3,2025-03-20T05:45:00Z,Murtosa,Aveiro,Centro,-8.699212,40.761066
25116307,Marinha Grande,Região de Leiria,310,2025-03-20T07:11:00Z,25116307,Em despacho,3301,Queda de árvore,0,1,0,2,2025-03-20T07:11:00Z,Marinha Grande,Leiria,Centro,-8.95461,39.73226
25116309,Matosinhos e Leça da Palmeira,Area M. Porto,309,2025-03-20T06:48:00Z,25116309,Em despacho,3311,Queda de elementos de estruturas edificados,0,1,0,2,2025-03-20T06:48:00Z,Matosinhos,Porto,Norte,-8.692583,41.193749
25116316,Santa Maria Maior e Monserrate e Meadela,Alto Minho,309,2025-03-20T06:25:00Z,25116316,Em despacho,3301,Queda de árvore,0,1,0,2,2025-03-20T06:25:00Z,Viana Do Castelo,Viana Do Castelo,Norte,-8.81652,41.703882
25116323,Charneca de Caparica e Sobreda,Península de Setúbal,311,2025-03-20T07:13:00Z,25116323,Em curso,3301,Queda de árvore,0,0,0,0,2025-03-20T07:13:00Z,Almada,Setúbal,Área Metropolitana De Lisboa,-9.174973,38.58474
25116325,Lousa,Grande Lisboa,311,2025-03-20T07:13:00Z,25116325,Em despacho,3301,Queda de árvore,0,0,0,0,2025-03-20T07:13:00Z,Loures,Lisboa,Área Metropolitana De Lisboa,-9.197681,38.90577
25116332,São Pedro de Agostém,Alto Tâmega e Barroso,309,2025-03-20T07:05:00Z,25116332,Em conclusão,3301,Queda de árvore,0,1,0,5,2025-03-20T07:05:00Z,Chaves,Vila Real,Norte,-7.493332,41.674673
25116334,"Sé Nova, Santa Cruz, Almedina e São Bartolomeu",Região de Coimbra,310,2025-03-20T07:11:00Z,25116334,Em despacho,3301,Queda de árvore,0,1,0,3,2025-03-20T07:11:00Z,Coimbra,Coimbra,Centro,-8.425582,40.205556
25116382,Fornos,Tâmega e Sousa,309,2025-03-20T07:09:00Z,25116382,Em despacho,3301,Queda de árvore,0,1,0,2,2025-03-20T07:09:00Z,Castelo De Paiva,Aveiro,Norte,-8.265185,41.062239
25116391,Joane,Ave,309,2025-03-20T07:18:00Z,25116391,Em despacho,3329,Queda de estruturas temporárias ou móveis,0,2,0,4,2025-03-20T07:18:00Z,Vila Nova De Famalicão,Braga,Norte,-8.42238,41.440941
25116398,Lourinhã e Atalaia,Oeste,311,2025-03-20T07:19:00Z,25116398,Em despacho,3321,Dano na rede de fornecimento de eletricidade ,0,2,0,3,2025-03-20T07:19:00Z,Lourinhã,Lisboa,Centro,-9.314052,39.280363
25116409,Charneca de Caparica e Sobreda,Península de Setúbal,311,2025-03-20T07:22:00Z,25116409,Em curso,3329,Queda de estruturas temporárias ou móveis,0,0,0,0,2025-03-20T07:22:00Z,Almada,Setúbal,Área Metropolitana De Lisboa,-9.19513,38.61485
25116416,Mértola,Baixo Alentejo,312,2025-03-20T07:15:00Z,25116416,Em despacho,3301,Queda de árvore,0,1,0,2,2025-03-20T07:15:00Z,Mértola,Beja,Alentejo,-7.689584,37.721668
25115813,Tropeço,Area M. Porto,309,2025-03-20T06:10:00Z,25115813,Em despacho,3301,Queda de árvore,0,1,0,2,2025-03-20T06:10:00Z,Arouca,Aveiro,Norte,-8.323144,40.946341
25115822,Castelejo,Beiras e Serra da Estrela,310,2025-03-20T06:15:00Z,25115822,Em despacho,3301,Queda de árvore,0,1,0,2,2025-03-20T06:15:00Z,Fundão,Castelo Branco,Centro,-7.61121,40.11168
25115838,Colmeias e Memória,Região de Leiria,310,2025-03-20T06:16:00Z,25115838,Em despacho,3301,Queda de árvore,0,1,0,3,2025-03-20T06:16:00Z,Leiria,Leiria,Centro,-8.711537,39.82474
25115847,Silgueiros,Viseu Dão Lafões,310,2025-03-20T06:15:00Z,25115847,Em despacho,3301,Queda de árvore,0,0,0,0,2025-03-20T06:15:00Z,Viseu,Viseu,Centro,-7.964273,40.561525
25115849,Pontinha e Famões,Grande Lisboa,311,2025-03-20T06:18:00Z,25115849,Em despacho,3301,Queda de árvore,0,0,0,0,2025-03-20T06:18:00Z,Odivelas,Lisboa,Área Metropolitana De Lisboa,-9.20379,38.801
25115858,Cacém e São Marcos,Grande Lisboa,311,2025-03-20T06:19:00Z,25115858,Em despacho,3301,Queda de árvore,0,0,0,0,2025-03-20T06:19:00Z,Sintra,Lisboa,Área Metropolitana De Lisboa,-9.29443,38.74753
25115867,Cabana Maior,Alto Minho,309,2025-03-20T04:50:00Z,25115867,Em resolução,3301,Queda de árvore,0,2,0,5,2025-03-20T04:50:00Z,Arcos De Valdevez,Viana Do Castelo,Norte,-8.333739,41.886321
25115890,Setúbal (São Sebastião),Península de Setúbal,311,2025-03-20T06:23:00Z,25115890,Em curso,3301,Queda de árvore,0,0,0,0,2025-03-20T06:23:00Z,Setúbal,Setúbal,Área Metropolitana De Lisboa,-8.87776,38.5403
25115924,Macieira de Cambra,Area M. Porto,309,2025-03-20T06:07:00Z,25115924,Em despacho,3329,Queda de estruturas temporárias ou móveis,0,1,0,3,2025-03-20T06:07:00Z,Vale De Cambra,Aveiro,Norte,-8.367205,40.870286
25115947,Braga (São Vicente),Cávado,309,2025-03-20T05:47:00Z,25115947,Em despacho,3329,Queda de estruturas temporárias ou móveis,0,1,0,3,2025-03-20T05:47:00Z,Braga,Braga,Norte,-8.419631,41.563364
25115981,Sesimbra (Castelo),Península de Setúbal,311,2025-03-20T06:34:00Z,25115981,Em curso,3301,Queda de árvore,0,0,0,0,2025-03-20T06:34:00Z,Sesimbra,Setúbal,Área Metropolitana De Lisboa,-9.08571,38.46993
25116418,Carnota,Oeste,311,2025-03-20T07:08:00Z,25116418,Em despacho,3301,Queda de árvore,0,1,0,4,2025-03-20T07:08:00Z,Alenquer,Lisboa,Centro,-9.072226,39.04838
25116425,Rocas do Vouga,Região de Aveiro,310,2025-03-20T07:18:00Z,25116425,Em despacho,3301,Queda de árvore,0,1,0,2,2025-03-20T07:18:00Z,Sever Do Vouga,Aveiro,Centro,-8.360469,40.749627
25116432,Oleiros-Amieira,Beira Baixa,310,2025-03-20T07:18:00Z,25116432,Em despacho,3301,Queda de árvore,0,1,0,2,2025-03-20T07:18:00Z,Oleiros,Castelo Branco,Centro,-7.939,39.900464
25116434,Soutelo de Aguiar,Alto Tâmega e Barroso,309,2025-03-20T07:19:00Z,25116434,Em curso,3301,Queda de árvore,0,2,0,7,2025-03-20T07:19:00Z,Vila Pouca De Aguiar,Vila Real,Norte,-7.657882,41.48224
25116443,Queluz e Belas,Grande Lisboa,311,2025-03-20T07:25:00Z,25116443,Em despacho,3301,Queda de árvore,0,0,0,0,2025-03-20T07:25:00Z,Sintra,Lisboa,Área Metropolitana De Lisboa,-9.25443,38.7621
25116452,Santo António Dos Olivais,Região de Coimbra,310,2025-03-20T07:26:00Z,25116452,Em despacho,3301,Queda de árvore,0,1,0,2,2025-03-20T07:26:00Z,Coimbra,Coimbra,Centro,-8.426807,40.217261
25116457,Casével e Vaqueiros,Lezíria do Tejo,311,2025-03-20T07:26:00Z,25116457,Em despacho,3301,Queda de árvore,0,1,0,5,2025-03-20T07:26:00Z,Santarém,Santarém,Alentejo,-8.6196,39.40964
25116468,Aljubarrota,Oeste,311,2025-03-20T07:10:00Z,25116468,Em despacho,3301,Queda de árvore,0,1,0,2,2025-03-20T07:10:00Z,Alcobaça,Leiria,Centro,-8.948526,39.538394
25116477,Glória e Vera Cruz,Região de Aveiro,310,2025-03-20T07:25:00Z,25116477,Em curso,3311,Queda de elementos de estruturas edificados,0,1,0,2,2025-03-20T07:25:00Z,Aveiro,Aveiro,Centro,-8.647359,40.640643
25116482,Ratoeira,Beiras e Serra da Estrela,310,2025-03-20T07:26:00Z,25116482,Em despacho,3301,Queda de árvore,0,1,0,3,2025-03-20T07:26:00Z,Celorico Da Beira,Guarda,Centro,-7.344619,40.641811
25116491,Marinha Grande,Região de Leiria,310,2025-03-20T07:17:00Z,25116491,Em despacho,3301,Queda de árvore,0,1,0,2,2025-03-20T07:17:00Z,Marinha Grande,Leiria,Centro,-8.9339479999999991,39.787074
25116500,"Silvares, Pias, Nogueira e Alvarenga",Tâmega e Sousa,309,2025-03-20T07:24:00Z,25116500,Em despacho,3301,Queda de árvore,0,1,0,2,2025-03-20T07:24:00Z,Lousada,Porto,Norte,-8.282354,41.287325
25116502,Alfragide,Grande Lisboa,311,2025-03-20T07:32:00Z,25116502,Em despacho,3301,Queda de árvore,0,0,0,0,2025-03-20T07:32:00Z,Amadora,Lisboa,Área Metropolitana De Lisboa,-9.22027,38.7312
25116507,Charneca de Caparica e Sobreda,Península de Setúbal,311,2025-03-20T07:32:00Z,25116507,Em curso,3301,Queda de árvore,0,0,0,0,2025-03-20T07:32:00Z,Almada,Setúbal,Área Metropolitana De Lisboa,-9.16926,38.57227
25116516,"Cernache do Bonjardim, Nesperal e Palhais",Beira Baixa,310,2025-03-20T07:28:00Z,25116516,Em curso,3301,Queda de árvore,0,1,0,4,2025-03-20T07:28:00Z,Sertã,Castelo Branco,Centro,-8.171647,39.812355
