id,address,subregion,neighborhood,date,id.1,state,nature,nature_description,aerial_means,terrestrial_means,aquatic_means,operational,date.1,Concelho,Distrito,NUTII_DSG,longitude,latitude
25593167,Ermelo e Pardelhas,Ave,309,2025-06-28T13:11:00Z,25593167,Em resolução,3107,Consolidação de rescaldo de incêndio rural,0,1,0,4,2025-06-28T13:11:00Z,Mondim De Basto,Vila Real,Norte,-7.85282,41.36145
25593218,Urqueira,Médio Tejo,311,2025-06-28T13:24:00Z,25593218,Em conclusão,3103,Incêndio rural,0,0,0,0,2025-06-28T13:24:00Z,Ourém,Santarém,Centro,-8.579262,39.760715
25593470,Duas Igrejas,Tâmega e Sousa,309,2025-06-28T14:16:00Z,25593470,Em curso,3103,Incêndio rural,2,12,0,43,2025-06-28T14:16:00Z,Penafiel,Porto,Norte,-8.278005,41.170128
25593769,Campo,Viseu Dão Lafões,310,2025-06-28T15:10:00Z,25593769,Em conclusão,3103,Incêndio rural,0,9,0,26,2025-06-28T15:10:00Z,Viseu,Viseu,Centro,-7.95445,40.690428
25594005,Paços de Ferreira,Tâmega e Sousa,309,2025-06-28T16:01:00Z,25594005,Em curso,3105,Incêndio rural,0,3,0,12,2025-06-28T16:01:00Z,Paços De Ferreira,Porto,Norte,-8.373889,41.27778
25594106,Rebordões,Area M. Porto,309,2025-06-28T16:25:00Z,25594106,Em despacho,3103,Incêndio rural,0,0,0,0,2025-06-28T16:25:00Z,Santo Tirso,Porto,Norte,-8.425645,41.34441
25592341,Lomba,Area M. Porto,309,2025-06-28T10:12:00Z,25592341,Em conclusão,3107,Consolidação de rescaldo de incêndio rural,0,1,0,5,2025-06-28T10:12:00Z,Gondomar,Porto,Norte,-8.411494,41.057475
25593094,Sobrosa,Area M. Porto,309,2025-06-28T12:54:00Z,25593094,Em conclusão,3103,Incêndio rural,0,8,0,23,2025-06-28T12:54:00Z,Paredes,Porto,Norte,-8.35855,41.256482
25593244,Azeitão (São Lourenço e São Simão),Península de Setúbal,311,2025-06-28T13:30:00Z,25593244,Em conclusão,3103,Incêndio rural,0,0,0,0,2025-06-28T13:30:00Z,Setúbal,Setúbal,Área Metropolitana De Lisboa,-9.032678,38.477598
25593747,Miranda do Corvo,Região de Coimbra,310,2025-06-28T15:06:00Z,25593747,Em conclusão,3101,Incêndio rural,0,11,0,43,2025-06-28T15:06:00Z,Miranda Do Corvo,Coimbra,Centro,-8.35944,40.14194
25593878,Romarigães,Alto Minho,309,2025-06-28T15:33:00Z,25593878,Em conclusão,2301,Incêndio em transporte rodoviário,0,1,0,5,2025-06-28T15:33:00Z,Paredes De Coura,Viana Do Castelo,Norte,-8.62516,41.851028
25593979,Falagueira-Venda Nova,Grande Lisboa,311,2025-06-28T15:55:00Z,25593979,Em conclusão,2301,Incêndio em transporte rodoviário,0,2,0,8,2025-06-28T15:55:00Z,Amadora,Lisboa,Área Metropolitana De Lisboa,-9.22167,38.75859
25594011,Cortegaça,Região de Aveiro,310,2025-06-28T16:03:00Z,25594011,Em resolução,3101,Incêndio rural,1,5,0,24,2025-06-28T16:03:00Z,Ovar,Aveiro,Centro,-8.638204,40.94299
25593098,Serpa (Salvador e Santa Maria),Baixo Alentejo,312,2025-06-28T12:57:00Z,25593098,Em resolução,3105,Incêndio rural,0,10,0,27,2025-06-28T12:57:00Z,Serpa,Beja,Alentejo,-7.518193,37.997937
25593666,Oliveira do Bairro,Região de Aveiro,310,2025-06-28T14:50:00Z,25593666,Em conclusão,2301,Incêndio em transporte rodoviário,0,4,0,10,2025-06-28T14:50:00Z,Oliveira Do Bairro,Aveiro,Centro,-8.531295,40.500415
25593757,Alburitel,Médio Tejo,311,2025-06-28T15:08:00Z,25593757,Em conclusão,2301,Incêndio em transporte rodoviário,0,3,0,6,2025-06-28T15:08:00Z,Ourém,Santarém,Centro,-8.538137,39.63656
25593807,Alburitel,Médio Tejo,311,2025-06-28T15:19:00Z,25593807,Em conclusão,3103,Incêndio rural,0,2,0,7,2025-06-28T15:19:00Z,Ourém,Santarém,Centro,-8.538137,39.63656
25593852,Tamel (Santa Leocádia) e Vilar do Monte,Cávado,309,2025-06-28T15:25:00Z,25593852,Em curso,3107,Consolidação de rescaldo de incêndio rural,0,1,0,2,2025-06-28T15:25:00Z,Barcelos,Braga,Norte,-8.66478,41.569249
25593866,Ribeirão,Ave,309,2025-06-28T15:25:00Z,25593866,Em despacho,3107,Consolidação de rescaldo de incêndio rural,0,1,0,2,2025-06-28T15:25:00Z,Vila Nova De Famalicão,Braga,Norte,-8.558043,41.368877
25593907,Sé e São Lourenço,Alto Alentejo,312,2025-06-28T15:30:00Z,25593907,Em conclusão,3103,Incêndio rural,0,10,0,37,2025-06-28T15:30:00Z,Portalegre,Portalegre,Alentejo,-7.439875,39.304592
25593927,Mina de Água,Grande Lisboa,311,2025-06-28T15:43:00Z,25593927,Em conclusão,2101,Incêndio em edifícios habitacionais,0,2,0,8,2025-06-28T15:43:00Z,Amadora,Lisboa,Área Metropolitana De Lisboa,-9.228086,38.77113
25592306,Vilarinho Dos Freires,Douro,309,2025-06-28T10:08:00Z,25592306,Em conclusão,3103,Incêndio rural,0,11,0,35,2025-06-28T10:08:00Z,Peso Da Régua,Vila Real,Norte,-7.733775,41.207972
25592754,Alcochete,Península de Setúbal,311,2025-06-28T11:37:00Z,25592754,Em conclusão,2201,Incêndio em equipamentos ou produtos,0,0,0,0,2025-06-28T11:37:00Z,Alcochete,Setúbal,Área Metropolitana De Lisboa,-8.96428,38.75194
25592954,Lomba,Area M. Porto,309,2025-06-28T12:21:00Z,25592954,Em conclusão,3103,Incêndio rural,0,5,0,18,2025-06-28T12:21:00Z,Gondomar,Porto,Norte,-8.404907,41.03697
25593349,Labruja,Alto Minho,309,2025-06-28T13:50:00Z,25593349,Em curso,3107,Consolidação de rescaldo de incêndio rural,0,2,0,10,2025-06-28T13:50:00Z,Ponte De Lima,Viana Do Castelo,Norte,-8.591233,41.835535
25593674,Silves,Algarve,313,2025-06-28T14:51:00Z,25593674,Em resolução,3103,Incêndio rural,0,9,0,28,2025-06-28T14:51:00Z,Silves,Faro,Algarve,-8.41948,37.19032
25593933,Azeitão (São Lourenço e São Simão),Península de Setúbal,311,2025-06-28T15:45:00Z,25593933,Em conclusão,3105,Incêndio rural,0,5,0,18,2025-06-28T15:45:00Z,Setúbal,Setúbal,Área Metropolitana De Lisboa,-9.000672,38.553398
25593990,São Domingos de Benfica,Grande Lisboa,311,2025-06-28T15:57:00Z,25593990,Em curso,3103,Incêndio rural,0,1,0,5,2025-06-28T15:57:00Z,Lisboa,Lisboa,Área Metropolitana De Lisboa,-9.17289,38.73953
25594142,Pontével,Lezíria do Tejo,311,2025-06-28T16:32:00Z,25594142,Em despacho,3103,Incêndio rural,1,2,0,13,2025-06-28T16:32:00Z,Cartaxo,Santarém,Alentejo,-8.818611,39.12389
25593950,"Nogueira, Meixedo e Vilar de Murteda",Alto Minho,309,2025-06-28T15:48:00Z,25593950,Em conclusão,3103,Incêndio rural,0,0,0,0,2025-06-28T15:48:00Z,Viana Do Castelo,Viana Do Castelo,Norte,-8.73571,41.743742
25594107,Caíde de Rei,Tâmega e Sousa,309,2025-06-28T16:29:00Z,25594107,Em despacho,3105,Incêndio rural,0,1,0,5,2025-06-28T16:29:00Z,Lousada,Porto,Norte,-8.22398,41.26806
