id,address,subregion,neighborhood,date,id.1,state,nature,nature_description,aerial_means,terrestrial_means,aquatic_means,operational,date.1,Concelho,Distrito,NUTII_DSG,longitude,latitude,state_2
25665133,Lindoso,Alto Minho,309,2025-07-12T02:50:00Z,25665133,Em Resolução/Conclusão,3103,Incêndio rural,2,23,0,76,2025-07-12T02:50:00Z,Ponte Da Barca,Viana Do Castelo,Norte,-8.224007,41.852543,Resolução/Conclusão
25671499,Girabolhos,Beiras e Serra da Estrela,310,2025-07-13T12:38:00Z,25671499,Em Resolução/Conclusão,3103,Incêndio rural,0,4,0,13,2025-07-13T12:38:00Z,Seia,Guarda,Centro,-7.740278,40.497927,Resolução/Conclusão
25672136,Romariz,Area M. Porto,309,2025-07-13T15:15:00Z,25672136,Em Resolução/Conclusão,3103,Incêndio rural,0,1,0,5,2025-07-13T15:15:00Z,Santa Maria Da Feira,Aveiro,Norte,-8.449062,40.954433,Resolução/Conclusão
25672267,Budens,Algarve,313,2025-07-13T15:45:00Z,25672267,Em Resolução/Conclusão,3103,Incêndio rural,0,3,0,9,2025-07-13T15:45:00Z,Vila Do Bispo,Faro,Algarve,-8.841107,37.075165,Resolução/Conclusão
25672304,Lordelo,Area M. Porto,309,2025-07-13T15:48:00Z,25672304,Em Resolução/Conclusão,3103,Incêndio rural,1,16,0,61,2025-07-13T15:48:00Z,Paredes,Porto,Norte,-8.429727,41.225515,Resolução/Conclusão
25672248,"Raiva, Pedorido e Paraíso",Tâmega e Sousa,309,2025-07-13T15:42:00Z,25672248,Em Resolução/Conclusão,3105,Incêndio rural,0,1,0,5,2025-07-13T15:42:00Z,Castelo De Paiva,Aveiro,Norte,-8.388056,41.03222,Resolução/Conclusão
25672473,Alter do Chão,Alto Alentejo,312,2025-07-13T16:35:00Z,25672473,Em Despacho,3105,Incêndio rural,0,8,0,33,2025-07-13T16:35:00Z,Alter Do Chão,Portalegre,Alentejo,-7.657293,39.20253,Despacho
25667313,Santa Eufémia e Boa Vista,Região de Leiria,310,2025-07-12T14:36:00Z,25667313,Em Resolução/Conclusão,3103,Incêndio rural,0,1,0,2,2025-07-12T14:36:00Z,Leiria,Leiria,Centro,-8.761077,39.76109,Resolução/Conclusão
25670541,Fornos,Tâmega e Sousa,309,2025-07-13T09:15:00Z,25670541,Em Resolução/Conclusão,3103,Incêndio rural,0,0,0,0,2025-07-13T09:15:00Z,Castelo De Paiva,Aveiro,Norte,-8.242377,41.056052,Resolução/Conclusão
25670889,Moimenta e Montouto,Terras de Trás-os-Montes,309,2025-07-13T10:27:00Z,25670889,Em Resolução/Conclusão,3103,Incêndio rural,0,6,0,16,2025-07-13T10:27:00Z,Vinhais,Bragança,Norte,-7.014782,41.93917,Resolução/Conclusão
25671460,Lomar e Arcos,Cávado,309,2025-07-13T12:25:00Z,25671460,Em Resolução/Conclusão,3101,Incêndio rural,0,12,0,35,2025-07-13T12:25:00Z,Braga,Braga,Norte,-8.439812,41.513755,Resolução/Conclusão
25672344,Cruz,Ave,309,2025-07-13T16:05:00Z,25672344,Em Resolução/Conclusão,3103,Incêndio rural,0,4,0,15,2025-07-13T16:05:00Z,Vila Nova De Famalicão,Braga,Norte,-8.494778,41.44567,Resolução/Conclusão
25672444,Podence e Santa Combinha,Terras de Trás-os-Montes,309,2025-07-13T16:29:00Z,25672444,Em Despacho,3103,Incêndio rural,1,4,0,23,2025-07-13T16:29:00Z,Macedo De Cavaleiros,Bragança,Norte,-6.91045,41.59323,Despacho
25662814,Soajo,Alto Minho,309,2025-07-11T15:16:00Z,25662814,Em Resolução/Conclusão,3103,Incêndio rural,0,0,0,0,2025-07-11T15:16:00Z,Arcos De Valdevez,Viana Do Castelo,Norte,-8.22891,41.87654,Resolução/Conclusão
25671379,Alvarenga,Area M. Porto,309,2025-07-13T12:08:00Z,25671379,Em Resolução/Conclusão,3103,Incêndio rural,0,3,0,8,2025-07-13T12:08:00Z,Arouca,Aveiro,Norte,-8.16534,40.97754,Resolução/Conclusão
25671765,Santa Maria de Sardoura,Tâmega e Sousa,309,2025-07-13T13:42:00Z,25671765,Em Resolução/Conclusão,3105,Incêndio rural,0,0,0,0,2025-07-13T13:42:00Z,Castelo De Paiva,Aveiro,Norte,-8.297935,41.066115,Resolução/Conclusão
25672006,Moreira do Rei e Várzea Cova,Ave,309,2025-07-13T14:42:00Z,25672006,Em Resolução/Conclusão,3103,Incêndio rural,0,4,0,17,2025-07-13T14:42:00Z,Fafe,Braga,Norte,-8.1042,41.494167,Resolução/Conclusão
25672415,Santiago Maior,Alentejo Central,312,2025-07-13T16:23:00Z,25672415,Em Curso,3105,Incêndio rural,1,6,0,30,2025-07-13T16:23:00Z,Alandroal,Évora,Alentejo,-7.42663,38.56868,Curso
25672442,Santo Agostinho e São João Baptista e Santo Amador,Baixo Alentejo,312,2025-07-13T16:30:00Z,25672442,Em Curso,3105,Incêndio rural,0,8,0,28,2025-07-13T16:30:00Z,Moura,Beja,Alentejo,-7.466951,38.13807,Curso
