id,address,subregion,neighborhood,date,id.1,state,nature,nature_description,aerial_means,terrestrial_means,aquatic_means,operational,date.1,Concelho,Distrito,NUTII_DSG,longitude,latitude
25509963,Sande e São Lourenço,Tâmega e Sousa,309,2025-06-11T12:44:00Z,25509963,Em conclusão,3103,Incêndio rural,0,1,0,5,2025-06-11T12:44:00Z,Marco De Canaveses,Porto,Norte,-8.176083,41.10489
25510177,Estômbar e Parchal,Algarve,313,2025-06-11T13:25:00Z,25510177,Em conclusão,2101,Incêndio em edifícios habitacionais,0,3,0,9,2025-06-11T13:25:00Z,Lagoa,Faro,Algarve,-8.51809,37.13631
25508203,Ermelo e Pardelhas,Ave,309,2025-06-11T07:30:00Z,25508203,Em resolução,3103,Incêndio rural,0,7,0,26,2025-06-11T07:30:00Z,Mondim De Basto,Vila Real,Norte,-7.842792,41.3582
25509271,Beja (Salvador e Santa Maria da Feira),Baixo Alentejo,312,2025-06-11T10:38:00Z,25509271,Em conclusão,3105,Incêndio rural,0,0,0,0,2025-06-11T10:38:00Z,Beja,Beja,Alentejo,-7.866213,38.030653
25509891,Sanfins Lamoso Codessos,Tâmega e Sousa,309,2025-06-11T12:30:00Z,25509891,Em conclusão,3103,Incêndio rural,1,3,0,21,2025-06-11T12:30:00Z,Paços De Ferreira,Porto,Norte,-8.382427,41.32457
25509569,Carvalhal,Médio Tejo,311,2025-06-11T11:29:00Z,25509569,Em conclusão,2301,Incêndio em transporte rodoviário,0,2,0,7,2025-06-11T11:29:00Z,Abrantes,Santarém,Centro,-8.186488,39.579455
25509835,Azeitão (São Lourenço e São Simão),Península de Setúbal,311,2025-06-11T12:16:00Z,25509835,Em conclusão,3103,Incêndio rural,0,8,0,24,2025-06-11T12:16:00Z,Setúbal,Setúbal,Área Metropolitana De Lisboa,-8.995407,38.542967
25510255,"Coz, Alpedriz e Montes",Oeste,311,2025-06-11T13:42:00Z,25510255,Em conclusão,2101,Incêndio em edifícios habitacionais,0,2,0,7,2025-06-11T13:42:00Z,Alcobaça,Leiria,Centro,-8.93832,39.61595
25509914,Faro (Sé e São Pedro),Algarve,313,2025-06-11T12:29:00Z,25509914,Em conclusão,2115,Incêndio em edifícios hoteleiros e de restauração,0,0,0,0,2025-06-11T12:29:00Z,Faro,Faro,Algarve,-7.942032,37.01865
25510334,"Mação, Penhascoso e Aboboreira",Médio Tejo,311,2025-06-11T13:58:00Z,25510334,Em resolução,2201,Incêndio em equipamentos ou produtos,0,2,0,7,2025-06-11T13:58:00Z,Mação,Santarém,Centro,-7.998144,39.551093
