id,address,subregion,neighborhood,date,id.1,state,nature,nature_description,aerial_means,terrestrial_means,aquatic_means,operational,date.1,Concelho,Distrito,NUTII_DSG,longitude,latitude,state_2
25721619,Costa da Caparica,Península de Setúbal,311,2025-07-23T15:11:00Z,25721619,Em Resolução/Conclusão,3103,Incêndio rural,0,1,0,1,2025-07-23T15:11:00Z,Almada,Setúbal,Área Metropolitana De Lisboa,-9.21697,38.61683,Resolução/Conclusão
25725448,Ferreira do Alentejo e Canhestros,Baixo Alentejo,312,2025-07-24T11:29:00Z,25725448,Em Resolução/Conclusão,3105,Incêndio rural,0,10,0,32,2025-07-24T11:29:00Z,Ferreira Do Alentejo,Beja,Alentejo,-8.139218,38.07651,Resolução/Conclusão
25725615,Tourais e Lajes,Beiras e Serra da Estrela,310,2025-07-24T12:03:00Z,25725615,Em Resolução/Conclusão,3103,Incêndio rural,0,4,0,17,2025-07-24T12:03:00Z,Seia,Guarda,Centro,-7.784602,40.443185,Resolução/Conclusão
25725984,Mafra,Grande Lisboa,311,2025-07-24T13:20:00Z,25725984,Em Resolução/Conclusão,3103,Incêndio rural,0,6,0,20,2025-07-24T13:20:00Z,Mafra,Lisboa,Área Metropolitana De Lisboa,-9.356043,38.961979,Resolução/Conclusão
25726068,Queluz e Belas,Grande Lisboa,311,2025-07-24T13:40:00Z,25726068,Em Resolução/Conclusão,3103,Incêndio rural,0,2,0,7,2025-07-24T13:40:00Z,Sintra,Lisboa,Área Metropolitana De Lisboa,-9.25672,38.76383,Resolução/Conclusão
25726083,Girabolhos,Beiras e Serra da Estrela,310,2025-07-24T13:43:00Z,25726083,Em Resolução/Conclusão,3103,Incêndio rural,0,7,0,29,2025-07-24T13:43:00Z,Seia,Guarda,Centro,-7.74848,40.511482,Resolução/Conclusão
25726101,"Campo, S.salvador Campo, Negrelos",Area M. Porto,309,2025-07-24T13:48:00Z,25726101,Em Resolução/Conclusão,3103,Incêndio rural,0,1,0,5,2025-07-24T13:48:00Z,Santo Tirso,Porto,Norte,-8.367257,41.352752,Resolução/Conclusão
25720797,"Lavandeira, Beira Grande e Selores",Douro,309,2025-07-23T12:23:00Z,25720797,Em Resolução/Conclusão,3103,Incêndio rural,0,14,0,40,2025-07-23T12:23:00Z,Carrazeda De Ansiães,Bragança,Norte,-7.304242,41.205575,Resolução/Conclusão
25726161,Pontinha e Famões,Grande Lisboa,311,2025-07-24T13:55:00Z,25726161,Em Resolução/Conclusão,3103,Incêndio rural,0,10,0,38,2025-07-24T13:55:00Z,Odivelas,Lisboa,Área Metropolitana De Lisboa,-9.20389,38.77083,Resolução/Conclusão
25726172,Faro (Sé e São Pedro),Algarve,313,2025-07-24T13:58:00Z,25726172,Em Resolução/Conclusão,3103,Incêndio rural,0,2,0,10,2025-07-24T13:58:00Z,Faro,Faro,Algarve,-7.93239,37.03318,Resolução/Conclusão
25726195,Azias,Alto Minho,309,2025-07-24T14:01:00Z,25726195,Em Curso,3101,Incêndio rural,1,2,0,14,2025-07-24T14:01:00Z,Ponte Da Barca,Viana Do Castelo,Norte,-8.356847,41.772504,Curso
25720932,Bouro (Santa Marta),Cávado,309,2025-07-23T12:54:00Z,25720932,Em Resolução/Conclusão,3101,Incêndio rural,0,2,0,6,2025-07-23T12:54:00Z,Amares,Braga,Norte,-8.283857,41.671897,Resolução/Conclusão
25721382,Unhais da Serra,Beiras e Serra da Estrela,310,2025-07-23T14:29:00Z,25721382,Em Resolução/Conclusão,3105,Incêndio rural,0,2,0,6,2025-07-23T14:29:00Z,Covilhã,Castelo Branco,Centro,-7.61948,40.25114,Resolução/Conclusão
25725153,Troviscal,Beira Baixa,310,2025-07-24T10:31:00Z,25725153,Em Resolução/Conclusão,3101,Incêndio rural,0,4,0,14,2025-07-24T10:31:00Z,Sertã,Castelo Branco,Centro,-8.084768,39.877972,Resolução/Conclusão
25725251,Pedrógão Pequeno,Beira Baixa,310,2025-07-24T10:52:00Z,25725251,Em Resolução/Conclusão,3101,Incêndio rural,0,48,0,179,2025-07-24T10:52:00Z,Sertã,Castelo Branco,Centro,-8.084635,39.925647,Resolução/Conclusão
25725744,São Lourenço do Bairro,Região de Aveiro,310,2025-07-24T12:33:00Z,25725744,Em Resolução/Conclusão,3103,Incêndio rural,0,4,0,10,2025-07-24T12:33:00Z,Anadia,Aveiro,Centro,-8.467775,40.441723,Resolução/Conclusão
25725753,Casével e Vaqueiros,Lezíria do Tejo,311,2025-07-24T12:34:00Z,25725753,Em Resolução/Conclusão,3105,Incêndio rural,0,6,0,17,2025-07-24T12:34:00Z,Santarém,Santarém,Alentejo,-8.570545,39.389097,Resolução/Conclusão
25712338,Cercal,Alentejo Litoral,312,2025-07-21T17:38:00Z,25712338,Em Resolução/Conclusão,3103,Incêndio rural,0,8,0,23,2025-07-21T17:38:00Z,Santiago Do Cacém,Setúbal,Alentejo,-8.682272,37.791582,Resolução/Conclusão
25721930,Vilar de Perdizes e Meixide,Alto Tâmega e Barroso,309,2025-07-23T16:21:00Z,25721930,Em Resolução/Conclusão,3103,Incêndio rural,1,41,0,126,2025-07-23T16:21:00Z,NA,NA,NA,-7.618655,41.886193,Resolução/Conclusão
25725056,Pedrógão Pequeno,Beira Baixa,310,2025-07-24T10:16:00Z,25725056,Em Resolução/Conclusão,3101,Incêndio rural,0,5,0,19,2025-07-24T10:16:00Z,Sertã,Castelo Branco,Centro,-8.093663,39.879797,Resolução/Conclusão
25726107,Arrifana,Area M. Porto,309,2025-07-24T13:48:00Z,25726107,Em Resolução/Conclusão,3103,Incêndio rural,0,1,0,4,2025-07-24T13:48:00Z,Santa Maria Da Feira,Aveiro,Norte,-8.506676,40.90327,Resolução/Conclusão
25726046,Alvorninha,Oeste,311,2025-07-24T13:32:00Z,25726046,Em Resolução/Conclusão,3103,Incêndio rural,0,7,0,29,2025-07-24T13:32:00Z,Caldas Da Rainha,Leiria,Centro,-9.07811,39.40141,Resolução/Conclusão
25726146,Ermesinde,Area M. Porto,309,2025-07-24T13:48:00Z,25726146,Em Resolução/Conclusão,3103,Incêndio rural,0,1,0,5,2025-07-24T13:48:00Z,Valongo,Porto,Norte,-8.545462,41.222265,Resolução/Conclusão
25726280,Malagueira e Horta Das Figueiras,Alentejo Central,312,2025-07-24T14:18:00Z,25726280,Em Resolução/Conclusão,3103,Incêndio rural,0,3,0,11,2025-07-24T14:18:00Z,Évora,Évora,Alentejo,-7.91576,38.54725,Resolução/Conclusão
25726330,Olaia e Paço,Médio Tejo,311,2025-07-24T14:28:00Z,25726330,Em Despacho,3103,Incêndio rural,1,0,0,6,2025-07-24T14:28:00Z,Torres Novas,Santarém,Centro,-8.473736,39.498428,Despacho
