id,address,subregion,neighborhood,date,id.1,state,nature,nature_description,aerial_means,terrestrial_means,aquatic_means,operational,date.1,Concelho,Distrito,NUTII_DSG,longitude,latitude
25525290,Selmes,Baixo Alentejo,312,2025-06-14T16:14:00Z,25525290,Em conclusão,3105,Incêndio rural,0,0,0,0,2025-06-14T16:14:00Z,Vidigueira,Beja,Alentejo,-7.724372,38.135682
25531376,Moreira,Area M. Porto,309,2025-06-16T00:40:00Z,25531376,Em conclusão,2127,"Incêndio em edifícios e recintos industriais, oficinas e armazéns",0,4,0,7,2025-06-16T00:40:00Z,Maia,Porto,Norte,-8.64631,41.257387
25531624,Ceivães e Badim,Alto Minho,309,2025-06-16T05:00:00Z,25531624,Em conclusão,3103,Incêndio rural,0,9,0,27,2025-06-16T05:00:00Z,Monção,Viana Do Castelo,Norte,-8.375257,42.073545
25532242,Souselas e Botão,Região de Coimbra,310,2025-06-16T08:57:00Z,25532242,Em conclusão,2301,Incêndio em transporte rodoviário,0,3,0,13,2025-06-16T08:57:00Z,Coimbra,Coimbra,Centro,-8.42083,40.29278
25531947,Oliveira do Conde,Viseu Dão Lafões,310,2025-06-16T08:03:00Z,25531947,Em conclusão,3103,Incêndio rural,0,5,0,18,2025-06-16T08:03:00Z,Carregal Do Sal,Viseu,Centro,-7.968109,40.440859
25532263,"Santa Iria de Azoia, São João da Talha e Bobadela",Grande Lisboa,311,2025-06-16T09:00:00Z,25532263,Em conclusão,3201,Detritos não confinados,0,1,0,4,2025-06-16T09:00:00Z,Loures,Lisboa,Área Metropolitana De Lisboa,-9.09889,38.81967
25532348,Santa Catarina da Serra e Chainça,Região de Leiria,310,2025-06-16T09:18:00Z,25532348,Em despacho,3101,Incêndio rural,1,2,0,11,2025-06-16T09:18:00Z,Leiria,Leiria,Centro,-8.686593,39.657926
