id,address,subregion,neighborhood,date,id.1,state,nature,nature_description,aerial_means,terrestrial_means,aquatic_means,operational,date.1,Concelho,Distrito,NUTII_DSG,longitude,latitude,state_2
26157984,Gondoriz,Alto Minho,309,2025-10-18T23:44:00Z,26157984,Em Curso,3103,Incêndio rural,0,3,0,11,2025-10-18T23:44:00Z,Arcos De Valdevez,Viana Do Castelo,Norte,-8.377277,41.893413,Curso
26158032,Vilar de Perdizes e Meixide,Alto Tâmega e Barroso,309,2025-10-19T00:05:00Z,26158032,Em Resolução/Conclusão,3103,Incêndio rural,0,0,0,0,2025-10-19T00:05:00Z,Montalegre,Vila Real,Norte,-7.650167,41.839705,Resolução/Conclusão
26158241,Creixomil e Mariz,Cávado,309,2025-10-19T02:01:00Z,26158241,Em Resolução/Conclusão,3111,Queima,0,1,0,5,2025-10-19T02:01:00Z,Barcelos,Braga,Norte,-8.685095,41.54026,Resolução/Conclusão
26158311,Sobrosa,Area M. Porto,309,2025-10-19T02:39:00Z,26158311,Em Despacho,3103,Incêndio rural,0,1,0,4,2025-10-19T02:39:00Z,Paredes,Porto,Norte,-8.359816,41.249381,Despacho
26157343,Refóios do Lima,Alto Minho,309,2025-10-18T20:06:00Z,26157343,Em Curso,3103,Incêndio rural,0,5,0,18,2025-10-18T20:06:00Z,Ponte De Lima,Viana Do Castelo,Norte,-8.524077,41.818625,Curso
26157586,Montaria,Alto Minho,309,2025-10-18T21:08:00Z,26157586,Em Curso,3103,Incêndio rural,0,17,0,45,2025-10-18T21:08:00Z,Viana Do Castelo,Viana Do Castelo,Norte,-8.75187,41.81628,Curso
26157920,Gralhas,Alto Tâmega e Barroso,309,2025-10-18T23:00:00Z,26157920,Em Resolução/Conclusão,3103,Incêndio rural,0,3,0,9,2025-10-18T23:00:00Z,Montalegre,Vila Real,Norte,-7.705007,41.856662,Resolução/Conclusão
26158131,Cervos,Alto Tâmega e Barroso,309,2025-10-19T00:55:00Z,26158131,Em Curso,3103,Incêndio rural,0,9,0,40,2025-10-19T00:55:00Z,Montalegre,Vila Real,Norte,-7.660452,41.729898,Curso
26158313,"Sandim, Olival, Lever e Crestuma",Area M. Porto,309,2025-10-19T02:50:00Z,26158313,Em Despacho,3103,Incêndio rural,0,1,0,5,2025-10-19T02:50:00Z,Vila Nova De Gaia,Porto,Norte,-8.502382,41.048753,Despacho
26156265,Viade de Baixo e Fervidelas,Alto Tâmega e Barroso,309,2025-10-18T15:45:00Z,26156265,Em Resolução/Conclusão,3103,Incêndio rural,0,0,0,0,2025-10-18T15:45:00Z,Montalegre,Vila Real,Norte,-7.834732,41.773632,Resolução/Conclusão
26157385,"Algodres, Vale de Afonsinho e Vilar de Amargo",Beiras e Serra da Estrela,310,2025-10-18T20:18:00Z,26157385,Em Curso,3103,Incêndio rural,0,17,0,57,2025-10-18T20:18:00Z,Figueira De Castelo Rodrigo,Guarda,Centro,-7.026137,40.954202,Curso
26158121,"Margaride (Santa Eulália), Várzea, Lagares, Varziela e Moure",Tâmega e Sousa,309,2025-10-19T00:36:00Z,26158121,Em Resolução/Conclusão,3103,Incêndio rural,0,6,0,15,2025-10-19T00:36:00Z,Felgueiras,Porto,Norte,-8.199537,41.378555,Resolução/Conclusão
26158162,Perre,Alto Minho,309,2025-10-19T00:52:00Z,26158162,Em Resolução/Conclusão,3103,Incêndio rural,0,2,0,9,2025-10-19T00:52:00Z,Viana Do Castelo,Viana Do Castelo,Norte,-8.780518,41.727832,Resolução/Conclusão
