id,address,subregion,neighborhood,date,id.1,state,nature,nature_description,aerial_means,terrestrial_means,aquatic_means,operational,date.1,Concelho,Distrito,NUTII_DSG,longitude,latitude
25570483,Portimão,Algarve,313,2025-06-23T22:27:00Z,25570483,Em conclusão,3203,Detritos confinados,0,4,0,9,2025-06-23T22:27:00Z,Portimão,Faro,Algarve,-8.539293,37.125328
25571016,Cidade da Maia,Area M. Porto,309,2025-06-24T01:53:00Z,25571016,Em conclusão,3103,Incêndio rural,0,4,0,15,2025-06-24T01:53:00Z,Maia,Porto,Norte,-8.599157,41.233903
25571128,Braga (São José de São Lázaro e São João do Souto),Cávado,309,2025-06-24T03:03:00Z,25571128,Em despacho,2201,Incêndio em equipamentos ou produtos,0,0,0,0,2025-06-24T03:03:00Z,Braga,Braga,Norte,-8.42801,41.55319
25570420,Portimão,Algarve,313,2025-06-23T22:10:00Z,25570420,Em conclusão,3103,Incêndio rural,0,0,0,0,2025-06-23T22:10:00Z,Portimão,Faro,Algarve,-8.539293,37.125328
25571081,Foz do Sousa e Covelo,Area M. Porto,309,2025-06-24T02:17:00Z,25571081,Em conclusão,3103,Incêndio rural,0,1,0,3,2025-06-24T02:17:00Z,Gondomar,Porto,Norte,-8.482621,41.0963
25570974,Faro (Sé e São Pedro),Algarve,313,2025-06-24T01:31:00Z,25570974,Em conclusão,3203,Detritos confinados,0,4,0,9,2025-06-24T01:31:00Z,Faro,Faro,Algarve,-7.942032,37.01865
25571026,Frazão Arreigada,Tâmega e Sousa,309,2025-06-24T01:57:00Z,25571026,Em conclusão,3103,Incêndio rural,0,3,0,11,2025-06-24T01:57:00Z,Paços De Ferreira,Porto,Norte,-8.402613,41.244933
